{"status":true,"message":"","result":[{"server_id":9,"name":"Uncletopia | Atlanta | 1 | All Maps","name_short":"atl-1","host":"atl-1.us.uncletopia.com","port":27015,"enabled":true,"region":"us-east","cc":"us","latitude":33.753746,"longitude":-84.38633,"reserved":0,"last_update":"0001-01-01T00:00:00Z","name_a2s":"Uncletopia | Atlanta | 1 | All Maps","protocol":17,"map":"koth_cascade","folder":"tf","game":"Team Fortress","app_id":440,"player_count":0,"max_players":24,"Bots":0,"server_type":"Dedicated","server_os":"Linux","password":true,"vac":true,"version":"7882260","steam_id":85568392924469982,"keywords":["cp","nocrits","nodmgspread","uncletopia"],"game_id":440,"stv_port":27016,"stv_name":"Uncletopia | Atlanta | 1 | All Maps | STV","players":null},{"server_id":104,"name":"Uncletopia | Atlanta | 2 | All Maps","name_short":"atl-2","host":"atl-1.us.uncletopia.com","port":27025,"enabled":true,"region":"us-east","cc":"us","latitude":33.753746,"longitude":-84.38633,"reserved":0,"last_update":"0001-01-01T00:00:00Z","name_a2s":"Uncletopia | Atlanta | 2 | All Maps","protocol":17,"map":"cp_process_final","folder":"tf","game":"Team Fortress","app_id":440,"player_count":0,"max_players":24,"Bots":0,"server_type":"Dedicated","server_os":"Linux","password":true,"vac":true,"version":"7882260","steam_id":85568392924469983,"keywords":["cp","nocrits","nodmgspread","uncletopia"],"game_id":440,"stv_port":27026,"stv_name":"Uncletopia | Atlanta | 2 | All Maps | STV","players":null},{"server_id":400,"name":"Uncletopia | Atlanta | 3 | Community","name_short":"atl-3","host":"atl-1.us.uncletopia.com","port":27035,"enabled":true,"region":"us-east","cc":"us","latitude":33.753746,"longitude":-84.38633,"reserved":0,"last_update":"0001-01-01T00:00:00Z","name_a2s":"Uncletopia | Atlanta | 3 | Community","protocol":17,"map":"workshop/koth_synthetic_rc6a.ugc1549817316","folder":"tf","game":"Team Fortress","app_id":440,"player_count":0,"max_players":24,"Bots":0,"server_type":"Dedicated","server_os":"Linux","password":true,"vac":true,"version":"7882260","steam_id":85568392924515187,"keywords":["cp","nocrits","nodmgspread","uncletopia"],"game_id":440,"stv_port":27036,"stv_name":"Uncletopia | Atlanta | 3 | Community | STV","players":null},{"server_id":401,"name":"Uncletopia | Atlanta | 4 | No Payload","name_short":"atl-4","host":"atl-1.us.uncletopia.com","port":27045,"enabled":true,"region":"us-east","cc":"us","latitude":33.753746,"longitude":-84.38633,"reserved":0,"last_update":"0001-01-01T00:00:00Z","name_a2s":"","protocol":0,"map":"","folder":"","game":"","app_id":0,"player_count":0,"max_players":0,"Bots":0,"server_type":"","server_os":"","password":false,"vac":false,"version":"","steam_id":0,"keywords":null,"game_id":0,"stv_port":0,"stv_name":"","players":null},{"server_id":2,"name":"Uncletopia | Chicago | 1 | All Maps","name_short":"chi-1","host":"chi-1.us.uncletopia.com","port":27015,"enabled":true,"region":"us-central","cc":"us","latitude":41.881832,"longitude":-87.62318,"reserved":0,"last_update":"0001-01-01T00:00:00Z","name_a2s":"Uncletopia | Chicago | 1 | All Maps","protocol":17,"map":"pl_pier","folder":"tf","game":"Team Fortress","app_id":440,"player_count":22,"max_players":24,"Bots":0,"server_type":"Dedicated","server_os":"Linux","password":true,"vac":true,"version":"7882260","steam_id":85568392924469984,"keywords":["nocrits","nodmgspread","payload","uncletopia"],"game_id":440,"stv_port":27016,"stv_name":"Uncletopia | Chicago | 1 | All Maps | STV","players":[{"user_id":752,"name":"c9","steam_id":76561198136642793,"connected_time":18445000000000,"state":"active","ping":62},{"user_id":885,"name":"High Medic","steam_id":76561198082405984,"connected_time":4653000000000,"state":"active","ping":61},{"user_id":904,"name":"STILLZ","steam_id":76561198131892406,"connected_time":2855000000000,"state":"active","ping":79},{"user_id":927,"name":"HentaiDad","steam_id":76561198374281416,"connected_time":1294000000000,"state":"active","ping":65},{"user_id":855,"name":"LVL","steam_id":76561198334403617,"connected_time":8182000000000,"state":"active","ping":50},{"user_id":922,"name":"Sozeash","steam_id":76561198207795512,"connected_time":1692000000000,"state":"active","ping":84},{"user_id":915,"name":"tony hawk","steam_id":76561198172050802,"connected_time":1927000000000,"state":"active","ping":106},{"user_id":935,"name":"A Fool","steam_id":76561198029853893,"connected_time":284000000000,"state":"active","ping":61},{"user_id":913,"name":"porz","steam_id":76561198195711453,"connected_time":2208000000000,"state":"active","ping":67},{"user_id":886,"name":"narcotics","steam_id":76561198152560062,"connected_time":4507000000000,"state":"active","ping":45},{"user_id":918,"name":"meownt evewest :3","steam_id":76561198017686306,"connected_time":1720000000000,"state":"active","ping":161},{"user_id":877,"name":"Saldaña","steam_id":76561198214473001,"connected_time":5601000000000,"state":"active","ping":87},{"user_id":754,"name":"SLICK PAPI #IMDADDYASF","steam_id":76561198144766439,"connected_time":18416000000000,"state":"active","ping":44},{"user_id":919,"name":"earth","steam_id":76561199440801844,"connected_time":1717000000000,"state":"active","ping":46},{"user_id":748,"name":"Melody","steam_id":76561198407789232,"connected_time":18534000000000,"state":"active","ping":116},{"user_id":936,"name":"Gm_Trash","steam_id":76561199445091548,"connected_time":238000000000,"state":"active","ping":74},{"user_id":899,"name":"Alecto","steam_id":76561198042476864,"connected_time":3161000000000,"state":"active","ping":45},{"user_id":929,"name":"CheeseCake488","steam_id":76561199407617942,"connected_time":962000000000,"state":"active","ping":135},{"user_id":923,"name":"|AG| Level","steam_id":76561198063633592,"connected_time":1685000000000,"state":"active","ping":107},{"user_id":925,"name":"rice white","steam_id":76561198320732910,"connected_time":1566000000000,"state":"active","ping":74},{"user_id":931,"name":"iggybones (girl with balls)","steam_id":76561198101610291,"connected_time":601000000000,"state":"active","ping":110},{"user_id":933,"name":"dzcreeper","steam_id":76561198072250723,"connected_time":482000000000,"state":"active","ping":90}]},{"server_id":106,"name":"Uncletopia | Chicago | 2 | All Maps","name_short":"chi-2","host":"chi-1.us.uncletopia.com","port":27025,"enabled":true,"region":"us-central","cc":"us","latitude":41.881832,"longitude":-87.62318,"reserved":0,"last_update":"0001-01-01T00:00:00Z","name_a2s":"Uncletopia | Chicago | 2 | All Maps","protocol":17,"map":"koth_highpass","folder":"tf","game":"Team Fortress","app_id":440,"player_count":24,"max_players":24,"Bots":0,"server_type":"Dedicated","server_os":"Linux","password":true,"vac":true,"version":"7882260","steam_id":85568392924469985,"keywords":["cp","nocrits","nodmgspread","uncletopia"],"game_id":440,"stv_port":27026,"stv_name":"Uncletopia | Chicago | 2 | All Maps | STV","players":[{"user_id":1070,"name":"VIEGO CORLEONE","steam_id":76561198273568117,"connected_time":2004000000000,"state":"active","ping":71},{"user_id":1066,"name":"greenboy135","steam_id":76561198057146944,"connected_time":2405000000000,"state":"active","ping":71},{"user_id":1068,"name":"J O S H³²","steam_id":76561198122603779,"connected_time":2015000000000,"state":"active","ping":96},{"user_id":1083,"name":"Buildy Joe","steam_id":76561198027132093,"connected_time":1197000000000,"state":"active","ping":63},{"user_id":1077,"name":"Gogo","steam_id":76561198172430633,"connected_time":1748000000000,"state":"active","ping":84},{"user_id":1078,"name":"yo homie! *cool vinyl scratch*","steam_id":76561198929646112,"connected_time":1667000000000,"state":"active","ping":70},{"user_id":1056,"name":"Gentoo Linux Gaming","steam_id":76561197999657118,"connected_time":3298000000000,"state":"active","ping":81},{"user_id":1069,"name":"MeAmJosh","steam_id":76561198064983436,"connected_time":2009000000000,"state":"active","ping":75},{"user_id":1079,"name":"Professor Peppermint","steam_id":76561198184017082,"connected_time":1591000000000,"state":"active","ping":48},{"user_id":1081,"name":"Nada","steam_id":76561198026861354,"connected_time":1406000000000,"state":"active","ping":136},{"user_id":1063,"name":"Judge Dad (Proud)","steam_id":76561198071473697,"connected_time":2739000000000,"state":"active","ping":71},{"user_id":1074,"name":"vadim_kotler","steam_id":76561199016634369,"connected_time":1885000000000,"state":"active","ping":180},{"user_id":1075,"name":"Ty","steam_id":76561198137100410,"connected_time":1823000000000,"state":"active","ping":68},{"user_id":1084,"name":"LIFE","steam_id":76561198027146328,"connected_time":1126000000000,"state":"active","ping":39},{"user_id":1097,"name":"Swag Mayhem","steam_id":76561198102234833,"connected_time":386000000000,"state":"active","ping":151},{"user_id":1086,"name":"Uh Oh, The Dementia's Kickin' i","steam_id":76561198117835872,"connected_time":872000000000,"state":"active","ping":92},{"user_id":1087,"name":"SpecialForce19","steam_id":76561198120974644,"connected_time":828000000000,"state":"active","ping":76},{"user_id":1088,"name":"に こ にー","steam_id":76561198132026663,"connected_time":818000000000,"state":"active","ping":103},{"user_id":1007,"name":"Ja","steam_id":76561198396340174,"connected_time":6477000000000,"state":"active","ping":71},{"user_id":1089,"name":"knatspray","steam_id":76561198832507482,"connected_time":793000000000,"state":"active","ping":127},{"user_id":1092,"name":"frank","steam_id":76561198137777483,"connected_time":728000000000,"state":"active","ping":69},{"user_id":1093,"name":"chiperino","steam_id":76561198121413721,"connected_time":724000000000,"state":"active","ping":90},{"user_id":1095,"name":"Zolt","steam_id":76561198085085457,"connected_time":712000000000,"state":"active","ping":114},{"user_id":1096,"name":"r0biN","steam_id":76561198097861434,"connected_time":686000000000,"state":"active","ping":116}]},{"server_id":402,"name":"Uncletopia | Chicago | 3 | All Maps","name_short":"chi-3","host":"chi-1.us.uncletopia.com","port":27035,"enabled":true,"region":"us-central","cc":"us","latitude":41.881832,"longitude":-87.62318,"reserved":0,"last_update":"0001-01-01T00:00:00Z","name_a2s":"Uncletopia | Chicago | 3 | All Maps","protocol":17,"map":"pl_badwater","folder":"tf","game":"Team Fortress","app_id":440,"player_count":15,"max_players":24,"Bots":0,"server_type":"Dedicated","server_os":"Linux","password":true,"vac":true,"version":"7882260","steam_id":85568392924515191,"keywords":["nocrits","nodmgspread","payload","uncletopia"],"game_id":440,"stv_port":27036,"stv_name":"Uncletopia | Chicago | 3 | All Maps | STV","players":[{"user_id":1222,"name":"todo bien papi :)","steam_id":76561198102681457,"connected_time":354000000000,"state":"active","ping":73},{"user_id":1220,"name":"Dr. Chad Feelgood","steam_id":76561198454077219,"connected_time":561000000000,"state":"active","ping":56},{"user_id":1218,"name":"Geesemans","steam_id":76561199478892816,"connected_time":1049000000000,"state":"active","ping":119},{"user_id":1139,"name":"Airik","steam_id":76561198208249865,"connected_time":8170000000000,"state":"active","ping":88},{"user_id":1221,"name":"Idiotden","steam_id":76561199340950135,"connected_time":503000000000,"state":"active","ping":95},{"user_id":1223,"name":"duke dennis","steam_id":76561198026054565,"connected_time":226000000000,"state":"active","ping":77},{"user_id":1062,"name":"VidzCMC","steam_id":76561198848142973,"connected_time":14131000000000,"state":"active","ping":51},{"user_id":1227,"name":"Nonessential","steam_id":76561198359977378,"connected_time":210000000000,"state":"active","ping":116},{"user_id":1228,"name":"Translucent","steam_id":76561199212057076,"connected_time":205000000000,"state":"active","ping":100},{"user_id":1131,"name":"June","steam_id":76561198211858204,"connected_time":8315000000000,"state":"active","ping":122},{"user_id":1226,"name":"Petunia","steam_id":76561198043326285,"connected_time":216000000000,"state":"active","ping":58},{"user_id":1229,"name":"starlight","steam_id":76561198068966052,"connected_time":199000000000,"state":"active","ping":54},{"user_id":1230,"name":"soupy","steam_id":76561197974283797,"connected_time":150000000000,"state":"active","ping":39},{"user_id":1231,"name":"☹","steam_id":76561198804763186,"connected_time":105000000000,"state":"active","ping":61},{"user_id":1232,"name":"0","steam_id":76561198046065237,"connected_time":92000000000,"state":"active","ping":74}]},{"server_id":403,"name":"Uncletopia | Chicago | 4 | All Maps","name_short":"chi-4","host":"chi-1.us.uncletopia.com","port":27045,"enabled":true,"region":"us-central","cc":"us","latitude":41.881832,"longitude":-87.62318,"reserved":0,"last_update":"0001-01-01T00:00:00Z","name_a2s":"Uncletopia | Chicago | 4 | All Maps","protocol":17,"map":"pl_snowycoast","folder":"tf","game":"Team Fortress","app_id":440,"player_count":0,"max_players":24,"Bots":0,"server_type":"Dedicated","server_os":"Linux","password":true,"vac":true,"version":"7882260","steam_id":85568392924515193,"keywords":["nocrits","nodmgspread","payload","uncletopia"],"game_id":440,"stv_port":27046,"stv_name":"Uncletopia | Chicago | 4 | All Maps | STV","players":null},{"server_id":36,"name":"Uncletopia | Chicago | 5 | All Maps","name_short":"chi-5","host":"chi-2.us.uncletopia.com","port":27015,"enabled":true,"region":"us-central","cc":"us","latitude":41.881832,"longitude":-87.62318,"reserved":0,"last_update":"0001-01-01T00:00:00Z","name_a2s":"Uncletopia | Chicago | 5 | All Maps","protocol":17,"map":"cp_mountainlab","folder":"tf","game":"Team Fortress","app_id":440,"player_count":0,"max_players":24,"Bots":0,"server_type":"Dedicated","server_os":"Linux","password":true,"vac":true,"version":"7882260","steam_id":85568392924866362,"keywords":["cp","nocrits","nodmgspread","uncletopia"],"game_id":440,"stv_port":27016,"stv_name":"Uncletopia | Chicago | 5 | All Maps | STV","players":null},{"server_id":37,"name":"Uncletopia | Chicago | 6 | All Maps","name_short":"chi-6","host":"chi-2.us.uncletopia.com","port":27025,"enabled":true,"region":"us-central","cc":"us","latitude":41.881832,"longitude":-87.62318,"reserved":0,"last_update":"0001-01-01T00:00:00Z","name_a2s":"Uncletopia | Chicago | 6 | All Maps","protocol":17,"map":"pl_snowycoast","folder":"tf","game":"Team Fortress","app_id":440,"player_count":0,"max_players":24,"Bots":0,"server_type":"Dedicated","server_os":"Linux","password":true,"vac":true,"version":"7882260","steam_id":85568392924866363,"keywords":["nocrits","nodmgspread","payload","uncletopia"],"game_id":440,"stv_port":27026,"stv_name":"Uncletopia | Chicago | 6 | All Maps | STV","players":null},{"server_id":38,"name":"Uncletopia | Chicago | 7 | Stopwatch Beta","name_short":"chi-7","host":"chi-2.us.uncletopia.com","port":27035,"enabled":true,"region":"us-central","cc":"us","latitude":41.881832,"longitude":-87.62318,"reserved":0,"last_update":"0001-01-01T00:00:00Z","name_a2s":"Uncletopia | Chicago | 7 | Stopwatch Beta","protocol":17,"map":"pl_swiftwater_final1","folder":"tf","game":"Team Fortress","app_id":440,"player_count":0,"max_players":24,"Bots":0,"server_type":"Dedicated","server_os":"Linux","password":true,"vac":true,"version":"7882260","steam_id":85568392924866364,"keywords":["nocrits","nodmgspread","payload","uncletopia"],"game_id":440,"stv_port":27036,"stv_name":"Uncletopia | Chicago | 7 | Stopwatch Beta | STV","players":null},{"server_id":39,"name":"Uncletopia | Chicago | 8 | Community","name_short":"chi-8","host":"chi-2.us.uncletopia.com","port":27045,"enabled":true,"region":"us-central","cc":"us","latitude":41.881832,"longitude":-87.62318,"reserved":0,"last_update":"0001-01-01T00:00:00Z","name_a2s":"Uncletopia | Chicago | 8 | Community","protocol":17,"map":"workshop/pl_divulgence_b4b.ugc2884808746","folder":"tf","game":"Team Fortress","app_id":440,"player_count":0,"max_players":24,"Bots":0,"server_type":"Dedicated","server_os":"Linux","password":true,"vac":true,"version":"7882260","steam_id":85568392924866365,"keywords":["nocrits","nodmgspread","payload","uncletopia"],"game_id":440,"stv_port":27046,"stv_name":"Uncletopia | Chicago | 8 | Community | STV","players":null},{"server_id":8,"name":"Uncletopia | Dallas | 1 | All Maps","name_short":"dal-1","host":"dal-1.us.uncletopia.com","port":27015,"enabled":true,"region":"us-central","cc":"us","latitude":32.779167,"longitude":-96.80889,"reserved":0,"last_update":"0001-01-01T00:00:00Z","name_a2s":"Uncletopia | Dallas | 1 | All Maps","protocol":17,"map":"koth_highpass","folder":"tf","game":"Team Fortress","app_id":440,"player_count":0,"max_players":24,"Bots":0,"server_type":"Dedicated","server_os":"Linux","password":true,"vac":true,"version":"7882260","steam_id":85568392924469986,"keywords":["cp","nocrits","nodmgspread","uncletopia"],"game_id":440,"stv_port":27016,"stv_name":"Uncletopia | Dallas | 1 | All Maps | STV","players":null},{"server_id":108,"name":"Uncletopia | Dallas | 2 | All Maps","name_short":"dal-2","host":"dal-1.us.uncletopia.com","port":27025,"enabled":true,"region":"us-central","cc":"us","latitude":32.779167,"longitude":-96.80889,"reserved":0,"last_update":"0001-01-01T00:00:00Z","name_a2s":"Uncletopia | Dallas | 2 | All Maps","protocol":17,"map":"koth_nucleus","folder":"tf","game":"Team Fortress","app_id":440,"player_count":20,"max_players":24,"Bots":0,"server_type":"Dedicated","server_os":"Linux","password":true,"vac":true,"version":"7882260","steam_id":85568392924469988,"keywords":["cp","nocrits","nodmgspread","uncletopia"],"game_id":440,"stv_port":27026,"stv_name":"Uncletopia | Dallas | 2 | All Maps | STV","players":[{"user_id":599,"name":"murph","steam_id":76561197973805634,"connected_time":1377000000000,"state":"active","ping":93},{"user_id":558,"name":"seasoul","steam_id":76561198883302327,"connected_time":4794000000000,"state":"active","ping":96},{"user_id":573,"name":"sky walker","steam_id":76561198937717599,"connected_time":3228000000000,"state":"active","ping":42},{"user_id":586,"name":"nnobi","steam_id":76561198878729277,"connected_time":2551000000000,"state":"active","ping":74},{"user_id":594,"name":"Starkiller","steam_id":76561198101643120,"connected_time":1574000000000,"state":"active","ping":44},{"user_id":622,"name":"⚣ Nebula ⚣","steam_id":76561199043463646,"connected_time":210000000000,"state":"active","ping":95},{"user_id":623,"name":"justin!","steam_id":76561198065832254,"connected_time":191000000000,"state":"active","ping":85},{"user_id":561,"name":"AudaCD","steam_id":76561198202775853,"connected_time":4707000000000,"state":"active","ping":58},{"user_id":620,"name":"mr.edderkopper","steam_id":76561198152614478,"connected_time":377000000000,"state":"active","ping":64},{"user_id":611,"name":"Crispy","steam_id":76561198037481161,"connected_time":872000000000,"state":"active","ping":67},{"user_id":598,"name":"leafs fan eternal suffering","steam_id":76561198011329825,"connected_time":1462000000000,"state":"active","ping":75},{"user_id":614,"name":"Flex Pexico","steam_id":76561198041838930,"connected_time":838000000000,"state":"active","ping":72},{"user_id":621,"name":"Dauntless Duelist","steam_id":76561198025056018,"connected_time":355000000000,"state":"active","ping":90},{"user_id":604,"name":"Jones","steam_id":76561198046037216,"connected_time":1140000000000,"state":"active","ping":132},{"user_id":616,"name":"Tokey","steam_id":76561198825943127,"connected_time":662000000000,"state":"active","ping":60},{"user_id":571,"name":"Bork Bork","steam_id":76561198045081654,"connected_time":4122000000000,"state":"active","ping":90},{"user_id":590,"name":"the tf2 player of all time","steam_id":76561198881665250,"connected_time":1800000000000,"state":"active","ping":99},{"user_id":603,"name":"LX-24","steam_id":76561198016168993,"connected_time":1198000000000,"state":"active","ping":112},{"user_id":618,"name":"Mr.Frundles","steam_id":76561198134559026,"connected_time":649000000000,"state":"active","ping":101},{"user_id":536,"name":"Shamrock Shake Oct.10.2020 @8pm","steam_id":76561198833313201,"connected_time":6804000000000,"state":"active","ping":87}]},{"server_id":5,"name":"Uncletopia | Frankfurt | 1 | All Maps","name_short":"frk-1","host":"frk-1.de.uncletopia.com","port":27015,"enabled":true,"region":"eu","cc":"de","latitude":50.110924,"longitude":8.682127,"reserved":0,"last_update":"0001-01-01T00:00:00Z","name_a2s":"Uncletopia | Frankfurt | 1 | All Maps","protocol":17,"map":"pl_badwater","folder":"tf","game":"Team Fortress","app_id":440,"player_count":24,"max_players":24,"Bots":0,"server_type":"Dedicated","server_os":"Linux","password":true,"vac":true,"version":"7882260","steam_id":85568392924469989,"keywords":["nocrits","nodmgspread","payload","uncletopia"],"game_id":440,"stv_port":27016,"stv_name":"Uncletopia | Frankfurt | 1 | All Maps | STV","players":[{"user_id":40,"name":"CottonPicker404","steam_id":76561199485020000,"connected_time":1580000000000,"state":"active","ping":84},{"user_id":61,"name":"Dude Time","steam_id":76561198092991160,"connected_time":603000000000,"state":"active","ping":149},{"user_id":33,"name":"Kacperos12","steam_id":76561198044168268,"connected_time":2063000000000,"state":"active","ping":89},{"user_id":45,"name":"hichem","steam_id":76561198056197307,"connected_time":1293000000000,"state":"active","ping":59},{"user_id":42,"name":"Hubero","steam_id":76561198017053653,"connected_time":1517000000000,"state":"active","ping":65},{"user_id":36,"name":"lyon","steam_id":76561197998096172,"connected_time":1765000000000,"state":"active","ping":75},{"user_id":10,"name":"Españaa","steam_id":76561198879587832,"connected_time":2715000000000,"state":"active","ping":86},{"user_id":59,"name":"Dzieciol","steam_id":76561198160237556,"connected_time":658000000000,"state":"active","ping":61},{"user_id":12,"name":"dollar foot long","steam_id":76561199250808808,"connected_time":2508000000000,"state":"active","ping":76},{"user_id":57,"name":"pummed","steam_id":76561198827108475,"connected_time":732000000000,"state":"active","ping":81},{"user_id":37,"name":"Umbro","steam_id":76561198087930438,"connected_time":1763000000000,"state":"active","ping":75},{"user_id":34,"name":".::[SerafeTTiN]::.","steam_id":76561198009471724,"connected_time":1988000000000,"state":"active","ping":90},{"user_id":64,"name":"Zeta","steam_id":76561198101917105,"connected_time":474000000000,"state":"active","ping":148},{"user_id":62,"name":"WALTER WHITE","steam_id":76561199147666336,"connected_time":597000000000,"state":"active","ping":64},{"user_id":19,"name":"We are in a world of magic","steam_id":76561198104745492,"connected_time":2335000000000,"state":"active","ping":71},{"user_id":21,"name":"veins","steam_id":76561198997602764,"connected_time":2298000000000,"state":"active","ping":205},{"user_id":22,"name":"Noida","steam_id":76561198833044733,"connected_time":2296000000000,"state":"active","ping":90},{"user_id":23,"name":"Purplenoogie","steam_id":76561198081872160,"connected_time":2289000000000,"state":"active","ping":51},{"user_id":24,"name":"Eidolon","steam_id":76561198043919565,"connected_time":2287000000000,"state":"active","ping":89},{"user_id":25,"name":"Saint","steam_id":76561198003296382,"connected_time":2284000000000,"state":"active","ping":61},{"user_id":63,"name":"hol horse","steam_id":76561199235435358,"connected_time":551000000000,"state":"active","ping":79},{"user_id":29,"name":"jona3838","steam_id":76561199097658195,"connected_time":2261000000000,"state":"active","ping":105},{"user_id":58,"name":"Dzan50","steam_id":76561198059758591,"connected_time":703000000000,"state":"active","ping":105},{"user_id":38,"name":"frbuz","steam_id":76561198327135462,"connected_time":1710000000000,"state":"active","ping":179}]},{"server_id":110,"name":"Uncletopia | Frankfurt | 2 | All Maps","name_short":"frk-2","host":"frk-1.de.uncletopia.com","port":27025,"enabled":true,"region":"eu","cc":"de","latitude":50.110924,"longitude":8.682127,"reserved":0,"last_update":"0001-01-01T00:00:00Z","name_a2s":"Uncletopia | Frankfurt | 2 | All Maps","protocol":17,"map":"cp_mountainlab","folder":"tf","game":"Team Fortress","app_id":440,"player_count":0,"max_players":24,"Bots":0,"server_type":"Dedicated","server_os":"Linux","password":true,"vac":true,"version":"7882260","steam_id":85568392924469990,"keywords":["cp","nocrits","nodmgspread","uncletopia"],"game_id":440,"stv_port":27026,"stv_name":"Uncletopia | Frankfurt | 2 | All Maps | STV","players":null},{"server_id":308,"name":"Uncletopia | Frankfurt | 3 | All Maps","name_short":"frk-3","host":"frk-1.de.uncletopia.com","port":27035,"enabled":true,"region":"eu","cc":"de","latitude":50.110924,"longitude":8.682127,"reserved":0,"last_update":"0001-01-01T00:00:00Z","name_a2s":"Uncletopia | Frankfurt | 3 | All Maps","protocol":17,"map":"pl_snowycoast","folder":"tf","game":"Team Fortress","app_id":440,"player_count":0,"max_players":24,"Bots":0,"server_type":"Dedicated","server_os":"Linux","password":true,"vac":true,"version":"7882260","steam_id":85568392924504274,"keywords":["nocrits","nodmgspread","payload","uncletopia"],"game_id":440,"stv_port":27036,"stv_name":"Uncletopia | Frankfurt | 3 | All Maps | STV","players":null},{"server_id":309,"name":"Uncletopia | Frankfurt | 4 | All Maps","name_short":"frk-4","host":"frk-1.de.uncletopia.com","port":27045,"enabled":true,"region":"eu","cc":"de","latitude":50.110924,"longitude":8.682127,"reserved":0,"last_update":"0001-01-01T00:00:00Z","name_a2s":"Uncletopia | Frankfurt | 4 | All Maps","protocol":17,"map":"pl_pier","folder":"tf","game":"Team Fortress","app_id":440,"player_count":0,"max_players":24,"Bots":0,"server_type":"Dedicated","server_os":"Linux","password":true,"vac":true,"version":"7882260","steam_id":85568392924504275,"keywords":["nocrits","nodmgspread","payload","uncletopia"],"game_id":440,"stv_port":27046,"stv_name":"Uncletopia | Frankfurt | 4 | All Maps | STV","players":null},{"server_id":310,"name":"Uncletopia | Frankfurt | 5 | All Maps","name_short":"frk-5","host":"frk-1.de.uncletopia.com","port":27055,"enabled":true,"region":"eu","cc":"de","latitude":50.110924,"longitude":8.682127,"reserved":0,"last_update":"0001-01-01T00:00:00Z","name_a2s":"Uncletopia | Frankfurt | 5 | All Maps","protocol":17,"map":"cp_mountainlab","folder":"tf","game":"Team Fortress","app_id":440,"player_count":0,"max_players":24,"Bots":0,"server_type":"Dedicated","server_os":"Linux","password":true,"vac":true,"version":"7882260","steam_id":85568392924504277,"keywords":["cp","nocrits","nodmgspread","uncletopia"],"game_id":440,"stv_port":27056,"stv_name":"Uncletopia | Frankfurt | 5 | All Maps | STV","players":null},{"server_id":311,"name":"Uncletopia | Frankfurt | 6 | All Maps","name_short":"frk-6","host":"frk-1.de.uncletopia.com","port":27065,"enabled":true,"region":"eu","cc":"de","latitude":50.110924,"longitude":8.682127,"reserved":0,"last_update":"0001-01-01T00:00:00Z","name_a2s":"Uncletopia | Frankfurt | 6 | All Maps","protocol":17,"map":"koth_cascade","folder":"tf","game":"Team Fortress","app_id":440,"player_count":0,"max_players":24,"Bots":0,"server_type":"Dedicated","server_os":"Linux","password":true,"vac":true,"version":"7882260","steam_id":85568392924504278,"keywords":["cp","nocrits","nodmgspread","uncletopia"],"game_id":440,"stv_port":27066,"stv_name":"Uncletopia | Frankfurt | 6 | All Maps | STV","players":null},{"server_id":23,"name":"Uncletopia | Frankfurt | 7 | Stopwatch Beta","name_short":"frk-7","host":"frk-1.de.uncletopia.com","port":27075,"enabled":true,"region":"eu","cc":"de","latitude":50.110924,"longitude":8.682127,"reserved":0,"last_update":"0001-01-01T00:00:00Z","name_a2s":"Uncletopia | Frankfurt | 7 | Stopwatch Beta","protocol":17,"map":"cp_dustbowl","folder":"tf","game":"Team Fortress","app_id":440,"player_count":0,"max_players":24,"Bots":0,"server_type":"Dedicated","server_os":"Linux","password":true,"vac":true,"version":"7882260","steam_id":85568392924742827,"keywords":["cp","nocrits","nodmgspread","uncletopia"],"game_id":440,"stv_port":27076,"stv_name":"Uncletopia | Frankfurt | 7 | Stopwatch Beta | STV","players":null},{"server_id":24,"name":"Uncletopia | Frankfurt | 8 | Community","name_short":"frk-8","host":"frk-1.de.uncletopia.com","port":27085,"enabled":true,"region":"eu","cc":"de","latitude":50.110924,"longitude":8.682127,"reserved":0,"last_update":"0001-01-01T00:00:00Z","name_a2s":"Uncletopia | Frankfurt | 8 | Community","protocol":17,"map":"koth_cascade","folder":"tf","game":"Team Fortress","app_id":440,"player_count":0,"max_players":24,"Bots":0,"server_type":"Dedicated","server_os":"Linux","password":true,"vac":true,"version":"7882260","steam_id":85568392924742828,"keywords":["cp","nocrits","nodmgspread","uncletopia"],"game_id":440,"stv_port":27086,"stv_name":"Uncletopia | Frankfurt | 8 | Community | STV","players":null},{"server_id":202,"name":"Uncletopia | Hong Kong | 1 | All Maps","name_short":"hgk-1","host":"hgk-1.hk.uncletopia.com","port":27015,"enabled":true,"region":"asia","cc":"hk","latitude":22.302711,"longitude":114.177216,"reserved":0,"last_update":"0001-01-01T00:00:00Z","name_a2s":"Uncletopia | Hong Kong | 1 | All Maps","protocol":17,"map":"pl_badwater","folder":"tf","game":"Team Fortress","app_id":440,"player_count":24,"max_players":24,"Bots":0,"server_type":"Dedicated","server_os":"Linux","password":true,"vac":true,"version":"7882260","steam_id":85568392924494504,"keywords":["nocrits","nodmgspread","payload","uncletopia"],"game_id":440,"stv_port":27016,"stv_name":"Uncletopia | Hong Kong | 1 | All Maps | STV","players":[{"user_id":245,"name":"im_0ff","steam_id":76561198339346695,"connected_time":6154000000000,"state":"active","ping":122},{"user_id":278,"name":"clori","steam_id":76561199146847474,"connected_time":2343000000000,"state":"active","ping":47},{"user_id":261,"name":"帕","steam_id":76561198439343999,"connected_time":4987000000000,"state":"spawning","ping":95},{"user_id":272,"name":"Heavy Fingers Guy","steam_id":76561199016545154,"connected_time":2854000000000,"state":"active","ping":41},{"user_id":265,"name":"Lelouch","steam_id":76561198828840546,"connected_time":4041000000000,"state":"active","ping":75},{"user_id":293,"name":"P33P33M4N","steam_id":76561199205841541,"connected_time":52000000000,"state":"spawning","ping":74},{"user_id":158,"name":"bodacious bogey","steam_id":76561198055553140,"connected_time":14976000000000,"state":"active","ping":72},{"user_id":297,"name":"Samoyed","steam_id":76561198299150410,"connected_time":15000000000,"state":"active","ping":107},{"user_id":257,"name":"Kyo","steam_id":76561198088550274,"connected_time":5248000000000,"state":"active","ping":33},{"user_id":277,"name":"쿠키","steam_id":76561197997220367,"connected_time":2526000000000,"state":"active","ping":49},{"user_id":289,"name":"ღJun.","steam_id":76561198275846469,"connected_time":391000000000,"state":"active","ping":76},{"user_id":174,"name":"Stupid B","steam_id":76561198131423270,"connected_time":13129000000000,"state":"active","ping":117},{"user_id":274,"name":"Luzyyss","steam_id":76561198320532821,"connected_time":2840000000000,"state":"active","ping":113},{"user_id":292,"name":"Film","steam_id":76561198046862785,"connected_time":53000000000,"state":"active","ping":98},{"user_id":258,"name":"vintage","steam_id":76561198230213828,"connected_time":5245000000000,"state":"active","ping":128},{"user_id":276,"name":"NootNoot","steam_id":76561199122109977,"connected_time":2838000000000,"state":"active","ping":126},{"user_id":279,"name":"Silent Game","steam_id":76561198136685157,"connected_time":2339000000000,"state":"active","ping":60},{"user_id":294,"name":"8091573212","steam_id":76561198968776439,"connected_time":47000000000,"state":"active","ping":70},{"user_id":199,"name":"๋","steam_id":76561198413116920,"connected_time":10869000000000,"state":"active","ping":76},{"user_id":268,"name":"mutwo","steam_id":76561198077043500,"connected_time":3576000000000,"state":"active","ping":72},{"user_id":295,"name":"urotsuki with da doobie","steam_id":76561198074339034,"connected_time":46000000000,"state":"active","ping":76},{"user_id":291,"name":"p1st0n","steam_id":76561198992723983,"connected_time":155000000000,"state":"active","ping":91},{"user_id":244,"name":"Milf (The fan O'Milk)","steam_id":76561198213031155,"connected_time":6167000000000,"state":"active","ping":92},{"user_id":288,"name":"SomeMorbid","steam_id":76561199017344476,"connected_time":536000000000,"state":"active","ping":81}]},{"server_id":1,"name":"Uncletopia | Los Angeles | 1 | All Maps","name_short":"lax-1","host":"lax-1.us.uncletopia.com","port":27015,"enabled":true,"region":"us-west","cc":"us","latitude":33.94279,"longitude":-118.41004,"reserved":0,"last_update":"0001-01-01T00:00:00Z","name_a2s":"Uncletopia | Los Angeles | 1 | All Maps","protocol":17,"map":"cp_mountainlab","folder":"tf","game":"Team Fortress","app_id":440,"player_count":0,"max_players":24,"Bots":0,"server_type":"Dedicated","server_os":"Linux","password":true,"vac":true,"version":"7882260","steam_id":85568392924469991,"keywords":["cp","nocrits","nodmgspread","uncletopia"],"game_id":440,"stv_port":27016,"stv_name":"Uncletopia | Los Angeles | 1 | All Maps | STV","players":null},{"server_id":112,"name":"Uncletopia | Los Angeles | 2 | All Maps","name_short":"lax-2","host":"lax-1.us.uncletopia.com","port":27025,"enabled":true,"region":"us-west","cc":"us","latitude":33.94279,"longitude":-118.41004,"reserved":0,"last_update":"0001-01-01T00:00:00Z","name_a2s":"Uncletopia | Los Angeles | 2 | All Maps","protocol":17,"map":"koth_highpass","folder":"tf","game":"Team Fortress","app_id":440,"player_count":1,"max_players":24,"Bots":0,"server_type":"Dedicated","server_os":"Linux","password":true,"vac":true,"version":"7882260","steam_id":85568392924469992,"keywords":["cp","nocrits","nodmgspread","uncletopia"],"game_id":440,"stv_port":27026,"stv_name":"Uncletopia | Los Angeles | 2 | All Maps | STV","players":[{"user_id":519,"name":"wajwaheed","steam_id":76561199117814005,"connected_time":247000000000,"state":"active","ping":320}]},{"server_id":324,"name":"Uncletopia | Los Angeles | 3 | All Maps","name_short":"lax-3","host":"lax-1.us.uncletopia.com","port":27035,"enabled":true,"region":"us-west","cc":"us","latitude":33.94279,"longitude":-118.41004,"reserved":0,"last_update":"0001-01-01T00:00:00Z","name_a2s":"Uncletopia | Los Angeles | 3 | All Maps","protocol":17,"map":"pl_pier","folder":"tf","game":"Team Fortress","app_id":440,"player_count":0,"max_players":24,"Bots":0,"server_type":"Dedicated","server_os":"Linux","password":true,"vac":true,"version":"7882260","steam_id":85568392924510198,"keywords":["nocrits","nodmgspread","payload","uncletopia"],"game_id":440,"stv_port":27036,"stv_name":"Uncletopia | Los Angeles | 3 | All Maps | STV","players":null},{"server_id":25,"name":"Uncletopia | Los Angeles | 4 | Stopwatch Beta","name_short":"lax-4","host":"lax-1.us.uncletopia.com","port":27045,"enabled":true,"region":"us-west","cc":"us","latitude":33.94279,"longitude":-118.41004,"reserved":0,"last_update":"0001-01-01T00:00:00Z","name_a2s":"Uncletopia | Los Angeles | 4 | Stopwatch Beta","protocol":17,"map":"workshop/pl_badwater_pro_v12.ugc2142942074","folder":"tf","game":"Team Fortress","app_id":440,"player_count":0,"max_players":24,"Bots":0,"server_type":"Dedicated","server_os":"Linux","password":true,"vac":true,"version":"7882260","steam_id":85568392924510199,"keywords":["nocrits","nodmgspread","payload","uncletopia"],"game_id":440,"stv_port":27046,"stv_name":"Uncletopia | Los Angeles | 4 | Stopwatch Beta | STV","players":null},{"server_id":11,"name":"Uncletopia | London | 1 | All Maps","name_short":"lon-1","host":"lon-1.uk.uncletopia.com","port":27015,"enabled":true,"region":"eu","cc":"gb","latitude":51.509865,"longitude":-0.118092,"reserved":0,"last_update":"0001-01-01T00:00:00Z","name_a2s":"Uncletopia | London | 1 | All Maps","protocol":17,"map":"pl_badwater","folder":"tf","game":"Team Fortress","app_id":440,"player_count":24,"max_players":24,"Bots":0,"server_type":"Dedicated","server_os":"Linux","password":true,"vac":true,"version":"7882260","steam_id":85568392924367362,"keywords":["nocrits","nodmgspread","payload","uncletopia"],"game_id":440,"stv_port":27016,"stv_name":"Uncletopia | London | 1 | All Maps | STV","players":[{"user_id":76,"name":"Dispenser builder","steam_id":76561198061735786,"connected_time":282000000000,"state":"active","ping":136},{"user_id":5,"name":"Xenometan","steam_id":76561198208408392,"connected_time":7403000000000,"state":"active","ping":115},{"user_id":7,"name":"Kolanciasty ♥","steam_id":76561198020042179,"connected_time":5904000000000,"state":"active","ping":85},{"user_id":69,"name":"Arthur Curtis","steam_id":76561199485646278,"connected_time":984000000000,"state":"active","ping":46},{"user_id":64,"name":"Timpanojnoj","steam_id":76561197970334448,"connected_time":1459000000000,"state":"active","ping":75},{"user_id":63,"name":"Krefa12","steam_id":76561198268375393,"connected_time":1529000000000,"state":"active","ping":93},{"user_id":65,"name":"Walter Griffin","steam_id":76561199415989636,"connected_time":1447000000000,"state":"active","ping":99},{"user_id":66,"name":"maxx","steam_id":76561198260625229,"connected_time":1420000000000,"state":"active","ping":78},{"user_id":57,"name":"The_Jaystone","steam_id":76561198126280691,"connected_time":1869000000000,"state":"active","ping":44},{"user_id":50,"name":"ALARM","steam_id":76561198120686521,"connected_time":2805000000000,"state":"active","ping":60},{"user_id":80,"name":"Smokio","steam_id":76561198069650580,"connected_time":36000000000,"state":"spawning","ping":74},{"user_id":73,"name":"roby","steam_id":76561198044660393,"connected_time":469000000000,"state":"active","ping":65},{"user_id":68,"name":"HanımSever23","steam_id":76561198142124751,"connected_time":1403000000000,"state":"active","ping":119},{"user_id":60,"name":"skitzow","steam_id":76561198157357959,"connected_time":1683000000000,"state":"active","ping":166},{"user_id":75,"name":"Zogg","steam_id":76561198352683491,"connected_time":298000000000,"state":"active","ping":29},{"user_id":74,"name":"Eltriuqs","steam_id":76561198225771588,"connected_time":391000000000,"state":"active","ping":113},{"user_id":79,"name":"leminsc8","steam_id":76561198825084995,"connected_time":225000000000,"state":"active","ping":43},{"user_id":47,"name":"walnuth","steam_id":76561199087006560,"connected_time":3508000000000,"state":"active","ping":74},{"user_id":37,"name":"dabuttsniffer","steam_id":76561198369227367,"connected_time":3910000000000,"state":"active","ping":96},{"user_id":77,"name":"Dark Wizart","steam_id":76561198377689439,"connected_time":280000000000,"state":"active","ping":77},{"user_id":52,"name":"`Fox","steam_id":76561198079000692,"connected_time":2414000000000,"state":"active","ping":156},{"user_id":78,"name":"kornetov.vitalya","steam_id":76561199286034833,"connected_time":278000000000,"state":"active","ping":101},{"user_id":67,"name":"Sir Cauterize","steam_id":76561198047079422,"connected_time":1420000000000,"state":"active","ping":52},{"user_id":59,"name":"tc_hydro enthusiast","steam_id":76561199200565269,"connected_time":1731000000000,"state":"active","ping":97}]},{"server_id":114,"name":"Uncletopia | London | 2 | All Maps","name_short":"lon-2","host":"lon-1.uk.uncletopia.com","port":27025,"enabled":true,"region":"eu","cc":"gb","latitude":51.509865,"longitude":-0.118092,"reserved":0,"last_update":"0001-01-01T00:00:00Z","name_a2s":"Uncletopia | London | 2 | All Maps","protocol":17,"map":"pl_swiftwater_final1","folder":"tf","game":"Team Fortress","app_id":440,"player_count":3,"max_players":24,"Bots":0,"server_type":"Dedicated","server_os":"Linux","password":true,"vac":true,"version":"7882260","steam_id":85568392924470941,"keywords":["nocrits","nodmgspread","payload","uncletopia"],"game_id":440,"stv_port":27026,"stv_name":"Uncletopia | London | 2 | All Maps | STV","players":[{"user_id":4,"name":"One Hop Dis Time *BWRAB*","steam_id":76561198146081601,"connected_time":1181000000000,"state":"active","ping":45},{"user_id":6,"name":"helmut","steam_id":76561197987025017,"connected_time":717000000000,"state":"active","ping":57},{"user_id":7,"name":"nemelex","steam_id":76561198958005865,"connected_time":497000000000,"state":"active","ping":45}]},{"server_id":320,"name":"Uncletopia | London | 3 | All Maps","name_short":"lon-3","host":"lon-1.uk.uncletopia.com","port":27035,"enabled":true,"region":"eu","cc":"gb","latitude":51.509865,"longitude":-0.118092,"reserved":0,"last_update":"0001-01-01T00:00:00Z","name_a2s":"Uncletopia | London | 3 | All Maps","protocol":17,"map":"pl_barnblitz","folder":"tf","game":"Team Fortress","app_id":440,"player_count":24,"max_players":24,"Bots":0,"server_type":"Dedicated","server_os":"Linux","password":true,"vac":true,"version":"7882260","steam_id":85568392924510192,"keywords":["nocrits","nodmgspread","payload","uncletopia"],"game_id":440,"stv_port":27036,"stv_name":"Uncletopia | London | 3 | All Maps | STV","players":[{"user_id":133,"name":"El Nordiste #SAVETF2","steam_id":76561198321474957,"connected_time":10000000000,"state":"active","ping":126},{"user_id":106,"name":"lieutenant meaw is down meming","steam_id":76561198054313942,"connected_time":3775000000000,"state":"active","ping":168},{"user_id":96,"name":"Koli","steam_id":76561197992428783,"connected_time":4860000000000,"state":"active","ping":60},{"user_id":112,"name":"brtaba","steam_id":76561198796334790,"connected_time":3093000000000,"state":"active","ping":83},{"user_id":125,"name":"putku09","steam_id":76561199132212075,"connected_time":932000000000,"state":"active","ping":117},{"user_id":68,"name":"Cars","steam_id":76561198173329977,"connected_time":6939000000000,"state":"active","ping":48},{"user_id":108,"name":"Captain Beefheart","steam_id":76561198031573426,"connected_time":3517000000000,"state":"active","ping":71},{"user_id":132,"name":"lunaire","steam_id":76561198163344452,"connected_time":542000000000,"state":"active","ping":88},{"user_id":126,"name":"DOMAIN","steam_id":76561199095640319,"connected_time":910000000000,"state":"active","ping":89},{"user_id":120,"name":"Pixar Cars on the PS2","steam_id":76561198079386295,"connected_time":2185000000000,"state":"active","ping":54},{"user_id":67,"name":"Mr_Pulse_","steam_id":76561198095001602,"connected_time":6956000000000,"state":"active","ping":102},{"user_id":121,"name":"undead","steam_id":76561198958038350,"connected_time":2183000000000,"state":"active","ping":37},{"user_id":117,"name":"-[FF]- EnglishB0t2.9","steam_id":76561199013600280,"connected_time":2467000000000,"state":"active","ping":64},{"user_id":118,"name":"Well, off to hang myself","steam_id":76561198053374944,"connected_time":2444000000000,"state":"active","ping":69},{"user_id":119,"name":"mira","steam_id":76561199040246790,"connected_time":2430000000000,"state":"active","ping":55},{"user_id":113,"name":"Romu3","steam_id":76561198055484251,"connected_time":3085000000000,"state":"active","ping":119},{"user_id":122,"name":"Ječmen","steam_id":76561198051617968,"connected_time":2085000000000,"state":"active","ping":80},{"user_id":131,"name":"Sus Fring","steam_id":76561198821542489,"connected_time":682000000000,"state":"active","ping":99},{"user_id":100,"name":"YOUR MOM GAMING","steam_id":76561199429562693,"connected_time":4636000000000,"state":"active","ping":103},{"user_id":124,"name":"Yuzu","steam_id":76561198121694613,"connected_time":1370000000000,"state":"active","ping":46},{"user_id":127,"name":"red⋆mits","steam_id":76561198015590113,"connected_time":904000000000,"state":"active","ping":41},{"user_id":86,"name":"crx3","steam_id":76561198064490510,"connected_time":5507000000000,"state":"active","ping":72},{"user_id":87,"name":"fmdi","steam_id":76561199433879329,"connected_time":5329000000000,"state":"active","ping":74},{"user_id":128,"name":"Parigonicalus","steam_id":76561198044637492,"connected_time":892000000000,"state":"active","ping":81}]},{"server_id":321,"name":"Uncletopia | London | 4 | All Maps","name_short":"lon-4","host":"lon-1.uk.uncletopia.com","port":27045,"enabled":true,"region":"eu","cc":"gb","latitude":51.509865,"longitude":-0.118092,"reserved":0,"last_update":"0001-01-01T00:00:00Z","name_a2s":"Uncletopia | London | 4 | All Maps","protocol":17,"map":"pl_upward","folder":"tf","game":"Team Fortress","app_id":440,"player_count":0,"max_players":24,"Bots":0,"server_type":"Dedicated","server_os":"Linux","password":true,"vac":true,"version":"7882260","steam_id":85568392924510193,"keywords":["nocrits","nodmgspread","payload","uncletopia"],"game_id":440,"stv_port":27046,"stv_name":"Uncletopia | London | 4 | All Maps | STV","players":null},{"server_id":21,"name":"Uncletopia | London | 5 | All Maps","name_short":"lon-5","host":"lon-1.uk.uncletopia.com","port":27055,"enabled":true,"region":"eu","cc":"gb","latitude":51.509865,"longitude":-0.118092,"reserved":0,"last_update":"0001-01-01T00:00:00Z","name_a2s":"Uncletopia | London | 5 | All Maps","protocol":17,"map":"pl_frontier_final","folder":"tf","game":"Team Fortress","app_id":440,"player_count":0,"max_players":24,"Bots":0,"server_type":"Dedicated","server_os":"Linux","password":true,"vac":true,"version":"7882260","steam_id":85568392924742829,"keywords":["nocrits","nodmgspread","payload","uncletopia"],"game_id":440,"stv_port":27056,"stv_name":"Uncletopia | London | 5 | All Maps | STV","players":null},{"server_id":22,"name":"Uncletopia | London | 6 | All Maps","name_short":"lon-6","host":"lon-1.uk.uncletopia.com","port":27065,"enabled":true,"region":"eu","cc":"gb","latitude":51.509865,"longitude":-0.118092,"reserved":0,"last_update":"0001-01-01T00:00:00Z","name_a2s":"Uncletopia | London | 6 | All Maps","protocol":17,"map":"pl_barnblitz","folder":"tf","game":"Team Fortress","app_id":440,"player_count":24,"max_players":24,"Bots":0,"server_type":"Dedicated","server_os":"Linux","password":true,"vac":true,"version":"7882260","steam_id":85568392924742830,"keywords":["nocrits","nodmgspread","payload","uncletopia"],"game_id":440,"stv_port":27066,"stv_name":"Uncletopia | London | 6 | All Maps | STV","players":[{"user_id":188,"name":"BasLutnya","steam_id":76561198050575776,"connected_time":696000000000,"state":"active","ping":79},{"user_id":186,"name":"modavak","steam_id":76561198946290908,"connected_time":897000000000,"state":"active","ping":104},{"user_id":145,"name":"++Old_M@N++","steam_id":76561197994792094,"connected_time":3527000000000,"state":"active","ping":72},{"user_id":175,"name":"ramirez","steam_id":76561198117060048,"connected_time":1470000000000,"state":"active","ping":61},{"user_id":176,"name":"noodlehairronaldoprime","steam_id":76561199471954402,"connected_time":1389000000000,"state":"active","ping":71},{"user_id":122,"name":"SpyCrab  Erik Twice","steam_id":76561198009710309,"connected_time":4671000000000,"state":"active","ping":61},{"user_id":93,"name":"askulap","steam_id":76561197992018795,"connected_time":7322000000000,"state":"active","ping":85},{"user_id":185,"name":"lulu","steam_id":76561199147764133,"connected_time":921000000000,"state":"active","ping":81},{"user_id":187,"name":"Jack.Orlando","steam_id":76561198802400236,"connected_time":883000000000,"state":"active","ping":82},{"user_id":171,"name":"gexfan3165","steam_id":76561199459414738,"connected_time":1705000000000,"state":"active","ping":75},{"user_id":125,"name":"Lessoz","steam_id":76561199211572036,"connected_time":4596000000000,"state":"active","ping":86},{"user_id":189,"name":"Dat Bisexual Scout","steam_id":76561198965998351,"connected_time":196000000000,"state":"active","ping":79},{"user_id":160,"name":"Asa Mitaka","steam_id":76561198361723475,"connected_time":2387000000000,"state":"active","ping":61},{"user_id":143,"name":"elliot","steam_id":76561198055010039,"connected_time":3588000000000,"state":"active","ping":74},{"user_id":154,"name":"chemoman","steam_id":76561198820463450,"connected_time":2806000000000,"state":"active","ping":78},{"user_id":131,"name":"Uriziel","steam_id":76561198046950794,"connected_time":4476000000000,"state":"active","ping":105},{"user_id":173,"name":"Flaco","steam_id":76561198044795756,"connected_time":1624000000000,"state":"active","ping":65},{"user_id":180,"name":"Boki","steam_id":76561198044553351,"connected_time":1279000000000,"state":"active","ping":75},{"user_id":84,"name":"Penis Contortionist","steam_id":76561198073663784,"connected_time":8854000000000,"state":"active","ping":36},{"user_id":153,"name":"Fuvuk","steam_id":76561198044458593,"connected_time":2844000000000,"state":"active","ping":91},{"user_id":165,"name":"TSM MANDE","steam_id":76561198261795972,"connected_time":2108000000000,"state":"active","ping":58},{"user_id":150,"name":"WATANG!","steam_id":76561198040478926,"connected_time":3068000000000,"state":"active","ping":78},{"user_id":179,"name":"OutOfRage","steam_id":76561198211205791,"connected_time":1299000000000,"state":"active","ping":51},{"user_id":117,"name":"Yanniki","steam_id":76561197986058110,"connected_time":5054000000000,"state":"active","ping":63}]},{"server_id":40,"name":"Uncletopia | London | 7 | No Payload","name_short":"lon-7","host":"lon-1.uk.uncletopia.com","port":27075,"enabled":true,"region":"eu","cc":"gb","latitude":51.509865,"longitude":-0.118092,"reserved":0,"last_update":"0001-01-01T00:00:00Z","name_a2s":"Uncletopia | London | 7 | No Payload","protocol":17,"map":"koth_cascade","folder":"tf","game":"Team Fortress","app_id":440,"player_count":23,"max_players":24,"Bots":0,"server_type":"Dedicated","server_os":"Linux","password":true,"vac":true,"version":"7882260","steam_id":85568392924964314,"keywords":["cp","nocrits","nodmgspread","uncletopia"],"game_id":440,"stv_port":27076,"stv_name":"Uncletopia | London | 7 | No Payload | STV","players":[{"user_id":131,"name":"Destinys","steam_id":76561198056132894,"connected_time":177000000000,"state":"active","ping":71},{"user_id":48,"name":"Paul Bäumer","steam_id":76561198308302932,"connected_time":5498000000000,"state":"active","ping":106},{"user_id":115,"name":"I ate my wife","steam_id":76561198388750592,"connected_time":687000000000,"state":"active","ping":65},{"user_id":129,"name":"r","steam_id":76561199485138600,"connected_time":231000000000,"state":"active","ping":61},{"user_id":79,"name":"C. Trebonius Pius","steam_id":76561198310327706,"connected_time":3722000000000,"state":"active","ping":74},{"user_id":21,"name":"Nyhde","steam_id":76561198012771416,"connected_time":7060000000000,"state":"active","ping":102},{"user_id":111,"name":"Yeets3er","steam_id":76561199137127757,"connected_time":937000000000,"state":"active","ping":55},{"user_id":109,"name":"Paul Allen's Business Card","steam_id":76561198013959716,"connected_time":1054000000000,"state":"active","ping":54},{"user_id":124,"name":"go play rimworld","steam_id":76561199397932924,"connected_time":450000000000,"state":"active","ping":76},{"user_id":127,"name":"gardontar","steam_id":76561198169929053,"connected_time":339000000000,"state":"active","ping":58},{"user_id":113,"name":"Rosguard","steam_id":76561198030984263,"connected_time":823000000000,"state":"active","ping":42},{"user_id":132,"name":"pfear","steam_id":76561197999207328,"connected_time":172000000000,"state":"active","ping":80},{"user_id":133,"name":"Chinese Kharp","steam_id":76561199383220023,"connected_time":113000000000,"state":"active","ping":85},{"user_id":122,"name":"Jeerven","steam_id":76561198259189841,"connected_time":511000000000,"state":"active","ping":73},{"user_id":135,"name":"slifer the executive producer","steam_id":76561198322087870,"connected_time":63000000000,"state":"active","ping":112},{"user_id":41,"name":"Fallen Dog","steam_id":76561198851387188,"connected_time":5962000000000,"state":"active","ping":60},{"user_id":134,"name":"Marky","steam_id":76561199474556920,"connected_time":82000000000,"state":"active","ping":109},{"user_id":90,"name":"JeanCorben","steam_id":76561197965133561,"connected_time":3141000000000,"state":"active","ping":38},{"user_id":136,"name":"peter griffin be like","steam_id":76561198149476240,"connected_time":34000000000,"state":"spawning","ping":91},{"user_id":107,"name":"engineer drip","steam_id":76561198991032570,"connected_time":1335000000000,"state":"active","ping":94},{"user_id":102,"name":"[Claw] WarkWark","steam_id":76561198005763295,"connected_time":1594000000000,"state":"active","ping":90},{"user_id":108,"name":"Ash","steam_id":76561198148738525,"connected_time":1101000000000,"state":"active","ping":104},{"user_id":123,"name":"simon","steam_id":76561198880361394,"connected_time":508000000000,"state":"active","ping":60}]},{"server_id":41,"name":"Uncletopia | London | 8 | Community","name_short":"lon-8","host":"lon-1.uk.uncletopia.com","port":27085,"enabled":true,"region":"eu","cc":"gb","latitude":51.509865,"longitude":-0.118092,"reserved":0,"last_update":"0001-01-01T00:00:00Z","name_a2s":"Uncletopia | London | 8 | Community","protocol":17,"map":"pl_swiftwater_final1","folder":"tf","game":"Team Fortress","app_id":440,"player_count":0,"max_players":24,"Bots":0,"server_type":"Dedicated","server_os":"Linux","password":true,"vac":true,"version":"7882260","steam_id":85568392924964315,"keywords":["nocrits","nodmgspread","payload","uncletopia"],"game_id":440,"stv_port":27086,"stv_name":"Uncletopia | London | 8 | Community | STV","players":null},{"server_id":300,"name":"Uncletopia | Montréal | 1 | All Maps","name_short":"mtl-1","host":"mtl-1.ca.uncletopia.com","port":27015,"enabled":true,"region":"us-east","cc":"ca","latitude":45.50889,"longitude":-73.56167,"reserved":0,"last_update":"0001-01-01T00:00:00Z","name_a2s":"Uncletopia | Montréal | 1 | All Maps","protocol":17,"map":"pl_barnblitz","folder":"tf","game":"Team Fortress","app_id":440,"player_count":0,"max_players":24,"Bots":0,"server_type":"Dedicated","server_os":"Linux","password":true,"vac":true,"version":"7882260","steam_id":85568392924500087,"keywords":["nocrits","nodmgspread","payload","uncletopia"],"game_id":440,"stv_port":27016,"stv_name":"Uncletopia | Montréal | 1 | All Maps | STV","players":null},{"server_id":301,"name":"Uncletopia | Montréal | 2 | All Maps","name_short":"mtl-2","host":"mtl-1.ca.uncletopia.com","port":27025,"enabled":true,"region":"us-east","cc":"ca","latitude":45.50889,"longitude":-73.56167,"reserved":0,"last_update":"0001-01-01T00:00:00Z","name_a2s":"Uncletopia | Montréal | 2 | All Maps","protocol":17,"map":"koth_highpass","folder":"tf","game":"Team Fortress","app_id":440,"player_count":0,"max_players":24,"Bots":0,"server_type":"Dedicated","server_os":"Linux","password":true,"vac":true,"version":"7882260","steam_id":85568392924500088,"keywords":["cp","nocrits","nodmgspread","uncletopia"],"game_id":440,"stv_port":27026,"stv_name":"Uncletopia | Montréal | 2 | All Maps | STV","players":null},{"server_id":302,"name":"Uncletopia | Montréal | 3 | All Maps","name_short":"mtl-3","host":"mtl-1.ca.uncletopia.com","port":27035,"enabled":true,"region":"us-east","cc":"ca","latitude":45.50889,"longitude":-73.56167,"reserved":0,"last_update":"0001-01-01T00:00:00Z","name_a2s":"Uncletopia | Montréal | 3 | All Maps","protocol":17,"map":"koth_cascade","folder":"tf","game":"Team Fortress","app_id":440,"player_count":0,"max_players":24,"Bots":0,"server_type":"Dedicated","server_os":"Linux","password":true,"vac":true,"version":"7882260","steam_id":85568392924500089,"keywords":["cp","nocrits","nodmgspread","uncletopia"],"game_id":440,"stv_port":27036,"stv_name":"Uncletopia | Montréal | 3 | All Maps | STV","players":null},{"server_id":303,"name":"Uncletopia | Montréal | 4 | No Payload","name_short":"mtl-4","host":"mtl-1.ca.uncletopia.com","port":27045,"enabled":true,"region":"us-east","cc":"ca","latitude":45.50889,"longitude":-73.56167,"reserved":0,"last_update":"0001-01-01T00:00:00Z","name_a2s":"Uncletopia | Montréal | 4 | No Payload","protocol":17,"map":"koth_nucleus","folder":"tf","game":"Team Fortress","app_id":440,"player_count":0,"max_players":24,"Bots":0,"server_type":"Dedicated","server_os":"Linux","password":true,"vac":true,"version":"7882260","steam_id":85568392924500090,"keywords":["cp","nocrits","nodmgspread","uncletopia"],"game_id":440,"stv_port":27046,"stv_name":"Uncletopia | Montréal | 4 | No Payload | STV","players":null},{"server_id":13,"name":"Uncletopia | New York City | 1 | All Maps","name_short":"nyc-1","host":"nyc-1.us.uncletopia.com","port":27015,"enabled":true,"region":"us-east","cc":"us","latitude":40.73061,"longitude":-73.93524,"reserved":0,"last_update":"0001-01-01T00:00:00Z","name_a2s":"Uncletopia | New York City | 1 | All Maps","protocol":17,"map":"cp_5gorge","folder":"tf","game":"Team Fortress","app_id":440,"player_count":0,"max_players":24,"Bots":0,"server_type":"Dedicated","server_os":"Linux","password":true,"vac":true,"version":"7882260","steam_id":85568392924469993,"keywords":["cp","nocrits","nodmgspread","uncletopia"],"game_id":440,"stv_port":27016,"stv_name":"Uncletopia | New York City | 1 | All Maps | STV","players":null},{"server_id":14,"name":"Uncletopia | New York City | 2 | All Maps","name_short":"nyc-2","host":"nyc-1.us.uncletopia.com","port":27025,"enabled":true,"region":"us-east","cc":"us","latitude":40.73061,"longitude":-73.93524,"reserved":0,"last_update":"0001-01-01T00:00:00Z","name_a2s":"Uncletopia | New York City | 2 | All Maps","protocol":17,"map":"koth_lakeside_final","folder":"tf","game":"Team Fortress","app_id":440,"player_count":0,"max_players":24,"Bots":0,"server_type":"Dedicated","server_os":"Linux","password":true,"vac":true,"version":"7882260","steam_id":85568392924469994,"keywords":["cp","nocrits","nodmgspread","uncletopia"],"game_id":440,"stv_port":27026,"stv_name":"Uncletopia | New York City | 2 | All Maps | STV","players":null},{"server_id":15,"name":"Uncletopia | New York City | 3 | Stopwatch Beta","name_short":"nyc-3","host":"nyc-1.us.uncletopia.com","port":27035,"enabled":true,"region":"us-east","cc":"us","latitude":40.73061,"longitude":-73.93524,"reserved":0,"last_update":"0001-01-01T00:00:00Z","name_a2s":"Uncletopia | New York City | 3 | Stopwatch Beta","protocol":17,"map":"pl_borneo","folder":"tf","game":"Team Fortress","app_id":440,"player_count":0,"max_players":24,"Bots":0,"server_type":"Dedicated","server_os":"Linux","password":true,"vac":true,"version":"7882260","steam_id":85568392924742820,"keywords":["nocrits","nodmgspread","payload","uncletopia"],"game_id":440,"stv_port":27036,"stv_name":"Uncletopia | New York City | 3 | Stopwatch Beta | STV","players":null},{"server_id":16,"name":"Uncletopia | New York City | 4 | Community","name_short":"nyc-4","host":"nyc-1.us.uncletopia.com","port":27045,"enabled":true,"region":"us-east","cc":"us","latitude":40.73061,"longitude":-73.93524,"reserved":0,"last_update":"0001-01-01T00:00:00Z","name_a2s":"Uncletopia | New York City | 4 | Community","protocol":17,"map":"workshop/koth_kemptown_rc1.ugc767410655","folder":"tf","game":"Team Fortress","app_id":440,"player_count":0,"max_players":24,"Bots":0,"server_type":"Dedicated","server_os":"Linux","password":true,"vac":true,"version":"7882260","steam_id":85568392924742821,"keywords":["cp","nocrits","nodmgspread","uncletopia"],"game_id":440,"stv_port":27046,"stv_name":"Uncletopia | New York City | 4 | Community | STV","players":null},{"server_id":142,"name":"Uncletopia | São Paulo | 1 | All Maps","name_short":"sao-1","host":"sao-1.br.uncletopia.com","port":27015,"enabled":true,"region":"sa","cc":"br","latitude":-23.533773,"longitude":-46.62529,"reserved":0,"last_update":"0001-01-01T00:00:00Z","name_a2s":"Uncletopia | São Paulo | 1 | All Maps","protocol":17,"map":"cp_process_final","folder":"tf","game":"Team Fortress","app_id":440,"player_count":0,"max_players":24,"Bots":0,"server_type":"Dedicated","server_os":"Linux","password":true,"vac":true,"version":"7882260","steam_id":85568392924469996,"keywords":["cp","nocrits","nodmgspread","uncletopia"],"game_id":440,"stv_port":27016,"stv_name":"Uncletopia | São Paulo | 1 | All Maps | STV","players":null},{"server_id":143,"name":"Uncletopia | São Paulo | 2 | All Maps","name_short":"sao-2","host":"sao-2.br.uncletopia.com","port":27015,"enabled":true,"region":"sa","cc":"br","latitude":-23.533773,"longitude":-46.62529,"reserved":0,"last_update":"0001-01-01T00:00:00Z","name_a2s":"Uncletopia | São Paulo | 2 | All Maps","protocol":17,"map":"pl_pier","folder":"tf","game":"Team Fortress","app_id":440,"player_count":0,"max_players":24,"Bots":0,"server_type":"Dedicated","server_os":"Linux","password":true,"vac":true,"version":"7882260","steam_id":85568392924485349,"keywords":["nocrits","nodmgspread","payload","uncletopia"],"game_id":440,"stv_port":27016,"stv_name":"Uncletopia | São Paulo | 2 | All Maps | STV","players":null},{"server_id":7,"name":"Uncletopia | Seattle | 1 | All Maps","name_short":"sea-1","host":"sea-1.us.uncletopia.com","port":27015,"enabled":true,"region":"us-west","cc":"us","latitude":47.608013,"longitude":-122.33517,"reserved":0,"last_update":"0001-01-01T00:00:00Z","name_a2s":"Uncletopia | Seattle | 1 | All Maps","protocol":17,"map":"pl_badwater","folder":"tf","game":"Team Fortress","app_id":440,"player_count":24,"max_players":24,"Bots":0,"server_type":"Dedicated","server_os":"Linux","password":true,"vac":true,"version":"7882260","steam_id":85568392924469997,"keywords":["nocrits","nodmgspread","payload","uncletopia"],"game_id":440,"stv_port":27016,"stv_name":"Uncletopia | Seattle | 1 | All Maps | STV","players":[{"user_id":740,"name":"resh","steam_id":76561198239598834,"connected_time":8515000000000,"state":"active","ping":122},{"user_id":844,"name":"Callahan","steam_id":76561197976928457,"connected_time":540000000000,"state":"active","ping":50},{"user_id":768,"name":"delight","steam_id":76561197980280272,"connected_time":5083000000000,"state":"active","ping":45},{"user_id":826,"name":"toilet thief","steam_id":76561198057486874,"connected_time":3468000000000,"state":"active","ping":74},{"user_id":684,"name":"profile name","steam_id":76561198032625036,"connected_time":12833000000000,"state":"active","ping":59},{"user_id":775,"name":"ふわふわ毛布","steam_id":76561198088403016,"connected_time":5070000000000,"state":"active","ping":179},{"user_id":746,"name":"Sir Loincloth","steam_id":76561198033073991,"connected_time":8033000000000,"state":"active","ping":61},{"user_id":848,"name":"sillymoder2005","steam_id":76561198202235495,"connected_time":225000000000,"state":"active","ping":35},{"user_id":849,"name":"Ferran, Loathsome Hogsqueezer","steam_id":76561198004480302,"connected_time":70000000000,"state":"active","ping":94},{"user_id":597,"name":"roryisonamobilehotspot","steam_id":76561198065825165,"connected_time":21959000000000,"state":"active","ping":89},{"user_id":771,"name":"weed lesbian","steam_id":76561197989933601,"connected_time":5076000000000,"state":"active","ping":52},{"user_id":777,"name":"JTuu","steam_id":76561198030606396,"connected_time":4943000000000,"state":"active","ping":42},{"user_id":847,"name":"oil","steam_id":76561198099980149,"connected_time":282000000000,"state":"active","ping":75},{"user_id":839,"name":"Disc0","steam_id":76561198067337267,"connected_time":1070000000000,"state":"active","ping":54},{"user_id":845,"name":"MyMonkeyBaby","steam_id":76561198046896670,"connected_time":529000000000,"state":"active","ping":55},{"user_id":670,"name":"smeasly got the dab pen","steam_id":76561198028718812,"connected_time":15283000000000,"state":"active","ping":44},{"user_id":846,"name":"St. Baddie d'Arc","steam_id":76561198206752128,"connected_time":378000000000,"state":"active","ping":153},{"user_id":827,"name":"Infuzion4","steam_id":76561198119664203,"connected_time":3454000000000,"state":"active","ping":86},{"user_id":841,"name":"johnny karate","steam_id":76561198165847261,"connected_time":926000000000,"state":"active","ping":49},{"user_id":833,"name":"Sniff","steam_id":76561198010270922,"connected_time":2299000000000,"state":"active","ping":45},{"user_id":828,"name":"glock in my rawry :3","steam_id":76561198084885479,"connected_time":3428000000000,"state":"active","ping":75},{"user_id":834,"name":"Apprentice Pybro","steam_id":76561197996353534,"connected_time":1800000000000,"state":"active","ping":75},{"user_id":843,"name":"tr","steam_id":76561198046944222,"connected_time":558000000000,"state":"active","ping":44},{"user_id":787,"name":"jorts","steam_id":76561199041179985,"connected_time":4137000000000,"state":"active","ping":59}]},{"server_id":119,"name":"Uncletopia | Seattle | 2 | All Maps","name_short":"sea-2","host":"sea-1.us.uncletopia.com","port":27025,"enabled":true,"region":"us-west","cc":"us","latitude":47.608013,"longitude":-122.33517,"reserved":0,"last_update":"0001-01-01T00:00:00Z","name_a2s":"Uncletopia | Seattle | 2 | All Maps","protocol":17,"map":"koth_cascade","folder":"tf","game":"Team Fortress","app_id":440,"player_count":0,"max_players":24,"Bots":0,"server_type":"Dedicated","server_os":"Linux","password":true,"vac":true,"version":"7882260","steam_id":85568392924469998,"keywords":["cp","nocrits","nodmgspread","uncletopia"],"game_id":440,"stv_port":27026,"stv_name":"Uncletopia | Seattle | 2 | All Maps | STV","players":null},{"server_id":406,"name":"Uncletopia | Seattle | 3 | Stopwatch Beta","name_short":"sea-3","host":"sea-1.us.uncletopia.com","port":27035,"enabled":true,"region":"us-west","cc":"us","latitude":47.608013,"longitude":-122.33517,"reserved":0,"last_update":"0001-01-01T00:00:00Z","name_a2s":"Uncletopia | Seattle | 3 | Stopwatch Beta","protocol":17,"map":"pl_swiftwater_final1","folder":"tf","game":"Team Fortress","app_id":440,"player_count":0,"max_players":24,"Bots":0,"server_type":"Dedicated","server_os":"Linux","password":true,"vac":true,"version":"7882260","steam_id":85568392924515217,"keywords":["nocrits","nodmgspread","payload","uncletopia"],"game_id":440,"stv_port":27036,"stv_name":"Uncletopia | Seattle | 3 | Stopwatch Beta | STV","players":null},{"server_id":17,"name":"Uncletopia | San Francisco | 1 | All Maps","name_short":"sfo-1","host":"sfo-1.us.uncletopia.com","port":27015,"enabled":true,"region":"us-west","cc":"us","latitude":37.77397,"longitude":-122.4313,"reserved":0,"last_update":"0001-01-01T00:00:00Z","name_a2s":"Uncletopia | San Francisco | 1 | All Maps","protocol":17,"map":"pl_barnblitz","folder":"tf","game":"Team Fortress","app_id":440,"player_count":24,"max_players":24,"Bots":0,"server_type":"Dedicated","server_os":"Linux","password":true,"vac":true,"version":"7882260","steam_id":85568392924469999,"keywords":["nocrits","nodmgspread","payload","uncletopia"],"game_id":440,"stv_port":27016,"stv_name":"Uncletopia | San Francisco | 1 | All Maps | STV","players":[{"user_id":307,"name":"vintage","steam_id":76561198179249054,"connected_time":2856000000000,"state":"active","ping":42},{"user_id":314,"name":"Anxious Nerd Bird","steam_id":76561198112178602,"connected_time":2552000000000,"state":"active","ping":52},{"user_id":246,"name":"SQbuilder","steam_id":76561198076473375,"connected_time":7378000000000,"state":"active","ping":44},{"user_id":321,"name":"basmati jarate","steam_id":76561198319442494,"connected_time":1697000000000,"state":"active","ping":77},{"user_id":309,"name":"Kidjays","steam_id":76561198124941901,"connected_time":2819000000000,"state":"active","ping":90},{"user_id":322,"name":"rat","steam_id":76561199207696533,"connected_time":1680000000000,"state":"active","ping":85},{"user_id":333,"name":"BasedBoozer","steam_id":76561198086382694,"connected_time":387000000000,"state":"active","ping":100},{"user_id":327,"name":"AAGooseman","steam_id":76561198378941369,"connected_time":1552000000000,"state":"active","ping":45},{"user_id":324,"name":"usedhalfcart","steam_id":76561198072621852,"connected_time":1621000000000,"state":"active","ping":129},{"user_id":325,"name":"yungSoul","steam_id":76561198121831068,"connected_time":1618000000000,"state":"active","ping":63},{"user_id":282,"name":"An Unhappy Clown","steam_id":76561198175516514,"connected_time":4902000000000,"state":"active","ping":88},{"user_id":250,"name":"Giorno Giovanna","steam_id":76561198044106874,"connected_time":7231000000000,"state":"active","ping":63},{"user_id":329,"name":"Ruthless2467","steam_id":76561198124055298,"connected_time":1413000000000,"state":"active","ping":51},{"user_id":313,"name":"merlin","steam_id":76561198334511480,"connected_time":2665000000000,"state":"active","ping":75},{"user_id":298,"name":"cringy","steam_id":76561198323000455,"connected_time":4264000000000,"state":"active","ping":67},{"user_id":315,"name":"rippinthebon","steam_id":76561198306448569,"connected_time":2372000000000,"state":"active","ping":109},{"user_id":305,"name":"Portabello","steam_id":76561198092412930,"connected_time":3342000000000,"state":"active","ping":47},{"user_id":287,"name":"Bagoool","steam_id":76561198065368286,"connected_time":4830000000000,"state":"active","ping":89},{"user_id":328,"name":"the squeaky scout","steam_id":76561198835935576,"connected_time":1471000000000,"state":"active","ping":83},{"user_id":318,"name":"sweaterfan","steam_id":76561199389567214,"connected_time":1884000000000,"state":"active","ping":101},{"user_id":316,"name":"Hangover Status Invincible","steam_id":76561198039650508,"connected_time":2245000000000,"state":"active","ping":114},{"user_id":326,"name":"The Bad Samaritan","steam_id":76561198044079084,"connected_time":1610000000000,"state":"active","ping":57},{"user_id":303,"name":"THE PRODGIAL STUNNA","steam_id":76561198325613425,"connected_time":3784000000000,"state":"active","ping":83},{"user_id":332,"name":"a cat plushie","steam_id":76561198080046542,"connected_time":552000000000,"state":"active","ping":61}]},{"server_id":18,"name":"Uncletopia | San Francisco | 2 | All Maps","name_short":"sfo-2","host":"sfo-1.us.uncletopia.com","port":27025,"enabled":true,"region":"us-west","cc":"us","latitude":37.77397,"longitude":-122.4313,"reserved":0,"last_update":"0001-01-01T00:00:00Z","name_a2s":"Uncletopia | San Francisco | 2 | All Maps","protocol":17,"map":"koth_highpass","folder":"tf","game":"Team Fortress","app_id":440,"player_count":0,"max_players":24,"Bots":0,"server_type":"Dedicated","server_os":"Linux","password":true,"vac":true,"version":"7882260","steam_id":85568392924470000,"keywords":["cp","nocrits","nodmgspread","uncletopia"],"game_id":440,"stv_port":27026,"stv_name":"Uncletopia | San Francisco | 2 | All Maps | STV","players":null},{"server_id":19,"name":"Uncletopia | San Francisco | 3 | Stopwatch Beta","name_short":"sfo-3","host":"sfo-1.us.uncletopia.com","port":27035,"enabled":true,"region":"us-west","cc":"us","latitude":37.77397,"longitude":-122.4313,"reserved":0,"last_update":"0001-01-01T00:00:00Z","name_a2s":"Uncletopia | San Francisco | 3 | Stopwatch Beta","protocol":17,"map":"pl_frontier_final","folder":"tf","game":"Team Fortress","app_id":440,"player_count":0,"max_players":24,"Bots":0,"server_type":"Dedicated","server_os":"Linux","password":true,"vac":true,"version":"7882260","steam_id":85568392924742824,"keywords":["nocrits","nodmgspread","payload","uncletopia"],"game_id":440,"stv_port":27036,"stv_name":"Uncletopia | San Francisco | 3 | Stopwatch Beta | STV","players":null},{"server_id":20,"name":"Uncletopia | San Francisco | 4 | Community","name_short":"sfo-4","host":"sfo-1.us.uncletopia.com","port":27045,"enabled":true,"region":"us-west","cc":"us","latitude":37.77397,"longitude":-122.4313,"reserved":0,"last_update":"0001-01-01T00:00:00Z","name_a2s":"Uncletopia | San Francisco | 4 | Community","protocol":17,"map":"workshop/koth_slaughter_rc1.ugc1712845210","folder":"tf","game":"Team Fortress","app_id":440,"player_count":0,"max_players":24,"Bots":0,"server_type":"Dedicated","server_os":"Linux","password":true,"vac":true,"version":"7882260","steam_id":85568392924742826,"keywords":["cp","nocrits","nodmgspread","uncletopia"],"game_id":440,"stv_port":27046,"stv_name":"Uncletopia | San Francisco | 4 | Community | STV","players":null},{"server_id":141,"name":"Uncletopia | Sydney | 1 | All Maps","name_short":"syd-1","host":"syd-1.au.uncletopia.com","port":27015,"enabled":true,"region":"au","cc":"au","latitude":-33.865143,"longitude":151.2099,"reserved":0,"last_update":"0001-01-01T00:00:00Z","name_a2s":"Uncletopia | Sydney | 1 | All Maps","protocol":17,"map":"koth_suijin","folder":"tf","game":"Team Fortress","app_id":440,"player_count":22,"max_players":24,"Bots":0,"server_type":"Dedicated","server_os":"Linux","password":true,"vac":true,"version":"7882260","steam_id":85568392924470001,"keywords":["cp","nocrits","nodmgspread","uncletopia"],"game_id":440,"stv_port":27016,"stv_name":"Uncletopia | Sydney | 1 | All Maps | STV","players":[{"user_id":247,"name":"ibus","steam_id":76561199026701614,"connected_time":115000000000,"state":"active","ping":59},{"user_id":248,"name":"Jodelkönig Franzl Lang","steam_id":76561198007667830,"connected_time":72000000000,"state":"active","ping":47},{"user_id":243,"name":"Ultimate Spaghet","steam_id":76561198880336399,"connected_time":405000000000,"state":"active","ping":58},{"user_id":249,"name":"Fyre Rose","steam_id":76561198000527551,"connected_time":35000000000,"state":"active","ping":74},{"user_id":250,"name":"Bigrichard","steam_id":76561198032092945,"connected_time":22000000000,"state":"active","ping":81},{"user_id":165,"name":"CypressFluff (She/Her)","steam_id":76561198174667818,"connected_time":4464000000000,"state":"active","ping":62},{"user_id":233,"name":"sf/k","steam_id":76561198047758776,"connected_time":898000000000,"state":"active","ping":41},{"user_id":240,"name":"Killing","steam_id":76561198107392931,"connected_time":566000000000,"state":"active","ping":79},{"user_id":207,"name":"Cogzy","steam_id":76561198012463402,"connected_time":2031000000000,"state":"active","ping":69},{"user_id":228,"name":"scuba cat... my beloved","steam_id":76561198203917953,"connected_time":1122000000000,"state":"active","ping":67},{"user_id":229,"name":"alqwnq","steam_id":76561198133867907,"connected_time":1071000000000,"state":"active","ping":66},{"user_id":251,"name":"Destroy Lonely","steam_id":76561198183714687,"connected_time":2000000000,"state":"spawning","ping":37},{"user_id":235,"name":"Grumbo","steam_id":76561198169116395,"connected_time":825000000000,"state":"active","ping":66},{"user_id":231,"name":"MikkyD","steam_id":76561198043452962,"connected_time":973000000000,"state":"active","ping":61},{"user_id":237,"name":"bread","steam_id":76561199405764106,"connected_time":665000000000,"state":"active","ping":40},{"user_id":200,"name":"Hungry for thumbtacks","steam_id":76561198059129270,"connected_time":2447000000000,"state":"active","ping":69},{"user_id":234,"name":"i only said","steam_id":76561199436707447,"connected_time":876000000000,"state":"active","ping":49},{"user_id":238,"name":"tuxy","steam_id":76561198996816684,"connected_time":664000000000,"state":"active","ping":71},{"user_id":239,"name":"mushroom","steam_id":76561197992336470,"connected_time":628000000000,"state":"active","ping":93},{"user_id":242,"name":"clotpole","steam_id":76561198951093608,"connected_time":502000000000,"state":"active","ping":66},{"user_id":245,"name":"kiby*","steam_id":76561198197824065,"connected_time":248000000000,"state":"active","ping":71},{"user_id":246,"name":"james16","steam_id":76561198362678073,"connected_time":245000000000,"state":"active","ping":34}]},{"server_id":123,"name":"Uncletopia | Sydney | 2 | All Maps","name_short":"syd-2","host":"syd-1.au.uncletopia.com","port":27025,"enabled":true,"region":"au","cc":"au","latitude":-33.865143,"longitude":151.2099,"reserved":0,"last_update":"0001-01-01T00:00:00Z","name_a2s":"Uncletopia | Sydney | 2 | All Maps","protocol":17,"map":"pl_pier","folder":"tf","game":"Team Fortress","app_id":440,"player_count":2,"max_players":24,"Bots":0,"server_type":"Dedicated","server_os":"Linux","password":true,"vac":true,"version":"7882260","steam_id":85568392924470002,"keywords":["nocrits","nodmgspread","payload","uncletopia"],"game_id":440,"stv_port":27026,"stv_name":"Uncletopia | Sydney | 2 | All Maps | STV","players":[{"user_id":378,"name":"perturb (feed/seed)","steam_id":76561198085124297,"connected_time":4929000000000,"state":"active","ping":47},{"user_id":423,"name":"Zom-B-Livion","steam_id":76561197968167449,"connected_time":676000000000,"state":"active","ping":70}]},{"server_id":395,"name":"Uncletopia | Sydney | 3 | All Maps","name_short":"syd-3","host":"syd-1.au.uncletopia.com","port":27035,"enabled":true,"region":"au","cc":"au","latitude":-33.865143,"longitude":151.2099,"reserved":0,"last_update":"0001-01-01T00:00:00Z","name_a2s":"Uncletopia | Sydney | 3 | All Maps","protocol":17,"map":"koth_viaduct","folder":"tf","game":"Team Fortress","app_id":440,"player_count":4,"max_players":24,"Bots":0,"server_type":"Dedicated","server_os":"Linux","password":true,"vac":true,"version":"7882260","steam_id":85568392925194467,"keywords":["cp","nocrits","nodmgspread","uncletopia"],"game_id":440,"stv_port":27036,"stv_name":"Uncletopia | Sydney | 3 | All Maps | STV","players":[{"user_id":15,"name":"Soldier main(Really)","steam_id":76561198153397177,"connected_time":5270000000000,"state":"active","ping":44},{"user_id":16,"name":"the weed alien","steam_id":76561199205171109,"connected_time":5267000000000,"state":"active","ping":57},{"user_id":30,"name":"Daniel Chong","steam_id":76561199009189725,"connected_time":74000000000,"state":"active","ping":62},{"user_id":26,"name":"YourLocalPyroshark","steam_id":76561199099769110,"connected_time":1719000000000,"state":"active","ping":47}]},{"server_id":396,"name":"Uncletopia | Sydney | 4 | All Maps","name_short":"syd-4","host":"syd-1.au.uncletopia.com","port":27045,"enabled":true,"region":"au","cc":"au","latitude":-33.865143,"longitude":151.2099,"reserved":0,"last_update":"0001-01-01T00:00:00Z","name_a2s":"Uncletopia | Sydney | 4 | All Maps","protocol":17,"map":"koth_highpass","folder":"tf","game":"Team Fortress","app_id":440,"player_count":0,"max_players":24,"Bots":0,"server_type":"Dedicated","server_os":"Linux","password":true,"vac":true,"version":"7882260","steam_id":85568392925397958,"keywords":["cp","nocrits","nodmgspread","uncletopia"],"game_id":440,"stv_port":27046,"stv_name":"Uncletopia | Sydney | 4 | All Maps | STV","players":null},{"server_id":58,"name":"Uncletopia | Sydney | 5 | Stopwatch Beta","name_short":"syd-5","host":"syd-1.au.uncletopia.com","port":27055,"enabled":true,"region":"au","cc":"au","latitude":-33.865143,"longitude":151.2099,"reserved":0,"last_update":"0001-01-01T00:00:00Z","name_a2s":"Uncletopia | Sydney | 5 | Stopwatch Beta","protocol":17,"map":"koth_highpass","folder":"tf","game":"Team Fortress","app_id":440,"player_count":0,"max_players":24,"Bots":0,"server_type":"Dedicated","server_os":"Linux","password":true,"vac":true,"version":"7882260","steam_id":85568392925397959,"keywords":["cp","nocrits","nodmgspread","uncletopia"],"game_id":440,"stv_port":27056,"stv_name":"Uncletopia | Sydney | 5 | Stopwatch Beta | STV","players":null},{"server_id":59,"name":"Uncletopia | Sydney | 6 | Community","name_short":"syd-6","host":"syd-1.au.uncletopia.com","port":27065,"enabled":true,"region":"au","cc":"au","latitude":-33.865143,"longitude":151.2099,"reserved":0,"last_update":"0001-01-01T00:00:00Z","name_a2s":"Uncletopia | Sydney | 6 | Community","protocol":17,"map":"workshop/koth_product_final.ugc454272353","folder":"tf","game":"Team Fortress","app_id":440,"player_count":0,"max_players":24,"Bots":0,"server_type":"Dedicated","server_os":"Linux","password":true,"vac":true,"version":"7882260","steam_id":85568392925397960,"keywords":["cp","nocrits","nodmgspread","uncletopia"],"game_id":440,"stv_port":27066,"stv_name":"Uncletopia | Sydney | 6 | Community | STV","players":null},{"server_id":49,"name":"Uncletopia | Warsaw | 1 | All Maps","name_short":"waw-1","host":"waw-1.pl.uncletopia.com","port":27015,"enabled":true,"region":"eu","cc":"pl","latitude":52.2297,"longitude":21.017532,"reserved":0,"last_update":"0001-01-01T00:00:00Z","name_a2s":"","protocol":0,"map":"","folder":"","game":"","app_id":0,"player_count":0,"max_players":0,"Bots":0,"server_type":"","server_os":"","password":false,"vac":false,"version":"","steam_id":0,"keywords":null,"game_id":0,"stv_port":0,"stv_name":"","players":null},{"server_id":50,"name":"Uncletopia | Warsaw | 2 | All Maps","name_short":"waw-2","host":"waw-1.pl.uncletopia.com","port":27025,"enabled":true,"region":"eu","cc":"pl","latitude":52.2297,"longitude":21.017532,"reserved":0,"last_update":"0001-01-01T00:00:00Z","name_a2s":"Uncletopia | Warsaw | 2 | All Maps","protocol":17,"map":"pl_upward","folder":"tf","game":"Team Fortress","app_id":440,"player_count":0,"max_players":24,"Bots":0,"server_type":"Dedicated","server_os":"Linux","password":true,"vac":true,"version":"7882260","steam_id":85568392925397851,"keywords":["nocrits","nodmgspread","payload","uncletopia"],"game_id":440,"stv_port":27026,"stv_name":"Uncletopia | Warsaw | 2 | All Maps | STV","players":null},{"server_id":51,"name":"Uncletopia | Warsaw | 3 | All Maps","name_short":"waw-3","host":"waw-1.pl.uncletopia.com","port":27035,"enabled":true,"region":"eu","cc":"pl","latitude":52.2297,"longitude":21.017532,"reserved":0,"last_update":"0001-01-01T00:00:00Z","name_a2s":"Uncletopia | Warsaw | 3 | All Maps","protocol":17,"map":"koth_viaduct","folder":"tf","game":"Team Fortress","app_id":440,"player_count":0,"max_players":24,"Bots":0,"server_type":"Dedicated","server_os":"Linux","password":true,"vac":true,"version":"7882260","steam_id":85568392925397852,"keywords":["cp","nocrits","nodmgspread","uncletopia"],"game_id":440,"stv_port":27036,"stv_name":"Uncletopia | Warsaw | 3 | All Maps | STV","players":null},{"server_id":52,"name":"Uncletopia | Warsaw | 4 | All Maps","name_short":"waw-4","host":"waw-1.pl.uncletopia.com","port":27045,"enabled":true,"region":"eu","cc":"pl","latitude":52.2297,"longitude":21.017532,"reserved":0,"last_update":"0001-01-01T00:00:00Z","name_a2s":"Uncletopia | Warsaw | 4 | All Maps","protocol":17,"map":"koth_highpass","folder":"tf","game":"Team Fortress","app_id":440,"player_count":0,"max_players":24,"Bots":0,"server_type":"Dedicated","server_os":"Linux","password":true,"vac":true,"version":"7882260","steam_id":85568392925397853,"keywords":["cp","nocrits","nodmgspread","uncletopia"],"game_id":440,"stv_port":27046,"stv_name":"Uncletopia | Warsaw | 4 | All Maps | STV","players":null},{"server_id":53,"name":"Uncletopia | Warsaw | 5 | Stopwatch Beta","name_short":"waw-5","host":"waw-1.pl.uncletopia.com","port":27055,"enabled":true,"region":"eu","cc":"pl","latitude":52.2297,"longitude":21.017532,"reserved":0,"last_update":"0001-01-01T00:00:00Z","name_a2s":"Uncletopia | Warsaw | 5 | Stopwatch Beta","protocol":17,"map":"cp_mountainlab","folder":"tf","game":"Team Fortress","app_id":440,"player_count":0,"max_players":24,"Bots":0,"server_type":"Dedicated","server_os":"Linux","password":true,"vac":true,"version":"7882260","steam_id":85568392925397854,"keywords":["cp","nocrits","nodmgspread","uncletopia"],"game_id":440,"stv_port":27056,"stv_name":"Uncletopia | Warsaw | 5 | Stopwatch Beta | STV","players":null},{"server_id":54,"name":"Uncletopia | Warsaw | 6 | Community","name_short":"waw-6","host":"waw-1.pl.uncletopia.com","port":27065,"enabled":true,"region":"eu","cc":"pl","latitude":52.2297,"longitude":21.017532,"reserved":0,"last_update":"0001-01-01T00:00:00Z","name_a2s":"Uncletopia | Warsaw | 6 | Community","protocol":17,"map":"koth_viaduct","folder":"tf","game":"Team Fortress","app_id":440,"player_count":0,"max_players":24,"Bots":0,"server_type":"Dedicated","server_os":"Linux","password":true,"vac":true,"version":"7882260","steam_id":85568392925397856,"keywords":["cp","nocrits","nodmgspread","uncletopia"],"game_id":440,"stv_port":27066,"stv_name":"Uncletopia | Warsaw | 6 | Community | STV","players":null}]}