{"status":true,"message":"","result":[{"server_id":9,"name":"Uncletopia | Atlanta | 1 | All Maps","name_short":"atl-1","host":"atl-1.us.uncletopia.com","port":27015,"enabled":true,"region":"us-east","cc":"us","latitude":33.753746,"longitude":-84.38633,"reserved":0,"last_update":"0001-01-01T00:00:00Z","name_a2s":"Uncletopia | Atlanta | 1 | All Maps","protocol":17,"map":"cp_dustbowl","folder":"tf","game":"Team Fortress","app_id":440,"player_count":0,"max_players":24,"Bots":0,"server_type":"Dedicated","server_os":"Linux","password":true,"vac":true,"version":"7757534","steam_id":85568392924469982,"keywords":["cp","nocrits","nodmgspread","uncletopia"],"game_id":440,"stv_port":27016,"stv_name":"Uncletopia | Atlanta | 1 | All Maps | STV","players":null},{"server_id":400,"name":"Uncletopia | Atlanta | 3 | Stopwatch Beta","name_short":"atl-3","host":"atl-1.us.uncletopia.com","port":27035,"enabled":true,"region":"us-east","cc":"us","latitude":33.753746,"longitude":-84.38633,"reserved":0,"last_update":"0001-01-01T00:00:00Z","name_a2s":"Uncletopia | Atlanta | 3 | Stopwatch Beta","protocol":17,"map":"pl_upward","folder":"tf","game":"Team Fortress","app_id":440,"player_count":0,"max_players":24,"Bots":0,"server_type":"Dedicated","server_os":"Linux","password":true,"vac":true,"version":"7757534","steam_id":85568392924515187,"keywords":["nocrits","nodmgspread","payload","uncletopia"],"game_id":440,"stv_port":27036,"stv_name":"Uncletopia | Atlanta | 3 | Stopwatch Beta | STV","players":null},{"server_id":401,"name":"Uncletopia | Atlanta | 4 | No Payload","name_short":"atl-4","host":"atl-1.us.uncletopia.com","port":27045,"enabled":true,"region":"us-east","cc":"us","latitude":33.753746,"longitude":-84.38633,"reserved":0,"last_update":"0001-01-01T00:00:00Z","name_a2s":"Uncletopia | Atlanta | 4 | No Payload","protocol":17,"map":"pl_pier","folder":"tf","game":"Team Fortress","app_id":440,"player_count":0,"max_players":24,"Bots":0,"server_type":"Dedicated","server_os":"Linux","password":true,"vac":true,"version":"7723704","steam_id":85568392924515188,"keywords":["nocrits","nodmgspread","payload","uncletopia"],"game_id":440,"stv_port":27046,"stv_name":"Uncletopia | Atlanta | 4 | No Payload | STV","players":null},{"server_id":2,"name":"Uncletopia | Chicago | 1 | All Maps","name_short":"chi-1","host":"chi-1.us.uncletopia.com","port":27015,"enabled":true,"region":"us-central","cc":"us","latitude":41.881832,"longitude":-87.62318,"reserved":0,"last_update":"0001-01-01T00:00:00Z","name_a2s":"Uncletopia | Chicago | 1 | All Maps","protocol":17,"map":"cp_snakewater_final1","folder":"tf","game":"Team Fortress","app_id":440,"player_count":0,"max_players":24,"Bots":0,"server_type":"Dedicated","server_os":"Linux","password":true,"vac":true,"version":"7757534","steam_id":85568392924469984,"keywords":["cp","nocrits","nodmgspread","uncletopia"],"game_id":440,"stv_port":27016,"stv_name":"Uncletopia | Chicago | 1 | All Maps | STV","players":null},{"server_id":106,"name":"Uncletopia | Chicago | 2 | All Maps","name_short":"chi-2","host":"chi-1.us.uncletopia.com","port":27025,"enabled":true,"region":"us-central","cc":"us","latitude":41.881832,"longitude":-87.62318,"reserved":0,"last_update":"0001-01-01T00:00:00Z","name_a2s":"Uncletopia | Chicago | 2 | All Maps","protocol":17,"map":"koth_lakeside_final","folder":"tf","game":"Team Fortress","app_id":440,"player_count":0,"max_players":24,"Bots":0,"server_type":"Dedicated","server_os":"Linux","password":true,"vac":true,"version":"7757534","steam_id":85568392924469985,"keywords":["cp","nocrits","nodmgspread","uncletopia"],"game_id":440,"stv_port":27026,"stv_name":"Uncletopia | Chicago | 2 | All Maps | STV","players":null},{"server_id":402,"name":"Uncletopia | Chicago | 3 | All Maps","name_short":"chi-3","host":"chi-1.us.uncletopia.com","port":27035,"enabled":true,"region":"us-central","cc":"us","latitude":41.881832,"longitude":-87.62318,"reserved":0,"last_update":"0001-01-01T00:00:00Z","name_a2s":"Uncletopia | Chicago | 3 | All Maps","protocol":17,"map":"cp_mountainlab","folder":"tf","game":"Team Fortress","app_id":440,"player_count":0,"max_players":24,"Bots":0,"server_type":"Dedicated","server_os":"Linux","password":true,"vac":true,"version":"7757534","steam_id":85568392924515191,"keywords":["cp","nocrits","nodmgspread","uncletopia"],"game_id":440,"stv_port":27036,"stv_name":"Uncletopia | Chicago | 3 | All Maps | STV","players":null},{"server_id":403,"name":"Uncletopia | Chicago | 4 | All Maps","name_short":"chi-4","host":"chi-1.us.uncletopia.com","port":27045,"enabled":true,"region":"us-central","cc":"us","latitude":41.881832,"longitude":-87.62318,"reserved":0,"last_update":"0001-01-01T00:00:00Z","name_a2s":"Uncletopia | Chicago | 4 | All Maps","protocol":17,"map":"pl_frontier_final","folder":"tf","game":"Team Fortress","app_id":440,"player_count":22,"max_players":24,"Bots":0,"server_type":"Dedicated","server_os":"Linux","password":true,"vac":true,"version":"7757534","steam_id":85568392924515193,"keywords":["nocrits","nodmgspread","payload","uncletopia"],"game_id":440,"stv_port":27046,"stv_name":"Uncletopia | Chicago | 4 | All Maps | STV","players":[{"user_id":34,"name":"Scrimms Bingle","steam_id":76561198094085803,"connected_time":4628000000000,"state":"active","ping":71},{"user_id":4,"name":"ccat","steam_id":76561198281773224,"connected_time":6104000000000,"state":"active","ping":90},{"user_id":57,"name":"‚òÇBliffenstimmers‚òÇ","steam_id":76561198059984896,"connected_time":2277000000000,"state":"active","ping":86},{"user_id":49,"name":"Alabaster Eggshell","steam_id":76561198035609389,"connected_time":3066000000000,"state":"active","ping":60},{"user_id":36,"name":"Mothership","steam_id":76561198044029501,"connected_time":4514000000000,"state":"active","ping":149},{"user_id":101,"name":"Green Tea","steam_id":76561198097460255,"connected_time":1180000000000,"state":"active","ping":204},{"user_id":111,"name":"Bismarck","steam_id":76561198442873012,"connected_time":819000000000,"state":"active","ping":71},{"user_id":42,"name":"MetophobiaTTV/YT.ca.gg.co.gov.u","steam_id":76561198092073161,"connected_time":3388000000000,"state":"active","ping":141},{"user_id":103,"name":"Huey","steam_id":76561198972816386,"connected_time":1122000000000,"state":"active","ping":75},{"user_id":126,"name":"Mina","steam_id":76561198126891683,"connected_time":264000000000,"state":"active","ping":56},{"user_id":45,"name":"Mister Frank","steam_id":76561198161473385,"connected_time":3330000000000,"state":"active","ping":67},{"user_id":41,"name":"Stranger Danger","steam_id":76561198115242460,"connected_time":3873000000000,"state":"active","ping":90},{"user_id":106,"name":"Provocator","steam_id":76561197961830410,"connected_time":1043000000000,"state":"active","ping":75},{"user_id":61,"name":"High Plains Drifter","steam_id":76561198047398433,"connected_time":2209000000000,"state":"active","ping":58},{"user_id":123,"name":"ItsBrieDude","steam_id":76561198051971306,"connected_time":566000000000,"state":"active","ping":58},{"user_id":20,"name":"Sleepy Axolot","steam_id":76561198055709656,"connected_time":5868000000000,"state":"active","ping":134},{"user_id":125,"name":"atlas","steam_id":76561198398383076,"connected_time":352000000000,"state":"active","ping":86},{"user_id":90,"name":"Ripheart","steam_id":76561198089661561,"connected_time":1515000000000,"state":"active","ping":39},{"user_id":25,"name":"MistakesWereMade","steam_id":76561199059220481,"connected_time":5806000000000,"state":"active","ping":103},{"user_id":26,"name":"Rizzo","steam_id":76561198145553449,"connected_time":5792000000000,"state":"active","ping":87},{"user_id":27,"name":"RigorMarcy","steam_id":76561198256548931,"connected_time":5780000000000,"state":"active","ping":95},{"user_id":29,"name":"Elizabeth truss","steam_id":76561198058250979,"connected_time":5693000000000,"state":"active","ping":71}]},{"server_id":36,"name":"Uncletopia | Chicago | 5 | All Maps","name_short":"chi-5","host":"chi-2.us.uncletopia.com","port":27015,"enabled":true,"region":"us-central","cc":"us","latitude":41.881832,"longitude":-87.62318,"reserved":0,"last_update":"0001-01-01T00:00:00Z","name_a2s":"Uncletopia | Chicago | 5 | All Maps","protocol":17,"map":"koth_cascade","folder":"tf","game":"Team Fortress","app_id":440,"player_count":0,"max_players":24,"Bots":0,"server_type":"Dedicated","server_os":"Linux","password":true,"vac":true,"version":"7757534","steam_id":85568392924866362,"keywords":["cp","nocrits","nodmgspread","uncletopia"],"game_id":440,"stv_port":27016,"stv_name":"Uncletopia | Chicago | 5 | All Maps | STV","players":null},{"server_id":37,"name":"Uncletopia | Chicago | 6 | All Maps","name_short":"chi-6","host":"chi-2.us.uncletopia.com","port":27025,"enabled":true,"region":"us-central","cc":"us","latitude":41.881832,"longitude":-87.62318,"reserved":0,"last_update":"0001-01-01T00:00:00Z","name_a2s":"Uncletopia | Chicago | 6 | All Maps","protocol":17,"map":"pl_swiftwater_final1","folder":"tf","game":"Team Fortress","app_id":440,"player_count":0,"max_players":24,"Bots":0,"server_type":"Dedicated","server_os":"Linux","password":true,"vac":true,"version":"7757534","steam_id":85568392924866363,"keywords":["nocrits","nodmgspread","payload","uncletopia"],"game_id":440,"stv_port":27026,"stv_name":"Uncletopia | Chicago | 6 | All Maps | STV","players":null},{"server_id":38,"name":"Uncletopia | Chicago | 7 | Stopwatch Beta","name_short":"chi-7","host":"chi-2.us.uncletopia.com","port":27035,"enabled":true,"region":"us-central","cc":"us","latitude":41.881832,"longitude":-87.62318,"reserved":0,"last_update":"0001-01-01T00:00:00Z","name_a2s":"Uncletopia | Chicago | 7 | Stopwatch Beta","protocol":17,"map":"pl_borneo","folder":"tf","game":"Team Fortress","app_id":440,"player_count":0,"max_players":24,"Bots":0,"server_type":"Dedicated","server_os":"Linux","password":true,"vac":true,"version":"7757534","steam_id":85568392924866364,"keywords":["nocrits","nodmgspread","payload","uncletopia"],"game_id":440,"stv_port":27036,"stv_name":"Uncletopia | Chicago | 7 | Stopwatch Beta | STV","players":null},{"server_id":39,"name":"Uncletopia | Chicago | 8 | Community","name_short":"chi-8","host":"chi-2.us.uncletopia.com","port":27045,"enabled":true,"region":"us-central","cc":"us","latitude":41.881832,"longitude":-87.62318,"reserved":0,"last_update":"0001-01-01T00:00:00Z","name_a2s":"Uncletopia | Chicago | 8 | Community","protocol":17,"map":"pl_pier","folder":"tf","game":"Team Fortress","app_id":440,"player_count":0,"max_players":24,"Bots":0,"server_type":"Dedicated","server_os":"Linux","password":true,"vac":true,"version":"7757534","steam_id":85568392924866365,"keywords":["nocrits","nodmgspread","payload","uncletopia"],"game_id":440,"stv_port":27046,"stv_name":"Uncletopia | Chicago | 8 | Community | STV","players":null},{"server_id":8,"name":"Uncletopia | Dallas | 1 | All Maps","name_short":"dal-1","host":"dal-1.us.uncletopia.com","port":27015,"enabled":true,"region":"us-central","cc":"us","latitude":32.779167,"longitude":-96.80889,"reserved":0,"last_update":"0001-01-01T00:00:00Z","name_a2s":"Uncletopia | Dallas | 1 | All Maps","protocol":17,"map":"pl_badwater","folder":"tf","game":"Team Fortress","app_id":440,"player_count":0,"max_players":24,"Bots":0,"server_type":"Dedicated","server_os":"Linux","password":true,"vac":true,"version":"7757534","steam_id":85568392924469986,"keywords":["nocrits","nodmgspread","payload","uncletopia"],"game_id":440,"stv_port":27016,"stv_name":"Uncletopia | Dallas | 1 | All Maps | STV","players":null},{"server_id":108,"name":"Uncletopia | Dallas | 2 | All Maps","name_short":"dal-2","host":"dal-1.us.uncletopia.com","port":27025,"enabled":true,"region":"us-central","cc":"us","latitude":32.779167,"longitude":-96.80889,"reserved":0,"last_update":"0001-01-01T00:00:00Z","name_a2s":"Uncletopia | Dallas | 2 | All Maps","protocol":17,"map":"koth_highpass","folder":"tf","game":"Team Fortress","app_id":440,"player_count":0,"max_players":24,"Bots":0,"server_type":"Dedicated","server_os":"Linux","password":true,"vac":true,"version":"7757534","steam_id":85568392924469988,"keywords":["cp","nocrits","nodmgspread","uncletopia"],"game_id":440,"stv_port":27026,"stv_name":"Uncletopia | Dallas | 2 | All Maps | STV","players":null},{"server_id":5,"name":"Uncletopia | Frankfurt | 1 | All Maps","name_short":"frk-1","host":"frk-1.de.uncletopia.com","port":27015,"enabled":true,"region":"eu","cc":"de","latitude":50.110924,"longitude":8.682127,"reserved":0,"last_update":"0001-01-01T00:00:00Z","name_a2s":"Uncletopia | Frankfurt | 1 | All Maps","protocol":17,"map":"pl_snowycoast","folder":"tf","game":"Team Fortress","app_id":440,"player_count":24,"max_players":24,"Bots":0,"server_type":"Dedicated","server_os":"Linux","password":true,"vac":true,"version":"7757534","steam_id":85568392924469989,"keywords":["nocrits","nodmgspread","payload","uncletopia"],"game_id":440,"stv_port":27016,"stv_name":"Uncletopia | Frankfurt | 1 | All Maps | STV","players":[{"user_id":21,"name":"Graham","steam_id":76561198062668942,"connected_time":3974000000000,"state":"active","ping":46},{"user_id":22,"name":"fried","steam_id":76561198307522022,"connected_time":3872000000000,"state":"active","ping":47},{"user_id":57,"name":"big tiddy stoner cat girl","steam_id":76561198200607926,"connected_time":2118000000000,"state":"active","ping":74},{"user_id":77,"name":"desu!","steam_id":76561198052878585,"connected_time":1165000000000,"state":"active","ping":129},{"user_id":84,"name":"Garbo","steam_id":76561198133885944,"connected_time":375000000000,"state":"active","ping":72},{"user_id":28,"name":"RedFog","steam_id":76561198284713081,"connected_time":3182000000000,"state":"active","ping":45},{"user_id":62,"name":"theres a bomb in my tea","steam_id":76561199134149296,"connected_time":1992000000000,"state":"active","ping":115},{"user_id":30,"name":"cloud","steam_id":76561198179768931,"connected_time":3144000000000,"state":"active","ping":48},{"user_id":78,"name":"„É†GeRmAn |√óUA√ó„É†","steam_id":76561199044754898,"connected_time":1134000000000,"state":"active","ping":71},{"user_id":85,"name":"Spanish Shy Cat","steam_id":76561198808819694,"connected_time":12000000000,"state":"spawning","ping":84},{"user_id":34,"name":"Kruthal","steam_id":76561198245726582,"connected_time":3036000000000,"state":"active","ping":75},{"user_id":66,"name":"Gabys","steam_id":76561198282892553,"connected_time":1588000000000,"state":"active","ping":68},{"user_id":82,"name":"lyudmilakh","steam_id":76561198362779878,"connected_time":774000000000,"state":"active","ping":92},{"user_id":63,"name":"GrimR","steam_id":76561198056149138,"connected_time":1978000000000,"state":"active","ping":74},{"user_id":54,"name":"Icaras","steam_id":76561198416724843,"connected_time":2349000000000,"state":"active","ping":54},{"user_id":67,"name":"Narvhal√∏","steam_id":76561198147495474,"connected_time":1541000000000,"state":"active","ping":57},{"user_id":70,"name":"bad at tf2 episode 2","steam_id":76561198002451113,"connected_time":1494000000000,"state":"active","ping":100},{"user_id":43,"name":"andria","steam_id":76561198930247131,"connected_time":2889000000000,"state":"active","ping":120},{"user_id":44,"name":"happy.new.year.2023","steam_id":76561198236773400,"connected_time":2882000000000,"state":"active","ping":120},{"user_id":83,"name":"Jay.k","steam_id":76561198079387590,"connected_time":491000000000,"state":"active","ping":71},{"user_id":76,"name":"MAKENTAKEN","steam_id":76561199127359587,"connected_time":1235000000000,"state":"active","ping":95},{"user_id":74,"name":"Jester","steam_id":76561198355190001,"connected_time":1441000000000,"state":"active","ping":49},{"user_id":52,"name":"Nameless_Mann","steam_id":76561198015543601,"connected_time":2741000000000,"state":"active","ping":70},{"user_id":73,"name":"Hedgehog_TV","steam_id":76561199142334511,"connected_time":1478000000000,"state":"active","ping":65}]},{"server_id":110,"name":"Uncletopia | Frankfurt | 2 | All Maps","name_short":"frk-2","host":"frk-1.de.uncletopia.com","port":27025,"enabled":true,"region":"eu","cc":"de","latitude":50.110924,"longitude":8.682127,"reserved":0,"last_update":"0001-01-01T00:00:00Z","name_a2s":"Uncletopia | Frankfurt | 2 | All Maps","protocol":17,"map":"koth_viaduct","folder":"tf","game":"Team Fortress","app_id":440,"player_count":0,"max_players":24,"Bots":0,"server_type":"Dedicated","server_os":"Linux","password":true,"vac":true,"version":"7757534","steam_id":85568392924469990,"keywords":["cp","nocrits","nodmgspread","uncletopia"],"game_id":440,"stv_port":27026,"stv_name":"Uncletopia | Frankfurt | 2 | All Maps | STV","players":null},{"server_id":308,"name":"Uncletopia | Frankfurt | 3 | All Maps","name_short":"frk-3","host":"frk-1.de.uncletopia.com","port":27035,"enabled":true,"region":"eu","cc":"de","latitude":50.110924,"longitude":8.682127,"reserved":0,"last_update":"0001-01-01T00:00:00Z","name_a2s":"Uncletopia | Frankfurt | 3 | All Maps","protocol":17,"map":"pl_pier","folder":"tf","game":"Team Fortress","app_id":440,"player_count":24,"max_players":24,"Bots":0,"server_type":"Dedicated","server_os":"Linux","password":true,"vac":true,"version":"7757534","steam_id":85568392924504274,"keywords":["nocrits","nodmgspread","payload","uncletopia"],"game_id":440,"stv_port":27036,"stv_name":"Uncletopia | Frankfurt | 3 | All Maps | STV","players":[{"user_id":153,"name":"theo von","steam_id":76561198125381319,"connected_time":5935000000000,"state":"active","ping":88},{"user_id":215,"name":"true","steam_id":76561198031145243,"connected_time":212000000000,"state":"active","ping":75},{"user_id":169,"name":"joe","steam_id":76561198026484403,"connected_time":4915000000000,"state":"active","ping":64},{"user_id":218,"name":"DeKritteh","steam_id":76561198113945397,"connected_time":133000000000,"state":"active","ping":75},{"user_id":180,"name":"komantoN^-","steam_id":76561198017929662,"connected_time":3434000000000,"state":"active","ping":49},{"user_id":217,"name":"piss","steam_id":76561198848763117,"connected_time":160000000000,"state":"active","ping":59},{"user_id":202,"name":"heavy sings (real)","steam_id":76561199023804405,"connected_time":2323000000000,"state":"active","ping":73},{"user_id":82,"name":"wads","steam_id":76561198175406562,"connected_time":11032000000000,"state":"active","ping":60},{"user_id":211,"name":"Incomprehensible","steam_id":76561198305808645,"connected_time":585000000000,"state":"active","ping":71},{"user_id":214,"name":"feet hunter","steam_id":76561198118064038,"connected_time":437000000000,"state":"active","ping":58},{"user_id":212,"name":"Doctor Sex","steam_id":76561198206515505,"connected_time":533000000000,"state":"active","ping":71},{"user_id":210,"name":"Prusher","steam_id":76561198086173878,"connected_time":664000000000,"state":"active","ping":95},{"user_id":196,"name":"Gio'sMonkey","steam_id":76561198892432223,"connected_time":2646000000000,"state":"active","ping":81},{"user_id":219,"name":"Dzan50","steam_id":76561198059758591,"connected_time":80000000000,"state":"active","ping":80},{"user_id":213,"name":"lit01","steam_id":76561198164806677,"connected_time":523000000000,"state":"active","ping":81},{"user_id":201,"name":"_Anubis","steam_id":76561198395016437,"connected_time":2352000000000,"state":"active","ping":61},{"user_id":182,"name":"kornetov.vitalya","steam_id":76561199286034833,"connected_time":3421000000000,"state":"active","ping":89},{"user_id":209,"name":"NiKoRo","steam_id":76561197963686614,"connected_time":737000000000,"state":"active","ping":96},{"user_id":175,"name":"cop killer","steam_id":76561198039966198,"connected_time":4782000000000,"state":"active","ping":60},{"user_id":198,"name":"The Bushman","steam_id":76561198152576682,"connected_time":2457000000000,"state":"active","ping":82},{"user_id":203,"name":"simon","steam_id":76561198880361394,"connected_time":2198000000000,"state":"active","ping":49},{"user_id":191,"name":"tea for two","steam_id":76561198133532980,"connected_time":3054000000000,"state":"active","ping":60},{"user_id":152,"name":"Bundle of Sticks","steam_id":76561198133782205,"connected_time":5958000000000,"state":"active","ping":133},{"user_id":159,"name":"Arthropod Matriarch","steam_id":76561198824398526,"connected_time":5568000000000,"state":"active","ping":117}]},{"server_id":309,"name":"Uncletopia | Frankfurt | 4 | All Maps","name_short":"frk-4","host":"frk-1.de.uncletopia.com","port":27045,"enabled":true,"region":"eu","cc":"de","latitude":50.110924,"longitude":8.682127,"reserved":0,"last_update":"0001-01-01T00:00:00Z","name_a2s":"Uncletopia | Frankfurt | 4 | All Maps","protocol":17,"map":"pl_snowycoast","folder":"tf","game":"Team Fortress","app_id":440,"player_count":0,"max_players":24,"Bots":0,"server_type":"Dedicated","server_os":"Linux","password":true,"vac":true,"version":"7757534","steam_id":85568392924504275,"keywords":["nocrits","nodmgspread","payload","uncletopia"],"game_id":440,"stv_port":27046,"stv_name":"Uncletopia | Frankfurt | 4 | All Maps | STV","players":null},{"server_id":310,"name":"Uncletopia | Frankfurt | 5 | All Maps","name_short":"frk-5","host":"frk-1.de.uncletopia.com","port":27055,"enabled":true,"region":"eu","cc":"de","latitude":50.110924,"longitude":8.682127,"reserved":0,"last_update":"0001-01-01T00:00:00Z","name_a2s":"Uncletopia | Frankfurt | 5 | All Maps","protocol":17,"map":"koth_highpass","folder":"tf","game":"Team Fortress","app_id":440,"player_count":0,"max_players":24,"Bots":0,"server_type":"Dedicated","server_os":"Linux","password":true,"vac":true,"version":"7757534","steam_id":85568392924504277,"keywords":["cp","nocrits","nodmgspread","uncletopia"],"game_id":440,"stv_port":27056,"stv_name":"Uncletopia | Frankfurt | 5 | All Maps | STV","players":null},{"server_id":311,"name":"Uncletopia | Frankfurt | 6 | All Maps","name_short":"frk-6","host":"frk-1.de.uncletopia.com","port":27065,"enabled":true,"region":"eu","cc":"de","latitude":50.110924,"longitude":8.682127,"reserved":0,"last_update":"0001-01-01T00:00:00Z","name_a2s":"Uncletopia | Frankfurt | 6 | All Maps","protocol":17,"map":"pl_pier","folder":"tf","game":"Team Fortress","app_id":440,"player_count":24,"max_players":24,"Bots":0,"server_type":"Dedicated","server_os":"Linux","password":true,"vac":true,"version":"7757534","steam_id":85568392924504278,"keywords":["nocrits","nodmgspread","payload","uncletopia"],"game_id":440,"stv_port":27066,"stv_name":"Uncletopia | Frankfurt | 6 | All Maps | STV","players":[{"user_id":133,"name":"joachym","steam_id":76561198428579761,"connected_time":162000000000,"state":"active","ping":56},{"user_id":134,"name":"Lukero","steam_id":76561198301594341,"connected_time":123000000000,"state":"active","ping":61},{"user_id":135,"name":"Osmo","steam_id":76561199286764992,"connected_time":114000000000,"state":"active","ping":84},{"user_id":126,"name":"SCRAMMMBLED","steam_id":76561197998307746,"connected_time":403000000000,"state":"active","ping":61},{"user_id":64,"name":"Fox","steam_id":76561198052541711,"connected_time":4313000000000,"state":"active","ping":59},{"user_id":122,"name":"big noob","steam_id":76561198281332748,"connected_time":755000000000,"state":"active","ping":67},{"user_id":128,"name":"yuu2-D","steam_id":76561198056591321,"connected_time":276000000000,"state":"active","ping":60},{"user_id":98,"name":"Vischan but worse","steam_id":76561199371650805,"connected_time":1976000000000,"state":"active","ping":95},{"user_id":74,"name":"rigel_","steam_id":76561198148640847,"connected_time":3540000000000,"state":"active","ping":75},{"user_id":132,"name":"mr.MR","steam_id":76561198151980974,"connected_time":198000000000,"state":"active","ping":73},{"user_id":130,"name":"5$ haircut","steam_id":76561199124926473,"connected_time":217000000000,"state":"active","ping":64},{"user_id":115,"name":"TheWarLord40000","steam_id":76561198301910704,"connected_time":1283000000000,"state":"active","ping":152},{"user_id":136,"name":"balkerk","steam_id":76561198215315428,"connected_time":80000000000,"state":"spawning","ping":108},{"user_id":137,"name":"Bonca","steam_id":76561198137503531,"connected_time":74000000000,"state":"active","ping":78},{"user_id":81,"name":"¬¨¬∞Nice","steam_id":76561198387871867,"connected_time":3251000000000,"state":"active","ping":81},{"user_id":114,"name":"PLUTO","steam_id":76561198312436128,"connected_time":1361000000000,"state":"active","ping":124},{"user_id":82,"name":"jt7","steam_id":76561198073655162,"connected_time":3245000000000,"state":"active","ping":69},{"user_id":95,"name":"fector","steam_id":76561199204249586,"connected_time":2021000000000,"state":"active","ping":130},{"user_id":85,"name":"Kahvi","steam_id":76561198723244199,"connected_time":2402000000000,"state":"active","ping":90},{"user_id":120,"name":"Kodutah","steam_id":76561198203405574,"connected_time":850000000000,"state":"active","ping":60},{"user_id":113,"name":"üÉî Nugg1t(sme/lly)","steam_id":76561198065652251,"connected_time":1377000000000,"state":"active","ping":44},{"user_id":111,"name":"Xie Xil Ling","steam_id":76561198053394831,"connected_time":1467000000000,"state":"active","ping":67},{"user_id":112,"name":":\u003e","steam_id":76561198349324196,"connected_time":1392000000000,"state":"active","ping":176},{"user_id":117,"name":"ivanmixo","steam_id":76561198160213989,"connected_time":1066000000000,"state":"active","ping":70}]},{"server_id":23,"name":"Uncletopia | Frankfurt | 7 | Stopwatch Beta","name_short":"frk-7","host":"frk-1.de.uncletopia.com","port":27075,"enabled":true,"region":"eu","cc":"de","latitude":50.110924,"longitude":8.682127,"reserved":0,"last_update":"0001-01-01T00:00:00Z","name_a2s":"Uncletopia | Frankfurt | 7 | Stopwatch Beta","protocol":17,"map":"pl_borneo","folder":"tf","game":"Team Fortress","app_id":440,"player_count":0,"max_players":24,"Bots":0,"server_type":"Dedicated","server_os":"Linux","password":true,"vac":true,"version":"7757534","steam_id":85568392924742827,"keywords":["nocrits","nodmgspread","payload","uncletopia"],"game_id":440,"stv_port":27076,"stv_name":"Uncletopia | Frankfurt | 7 | Stopwatch Beta | STV","players":null},{"server_id":24,"name":"Uncletopia | Frankfurt | 8 | Community","name_short":"frk-8","host":"frk-1.de.uncletopia.com","port":27085,"enabled":true,"region":"eu","cc":"de","latitude":50.110924,"longitude":8.682127,"reserved":0,"last_update":"0001-01-01T00:00:00Z","name_a2s":"Uncletopia | Frankfurt | 8 | Community","protocol":17,"map":"workshop/pl_fifthcurve_rc1.ugc648227046","folder":"tf","game":"Team Fortress","app_id":440,"player_count":1,"max_players":24,"Bots":0,"server_type":"Dedicated","server_os":"Linux","password":true,"vac":true,"version":"7757534","steam_id":85568392924742828,"keywords":["nocrits","nodmgspread","payload","uncletopia"],"game_id":440,"stv_port":27086,"stv_name":"Uncletopia | Frankfurt | 8 | Community | STV","players":[{"user_id":29,"name":"Elna123","steam_id":76561198885732089,"connected_time":214000000000,"state":"spawning","ping":206}]},{"server_id":202,"name":"Uncletopia | Hong Kong | 1 | All Maps","name_short":"hgk-1","host":"hgk-1.hk.uncletopia.com","port":27015,"enabled":true,"region":"asia","cc":"hk","latitude":22.302711,"longitude":114.177216,"reserved":0,"last_update":"0001-01-01T00:00:00Z","name_a2s":"Uncletopia | Hong Kong | 1 | All Maps","protocol":17,"map":"pl_pier","folder":"tf","game":"Team Fortress","app_id":440,"player_count":24,"max_players":24,"Bots":0,"server_type":"Dedicated","server_os":"Linux","password":true,"vac":true,"version":"7757534","steam_id":85568392924494504,"keywords":["nocrits","nodmgspread","payload","uncletopia"],"game_id":440,"stv_port":27016,"stv_name":"Uncletopia | Hong Kong | 1 | All Maps | STV","players":[{"user_id":473,"name":"Heavy Fingers Guy","steam_id":76561199016545154,"connected_time":5228000000000,"state":"active","ping":38},{"user_id":499,"name":"Dominique Toretto","steam_id":76561197999553390,"connected_time":3185000000000,"state":"active","ping":121},{"user_id":500,"name":"p1st0n","steam_id":76561198992723983,"connected_time":2932000000000,"state":"active","ping":97},{"user_id":523,"name":"gn92","steam_id":76561198874470722,"connected_time":203000000000,"state":"active","ping":98},{"user_id":524,"name":"Ïø†ÌÇ§","steam_id":76561197997220367,"connected_time":129000000000,"state":"active","ping":49},{"user_id":491,"name":"JayJ","steam_id":76561198324008555,"connected_time":3973000000000,"state":"active","ping":50},{"user_id":442,"name":"hasty","steam_id":76561198439382132,"connected_time":6970000000000,"state":"active","ping":113},{"user_id":521,"name":"Doormann","steam_id":76561199219230108,"connected_time":223000000000,"state":"active","ping":142},{"user_id":492,"name":"Batbob","steam_id":76561198999413123,"connected_time":3970000000000,"state":"active","ping":80},{"user_id":502,"name":"GreggieBoi","steam_id":76561199085200364,"connected_time":2821000000000,"state":"active","ping":65},{"user_id":476,"name":"kid named maggot","steam_id":76561198195655190,"connected_time":5081000000000,"state":"active","ping":129},{"user_id":498,"name":"P","steam_id":76561198304514505,"connected_time":3255000000000,"state":"active","ping":76},{"user_id":514,"name":"qb","steam_id":76561198412329672,"connected_time":2110000000000,"state":"active","ping":91},{"user_id":508,"name":"cellum95","steam_id":76561198172146871,"connected_time":2238000000000,"state":"active","ping":80},{"user_id":517,"name":"Â§âÊÖã„ÅÆÁ•û","steam_id":76561199017344476,"connected_time":1783000000000,"state":"active","ping":97},{"user_id":515,"name":"Buttman","steam_id":76561198044693388,"connected_time":2011000000000,"state":"active","ping":54},{"user_id":468,"name":"greeny the dawg","steam_id":76561198024666371,"connected_time":5319000000000,"state":"active","ping":99},{"user_id":471,"name":"nick","steam_id":76561198400698408,"connected_time":5264000000000,"state":"active","ping":96},{"user_id":522,"name":"Shterman","steam_id":76561198074411229,"connected_time":222000000000,"state":"active","ping":71},{"user_id":475,"name":"Rephex","steam_id":76561198308185574,"connected_time":5108000000000,"state":"active","ping":117},{"user_id":490,"name":"timmy.1366","steam_id":76561199065433547,"connected_time":3993000000000,"state":"active","ping":81},{"user_id":510,"name":"junbi OK","steam_id":76561198116387218,"connected_time":2223000000000,"state":"active","ping":91},{"user_id":516,"name":"white washed wasian","steam_id":76561199030081320,"connected_time":2001000000000,"state":"active","ping":104},{"user_id":519,"name":"Duck with a knife (what he gonn","steam_id":76561199092409364,"connected_time":560000000000,"state":"active","ping":111}]},{"server_id":1,"name":"Uncletopia | Los Angeles | 1 | All Maps","name_short":"lax-1","host":"lax-1.us.uncletopia.com","port":27015,"enabled":true,"region":"us-west","cc":"us","latitude":33.94279,"longitude":-118.41004,"reserved":0,"last_update":"0001-01-01T00:00:00Z","name_a2s":"Uncletopia | Los Angeles | 1 | All Maps","protocol":17,"map":"pl_swiftwater_final1","folder":"tf","game":"Team Fortress","app_id":440,"player_count":0,"max_players":24,"Bots":0,"server_type":"Dedicated","server_os":"Linux","password":true,"vac":true,"version":"7757534","steam_id":85568392924469991,"keywords":["nocrits","nodmgspread","payload","uncletopia"],"game_id":440,"stv_port":27016,"stv_name":"Uncletopia | Los Angeles | 1 | All Maps | STV","players":null},{"server_id":112,"name":"Uncletopia | Los Angeles | 2 | All Maps","name_short":"lax-2","host":"lax-1.us.uncletopia.com","port":27025,"enabled":true,"region":"us-west","cc":"us","latitude":33.94279,"longitude":-118.41004,"reserved":0,"last_update":"0001-01-01T00:00:00Z","name_a2s":"Uncletopia | Los Angeles | 2 | All Maps","protocol":17,"map":"koth_cascade","folder":"tf","game":"Team Fortress","app_id":440,"player_count":0,"max_players":24,"Bots":0,"server_type":"Dedicated","server_os":"Linux","password":true,"vac":true,"version":"7757534","steam_id":85568392924469992,"keywords":["cp","nocrits","nodmgspread","uncletopia"],"game_id":440,"stv_port":27026,"stv_name":"Uncletopia | Los Angeles | 2 | All Maps | STV","players":null},{"server_id":324,"name":"Uncletopia | Los Angeles | 3 | All Maps","name_short":"lax-3","host":"lax-1.us.uncletopia.com","port":27035,"enabled":true,"region":"us-west","cc":"us","latitude":33.94279,"longitude":-118.41004,"reserved":0,"last_update":"0001-01-01T00:00:00Z","name_a2s":"Uncletopia | Los Angeles | 3 | All Maps","protocol":17,"map":"koth_highpass","folder":"tf","game":"Team Fortress","app_id":440,"player_count":0,"max_players":24,"Bots":0,"server_type":"Dedicated","server_os":"Linux","password":true,"vac":true,"version":"7757534","steam_id":85568392924510198,"keywords":["cp","nocrits","nodmgspread","uncletopia"],"game_id":440,"stv_port":27036,"stv_name":"Uncletopia | Los Angeles | 3 | All Maps | STV","players":null},{"server_id":25,"name":"Uncletopia | Los Angeles | 4 | Stopwatch Beta","name_short":"lax-4","host":"lax-1.us.uncletopia.com","port":27045,"enabled":true,"region":"us-west","cc":"us","latitude":33.94279,"longitude":-118.41004,"reserved":0,"last_update":"0001-01-01T00:00:00Z","name_a2s":"Uncletopia | Los Angeles | 4 | Stopwatch Beta","protocol":17,"map":"koth_viaduct","folder":"tf","game":"Team Fortress","app_id":440,"player_count":0,"max_players":24,"Bots":0,"server_type":"Dedicated","server_os":"Linux","password":true,"vac":true,"version":"7757534","steam_id":85568392924510199,"keywords":["cp","nocrits","nodmgspread","uncletopia"],"game_id":440,"stv_port":27046,"stv_name":"Uncletopia | Los Angeles | 4 | Stopwatch Beta | STV","players":null},{"server_id":11,"name":"Uncletopia | London | 1 | All Maps","name_short":"lon-1","host":"lon-1.uk.uncletopia.com","port":27015,"enabled":true,"region":"eu","cc":"gb","latitude":51.509865,"longitude":-0.118092,"reserved":0,"last_update":"0001-01-01T00:00:00Z","name_a2s":"Uncletopia | London | 1 | All Maps","protocol":17,"map":"pl_pier","folder":"tf","game":"Team Fortress","app_id":440,"player_count":0,"max_players":24,"Bots":0,"server_type":"Dedicated","server_os":"Linux","password":true,"vac":true,"version":"7757534","steam_id":85568392924367362,"keywords":["nocrits","nodmgspread","payload","uncletopia"],"game_id":440,"stv_port":27016,"stv_name":"Uncletopia | London | 1 | All Maps | STV","players":null},{"server_id":114,"name":"Uncletopia | London | 2 | All Maps","name_short":"lon-2","host":"lon-1.uk.uncletopia.com","port":27025,"enabled":true,"region":"eu","cc":"gb","latitude":51.509865,"longitude":-0.118092,"reserved":0,"last_update":"0001-01-01T00:00:00Z","name_a2s":"Uncletopia | London | 2 | All Maps","protocol":17,"map":"cp_foundry","folder":"tf","game":"Team Fortress","app_id":440,"player_count":24,"max_players":24,"Bots":0,"server_type":"Dedicated","server_os":"Linux","password":true,"vac":true,"version":"7757534","steam_id":85568392924470941,"keywords":["cp","nocrits","nodmgspread","uncletopia"],"game_id":440,"stv_port":27026,"stv_name":"Uncletopia | London | 2 | All Maps | STV","players":[{"user_id":247,"name":"donal rump","steam_id":76561198136239861,"connected_time":238000000000,"state":"active","ping":45},{"user_id":181,"name":"Slomlol","steam_id":76561198208747007,"connected_time":4689000000000,"state":"active","ping":58},{"user_id":226,"name":"Oak","steam_id":76561198067315672,"connected_time":1868000000000,"state":"active","ping":45},{"user_id":233,"name":"Baki „ÉÑ","steam_id":76561198193615529,"connected_time":1412000000000,"state":"active","ping":69},{"user_id":228,"name":"Pablo","steam_id":76561198160394046,"connected_time":1852000000000,"state":"active","ping":116},{"user_id":198,"name":"Owlet","steam_id":76561198065613974,"connected_time":3565000000000,"state":"active","ping":67},{"user_id":186,"name":"Nish","steam_id":76561197996068735,"connected_time":4510000000000,"state":"active","ping":85},{"user_id":243,"name":"htraB","steam_id":76561198043122677,"connected_time":602000000000,"state":"active","ping":61},{"user_id":201,"name":"banrab","steam_id":76561198083615367,"connected_time":3468000000000,"state":"active","ping":37},{"user_id":240,"name":"rat :3","steam_id":76561198151884156,"connected_time":659000000000,"state":"active","ping":56},{"user_id":234,"name":"c","steam_id":76561197986672188,"connected_time":1272000000000,"state":"active","ping":47},{"user_id":177,"name":"ralek","steam_id":76561198337027746,"connected_time":4950000000000,"state":"active","ping":98},{"user_id":180,"name":"Dom.","steam_id":76561199065917088,"connected_time":4836000000000,"state":"active","ping":67},{"user_id":237,"name":"Ampley","steam_id":76561198291447088,"connected_time":829000000000,"state":"active","ping":65},{"user_id":242,"name":"Stepoface","steam_id":76561198091569863,"connected_time":651000000000,"state":"active","ping":72},{"user_id":235,"name":"homeinvasion$","steam_id":76561199111905021,"connected_time":1265000000000,"state":"active","ping":115},{"user_id":238,"name":"Pintarolas","steam_id":76561198124839451,"connected_time":679000000000,"state":"active","ping":100},{"user_id":249,"name":"Kermit","steam_id":76561198094810563,"connected_time":188000000000,"state":"active","ping":56},{"user_id":246,"name":"drippin jimmy","steam_id":76561198219243969,"connected_time":325000000000,"state":"active","ping":61},{"user_id":248,"name":"thomas","steam_id":76561198355097756,"connected_time":238000000000,"state":"active","ping":75},{"user_id":250,"name":"alvinulv","steam_id":76561198024487177,"connected_time":123000000000,"state":"active","ping":60},{"user_id":191,"name":"the joy of recycling","steam_id":76561198138509827,"connected_time":4114000000000,"state":"active","ping":87},{"user_id":220,"name":"KlevukaS‚Ñ¢","steam_id":76561198312867604,"connected_time":1975000000000,"state":"active","ping":92},{"user_id":224,"name":"Flare","steam_id":76561198039098320,"connected_time":1894000000000,"state":"active","ping":59}]},{"server_id":320,"name":"Uncletopia | London | 3 | All Maps","name_short":"lon-3","host":"lon-1.uk.uncletopia.com","port":27035,"enabled":true,"region":"eu","cc":"gb","latitude":51.509865,"longitude":-0.118092,"reserved":0,"last_update":"0001-01-01T00:00:00Z","name_a2s":"Uncletopia | London | 3 | All Maps","protocol":17,"map":"koth_highpass","folder":"tf","game":"Team Fortress","app_id":440,"player_count":0,"max_players":24,"Bots":0,"server_type":"Dedicated","server_os":"Linux","password":true,"vac":true,"version":"7757534","steam_id":85568392924510192,"keywords":["cp","nocrits","nodmgspread","uncletopia"],"game_id":440,"stv_port":27036,"stv_name":"Uncletopia | London | 3 | All Maps | STV","players":null},{"server_id":321,"name":"Uncletopia | London | 4 | All Maps","name_short":"lon-4","host":"lon-1.uk.uncletopia.com","port":27045,"enabled":true,"region":"eu","cc":"gb","latitude":51.509865,"longitude":-0.118092,"reserved":0,"last_update":"0001-01-01T00:00:00Z","name_a2s":"Uncletopia | London | 4 | All Maps","protocol":17,"map":"cp_snakewater_final1","folder":"tf","game":"Team Fortress","app_id":440,"player_count":0,"max_players":24,"Bots":0,"server_type":"Dedicated","server_os":"Linux","password":true,"vac":true,"version":"7757534","steam_id":85568392924510193,"keywords":["cp","nocrits","nodmgspread","uncletopia"],"game_id":440,"stv_port":27046,"stv_name":"Uncletopia | London | 4 | All Maps | STV","players":null},{"server_id":21,"name":"Uncletopia | London | 5 | All Maps","name_short":"lon-5","host":"lon-1.uk.uncletopia.com","port":27055,"enabled":true,"region":"eu","cc":"gb","latitude":51.509865,"longitude":-0.118092,"reserved":0,"last_update":"0001-01-01T00:00:00Z","name_a2s":"Uncletopia | London | 5 | All Maps","protocol":17,"map":"pl_snowycoast","folder":"tf","game":"Team Fortress","app_id":440,"player_count":0,"max_players":24,"Bots":0,"server_type":"Dedicated","server_os":"Linux","password":true,"vac":true,"version":"7757534","steam_id":85568392924742829,"keywords":["nocrits","nodmgspread","payload","uncletopia"],"game_id":440,"stv_port":27056,"stv_name":"Uncletopia | London | 5 | All Maps | STV","players":null},{"server_id":22,"name":"Uncletopia | London | 6 | All Maps","name_short":"lon-6","host":"lon-1.uk.uncletopia.com","port":27065,"enabled":true,"region":"eu","cc":"gb","latitude":51.509865,"longitude":-0.118092,"reserved":0,"last_update":"0001-01-01T00:00:00Z","name_a2s":"Uncletopia | London | 6 | All Maps","protocol":17,"map":"pl_snowycoast","folder":"tf","game":"Team Fortress","app_id":440,"player_count":24,"max_players":24,"Bots":0,"server_type":"Dedicated","server_os":"Linux","password":true,"vac":true,"version":"7757534","steam_id":85568392924742830,"keywords":["nocrits","nodmgspread","payload","uncletopia"],"game_id":440,"stv_port":27066,"stv_name":"Uncletopia | London | 6 | All Maps | STV","players":[{"user_id":306,"name":"Germanium_Ge","steam_id":76561198130561775,"connected_time":3695000000000,"state":"active","ping":56},{"user_id":340,"name":"Cunk","steam_id":76561198996618201,"connected_time":1097000000000,"state":"active","ping":55},{"user_id":312,"name":"0","steam_id":76561198267909207,"connected_time":3329000000000,"state":"active","ping":102},{"user_id":330,"name":"Yassine","steam_id":76561198140565712,"connected_time":2077000000000,"state":"active","ping":50},{"user_id":273,"name":"Mr Prince","steam_id":76561199006591691,"connected_time":7306000000000,"state":"active","ping":60},{"user_id":350,"name":"Limbo","steam_id":76561198028148931,"connected_time":238000000000,"state":"active","ping":130},{"user_id":349,"name":"British Disapproval","steam_id":76561198001375260,"connected_time":279000000000,"state":"active","ping":58},{"user_id":345,"name":"SpeddyMeddy","steam_id":76561197999693825,"connected_time":565000000000,"state":"active","ping":79},{"user_id":353,"name":"E1s (Neo-Kemalist)","steam_id":76561198894958917,"connected_time":70000000000,"state":"active","ping":72},{"user_id":341,"name":"MIMI:CS","steam_id":76561198255389232,"connected_time":1084000000000,"state":"active","ping":67},{"user_id":336,"name":"Welder","steam_id":76561198355300561,"connected_time":1351000000000,"state":"active","ping":71},{"user_id":324,"name":"bluett","steam_id":76561198157207927,"connected_time":2732000000000,"state":"active","ping":85},{"user_id":251,"name":"FELHEEE","steam_id":76561197987151150,"connected_time":9325000000000,"state":"active","ping":73},{"user_id":247,"name":"coPe","steam_id":76561198869055760,"connected_time":9550000000000,"state":"active","ping":114},{"user_id":238,"name":"Spetse","steam_id":76561197990649972,"connected_time":9796000000000,"state":"active","ping":93},{"user_id":351,"name":"ricky pee pee","steam_id":76561198152620745,"connected_time":191000000000,"state":"active","ping":61},{"user_id":347,"name":"f√©nix","steam_id":76561198083199151,"connected_time":309000000000,"state":"active","ping":56},{"user_id":309,"name":"Littleyoshifan","steam_id":76561198445491045,"connected_time":3583000000000,"state":"active","ping":40},{"user_id":302,"name":"1989 Mazda Miata","steam_id":76561198117215506,"connected_time":3858000000000,"state":"active","ping":67},{"user_id":352,"name":"Cillian","steam_id":76561199046965320,"connected_time":120000000000,"state":"active","ping":69},{"user_id":343,"name":"ciliorkun18","steam_id":76561198228942500,"connected_time":1040000000000,"state":"active","ping":89},{"user_id":314,"name":"John Ross","steam_id":76561198034560808,"connected_time":3244000000000,"state":"active","ping":56},{"user_id":332,"name":"Dolcelatte","steam_id":76561198038501770,"connected_time":1733000000000,"state":"active","ping":60},{"user_id":338,"name":"Cu713","steam_id":76561198175463442,"connected_time":1139000000000,"state":"active","ping":82}]},{"server_id":40,"name":"Uncletopia | London | 7 | No Payload","name_short":"lon-7","host":"lon-1.uk.uncletopia.com","port":27075,"enabled":true,"region":"eu","cc":"gb","latitude":51.509865,"longitude":-0.118092,"reserved":0,"last_update":"0001-01-01T00:00:00Z","name_a2s":"Uncletopia | London | 7 | No Payload","protocol":17,"map":"cp_fastlane","folder":"tf","game":"Team Fortress","app_id":440,"player_count":0,"max_players":24,"Bots":0,"server_type":"Dedicated","server_os":"Linux","password":true,"vac":true,"version":"7757534","steam_id":85568392924964314,"keywords":["cp","nocrits","nodmgspread","uncletopia"],"game_id":440,"stv_port":27076,"stv_name":"Uncletopia | London | 7 | No Payload | STV","players":null},{"server_id":41,"name":"Uncletopia | London | 8 | Community","name_short":"lon-8","host":"lon-1.uk.uncletopia.com","port":27085,"enabled":true,"region":"eu","cc":"gb","latitude":51.509865,"longitude":-0.118092,"reserved":0,"last_update":"0001-01-01T00:00:00Z","name_a2s":"Uncletopia | London | 8 | Community","protocol":17,"map":"workshop/cp_reckoner_rc6.ugc674719999","folder":"tf","game":"Team Fortress","app_id":440,"player_count":0,"max_players":24,"Bots":0,"server_type":"Dedicated","server_os":"Linux","password":true,"vac":true,"version":"7757534","steam_id":85568392924964315,"keywords":["cp","nocrits","nodmgspread","uncletopia"],"game_id":440,"stv_port":27086,"stv_name":"Uncletopia | London | 8 | Community | STV","players":null},{"server_id":300,"name":"Uncletopia | Montr√©al | 1 | All Maps","name_short":"mtl-1","host":"mtl-1.ca.uncletopia.com","port":27015,"enabled":true,"region":"us-east","cc":"ca","latitude":45.50889,"longitude":-73.56167,"reserved":0,"last_update":"0001-01-01T00:00:00Z","name_a2s":"Uncletopia | Montr√©al | 1 | All Maps","protocol":17,"map":"koth_cascade","folder":"tf","game":"Team Fortress","app_id":440,"player_count":0,"max_players":24,"Bots":0,"server_type":"Dedicated","server_os":"Linux","password":true,"vac":true,"version":"7757534","steam_id":85568392924500087,"keywords":["cp","nocrits","nodmgspread","uncletopia"],"game_id":440,"stv_port":27016,"stv_name":"Uncletopia | Montr√©al | 1 | All Maps | STV","players":null},{"server_id":301,"name":"Uncletopia | Montr√©al | 2 | All Maps","name_short":"mtl-2","host":"mtl-1.ca.uncletopia.com","port":27025,"enabled":true,"region":"us-east","cc":"ca","latitude":45.50889,"longitude":-73.56167,"reserved":0,"last_update":"0001-01-01T00:00:00Z","name_a2s":"Uncletopia | Montr√©al | 2 | All Maps","protocol":17,"map":"pl_borneo","folder":"tf","game":"Team Fortress","app_id":440,"player_count":0,"max_players":24,"Bots":0,"server_type":"Dedicated","server_os":"Linux","password":true,"vac":true,"version":"7757534","steam_id":85568392924500088,"keywords":["nocrits","nodmgspread","payload","uncletopia"],"game_id":440,"stv_port":27026,"stv_name":"Uncletopia | Montr√©al | 2 | All Maps | STV","players":null},{"server_id":302,"name":"Uncletopia | Montr√©al | 3 | All Maps","name_short":"mtl-3","host":"mtl-1.ca.uncletopia.com","port":27035,"enabled":true,"region":"us-east","cc":"ca","latitude":45.50889,"longitude":-73.56167,"reserved":0,"last_update":"0001-01-01T00:00:00Z","name_a2s":"Uncletopia | Montr√©al | 3 | All Maps","protocol":17,"map":"cp_sunshine","folder":"tf","game":"Team Fortress","app_id":440,"player_count":0,"max_players":24,"Bots":0,"server_type":"Dedicated","server_os":"Linux","password":true,"vac":true,"version":"7757534","steam_id":85568392924500089,"keywords":["cp","nocrits","nodmgspread","uncletopia"],"game_id":440,"stv_port":27036,"stv_name":"Uncletopia | Montr√©al | 3 | All Maps | STV","players":null},{"server_id":303,"name":"Uncletopia | Montr√©al | 4 | No Payload","name_short":"mtl-4","host":"mtl-1.ca.uncletopia.com","port":27045,"enabled":true,"region":"us-east","cc":"ca","latitude":45.50889,"longitude":-73.56167,"reserved":0,"last_update":"0001-01-01T00:00:00Z","name_a2s":"Uncletopia | Montr√©al | 4 | No Payload","protocol":17,"map":"koth_lakeside_final","folder":"tf","game":"Team Fortress","app_id":440,"player_count":0,"max_players":24,"Bots":0,"server_type":"Dedicated","server_os":"Linux","password":true,"vac":true,"version":"7757534","steam_id":85568392924500090,"keywords":["cp","nocrits","nodmgspread","uncletopia"],"game_id":440,"stv_port":27046,"stv_name":"Uncletopia | Montr√©al | 4 | No Payload | STV","players":null},{"server_id":13,"name":"Uncletopia | New York City | 1 | All Maps","name_short":"nyc-1","host":"nyc-1.us.uncletopia.com","port":27015,"enabled":true,"region":"us-east","cc":"us","latitude":40.73061,"longitude":-73.93524,"reserved":0,"last_update":"0001-01-01T00:00:00Z","name_a2s":"Uncletopia | New York City | 1 | All Maps","protocol":17,"map":"pl_borneo","folder":"tf","game":"Team Fortress","app_id":440,"player_count":0,"max_players":24,"Bots":0,"server_type":"Dedicated","server_os":"Linux","password":true,"vac":true,"version":"7757534","steam_id":85568392924469993,"keywords":["nocrits","nodmgspread","payload","uncletopia"],"game_id":440,"stv_port":27016,"stv_name":"Uncletopia | New York City | 1 | All Maps | STV","players":null},{"server_id":14,"name":"Uncletopia | New York City | 2 | All Maps","name_short":"nyc-2","host":"nyc-1.us.uncletopia.com","port":27025,"enabled":true,"region":"us-east","cc":"us","latitude":40.73061,"longitude":-73.93524,"reserved":0,"last_update":"0001-01-01T00:00:00Z","name_a2s":"Uncletopia | New York City | 2 | All Maps","protocol":17,"map":"pl_barnblitz","folder":"tf","game":"Team Fortress","app_id":440,"player_count":0,"max_players":24,"Bots":0,"server_type":"Dedicated","server_os":"Linux","password":true,"vac":true,"version":"7757534","steam_id":85568392924469994,"keywords":["nocrits","nodmgspread","payload","uncletopia"],"game_id":440,"stv_port":27026,"stv_name":"Uncletopia | New York City | 2 | All Maps | STV","players":null},{"server_id":15,"name":"Uncletopia | New York City | 3 | Stopwatch Beta","name_short":"nyc-3","host":"nyc-1.us.uncletopia.com","port":27035,"enabled":true,"region":"us-east","cc":"us","latitude":40.73061,"longitude":-73.93524,"reserved":0,"last_update":"0001-01-01T00:00:00Z","name_a2s":"Uncletopia | New York City | 3 | Stopwatch Beta","protocol":17,"map":"koth_lakeside_final","folder":"tf","game":"Team Fortress","app_id":440,"player_count":0,"max_players":24,"Bots":0,"server_type":"Dedicated","server_os":"Linux","password":true,"vac":true,"version":"7757534","steam_id":85568392924742820,"keywords":["cp","nocrits","nodmgspread","uncletopia"],"game_id":440,"stv_port":27036,"stv_name":"Uncletopia | New York City | 3 | Stopwatch Beta | STV","players":null},{"server_id":16,"name":"Uncletopia | New York City | 4 | Community","name_short":"nyc-4","host":"nyc-1.us.uncletopia.com","port":27045,"enabled":true,"region":"us-east","cc":"us","latitude":40.73061,"longitude":-73.93524,"reserved":0,"last_update":"0001-01-01T00:00:00Z","name_a2s":"Uncletopia | New York City | 4 | Community","protocol":17,"map":"pl_borneo","folder":"tf","game":"Team Fortress","app_id":440,"player_count":0,"max_players":24,"Bots":0,"server_type":"Dedicated","server_os":"Linux","password":true,"vac":true,"version":"7757534","steam_id":85568392924742821,"keywords":["nocrits","nodmgspread","payload","uncletopia"],"game_id":440,"stv_port":27046,"stv_name":"Uncletopia | New York City | 4 | Community | STV","players":null},{"server_id":142,"name":"Uncletopia | S√£o Paulo | 1 | All Maps","name_short":"sao-1","host":"sao-1.br.uncletopia.com","port":27015,"enabled":true,"region":"sa","cc":"br","latitude":-23.533773,"longitude":-46.62529,"reserved":0,"last_update":"0001-01-01T00:00:00Z","name_a2s":"Uncletopia | S√£o Paulo | 1 | All Maps","protocol":17,"map":"pl_snowycoast","folder":"tf","game":"Team Fortress","app_id":440,"player_count":0,"max_players":24,"Bots":0,"server_type":"Dedicated","server_os":"Linux","password":true,"vac":true,"version":"7757534","steam_id":85568392924469996,"keywords":["nocrits","nodmgspread","payload","uncletopia"],"game_id":440,"stv_port":27016,"stv_name":"Uncletopia | S√£o Paulo | 1 | All Maps | STV","players":null},{"server_id":143,"name":"Uncletopia | S√£o Paulo | 2 | All Maps","name_short":"sao-2","host":"sao-2.br.uncletopia.com","port":27015,"enabled":true,"region":"sa","cc":"br","latitude":-23.533773,"longitude":-46.62529,"reserved":0,"last_update":"0001-01-01T00:00:00Z","name_a2s":"Uncletopia | S√£o Paulo | 2 | All Maps","protocol":17,"map":"koth_highpass","folder":"tf","game":"Team Fortress","app_id":440,"player_count":0,"max_players":24,"Bots":0,"server_type":"Dedicated","server_os":"Linux","password":true,"vac":true,"version":"7757534","steam_id":85568392924485349,"keywords":["cp","nocrits","nodmgspread","uncletopia"],"game_id":440,"stv_port":27016,"stv_name":"Uncletopia | S√£o Paulo | 2 | All Maps | STV","players":null},{"server_id":7,"name":"Uncletopia | Seattle | 1 | All Maps","name_short":"sea-1","host":"sea-1.us.uncletopia.com","port":27015,"enabled":true,"region":"us-west","cc":"us","latitude":47.608013,"longitude":-122.33517,"reserved":0,"last_update":"0001-01-01T00:00:00Z","name_a2s":"Uncletopia | Seattle | 1 | All Maps","protocol":17,"map":"pl_borneo","folder":"tf","game":"Team Fortress","app_id":440,"player_count":23,"max_players":24,"Bots":0,"server_type":"Dedicated","server_os":"Linux","password":true,"vac":true,"version":"7757534","steam_id":85568392924469997,"keywords":["nocrits","nodmgspread","payload","uncletopia"],"game_id":440,"stv_port":27016,"stv_name":"Uncletopia | Seattle | 1 | All Maps | STV","players":[{"user_id":1051,"name":"cheeeezball","steam_id":76561198086461519,"connected_time":1254000000000,"state":"active","ping":83},{"user_id":1055,"name":"Romo","steam_id":76561198243101572,"connected_time":1028000000000,"state":"active","ping":116},{"user_id":1011,"name":"A Black Square","steam_id":76561198043570320,"connected_time":2820000000000,"state":"active","ping":117},{"user_id":1069,"name":"Clockworker","steam_id":76561198879078276,"connected_time":317000000000,"state":"active","ping":81},{"user_id":970,"name":"Daz","steam_id":76561198041431938,"connected_time":5944000000000,"state":"active","ping":121},{"user_id":1021,"name":"VoidMouse","steam_id":76561198063104282,"connected_time":2338000000000,"state":"active","ping":78},{"user_id":1056,"name":"Panacea","steam_id":76561198058296984,"connected_time":929000000000,"state":"active","ping":182},{"user_id":1014,"name":"Ripleytadpole","steam_id":76561198021784597,"connected_time":2683000000000,"state":"active","ping":122},{"user_id":1070,"name":"Nico","steam_id":76561198125701869,"connected_time":168000000000,"state":"active","ping":124},{"user_id":1022,"name":"Smellsliketeenbullshit","steam_id":76561198363408675,"connected_time":2167000000000,"state":"active","ping":101},{"user_id":1057,"name":"Many Bees' Chilling","steam_id":76561198079641282,"connected_time":874000000000,"state":"active","ping":64},{"user_id":1048,"name":"Higgs Monaghan","steam_id":76561198251045774,"connected_time":1374000000000,"state":"active","ping":130},{"user_id":1054,"name":"TV","steam_id":76561198177326926,"connected_time":1202000000000,"state":"active","ping":135},{"user_id":1026,"name":"rkp!","steam_id":76561199053070819,"connected_time":2045000000000,"state":"active","ping":83},{"user_id":1017,"name":"Lucky! (Free Coaching :\u003e)","steam_id":76561198092241756,"connected_time":2523000000000,"state":"active","ping":76},{"user_id":1032,"name":"CMDR Osowiec","steam_id":76561198267752855,"connected_time":1833000000000,"state":"active","ping":56},{"user_id":1042,"name":"Miaou","steam_id":76561198157037554,"connected_time":1605000000000,"state":"active","ping":119},{"user_id":1063,"name":"ÏïîÌò∏ÌôîÏóê ÎÇòÏÅú","steam_id":76561198060447571,"connected_time":720000000000,"state":"active","ping":97},{"user_id":1064,"name":"mumbles","steam_id":76561197994528974,"connected_time":692000000000,"state":"active","ping":77},{"user_id":1040,"name":"fever dreams","steam_id":76561198208335532,"connected_time":1642000000000,"state":"active","ping":79},{"user_id":1036,"name":"Anxious Nerd Bird","steam_id":76561198112178602,"connected_time":1713000000000,"state":"active","ping":89},{"user_id":1065,"name":"Lawfty","steam_id":76561198367162925,"connected_time":676000000000,"state":"active","ping":133},{"user_id":1068,"name":"flishko","steam_id":76561198326489802,"connected_time":495000000000,"state":"active","ping":55}]},{"server_id":119,"name":"Uncletopia | Seattle | 2 | All Maps","name_short":"sea-2","host":"sea-1.us.uncletopia.com","port":27025,"enabled":true,"region":"us-west","cc":"us","latitude":47.608013,"longitude":-122.33517,"reserved":0,"last_update":"0001-01-01T00:00:00Z","name_a2s":"Uncletopia | Seattle | 2 | All Maps","protocol":17,"map":"koth_lakeside_final","folder":"tf","game":"Team Fortress","app_id":440,"player_count":0,"max_players":24,"Bots":0,"server_type":"Dedicated","server_os":"Linux","password":true,"vac":true,"version":"7757534","steam_id":85568392924469998,"keywords":["cp","nocrits","nodmgspread","uncletopia"],"game_id":440,"stv_port":27026,"stv_name":"Uncletopia | Seattle | 2 | All Maps | STV","players":null},{"server_id":406,"name":"Uncletopia | Seattle | 3 | Stopwatch Beta","name_short":"sea-3","host":"sea-1.us.uncletopia.com","port":27035,"enabled":true,"region":"us-west","cc":"us","latitude":47.608013,"longitude":-122.33517,"reserved":0,"last_update":"0001-01-01T00:00:00Z","name_a2s":"Uncletopia | Seattle | 3 | Stopwatch Beta","protocol":17,"map":"workshop/pl_summercoast_rc8e.ugc1761528829","folder":"tf","game":"Team Fortress","app_id":440,"player_count":0,"max_players":24,"Bots":0,"server_type":"Dedicated","server_os":"Linux","password":true,"vac":true,"version":"7757534","steam_id":85568392924515217,"keywords":["nocrits","nodmgspread","payload","uncletopia"],"game_id":440,"stv_port":27036,"stv_name":"Uncletopia | Seattle | 3 | Stopwatch Beta | STV","players":null},{"server_id":17,"name":"Uncletopia | San Francisco | 1 | All Maps","name_short":"sfo-1","host":"sfo-1.us.uncletopia.com","port":27015,"enabled":true,"region":"us-west","cc":"us","latitude":37.77397,"longitude":-122.4313,"reserved":0,"last_update":"0001-01-01T00:00:00Z","name_a2s":"Uncletopia | San Francisco | 1 | All Maps","protocol":17,"map":"koth_viaduct","folder":"tf","game":"Team Fortress","app_id":440,"player_count":0,"max_players":24,"Bots":0,"server_type":"Dedicated","server_os":"Linux","password":true,"vac":true,"version":"7757534","steam_id":85568392924469999,"keywords":["cp","nocrits","nodmgspread","uncletopia"],"game_id":440,"stv_port":27016,"stv_name":"Uncletopia | San Francisco | 1 | All Maps | STV","players":null},{"server_id":18,"name":"Uncletopia | San Francisco | 2 | All Maps","name_short":"sfo-2","host":"sfo-1.us.uncletopia.com","port":27025,"enabled":true,"region":"us-west","cc":"us","latitude":37.77397,"longitude":-122.4313,"reserved":0,"last_update":"0001-01-01T00:00:00Z","name_a2s":"Uncletopia | San Francisco | 2 | All Maps","protocol":17,"map":"pl_barnblitz","folder":"tf","game":"Team Fortress","app_id":440,"player_count":0,"max_players":24,"Bots":0,"server_type":"Dedicated","server_os":"Linux","password":true,"vac":true,"version":"7757534","steam_id":85568392924470000,"keywords":["nocrits","nodmgspread","payload","uncletopia"],"game_id":440,"stv_port":27026,"stv_name":"Uncletopia | San Francisco | 2 | All Maps | STV","players":null},{"server_id":19,"name":"Uncletopia | San Francisco | 3 | Stopwatch Beta","name_short":"sfo-3","host":"sfo-1.us.uncletopia.com","port":27035,"enabled":true,"region":"us-west","cc":"us","latitude":37.77397,"longitude":-122.4313,"reserved":0,"last_update":"0001-01-01T00:00:00Z","name_a2s":"Uncletopia | San Francisco | 3 | Stopwatch Beta","protocol":17,"map":"workshop/pl_vigil_rc9.ugc1266210012","folder":"tf","game":"Team Fortress","app_id":440,"player_count":0,"max_players":24,"Bots":0,"server_type":"Dedicated","server_os":"Linux","password":true,"vac":true,"version":"7757534","steam_id":85568392924742824,"keywords":["nocrits","nodmgspread","payload","uncletopia"],"game_id":440,"stv_port":27036,"stv_name":"Uncletopia | San Francisco | 3 | Stopwatch Beta | STV","players":null},{"server_id":20,"name":"Uncletopia | San Francisco | 4 | Community","name_short":"sfo-4","host":"sfo-1.us.uncletopia.com","port":27045,"enabled":true,"region":"us-west","cc":"us","latitude":37.77397,"longitude":-122.4313,"reserved":0,"last_update":"0001-01-01T00:00:00Z","name_a2s":"Uncletopia | San Francisco | 4 | Community","protocol":17,"map":"workshop/koth_bagel_rc5.ugc2514036946","folder":"tf","game":"Team Fortress","app_id":440,"player_count":0,"max_players":24,"Bots":0,"server_type":"Dedicated","server_os":"Linux","password":true,"vac":true,"version":"7757534","steam_id":85568392924742826,"keywords":["cp","nocrits","nodmgspread","uncletopia"],"game_id":440,"stv_port":27046,"stv_name":"Uncletopia | San Francisco | 4 | Community | STV","players":null},{"server_id":141,"name":"Uncletopia | Sydney | 1 | All Maps","name_short":"syd-1","host":"syd-1.au.uncletopia.com","port":27015,"enabled":true,"region":"au","cc":"au","latitude":-33.865143,"longitude":151.2099,"reserved":0,"last_update":"0001-01-01T00:00:00Z","name_a2s":"Uncletopia | Sydney | 1 | All Maps","protocol":17,"map":"pl_badwater","folder":"tf","game":"Team Fortress","app_id":440,"player_count":0,"max_players":24,"Bots":0,"server_type":"Dedicated","server_os":"Linux","password":true,"vac":true,"version":"7757534","steam_id":85568392924470001,"keywords":["nocrits","nodmgspread","payload","uncletopia"],"game_id":440,"stv_port":27016,"stv_name":"Uncletopia | Sydney | 1 | All Maps | STV","players":null},{"server_id":123,"name":"Uncletopia | Sydney | 2 | All Maps","name_short":"syd-2","host":"syd-1.au.uncletopia.com","port":27025,"enabled":true,"region":"au","cc":"au","latitude":-33.865143,"longitude":151.2099,"reserved":0,"last_update":"0001-01-01T00:00:00Z","name_a2s":"Uncletopia | Sydney | 2 | All Maps","protocol":17,"map":"koth_highpass","folder":"tf","game":"Team Fortress","app_id":440,"player_count":0,"max_players":24,"Bots":0,"server_type":"Dedicated","server_os":"Linux","password":true,"vac":true,"version":"7757534","steam_id":85568392924470002,"keywords":["cp","nocrits","nodmgspread","uncletopia"],"game_id":440,"stv_port":27026,"stv_name":"Uncletopia | Sydney | 2 | All Maps | STV","players":null},{"server_id":395,"name":"Uncletopia | Sydney | 3 | All Maps","name_short":"syd-3","host":"syd-1.au.uncletopia.com","port":27035,"enabled":true,"region":"au","cc":"au","latitude":-33.865143,"longitude":151.2099,"reserved":0,"last_update":"0001-01-01T00:00:00Z","name_a2s":"Uncletopia | Sydney | 3 | All Maps","protocol":17,"map":"pl_badwater","folder":"tf","game":"Team Fortress","app_id":440,"player_count":24,"max_players":24,"Bots":0,"server_type":"Dedicated","server_os":"Linux","password":true,"vac":true,"version":"7757534","steam_id":85568392925194467,"keywords":["nocrits","nodmgspread","payload","uncletopia"],"game_id":440,"stv_port":27036,"stv_name":"Uncletopia | Sydney | 3 | All Maps | STV","players":[{"user_id":227,"name":"pablo.rodriguez.2015","steam_id":76561198166909147,"connected_time":2099000000000,"state":"active","ping":32},{"user_id":240,"name":"Bobby Bigman","steam_id":76561198044679656,"connected_time":761000000000,"state":"active","ping":61},{"user_id":218,"name":"Pompadouraus","steam_id":76561198327530525,"connected_time":2824000000000,"state":"active","ping":76},{"user_id":244,"name":"Vox Andrews","steam_id":76561198053562039,"connected_time":495000000000,"state":"active","ping":90},{"user_id":247,"name":"Nut Bucket","steam_id":76561198138193812,"connected_time":415000000000,"state":"active","ping":98},{"user_id":249,"name":"Lil Peenor","steam_id":76561198071994817,"connected_time":368000000000,"state":"active","ping":74},{"user_id":236,"name":"Lincoln2603","steam_id":76561198170236666,"connected_time":1098000000000,"state":"active","ping":39},{"user_id":250,"name":"Doctor!","steam_id":76561198041851238,"connected_time":283000000000,"state":"active","ping":90},{"user_id":253,"name":"goon","steam_id":76561199242945642,"connected_time":86000000000,"state":"active","ping":66},{"user_id":243,"name":"Raven","steam_id":76561198428025966,"connected_time":624000000000,"state":"active","ping":68},{"user_id":233,"name":"cretin","steam_id":76561198127848228,"connected_time":1355000000000,"state":"active","ping":60},{"user_id":226,"name":"wombraider","steam_id":76561199375834537,"connected_time":2214000000000,"state":"active","ping":135},{"user_id":239,"name":"Consolidated Fart","steam_id":76561198924101909,"connected_time":903000000000,"state":"active","ping":68},{"user_id":223,"name":"Hooray!","steam_id":76561198066726621,"connected_time":2632000000000,"state":"active","ping":45},{"user_id":251,"name":"pecunia","steam_id":76561198334403232,"connected_time":160000000000,"state":"active","ping":57},{"user_id":245,"name":"EarlyElite4199","steam_id":76561198432308585,"connected_time":481000000000,"state":"active","ping":47},{"user_id":252,"name":"HADOS","steam_id":76561198883428531,"connected_time":152000000000,"state":"active","ping":96},{"user_id":238,"name":"enoeht","steam_id":76561198054187483,"connected_time":1056000000000,"state":"active","ping":65},{"user_id":246,"name":"Wesley Gorilla","steam_id":76561198006943216,"connected_time":439000000000,"state":"active","ping":85},{"user_id":235,"name":"Tenous","steam_id":76561198143631024,"connected_time":1268000000000,"state":"active","ping":60},{"user_id":205,"name":"Lumalee ‚ù§","steam_id":76561198157613299,"connected_time":3428000000000,"state":"active","ping":69},{"user_id":254,"name":"murz64a","steam_id":76561199387742233,"connected_time":57000000000,"state":"active","ping":259},{"user_id":222,"name":"Mouse Balls","steam_id":76561199037470627,"connected_time":2693000000000,"state":"active","ping":107},{"user_id":255,"name":"Qwertles","steam_id":76561198033779273,"connected_time":43000000000,"state":"active","ping":54}]},{"server_id":396,"name":"Uncletopia | Sydney | 4 | All Maps","name_short":"syd-4","host":"syd-1.au.uncletopia.com","port":27045,"enabled":true,"region":"au","cc":"au","latitude":-33.865143,"longitude":151.2099,"reserved":0,"last_update":"0001-01-01T00:00:00Z","name_a2s":"Uncletopia | Sydney | 4 | All Maps","protocol":17,"map":"pl_coal_event","folder":"tf","game":"Team Fortress","app_id":440,"player_count":0,"max_players":24,"Bots":0,"server_type":"Dedicated","server_os":"Linux","password":true,"vac":true,"version":"7757534","steam_id":85568392925397958,"keywords":["nocrits","nodmgspread","payload","uncletopia"],"game_id":440,"stv_port":27046,"stv_name":"Uncletopia | Sydney | 4 | All Maps | STV","players":null},{"server_id":58,"name":"Uncletopia | Sydney | 5 | Stopwatch Beta","name_short":"syd-5","host":"syd-1.au.uncletopia.com","port":27055,"enabled":true,"region":"au","cc":"au","latitude":-33.865143,"longitude":151.2099,"reserved":0,"last_update":"0001-01-01T00:00:00Z","name_a2s":"Uncletopia | Sydney | 5 | Stopwatch Beta","protocol":17,"map":"pl_barnblitz","folder":"tf","game":"Team Fortress","app_id":440,"player_count":0,"max_players":24,"Bots":0,"server_type":"Dedicated","server_os":"Linux","password":true,"vac":true,"version":"7757534","steam_id":85568392925397959,"keywords":["nocrits","nodmgspread","payload","uncletopia"],"game_id":440,"stv_port":27056,"stv_name":"Uncletopia | Sydney | 5 | Stopwatch Beta | STV","players":null},{"server_id":59,"name":"Uncletopia | Sydney | 6 | Community","name_short":"syd-6","host":"syd-1.au.uncletopia.com","port":27065,"enabled":true,"region":"au","cc":"au","latitude":-33.865143,"longitude":151.2099,"reserved":0,"last_update":"0001-01-01T00:00:00Z","name_a2s":"Uncletopia | Sydney | 6 | Community","protocol":17,"map":"workshop/koth_synthetic_rc6a.ugc1549817316","folder":"tf","game":"Team Fortress","app_id":440,"player_count":0,"max_players":24,"Bots":0,"server_type":"Dedicated","server_os":"Linux","password":true,"vac":true,"version":"7757534","steam_id":85568392925397960,"keywords":["cp","nocrits","nodmgspread","uncletopia"],"game_id":440,"stv_port":27066,"stv_name":"Uncletopia | Sydney | 6 | Community | STV","players":null},{"server_id":49,"name":"Uncletopia | Warsaw | 1 | All Maps","name_short":"waw-1","host":"waw-1.pl.uncletopia.com","port":27015,"enabled":true,"region":"eu","cc":"pl","latitude":52.2297,"longitude":21.017532,"reserved":0,"last_update":"0001-01-01T00:00:00Z","name_a2s":"","protocol":0,"map":"","folder":"","game":"","app_id":0,"player_count":0,"max_players":0,"Bots":0,"server_type":"","server_os":"","password":false,"vac":false,"version":"","steam_id":0,"keywords":null,"game_id":0,"stv_port":0,"stv_name":"","players":null},{"server_id":50,"name":"Uncletopia | Warsaw | 2 | All Maps","name_short":"waw-2","host":"waw-1.pl.uncletopia.com","port":27025,"enabled":true,"region":"eu","cc":"pl","latitude":52.2297,"longitude":21.017532,"reserved":0,"last_update":"0001-01-01T00:00:00Z","name_a2s":"Uncletopia | Warsaw | 2 | All Maps","protocol":17,"map":"koth_harvest_final","folder":"tf","game":"Team Fortress","app_id":440,"player_count":0,"max_players":24,"Bots":0,"server_type":"Dedicated","server_os":"Linux","password":true,"vac":true,"version":"7757534","steam_id":85568392925397851,"keywords":["cp","nocrits","nodmgspread","uncletopia"],"game_id":440,"stv_port":27026,"stv_name":"Uncletopia | Warsaw | 2 | All Maps | STV","players":null},{"server_id":51,"name":"Uncletopia | Warsaw | 3 | All Maps","name_short":"waw-3","host":"waw-1.pl.uncletopia.com","port":27035,"enabled":true,"region":"eu","cc":"pl","latitude":52.2297,"longitude":21.017532,"reserved":0,"last_update":"0001-01-01T00:00:00Z","name_a2s":"Uncletopia | Warsaw | 3 | All Maps","protocol":17,"map":"koth_viaduct","folder":"tf","game":"Team Fortress","app_id":440,"player_count":0,"max_players":24,"Bots":0,"server_type":"Dedicated","server_os":"Linux","password":true,"vac":true,"version":"7757534","steam_id":85568392925397852,"keywords":["cp","nocrits","nodmgspread","uncletopia"],"game_id":440,"stv_port":27036,"stv_name":"Uncletopia | Warsaw | 3 | All Maps | STV","players":null},{"server_id":52,"name":"Uncletopia | Warsaw | 4 | All Maps","name_short":"waw-4","host":"waw-1.pl.uncletopia.com","port":27045,"enabled":true,"region":"eu","cc":"pl","latitude":52.2297,"longitude":21.017532,"reserved":0,"last_update":"0001-01-01T00:00:00Z","name_a2s":"Uncletopia | Warsaw | 4 | All Maps","protocol":17,"map":"pl_swiftwater_final1","folder":"tf","game":"Team Fortress","app_id":440,"player_count":0,"max_players":24,"Bots":0,"server_type":"Dedicated","server_os":"Linux","password":true,"vac":true,"version":"7757534","steam_id":85568392925397853,"keywords":["nocrits","nodmgspread","payload","uncletopia"],"game_id":440,"stv_port":27046,"stv_name":"Uncletopia | Warsaw | 4 | All Maps | STV","players":null},{"server_id":53,"name":"Uncletopia | Warsaw | 5 | Stopwatch Beta","name_short":"waw-5","host":"waw-1.pl.uncletopia.com","port":27055,"enabled":true,"region":"eu","cc":"pl","latitude":52.2297,"longitude":21.017532,"reserved":0,"last_update":"0001-01-01T00:00:00Z","name_a2s":"Uncletopia | Warsaw | 5 | Stopwatch Beta","protocol":17,"map":"pl_upward","folder":"tf","game":"Team Fortress","app_id":440,"player_count":0,"max_players":24,"Bots":0,"server_type":"Dedicated","server_os":"Linux","password":true,"vac":true,"version":"7757534","steam_id":85568392925397854,"keywords":["nocrits","nodmgspread","payload","uncletopia"],"game_id":440,"stv_port":27056,"stv_name":"Uncletopia | Warsaw | 5 | Stopwatch Beta | STV","players":null},{"server_id":54,"name":"Uncletopia | Warsaw | 6 | Community","name_short":"waw-6","host":"waw-1.pl.uncletopia.com","port":27065,"enabled":true,"region":"eu","cc":"pl","latitude":52.2297,"longitude":21.017532,"reserved":0,"last_update":"0001-01-01T00:00:00Z","name_a2s":"Uncletopia | Warsaw | 6 | Community","protocol":17,"map":"workshop/cp_overgrown_rc7b.ugc503939302","folder":"tf","game":"Team Fortress","app_id":440,"player_count":0,"max_players":24,"Bots":0,"server_type":"Dedicated","server_os":"Linux","password":true,"vac":true,"version":"7757534","steam_id":85568392925397856,"keywords":["cp","nocrits","nodmgspread","uncletopia"],"game_id":440,"stv_port":27066,"stv_name":"Uncletopia | Warsaw | 6 | Community | STV","players":null}]}