{"status":true,"message":"","result":[{"server_id":9,"name":"Uncletopia | Atlanta | 1 | All Maps","name_short":"atl-1","host":"atl-1.us.uncletopia.com","port":27015,"enabled":true,"region":"us-east","cc":"us","latitude":33.753746,"longitude":-84.38633,"reserved":0,"last_update":"0001-01-01T00:00:00Z","name_a2s":"Uncletopia | Atlanta | 1 | All Maps","protocol":17,"map":"pl_swiftwater_final1","folder":"tf","game":"Team Fortress","app_id":440,"player_count":24,"max_players":24,"Bots":0,"server_type":"Dedicated","server_os":"Linux","password":true,"vac":true,"version":"7882260","steam_id":85568392924469982,"keywords":["nocrits","nodmgspread","payload","uncletopia"],"game_id":440,"stv_port":27016,"stv_name":"Uncletopia | Atlanta | 1 | All Maps | STV","players":[{"user_id":528,"name":"vcx","steam_id":76561198139371143,"connected_time":628000000000,"state":"active","ping":85},{"user_id":517,"name":"braindead","steam_id":76561198263631055,"connected_time":1201000000000,"state":"active","ping":45},{"user_id":505,"name":"zpalmtree","steam_id":76561198134307620,"connected_time":1885000000000,"state":"active","ping":112},{"user_id":527,"name":"SellMeAx370Taichi","steam_id":76561198420319686,"connected_time":760000000000,"state":"active","ping":85},{"user_id":504,"name":"Don't ask me to talk","steam_id":76561199388826335,"connected_time":1915000000000,"state":"active","ping":84},{"user_id":495,"name":"Pumbloom","steam_id":76561198024481281,"connected_time":2797000000000,"state":"active","ping":45},{"user_id":513,"name":"yae miko raiden shogun twerkoff","steam_id":76561198070204365,"connected_time":1314000000000,"state":"active","ping":48},{"user_id":511,"name":"big ol' buford","steam_id":76561198290675957,"connected_time":1400000000000,"state":"active","ping":58},{"user_id":533,"name":"sam1521","steam_id":76561198027264163,"connected_time":240000000000,"state":"active","ping":84},{"user_id":454,"name":"marguerite","steam_id":76561198170873495,"connected_time":5506000000000,"state":"active","ping":54},{"user_id":534,"name":"shawcrow","steam_id":76561198998720161,"connected_time":224000000000,"state":"active","ping":53},{"user_id":509,"name":"Sugary","steam_id":76561198088267265,"connected_time":1712000000000,"state":"active","ping":107},{"user_id":493,"name":"The Blind People","steam_id":76561198008387855,"connected_time":2963000000000,"state":"active","ping":52},{"user_id":532,"name":"Fastest Chud In The West","steam_id":76561198063154620,"connected_time":552000000000,"state":"active","ping":42},{"user_id":496,"name":"J.G. Klaus","steam_id":76561198001111196,"connected_time":2758000000000,"state":"active","ping":74},{"user_id":497,"name":"Doromaina","steam_id":76561198118428095,"connected_time":2693000000000,"state":"active","ping":79},{"user_id":520,"name":"DiGiorno's Pizza","steam_id":76561198142244035,"connected_time":934000000000,"state":"active","ping":70},{"user_id":463,"name":"BeeseChurger","steam_id":76561198437900239,"connected_time":5243000000000,"state":"active","ping":83},{"user_id":503,"name":"Local Talent","steam_id":76561199053290637,"connected_time":1955000000000,"state":"active","ping":63},{"user_id":502,"name":"cee","steam_id":76561198420893458,"connected_time":1960000000000,"state":"active","ping":74},{"user_id":531,"name":"Alberto2104","steam_id":76561198094968873,"connected_time":566000000000,"state":"active","ping":111},{"user_id":459,"name":"Elflocky","steam_id":76561199096852639,"connected_time":5356000000000,"state":"active","ping":73},{"user_id":440,"name":"Karma","steam_id":76561198030565234,"connected_time":6700000000000,"state":"active","ping":75},{"user_id":525,"name":"Skinny Pete","steam_id":76561198801608576,"connected_time":833000000000,"state":"active","ping":73}]},{"server_id":104,"name":"Uncletopia | Atlanta | 2 | All Maps","name_short":"atl-2","host":"atl-1.us.uncletopia.com","port":27025,"enabled":true,"region":"us-east","cc":"us","latitude":33.753746,"longitude":-84.38633,"reserved":0,"last_update":"0001-01-01T00:00:00Z","name_a2s":"Uncletopia | Atlanta | 2 | All Maps","protocol":17,"map":"cp_dustbowl","folder":"tf","game":"Team Fortress","app_id":440,"player_count":25,"max_players":24,"Bots":0,"server_type":"Dedicated","server_os":"Linux","password":true,"vac":true,"version":"7882260","steam_id":85568392924469983,"keywords":["cp","nocrits","nodmgspread","uncletopia"],"game_id":440,"stv_port":27026,"stv_name":"Uncletopia | Atlanta | 2 | All Maps | STV","players":[{"user_id":567,"name":"sock","steam_id":76561199117597830,"connected_time":2021000000000,"state":"active","ping":73},{"user_id":423,"name":"Panda Loser","steam_id":76561198828745176,"connected_time":4537000000000,"state":"active","ping":105},{"user_id":497,"name":"Lord Cio","steam_id":76561198081664580,"connected_time":3164000000000,"state":"active","ping":162},{"user_id":602,"name":"Acro Banwagon","steam_id":76561198092451804,"connected_time":1052000000000,"state":"active","ping":90},{"user_id":638,"name":"Grand Piano Tuna","steam_id":76561198135137213,"connected_time":204000000000,"state":"active","ping":60},{"user_id":357,"name":"Chihuahua Muncher","steam_id":76561198124311404,"connected_time":5639000000000,"state":"active","ping":100},{"user_id":500,"name":"Applesauce","steam_id":76561198049642811,"connected_time":3097000000000,"state":"active","ping":55},{"user_id":577,"name":"angry birds","steam_id":76561199134195354,"connected_time":1755000000000,"state":"active","ping":58},{"user_id":603,"name":"greg","steam_id":76561199206080182,"connected_time":1003000000000,"state":"active","ping":87},{"user_id":441,"name":"BigPimpin","steam_id":76561198119549348,"connected_time":4281000000000,"state":"active","ping":75},{"user_id":505,"name":"reallyfriendly","steam_id":76561197996819313,"connected_time":3007000000000,"state":"active","ping":61},{"user_id":641,"name":"Konrad Vilulf","steam_id":76561198111124481,"connected_time":92000000000,"state":"active","ping":69},{"user_id":559,"name":"Snow‚òÜ","steam_id":76561198031290573,"connected_time":2164000000000,"state":"active","ping":60},{"user_id":561,"name":"Amish Supremacist","steam_id":76561198396181197,"connected_time":2157000000000,"state":"active","ping":59},{"user_id":614,"name":"Bigge cheese the 3rd","steam_id":76561198860975325,"connected_time":800000000000,"state":"active","ping":74},{"user_id":359,"name":"rawrie","steam_id":76561198005371178,"connected_time":5614000000000,"state":"active","ping":60},{"user_id":513,"name":"C0RV3L","steam_id":76561199205094837,"connected_time":2803000000000,"state":"active","ping":132},{"user_id":564,"name":"sjpete61","steam_id":76561199103543529,"connected_time":2103000000000,"state":"active","ping":115},{"user_id":646,"name":"Chihuahua Seller","steam_id":76561199183204482,"connected_time":2000000000,"state":"spawning","ping":120},{"user_id":645,"name":"Pal","steam_id":76561198004363431,"connected_time":12000000000,"state":"spawning","ping":118},{"user_id":563,"name":"A Shiny Meat Bicycle","steam_id":76561198358757709,"connected_time":2124000000000,"state":"active","ping":74},{"user_id":474,"name":"MasAcqua","steam_id":76561198007402503,"connected_time":3638000000000,"state":"active","ping":151},{"user_id":454,"name":"Isfahan","steam_id":76561197997143025,"connected_time":4050000000000,"state":"active","ping":69},{"user_id":644,"name":"Caoticaos","steam_id":76561198114800227,"connected_time":25000000000,"state":"spawning","ping":116},{"user_id":371,"name":"Mr_Frosty","steam_id":76561199380389079,"connected_time":5414000000000,"state":"active","ping":111}]},{"server_id":400,"name":"Uncletopia | Atlanta | 3 | Community","name_short":"atl-3","host":"atl-1.us.uncletopia.com","port":27035,"enabled":true,"region":"us-east","cc":"us","latitude":33.753746,"longitude":-84.38633,"reserved":0,"last_update":"0001-01-01T00:00:00Z","name_a2s":"Uncletopia | Atlanta | 3 | Community","protocol":17,"map":"workshop/cp_croissant_final.ugc458840209","folder":"tf","game":"Team Fortress","app_id":440,"player_count":0,"max_players":24,"Bots":0,"server_type":"Dedicated","server_os":"Linux","password":true,"vac":true,"version":"7882260","steam_id":85568392924515187,"keywords":["cp","nocrits","nodmgspread","uncletopia"],"game_id":440,"stv_port":27036,"stv_name":"Uncletopia | Atlanta | 3 | Community | STV","players":null},{"server_id":401,"name":"Uncletopia | Atlanta | 4 | No Payload","name_short":"atl-4","host":"atl-1.us.uncletopia.com","port":27045,"enabled":true,"region":"us-east","cc":"us","latitude":33.753746,"longitude":-84.38633,"reserved":0,"last_update":"0001-01-01T00:00:00Z","name_a2s":"","protocol":0,"map":"","folder":"","game":"","app_id":0,"player_count":0,"max_players":0,"Bots":0,"server_type":"","server_os":"","password":false,"vac":false,"version":"","steam_id":0,"keywords":null,"game_id":0,"stv_port":0,"stv_name":"","players":null},{"server_id":2,"name":"Uncletopia | Chicago | 1 | All Maps","name_short":"chi-1","host":"chi-1.us.uncletopia.com","port":27015,"enabled":true,"region":"us-central","cc":"us","latitude":41.881832,"longitude":-87.62318,"reserved":0,"last_update":"0001-01-01T00:00:00Z","name_a2s":"Uncletopia | Chicago | 1 | All Maps","protocol":17,"map":"plr_bananabay","folder":"tf","game":"Team Fortress","app_id":440,"player_count":24,"max_players":24,"Bots":0,"server_type":"Dedicated","server_os":"Linux","password":true,"vac":true,"version":"7882260","steam_id":85568392924469984,"keywords":["nocrits","nodmgspread","payload","uncletopia"],"game_id":440,"stv_port":27016,"stv_name":"Uncletopia | Chicago | 1 | All Maps | STV","players":[{"user_id":705,"name":"Spoons","steam_id":76561198042006848,"connected_time":2400000000000,"state":"active","ping":41},{"user_id":727,"name":"Verily","steam_id":76561198200558318,"connected_time":281000000000,"state":"active","ping":62},{"user_id":708,"name":"HOTA","steam_id":76561199002778841,"connected_time":1173000000000,"state":"active","ping":73},{"user_id":726,"name":"giveit5","steam_id":76561198030815437,"connected_time":311000000000,"state":"active","ping":92},{"user_id":707,"name":"„ÅÇ„Åæ„Åø„ÇÑ „Çå„Çì","steam_id":76561198165569261,"connected_time":1965000000000,"state":"active","ping":51},{"user_id":728,"name":"Sableye","steam_id":76561198061247147,"connected_time":281000000000,"state":"active","ping":66},{"user_id":666,"name":"Tophu","steam_id":76561198380229671,"connected_time":6992000000000,"state":"active","ping":65},{"user_id":734,"name":"Bottom Trans Cowgirl","steam_id":76561198304239680,"connected_time":46000000000,"state":"active","ping":160},{"user_id":712,"name":"Women B. Shopping","steam_id":76561198069814977,"connected_time":729000000000,"state":"active","ping":68},{"user_id":729,"name":"Mops","steam_id":76561198058213741,"connected_time":265000000000,"state":"active","ping":64},{"user_id":709,"name":"Rya‚ò∫","steam_id":76561198370128860,"connected_time":986000000000,"state":"active","ping":74},{"user_id":710,"name":"Gnarly Shark Bite","steam_id":76561198004058342,"connected_time":979000000000,"state":"active","ping":79},{"user_id":687,"name":"Manic Lunatic","steam_id":76561199022053857,"connected_time":4355000000000,"state":"active","ping":72},{"user_id":689,"name":"TallBit","steam_id":76561199059748976,"connected_time":4111000000000,"state":"active","ping":51},{"user_id":656,"name":"John Darksoul","steam_id":76561198999712284,"connected_time":7578000000000,"state":"active","ping":73},{"user_id":735,"name":"Man Time","steam_id":76561198151147218,"connected_time":33000000000,"state":"active","ping":81},{"user_id":720,"name":"SlippyPunk","steam_id":76561198048551455,"connected_time":522000000000,"state":"active","ping":83},{"user_id":719,"name":"CherriKat (she/her)","steam_id":76561198821297512,"connected_time":609000000000,"state":"active","ping":103},{"user_id":723,"name":"Praise_to_the_Flashlight!","steam_id":76561199001728789,"connected_time":350000000000,"state":"active","ping":70},{"user_id":688,"name":"Smittywerbenjager-manjenson","steam_id":76561198067060742,"connected_time":4146000000000,"state":"active","ping":60},{"user_id":730,"name":"dopadream","steam_id":76561198068383694,"connected_time":263000000000,"state":"active","ping":76},{"user_id":732,"name":"Snugboo","steam_id":76561198147970327,"connected_time":187000000000,"state":"active","ping":51},{"user_id":724,"name":"Abbashea","steam_id":76561199182136969,"connected_time":349000000000,"state":"active","ping":83},{"user_id":697,"name":"Mitchu The Bidness Man","steam_id":76561198102494381,"connected_time":3517000000000,"state":"active","ping":73}]},{"server_id":106,"name":"Uncletopia | Chicago | 2 | All Maps","name_short":"chi-2","host":"chi-1.us.uncletopia.com","port":27025,"enabled":true,"region":"us-central","cc":"us","latitude":41.881832,"longitude":-87.62318,"reserved":0,"last_update":"0001-01-01T00:00:00Z","name_a2s":"Uncletopia | Chicago | 2 | All Maps","protocol":17,"map":"pl_frontier_final","folder":"tf","game":"Team Fortress","app_id":440,"player_count":24,"max_players":24,"Bots":0,"server_type":"Dedicated","server_os":"Linux","password":true,"vac":true,"version":"7882260","steam_id":85568392924469985,"keywords":["nocrits","nodmgspread","payload","uncletopia"],"game_id":440,"stv_port":27026,"stv_name":"Uncletopia | Chicago | 2 | All Maps | STV","players":[{"user_id":386,"name":"Pango","steam_id":76561198069811545,"connected_time":8379000000000,"state":"active","ping":65},{"user_id":443,"name":"xX_HimboSwallower_Xx","steam_id":76561198016029965,"connected_time":1675000000000,"state":"active","ping":55},{"user_id":459,"name":"Dreszerg","steam_id":76561198838757422,"connected_time":515000000000,"state":"active","ping":84},{"user_id":439,"name":"Swshbcklr","steam_id":76561197969421355,"connected_time":2413000000000,"state":"active","ping":73},{"user_id":460,"name":"Rein","steam_id":76561198300340427,"connected_time":149000000000,"state":"active","ping":55},{"user_id":425,"name":"ATastyDonut","steam_id":76561198984819894,"connected_time":4412000000000,"state":"active","ping":71},{"user_id":436,"name":"MedRed‚Ñ¢ #IATAH","steam_id":76561198002962970,"connected_time":3284000000000,"state":"active","ping":100},{"user_id":417,"name":"p4ka","steam_id":76561198315291317,"connected_time":4843000000000,"state":"active","ping":74},{"user_id":449,"name":"Dr. Twa","steam_id":76561198295529541,"connected_time":1325000000000,"state":"active","ping":84},{"user_id":421,"name":"boppetson","steam_id":76561198073529045,"connected_time":4551000000000,"state":"active","ping":64},{"user_id":461,"name":"tux","steam_id":76561198167746330,"connected_time":90000000000,"state":"active","ping":70},{"user_id":414,"name":"Jel1440","steam_id":76561198179045366,"connected_time":5440000000000,"state":"active","ping":55},{"user_id":426,"name":"Jezzus","steam_id":76561199289676387,"connected_time":4326000000000,"state":"active","ping":90},{"user_id":451,"name":"Combatspok","steam_id":76561197971598115,"connected_time":1255000000000,"state":"active","ping":59},{"user_id":438,"name":"yang","steam_id":76561198189889923,"connected_time":2942000000000,"state":"active","ping":95},{"user_id":418,"name":"PerpetuaForever","steam_id":76561198347444353,"connected_time":4753000000000,"state":"active","ping":69},{"user_id":397,"name":"Mage","steam_id":76561198285026879,"connected_time":7321000000000,"state":"active","ping":79},{"user_id":453,"name":"‚ù§ Ivy ‚ù§","steam_id":76561198077796736,"connected_time":896000000000,"state":"active","ping":58},{"user_id":407,"name":"Avo","steam_id":76561197993340494,"connected_time":5528000000000,"state":"active","ping":79},{"user_id":409,"name":"Hex Master","steam_id":76561199045608372,"connected_time":5523000000000,"state":"active","ping":79},{"user_id":430,"name":"hej","steam_id":76561197996366940,"connected_time":3925000000000,"state":"active","ping":67},{"user_id":457,"name":"heavyArmor","steam_id":76561198191056059,"connected_time":747000000000,"state":"active","ping":69},{"user_id":458,"name":"ash monte","steam_id":76561198382343820,"connected_time":713000000000,"state":"active","ping":60},{"user_id":435,"name":"yin","steam_id":76561198450003554,"connected_time":3311000000000,"state":"active","ping":73}]},{"server_id":402,"name":"Uncletopia | Chicago | 3 | All Maps","name_short":"chi-3","host":"chi-1.us.uncletopia.com","port":27035,"enabled":true,"region":"us-central","cc":"us","latitude":41.881832,"longitude":-87.62318,"reserved":0,"last_update":"0001-01-01T00:00:00Z","name_a2s":"Uncletopia | Chicago | 3 | All Maps","protocol":17,"map":"pl_pier","folder":"tf","game":"Team Fortress","app_id":440,"player_count":24,"max_players":24,"Bots":0,"server_type":"Dedicated","server_os":"Linux","password":true,"vac":true,"version":"7882260","steam_id":85568392924515191,"keywords":["nocrits","nodmgspread","payload","uncletopia"],"game_id":440,"stv_port":27036,"stv_name":"Uncletopia | Chicago | 3 | All Maps | STV","players":[{"user_id":792,"name":"Spaghetti","steam_id":76561198019383013,"connected_time":597000000000,"state":"active","ping":72},{"user_id":679,"name":"Hammerhead","steam_id":76561198897122890,"connected_time":5496000000000,"state":"active","ping":56},{"user_id":690,"name":"Bloo","steam_id":76561199015827567,"connected_time":4850000000000,"state":"active","ping":82},{"user_id":794,"name":"wunga","steam_id":76561198062074001,"connected_time":574000000000,"state":"active","ping":128},{"user_id":685,"name":"mylomalopi","steam_id":76561198354990729,"connected_time":4907000000000,"state":"active","ping":75},{"user_id":686,"name":"creeeeeee","steam_id":76561198392539722,"connected_time":4897000000000,"state":"active","ping":79},{"user_id":728,"name":"Nefy","steam_id":76561198030017316,"connected_time":2174000000000,"state":"active","ping":87},{"user_id":801,"name":"KIng_Nothing","steam_id":76561199086840044,"connected_time":138000000000,"state":"active","ping":71},{"user_id":735,"name":"Concolor","steam_id":76561198027734150,"connected_time":1601000000000,"state":"active","ping":68},{"user_id":711,"name":"First Aid","steam_id":76561198098190660,"connected_time":2814000000000,"state":"active","ping":72},{"user_id":619,"name":"Person","steam_id":76561198093244204,"connected_time":8446000000000,"state":"active","ping":75},{"user_id":805,"name":"Scut","steam_id":76561198973734291,"connected_time":10000000000,"state":"spawning","ping":96},{"user_id":729,"name":"Sprit ‚ô•","steam_id":76561198268780781,"connected_time":2164000000000,"state":"active","ping":45},{"user_id":730,"name":"Ze_√úber_Nerd","steam_id":76561198091148675,"connected_time":1833000000000,"state":"active","ping":60},{"user_id":693,"name":"r3xit","steam_id":76561198065725996,"connected_time":4723000000000,"state":"active","ping":103},{"user_id":803,"name":"Rudy","steam_id":76561198013456828,"connected_time":84000000000,"state":"active","ping":64},{"user_id":739,"name":"üíõMercyüíõ","steam_id":76561198147095572,"connected_time":1223000000000,"state":"active","ping":58},{"user_id":733,"name":"gnome","steam_id":76561198052978969,"connected_time":1644000000000,"state":"active","ping":66},{"user_id":697,"name":"sean","steam_id":76561198354473513,"connected_time":4423000000000,"state":"active","ping":48},{"user_id":798,"name":"Drapph","steam_id":76561199384213314,"connected_time":478000000000,"state":"active","ping":57},{"user_id":723,"name":"Goldensliv","steam_id":76561198161673891,"connected_time":2405000000000,"state":"active","ping":91},{"user_id":713,"name":"nerd gaming","steam_id":76561198066018972,"connected_time":2771000000000,"state":"active","ping":78},{"user_id":719,"name":"Mediocre Gaming","steam_id":76561199230467980,"connected_time":2582000000000,"state":"active","ping":94},{"user_id":791,"name":"friendly fazbear","steam_id":76561198249206656,"connected_time":619000000000,"state":"active","ping":75}]},{"server_id":403,"name":"Uncletopia | Chicago | 4 | All Maps","name_short":"chi-4","host":"chi-1.us.uncletopia.com","port":27045,"enabled":true,"region":"us-central","cc":"us","latitude":41.881832,"longitude":-87.62318,"reserved":0,"last_update":"0001-01-01T00:00:00Z","name_a2s":"Uncletopia | Chicago | 4 | All Maps","protocol":17,"map":"pl_borneo","folder":"tf","game":"Team Fortress","app_id":440,"player_count":24,"max_players":24,"Bots":0,"server_type":"Dedicated","server_os":"Linux","password":true,"vac":true,"version":"7882260","steam_id":85568392924515193,"keywords":["nocrits","nodmgspread","payload","uncletopia"],"game_id":440,"stv_port":27046,"stv_name":"Uncletopia | Chicago | 4 | All Maps | STV","players":[{"user_id":539,"name":"Baoshan Iron \u0026 Steel Co., Ltd.","steam_id":76561198095313463,"connected_time":6292000000000,"state":"active","ping":83},{"user_id":615,"name":"Cosmic sR","steam_id":76561198081738675,"connected_time":1158000000000,"state":"active","ping":88},{"user_id":628,"name":"Gnome Man","steam_id":76561199047999402,"connected_time":124000000000,"state":"active","ping":91},{"user_id":593,"name":"Samitch","steam_id":76561198038247982,"connected_time":2706000000000,"state":"active","ping":60},{"user_id":611,"name":"anonion","steam_id":76561198056477584,"connected_time":1466000000000,"state":"active","ping":89},{"user_id":629,"name":"Detrimental","steam_id":76561199152388008,"connected_time":98000000000,"state":"active","ping":55},{"user_id":610,"name":"Captain_Shorts","steam_id":76561199097598023,"connected_time":1519000000000,"state":"active","ping":64},{"user_id":625,"name":"EvilMrPotoo ÔΩ°‚óï‚Äø‚óïÔΩ°","steam_id":76561198012566870,"connected_time":555000000000,"state":"active","ping":70},{"user_id":543,"name":"RiceRiceDesu","steam_id":76561198018568723,"connected_time":5790000000000,"state":"active","ping":56},{"user_id":623,"name":"DoubleX2000","steam_id":76561198164134387,"connected_time":689000000000,"state":"active","ping":103},{"user_id":621,"name":"[GUT] 13","steam_id":76561197985209820,"connected_time":1020000000000,"state":"active","ping":60},{"user_id":619,"name":"[GUT] tipups","steam_id":76561197972342705,"connected_time":1046000000000,"state":"active","ping":59},{"user_id":626,"name":"bobby peanstalk","steam_id":76561198040495463,"connected_time":511000000000,"state":"active","ping":74},{"user_id":564,"name":"Cinnifox","steam_id":76561198068773971,"connected_time":4263000000000,"state":"active","ping":79},{"user_id":600,"name":"threethree","steam_id":76561198177354155,"connected_time":2342000000000,"state":"active","ping":46},{"user_id":606,"name":"Fraglin","steam_id":76561198124964000,"connected_time":1873000000000,"state":"active","ping":85},{"user_id":630,"name":"YASAI JUICE","steam_id":76561198131971992,"connected_time":96000000000,"state":"active","ping":34},{"user_id":627,"name":"Ka Xin Yu","steam_id":76561198057116531,"connected_time":488000000000,"state":"active","ping":55},{"user_id":632,"name":"Cheesi","steam_id":76561199417190840,"connected_time":48000000000,"state":"active","ping":65},{"user_id":556,"name":"Pennis the Menace","steam_id":76561198254878037,"connected_time":5083000000000,"state":"active","ping":78},{"user_id":618,"name":"jorjor wells","steam_id":76561199073429082,"connected_time":1123000000000,"state":"active","ping":63},{"user_id":567,"name":"Rukks","steam_id":76561197993918954,"connected_time":3841000000000,"state":"active","ping":90},{"user_id":631,"name":"Quibbli","steam_id":76561199214866732,"connected_time":94000000000,"state":"active","ping":68},{"user_id":586,"name":"ShadBad","steam_id":76561198248287390,"connected_time":3209000000000,"state":"active","ping":112}]},{"server_id":36,"name":"Uncletopia | Chicago | 5 | All Maps","name_short":"chi-5","host":"chi-2.us.uncletopia.com","port":27015,"enabled":true,"region":"us-central","cc":"us","latitude":41.881832,"longitude":-87.62318,"reserved":0,"last_update":"0001-01-01T00:00:00Z","name_a2s":"Uncletopia | Chicago | 5 | All Maps","protocol":17,"map":"cp_dustbowl","folder":"tf","game":"Team Fortress","app_id":440,"player_count":24,"max_players":24,"Bots":0,"server_type":"Dedicated","server_os":"Linux","password":true,"vac":true,"version":"7882260","steam_id":85568392924866362,"keywords":["cp","nocrits","nodmgspread","uncletopia"],"game_id":440,"stv_port":27016,"stv_name":"Uncletopia | Chicago | 5 | All Maps | STV","players":[{"user_id":598,"name":"Doctor Glocktorpus [NGC]","steam_id":76561198049194645,"connected_time":4186000000000,"state":"active","ping":69},{"user_id":648,"name":"gang shit weekly","steam_id":76561198442685742,"connected_time":707000000000,"state":"active","ping":87},{"user_id":652,"name":"Drew P. Sack","steam_id":76561198036201738,"connected_time":115000000000,"state":"active","ping":53},{"user_id":637,"name":"Rubricae","steam_id":76561198867443593,"connected_time":1798000000000,"state":"active","ping":186},{"user_id":622,"name":"The Doc K","steam_id":76561198035695029,"connected_time":2857000000000,"state":"active","ping":87},{"user_id":650,"name":"DragoThe\"Fork\"Head","steam_id":76561199163626811,"connected_time":599000000000,"state":"active","ping":55},{"user_id":635,"name":"jaydn","steam_id":76561198086615208,"connected_time":1979000000000,"state":"active","ping":60},{"user_id":632,"name":"Un_Zipped","steam_id":76561197990111649,"connected_time":2220000000000,"state":"active","ping":72},{"user_id":620,"name":"frank","steam_id":76561198137777483,"connected_time":2912000000000,"state":"active","ping":62},{"user_id":624,"name":"X_Sniper7","steam_id":76561198081097640,"connected_time":2833000000000,"state":"active","ping":74},{"user_id":611,"name":"Chew","steam_id":76561198846979943,"connected_time":3874000000000,"state":"active","ping":74},{"user_id":546,"name":"BowlOfSoup","steam_id":76561198000849668,"connected_time":8353000000000,"state":"active","ping":85},{"user_id":585,"name":"Fluff Butt","steam_id":76561199008334604,"connected_time":5066000000000,"state":"active","ping":83},{"user_id":653,"name":"MrVegasAguitar","steam_id":76561198084466946,"connected_time":23000000000,"state":"active","ping":218},{"user_id":604,"name":"him","steam_id":76561198204995668,"connected_time":4155000000000,"state":"active","ping":76},{"user_id":638,"name":"Majima Corp | Mrsizeablerice","steam_id":76561198335799103,"connected_time":1791000000000,"state":"active","ping":78},{"user_id":607,"name":"LemonZest","steam_id":76561199196369249,"connected_time":4135000000000,"state":"active","ping":74},{"user_id":639,"name":"Randumb","steam_id":76561199083286636,"connected_time":1779000000000,"state":"active","ping":60},{"user_id":627,"name":"demifiend smt3","steam_id":76561198942356955,"connected_time":2795000000000,"state":"active","ping":64},{"user_id":642,"name":"Shorts","steam_id":76561198025009692,"connected_time":1752000000000,"state":"active","ping":82},{"user_id":643,"name":"KaGawwy","steam_id":76561198090519590,"connected_time":1745000000000,"state":"active","ping":62},{"user_id":626,"name":"Duder","steam_id":76561198823224784,"connected_time":2824000000000,"state":"active","ping":81},{"user_id":616,"name":"Sneaky_Tank","steam_id":76561198078814793,"connected_time":3459000000000,"state":"active","ping":51},{"user_id":647,"name":"goose","steam_id":76561198367551668,"connected_time":1025000000000,"state":"active","ping":59}]},{"server_id":37,"name":"Uncletopia | Chicago | 6 | All Maps","name_short":"chi-6","host":"chi-2.us.uncletopia.com","port":27025,"enabled":true,"region":"us-central","cc":"us","latitude":41.881832,"longitude":-87.62318,"reserved":0,"last_update":"0001-01-01T00:00:00Z","name_a2s":"Uncletopia | Chicago | 6 | All Maps","protocol":17,"map":"cp_snakewater_final1","folder":"tf","game":"Team Fortress","app_id":440,"player_count":24,"max_players":24,"Bots":0,"server_type":"Dedicated","server_os":"Linux","password":true,"vac":true,"version":"7882260","steam_id":85568392924866363,"keywords":["cp","nocrits","nodmgspread","uncletopia"],"game_id":440,"stv_port":27026,"stv_name":"Uncletopia | Chicago | 6 | All Maps | STV","players":[{"user_id":366,"name":"ANIME-GOD","steam_id":76561198815077196,"connected_time":104000000000,"state":"active","ping":112},{"user_id":332,"name":"Butters495","steam_id":76561197998689042,"connected_time":2590000000000,"state":"active","ping":79},{"user_id":357,"name":"carbuzz","steam_id":76561198129361580,"connected_time":340000000000,"state":"active","ping":143},{"user_id":370,"name":"coms","steam_id":76561198359456881,"connected_time":70000000000,"state":"active","ping":59},{"user_id":286,"name":"flamingcookies","steam_id":76561198280864779,"connected_time":5838000000000,"state":"active","ping":72},{"user_id":359,"name":"Aegis","steam_id":76561198272052750,"connected_time":316000000000,"state":"active","ping":84},{"user_id":328,"name":"St. Bobson Q Dugnutt III Esq Sr","steam_id":76561197993459985,"connected_time":2787000000000,"state":"active","ping":73},{"user_id":349,"name":"You Know, Lucas","steam_id":76561198046350957,"connected_time":1464000000000,"state":"active","ping":71},{"user_id":360,"name":"weewa","steam_id":76561198064876090,"connected_time":287000000000,"state":"active","ping":72},{"user_id":323,"name":"baguette","steam_id":76561198066048980,"connected_time":2959000000000,"state":"active","ping":36},{"user_id":361,"name":"Captain Bug","steam_id":76561198137763878,"connected_time":272000000000,"state":"active","ping":86},{"user_id":362,"name":"TDR","steam_id":76561198093243434,"connected_time":254000000000,"state":"active","ping":61},{"user_id":363,"name":"pipepeepi","steam_id":76561198845905873,"connected_time":246000000000,"state":"active","ping":50},{"user_id":333,"name":"Dededoo","steam_id":76561198279033471,"connected_time":2534000000000,"state":"active","ping":95},{"user_id":365,"name":"The Bray","steam_id":76561198330843049,"connected_time":157000000000,"state":"active","ping":88},{"user_id":347,"name":"knip","steam_id":76561198147061182,"connected_time":1485000000000,"state":"active","ping":78},{"user_id":367,"name":"tiktokhunks","steam_id":76561198092094133,"connected_time":91000000000,"state":"active","ping":74},{"user_id":368,"name":"ClutchSR","steam_id":76561199018366378,"connected_time":90000000000,"state":"active","ping":105},{"user_id":369,"name":"griff928","steam_id":76561198149614679,"connected_time":71000000000,"state":"active","ping":45},{"user_id":372,"name":"Demonica","steam_id":76561198841858340,"connected_time":46000000000,"state":"active","ping":72},{"user_id":345,"name":"dicks1000","steam_id":76561198051310816,"connected_time":1722000000000,"state":"active","ping":64},{"user_id":343,"name":"punaise","steam_id":76561198095105411,"connected_time":1804000000000,"state":"active","ping":71},{"user_id":336,"name":"theconqueror","steam_id":76561199229806456,"connected_time":2074000000000,"state":"active","ping":69},{"user_id":351,"name":"Jay","steam_id":76561198084129048,"connected_time":707000000000,"state":"active","ping":94}]},{"server_id":38,"name":"Uncletopia | Chicago | 7 | Stopwatch Beta","name_short":"chi-7","host":"chi-2.us.uncletopia.com","port":27035,"enabled":true,"region":"us-central","cc":"us","latitude":41.881832,"longitude":-87.62318,"reserved":0,"last_update":"0001-01-01T00:00:00Z","name_a2s":"Uncletopia | Chicago | 7 | Stopwatch Beta","protocol":17,"map":"cp_process_final","folder":"tf","game":"Team Fortress","app_id":440,"player_count":20,"max_players":24,"Bots":0,"server_type":"Dedicated","server_os":"Linux","password":true,"vac":true,"version":"7882260","steam_id":85568392924866364,"keywords":["cp","nocrits","nodmgspread","uncletopia"],"game_id":440,"stv_port":27036,"stv_name":"Uncletopia | Chicago | 7 | Stopwatch Beta | STV","players":[{"user_id":97,"name":"6t26j","steam_id":76561198278282836,"connected_time":208000000000,"state":"active","ping":46},{"user_id":98,"name":"Foreskin Reattachment service","steam_id":76561198060342804,"connected_time":64000000000,"state":"active","ping":71},{"user_id":99,"name":"St. Michael","steam_id":76561198037611052,"connected_time":38000000000,"state":"active","ping":67},{"user_id":87,"name":"[insert name here]","steam_id":76561199151273154,"connected_time":682000000000,"state":"active","ping":124},{"user_id":88,"name":"Chronos","steam_id":76561198126625623,"connected_time":653000000000,"state":"active","ping":63},{"user_id":83,"name":"Meme","steam_id":76561198080326037,"connected_time":933000000000,"state":"active","ping":77},{"user_id":85,"name":"s","steam_id":76561198026534525,"connected_time":848000000000,"state":"active","ping":55},{"user_id":48,"name":"Local Gamer","steam_id":76561198063463200,"connected_time":2204000000000,"state":"active","ping":67},{"user_id":49,"name":"typhoon","steam_id":76561198165123178,"connected_time":2168000000000,"state":"active","ping":75},{"user_id":68,"name":"Goofy Goober","steam_id":76561198065361279,"connected_time":1537000000000,"state":"active","ping":74},{"user_id":61,"name":"watchfull","steam_id":76561198433266742,"connected_time":1613000000000,"state":"active","ping":106},{"user_id":96,"name":"exxonmobil money","steam_id":76561198084221595,"connected_time":383000000000,"state":"active","ping":145},{"user_id":90,"name":"The Cool Man","steam_id":76561198096420556,"connected_time":630000000000,"state":"active","ping":101},{"user_id":93,"name":"Clockwick","steam_id":76561198047292719,"connected_time":520000000000,"state":"active","ping":61},{"user_id":78,"name":"Venk","steam_id":76561198251131422,"connected_time":1300000000000,"state":"active","ping":68},{"user_id":65,"name":"Nilantive","steam_id":76561198177565082,"connected_time":1566000000000,"state":"active","ping":62},{"user_id":75,"name":"trobin120","steam_id":76561199122420273,"connected_time":1365000000000,"state":"active","ping":72},{"user_id":91,"name":"kidney stone gaming","steam_id":76561198056186750,"connected_time":600000000000,"state":"active","ping":59},{"user_id":94,"name":"derdds","steam_id":76561198034339940,"connected_time":499000000000,"state":"active","ping":60},{"user_id":80,"name":"GutzyEyebrows","steam_id":76561199101600403,"connected_time":1247000000000,"state":"active","ping":90}]},{"server_id":39,"name":"Uncletopia | Chicago | 8 | Community","name_short":"chi-8","host":"chi-2.us.uncletopia.com","port":27045,"enabled":true,"region":"us-central","cc":"us","latitude":41.881832,"longitude":-87.62318,"reserved":0,"last_update":"0001-01-01T00:00:00Z","name_a2s":"Uncletopia | Chicago | 8 | Community","protocol":17,"map":"workshop/pl_vigil_rc9.ugc1266210012","folder":"tf","game":"Team Fortress","app_id":440,"player_count":24,"max_players":24,"Bots":0,"server_type":"Dedicated","server_os":"Linux","password":true,"vac":true,"version":"7882260","steam_id":85568392924866365,"keywords":["nocrits","nodmgspread","payload","uncletopia"],"game_id":440,"stv_port":27046,"stv_name":"Uncletopia | Chicago | 8 | Community | STV","players":[{"user_id":488,"name":"lil hog","steam_id":76561199230929836,"connected_time":6543000000000,"state":"active","ping":83},{"user_id":551,"name":"Oixo","steam_id":76561198076035468,"connected_time":1111000000000,"state":"active","ping":53},{"user_id":521,"name":"Toonice","steam_id":76561198402994885,"connected_time":4133000000000,"state":"active","ping":83},{"user_id":543,"name":"„ÄåDaws_Dudeguy„Äç","steam_id":76561198205838645,"connected_time":2138000000000,"state":"active","ping":79},{"user_id":524,"name":"bogginwater","steam_id":76561198155547142,"connected_time":3386000000000,"state":"active","ping":79},{"user_id":504,"name":"DFR loot","steam_id":76561198069954956,"connected_time":5801000000000,"state":"active","ping":63},{"user_id":542,"name":"Rackle","steam_id":76561198342285466,"connected_time":2262000000000,"state":"active","ping":50},{"user_id":530,"name":"eish","steam_id":76561198089463603,"connected_time":2748000000000,"state":"active","ping":133},{"user_id":552,"name":"[DATS‚û°] Sugar Meowth","steam_id":76561197995251793,"connected_time":1065000000000,"state":"active","ping":90},{"user_id":536,"name":"shaderoses","steam_id":76561198070800500,"connected_time":2566000000000,"state":"active","ping":72},{"user_id":523,"name":"ATL 1 | Save your wifi","steam_id":76561198286147372,"connected_time":3688000000000,"state":"active","ping":74},{"user_id":538,"name":"ATL1 | cola","steam_id":76561198374390458,"connected_time":2551000000000,"state":"active","ping":76},{"user_id":414,"name":"smash2tec","steam_id":76561199171564052,"connected_time":11729000000000,"state":"active","ping":100},{"user_id":533,"name":"morphine","steam_id":76561198072124799,"connected_time":2593000000000,"state":"active","ping":88},{"user_id":516,"name":"hoboways","steam_id":76561198168035195,"connected_time":4928000000000,"state":"active","ping":88},{"user_id":527,"name":"laxthefreak","steam_id":76561199020449059,"connected_time":2853000000000,"state":"active","ping":91},{"user_id":491,"name":"SparkStorm","steam_id":76561198095817025,"connected_time":6524000000000,"state":"active","ping":53},{"user_id":553,"name":"gonk","steam_id":76561198061206732,"connected_time":712000000000,"state":"active","ping":77},{"user_id":539,"name":"ATL1 | wire-guided","steam_id":76561198055407168,"connected_time":2551000000000,"state":"active","ping":91},{"user_id":550,"name":"‚ô• PsychicCellar ‚ô•","steam_id":76561198045923020,"connected_time":1211000000000,"state":"active","ping":68},{"user_id":497,"name":"Le4n!!!","steam_id":76561198045522596,"connected_time":6408000000000,"state":"active","ping":85},{"user_id":496,"name":"ATL1 | on my hunting trip","steam_id":76561198315341646,"connected_time":6481000000000,"state":"active","ping":91},{"user_id":534,"name":"Sophie","steam_id":76561198170408057,"connected_time":2592000000000,"state":"active","ping":71},{"user_id":503,"name":"Rat","steam_id":76561198137925582,"connected_time":5816000000000,"state":"active","ping":68}]},{"server_id":8,"name":"Uncletopia | Dallas | 1 | All Maps","name_short":"dal-1","host":"dal-1.us.uncletopia.com","port":27015,"enabled":true,"region":"us-central","cc":"us","latitude":32.779167,"longitude":-96.80889,"reserved":0,"last_update":"0001-01-01T00:00:00Z","name_a2s":"Uncletopia | Dallas | 1 | All Maps","protocol":17,"map":"koth_badlands","folder":"tf","game":"Team Fortress","app_id":440,"player_count":24,"max_players":24,"Bots":0,"server_type":"Dedicated","server_os":"Linux","password":true,"vac":true,"version":"7882260","steam_id":85568392924469986,"keywords":["cp","nocrits","nodmgspread","uncletopia"],"game_id":440,"stv_port":27016,"stv_name":"Uncletopia | Dallas | 1 | All Maps | STV","players":[{"user_id":583,"name":"MEDIC GAMING BOI","steam_id":76561198303608388,"connected_time":1611000000000,"state":"active","ping":96},{"user_id":540,"name":"TheAsianMeatball","steam_id":76561198336926133,"connected_time":4769000000000,"state":"active","ping":59},{"user_id":601,"name":"tntexplosion","steam_id":76561199090152308,"connected_time":565000000000,"state":"active","ping":115},{"user_id":589,"name":"N51 Commando","steam_id":76561199074852635,"connected_time":792000000000,"state":"active","ping":92},{"user_id":590,"name":"TheCheezez","steam_id":76561199004348677,"connected_time":779000000000,"state":"active","ping":37},{"user_id":598,"name":"pootis","steam_id":76561199472772093,"connected_time":641000000000,"state":"active","ping":132},{"user_id":591,"name":"rageheavy","steam_id":76561198053049210,"connected_time":775000000000,"state":"active","ping":83},{"user_id":603,"name":".BL14","steam_id":76561198374604922,"connected_time":365000000000,"state":"active","ping":45},{"user_id":592,"name":"Sarita's Caramel Sundae Enjoyer","steam_id":76561199309781798,"connected_time":754000000000,"state":"active","ping":100},{"user_id":511,"name":"bolainassr0","steam_id":76561199079078845,"connected_time":8263000000000,"state":"active","ping":91},{"user_id":593,"name":"minyun","steam_id":76561199007250598,"connected_time":745000000000,"state":"active","ping":34},{"user_id":602,"name":"A BIG YUMMY PIZZA","steam_id":76561198169315998,"connected_time":366000000000,"state":"active","ping":82},{"user_id":595,"name":"Mally","steam_id":76561198038471420,"connected_time":725000000000,"state":"active","ping":70},{"user_id":604,"name":"Average","steam_id":76561199133007007,"connected_time":62000000000,"state":"active","ping":73},{"user_id":597,"name":"NekoTheHeartless","steam_id":76561199014251959,"connected_time":716000000000,"state":"active","ping":101},{"user_id":584,"name":"Toucher of Grass","steam_id":76561199475829930,"connected_time":1499000000000,"state":"active","ping":66},{"user_id":599,"name":"Theus117 [ „ÉÅ„É´„Éé‚ë®]","steam_id":76561198108902928,"connected_time":640000000000,"state":"active","ping":40},{"user_id":549,"name":"NOT Susie Deltarune (not real)","steam_id":76561199007365488,"connected_time":4248000000000,"state":"active","ping":69},{"user_id":550,"name":"Bogey","steam_id":76561198096227944,"connected_time":4131000000000,"state":"active","ping":44},{"user_id":580,"name":"Bigfoot ate my ass","steam_id":76561198071605190,"connected_time":1898000000000,"state":"active","ping":77},{"user_id":528,"name":"Lunatic Kaguya H.","steam_id":76561198345276434,"connected_time":6086000000000,"state":"active","ping":62},{"user_id":600,"name":"OwlOddity","steam_id":76561198389068053,"connected_time":635000000000,"state":"active","ping":51},{"user_id":582,"name":"Fuzzy Joe","steam_id":76561198427333656,"connected_time":1667000000000,"state":"active","ping":47},{"user_id":586,"name":"MoePlaysGames","steam_id":76561198316877833,"connected_time":1083000000000,"state":"active","ping":93}]},{"server_id":108,"name":"Uncletopia | Dallas | 2 | All Maps","name_short":"dal-2","host":"dal-1.us.uncletopia.com","port":27025,"enabled":true,"region":"us-central","cc":"us","latitude":32.779167,"longitude":-96.80889,"reserved":0,"last_update":"0001-01-01T00:00:00Z","name_a2s":"Uncletopia | Dallas | 2 | All Maps","protocol":17,"map":"ctf_well","folder":"tf","game":"Team Fortress","app_id":440,"player_count":23,"max_players":24,"Bots":0,"server_type":"Dedicated","server_os":"Linux","password":true,"vac":true,"version":"7882260","steam_id":85568392924469988,"keywords":["ctf","nocrits","nodmgspread","uncletopia"],"game_id":440,"stv_port":27026,"stv_name":"Uncletopia | Dallas | 2 | All Maps | STV","players":[{"user_id":477,"name":"13¬£","steam_id":76561198425726464,"connected_time":2491000000000,"state":"active","ping":61},{"user_id":394,"name":"Toaster Strudel Enjoyer","steam_id":76561199048699541,"connected_time":8511000000000,"state":"active","ping":79},{"user_id":481,"name":"Shylo","steam_id":76561199276858045,"connected_time":1435000000000,"state":"active","ping":59},{"user_id":457,"name":"Thaloneblarg","steam_id":76561198094951187,"connected_time":3280000000000,"state":"active","ping":58},{"user_id":451,"name":"Kid B8","steam_id":76561198086764710,"connected_time":4129000000000,"state":"active","ping":75},{"user_id":458,"name":"Syfun","steam_id":76561198042734428,"connected_time":3182000000000,"state":"active","ping":88},{"user_id":488,"name":"super mario","steam_id":76561199005805984,"connected_time":395000000000,"state":"active","ping":44},{"user_id":438,"name":"PrinceGeser","steam_id":76561197973759697,"connected_time":4784000000000,"state":"active","ping":88},{"user_id":490,"name":"Blagoni","steam_id":76561198079134230,"connected_time":104000000000,"state":"active","ping":75},{"user_id":487,"name":"NeverAcedIt (Pinnacle -\u003e Pit)","steam_id":76561198406671743,"connected_time":939000000000,"state":"active","ping":92},{"user_id":478,"name":"G–µ—è–æ","steam_id":76561198082463658,"connected_time":1982000000000,"state":"active","ping":106},{"user_id":453,"name":"CreepyCook","steam_id":76561198242874622,"connected_time":3731000000000,"state":"active","ping":64},{"user_id":479,"name":"Tribute","steam_id":76561198081594043,"connected_time":1904000000000,"state":"active","ping":56},{"user_id":448,"name":"dweaver","steam_id":76561198119610135,"connected_time":4235000000000,"state":"active","ping":73},{"user_id":486,"name":"Zesty Italian","steam_id":76561198117835053,"connected_time":961000000000,"state":"active","ping":58},{"user_id":474,"name":"Baker","steam_id":76561198055196430,"connected_time":2706000000000,"state":"active","ping":100},{"user_id":484,"name":"A Straw","steam_id":76561199367935846,"connected_time":1035000000000,"state":"active","ping":73},{"user_id":387,"name":"Sergeant_Umbreon","steam_id":76561198084188758,"connected_time":8714000000000,"state":"active","ping":97},{"user_id":388,"name":"berry nice","steam_id":76561198010173227,"connected_time":8701000000000,"state":"active","ping":75},{"user_id":471,"name":"Rusted Cake","steam_id":76561198209755931,"connected_time":2865000000000,"state":"active","ping":88},{"user_id":455,"name":"HookaChookaWOO","steam_id":76561198086141591,"connected_time":3672000000000,"state":"active","ping":63},{"user_id":483,"name":"Smiley Face","steam_id":76561198008710622,"connected_time":1043000000000,"state":"active","ping":69},{"user_id":476,"name":"League Of Legends","steam_id":76561198316583118,"connected_time":2496000000000,"state":"active","ping":72}]},{"server_id":5,"name":"Uncletopia | Frankfurt | 1 | All Maps","name_short":"frk-1","host":"frk-1.de.uncletopia.com","port":27015,"enabled":true,"region":"eu","cc":"de","latitude":50.110924,"longitude":8.682127,"reserved":0,"last_update":"0001-01-01T00:00:00Z","name_a2s":"Uncletopia | Frankfurt | 1 | All Maps","protocol":17,"map":"koth_cascade","folder":"tf","game":"Team Fortress","app_id":440,"player_count":0,"max_players":24,"Bots":0,"server_type":"Dedicated","server_os":"Linux","password":true,"vac":true,"version":"7882260","steam_id":85568392924469989,"keywords":["cp","nocrits","nodmgspread","uncletopia"],"game_id":440,"stv_port":27016,"stv_name":"Uncletopia | Frankfurt | 1 | All Maps | STV","players":null},{"server_id":110,"name":"Uncletopia | Frankfurt | 2 | All Maps","name_short":"frk-2","host":"frk-1.de.uncletopia.com","port":27025,"enabled":true,"region":"eu","cc":"de","latitude":50.110924,"longitude":8.682127,"reserved":0,"last_update":"0001-01-01T00:00:00Z","name_a2s":"Uncletopia | Frankfurt | 2 | All Maps","protocol":17,"map":"koth_highpass","folder":"tf","game":"Team Fortress","app_id":440,"player_count":0,"max_players":24,"Bots":0,"server_type":"Dedicated","server_os":"Linux","password":true,"vac":true,"version":"7882260","steam_id":85568392924469990,"keywords":["cp","nocrits","nodmgspread","uncletopia"],"game_id":440,"stv_port":27026,"stv_name":"Uncletopia | Frankfurt | 2 | All Maps | STV","players":null},{"server_id":308,"name":"Uncletopia | Frankfurt | 3 | All Maps","name_short":"frk-3","host":"frk-1.de.uncletopia.com","port":27035,"enabled":true,"region":"eu","cc":"de","latitude":50.110924,"longitude":8.682127,"reserved":0,"last_update":"0001-01-01T00:00:00Z","name_a2s":"Uncletopia | Frankfurt | 3 | All Maps","protocol":17,"map":"cp_process_final","folder":"tf","game":"Team Fortress","app_id":440,"player_count":0,"max_players":24,"Bots":0,"server_type":"Dedicated","server_os":"Linux","password":true,"vac":true,"version":"7882260","steam_id":85568392924504274,"keywords":["cp","nocrits","nodmgspread","uncletopia"],"game_id":440,"stv_port":27036,"stv_name":"Uncletopia | Frankfurt | 3 | All Maps | STV","players":null},{"server_id":309,"name":"Uncletopia | Frankfurt | 4 | All Maps","name_short":"frk-4","host":"frk-1.de.uncletopia.com","port":27045,"enabled":true,"region":"eu","cc":"de","latitude":50.110924,"longitude":8.682127,"reserved":0,"last_update":"0001-01-01T00:00:00Z","name_a2s":"Uncletopia | Frankfurt | 4 | All Maps","protocol":17,"map":"cp_dustbowl","folder":"tf","game":"Team Fortress","app_id":440,"player_count":0,"max_players":24,"Bots":0,"server_type":"Dedicated","server_os":"Linux","password":true,"vac":true,"version":"7882260","steam_id":85568392924504275,"keywords":["cp","nocrits","nodmgspread","uncletopia"],"game_id":440,"stv_port":27046,"stv_name":"Uncletopia | Frankfurt | 4 | All Maps | STV","players":null},{"server_id":310,"name":"Uncletopia | Frankfurt | 5 | All Maps","name_short":"frk-5","host":"frk-1.de.uncletopia.com","port":27055,"enabled":true,"region":"eu","cc":"de","latitude":50.110924,"longitude":8.682127,"reserved":0,"last_update":"0001-01-01T00:00:00Z","name_a2s":"Uncletopia | Frankfurt | 5 | All Maps","protocol":17,"map":"cp_mountainlab","folder":"tf","game":"Team Fortress","app_id":440,"player_count":0,"max_players":24,"Bots":0,"server_type":"Dedicated","server_os":"Linux","password":true,"vac":true,"version":"7882260","steam_id":85568392924504277,"keywords":["cp","nocrits","nodmgspread","uncletopia"],"game_id":440,"stv_port":27056,"stv_name":"Uncletopia | Frankfurt | 5 | All Maps | STV","players":null},{"server_id":311,"name":"Uncletopia | Frankfurt | 6 | All Maps","name_short":"frk-6","host":"frk-1.de.uncletopia.com","port":27065,"enabled":true,"region":"eu","cc":"de","latitude":50.110924,"longitude":8.682127,"reserved":0,"last_update":"0001-01-01T00:00:00Z","name_a2s":"Uncletopia | Frankfurt | 6 | All Maps","protocol":17,"map":"koth_lakeside_final","folder":"tf","game":"Team Fortress","app_id":440,"player_count":0,"max_players":24,"Bots":0,"server_type":"Dedicated","server_os":"Linux","password":true,"vac":true,"version":"7882260","steam_id":85568392924504278,"keywords":["cp","nocrits","nodmgspread","uncletopia"],"game_id":440,"stv_port":27066,"stv_name":"Uncletopia | Frankfurt | 6 | All Maps | STV","players":null},{"server_id":23,"name":"Uncletopia | Frankfurt | 7 | Stopwatch Beta","name_short":"frk-7","host":"frk-1.de.uncletopia.com","port":27075,"enabled":true,"region":"eu","cc":"de","latitude":50.110924,"longitude":8.682127,"reserved":0,"last_update":"0001-01-01T00:00:00Z","name_a2s":"Uncletopia | Frankfurt | 7 | Stopwatch Beta","protocol":17,"map":"workshop/pl_summercoast_rc8e.ugc1761528829","folder":"tf","game":"Team Fortress","app_id":440,"player_count":0,"max_players":24,"Bots":0,"server_type":"Dedicated","server_os":"Linux","password":true,"vac":true,"version":"7882260","steam_id":85568392924742827,"keywords":["nocrits","nodmgspread","payload","uncletopia"],"game_id":440,"stv_port":27076,"stv_name":"Uncletopia | Frankfurt | 7 | Stopwatch Beta | STV","players":null},{"server_id":24,"name":"Uncletopia | Frankfurt | 8 | Community","name_short":"frk-8","host":"frk-1.de.uncletopia.com","port":27085,"enabled":true,"region":"eu","cc":"de","latitude":50.110924,"longitude":8.682127,"reserved":0,"last_update":"0001-01-01T00:00:00Z","name_a2s":"Uncletopia | Frankfurt | 8 | Community","protocol":17,"map":"workshop/pl_cactuscanyon_redux_final2.ugc2579644293","folder":"tf","game":"Team Fortress","app_id":440,"player_count":0,"max_players":24,"Bots":0,"server_type":"Dedicated","server_os":"Linux","password":true,"vac":true,"version":"7882260","steam_id":85568392924742828,"keywords":["nocrits","nodmgspread","payload","uncletopia"],"game_id":440,"stv_port":27086,"stv_name":"Uncletopia | Frankfurt | 8 | Community | STV","players":null},{"server_id":202,"name":"Uncletopia | Hong Kong | 1 | All Maps","name_short":"hgk-1","host":"hgk-1.hk.uncletopia.com","port":27015,"enabled":true,"region":"asia","cc":"hk","latitude":22.302711,"longitude":114.177216,"reserved":0,"last_update":"0001-01-01T00:00:00Z","name_a2s":"Uncletopia | Hong Kong | 1 | All Maps","protocol":17,"map":"pl_frontier_final","folder":"tf","game":"Team Fortress","app_id":440,"player_count":0,"max_players":24,"Bots":0,"server_type":"Dedicated","server_os":"Linux","password":true,"vac":true,"version":"7882260","steam_id":85568392924494504,"keywords":["nocrits","nodmgspread","payload","uncletopia"],"game_id":440,"stv_port":27016,"stv_name":"Uncletopia | Hong Kong | 1 | All Maps | STV","players":null},{"server_id":1,"name":"Uncletopia | Los Angeles | 1 | All Maps","name_short":"lax-1","host":"lax-1.us.uncletopia.com","port":27015,"enabled":true,"region":"us-west","cc":"us","latitude":33.94279,"longitude":-118.41004,"reserved":0,"last_update":"0001-01-01T00:00:00Z","name_a2s":"Uncletopia | Los Angeles | 1 | All Maps","protocol":17,"map":"pl_rumford_event","folder":"tf","game":"Team Fortress","app_id":440,"player_count":22,"max_players":24,"Bots":0,"server_type":"Dedicated","server_os":"Linux","password":true,"vac":true,"version":"7882260","steam_id":85568392924469991,"keywords":["nocrits","nodmgspread","payload","uncletopia"],"game_id":440,"stv_port":27016,"stv_name":"Uncletopia | Los Angeles | 1 | All Maps | STV","players":[{"user_id":498,"name":"Ballista","steam_id":76561197983182562,"connected_time":1678000000000,"state":"active","ping":73},{"user_id":509,"name":"Excrement","steam_id":76561198167740127,"connected_time":705000000000,"state":"active","ping":67},{"user_id":518,"name":"Purchase your tracks today","steam_id":76561198084422657,"connected_time":382000000000,"state":"active","ping":55},{"user_id":523,"name":"Dusk","steam_id":76561198064969178,"connected_time":217000000000,"state":"active","ping":73},{"user_id":424,"name":"SanitysEdge","steam_id":76561198130732813,"connected_time":7251000000000,"state":"active","ping":48},{"user_id":504,"name":"Pybro.Inc","steam_id":76561198240339332,"connected_time":1242000000000,"state":"active","ping":84},{"user_id":513,"name":"Player Zero","steam_id":76561198208312849,"connected_time":414000000000,"state":"active","ping":66},{"user_id":418,"name":"Apprentice Pybro","steam_id":76561197996353534,"connected_time":7717000000000,"state":"active","ping":55},{"user_id":512,"name":"bobletoob","steam_id":76561199184464900,"connected_time":466000000000,"state":"active","ping":55},{"user_id":516,"name":"Mania","steam_id":76561198116313064,"connected_time":407000000000,"state":"active","ping":56},{"user_id":521,"name":"pafijohn","steam_id":76561198002535190,"connected_time":352000000000,"state":"active","ping":47},{"user_id":522,"name":"John Wick's puppy","steam_id":76561198064662875,"connected_time":351000000000,"state":"active","ping":52},{"user_id":525,"name":"Mr defrost","steam_id":76561198322125657,"connected_time":149000000000,"state":"active","ping":91},{"user_id":443,"name":"goopuffer","steam_id":76561198118644686,"connected_time":6009000000000,"state":"active","ping":57},{"user_id":514,"name":"ragnarok","steam_id":76561198273579889,"connected_time":414000000000,"state":"active","ping":68},{"user_id":519,"name":"moe","steam_id":76561198929586245,"connected_time":376000000000,"state":"active","ping":37},{"user_id":475,"name":"Owl_eyes","steam_id":76561198066199203,"connected_time":2997000000000,"state":"active","ping":59},{"user_id":515,"name":"the fool","steam_id":76561198133933158,"connected_time":412000000000,"state":"active","ping":50},{"user_id":481,"name":"GLXy","steam_id":76561198207551544,"connected_time":2655000000000,"state":"active","ping":99},{"user_id":489,"name":"Schnitz","steam_id":76561198265484253,"connected_time":2463000000000,"state":"active","ping":58},{"user_id":483,"name":"BIG HOG","steam_id":76561198079923652,"connected_time":2630000000000,"state":"active","ping":77},{"user_id":520,"name":"Lord Scrubling","steam_id":76561198263744445,"connected_time":369000000000,"state":"active","ping":76}]},{"server_id":112,"name":"Uncletopia | Los Angeles | 2 | All Maps","name_short":"lax-2","host":"lax-1.us.uncletopia.com","port":27025,"enabled":true,"region":"us-west","cc":"us","latitude":33.94279,"longitude":-118.41004,"reserved":0,"last_update":"0001-01-01T00:00:00Z","name_a2s":"Uncletopia | Los Angeles | 2 | All Maps","protocol":17,"map":"pl_snowycoast","folder":"tf","game":"Team Fortress","app_id":440,"player_count":23,"max_players":24,"Bots":0,"server_type":"Dedicated","server_os":"Linux","password":true,"vac":true,"version":"7882260","steam_id":85568392924469992,"keywords":["nocrits","nodmgspread","payload","uncletopia"],"game_id":440,"stv_port":27026,"stv_name":"Uncletopia | Los Angeles | 2 | All Maps | STV","players":[{"user_id":405,"name":"kaede :3","steam_id":76561198345528370,"connected_time":5320000000000,"state":"active","ping":45},{"user_id":457,"name":"SpongeBucket","steam_id":76561198393553085,"connected_time":1180000000000,"state":"active","ping":55},{"user_id":456,"name":"CantPlayAtAll","steam_id":76561198132749765,"connected_time":1190000000000,"state":"active","ping":60},{"user_id":482,"name":"Sweattadpole","steam_id":76561199456100100,"connected_time":23000000000,"state":"active","ping":127},{"user_id":481,"name":"bennyboy","steam_id":76561198005546941,"connected_time":58000000000,"state":"active","ping":89},{"user_id":446,"name":"stboncho","steam_id":76561198172275301,"connected_time":2343000000000,"state":"active","ping":64},{"user_id":459,"name":"FUNNY JOKE(pls laugh)","steam_id":76561199070877046,"connected_time":1143000000000,"state":"active","ping":63},{"user_id":421,"name":"Drakon","steam_id":76561198078210822,"connected_time":4032000000000,"state":"active","ping":71},{"user_id":476,"name":"KellyKapoor","steam_id":76561198040828123,"connected_time":294000000000,"state":"active","ping":74},{"user_id":465,"name":"Doc McBustin","steam_id":76561198256856633,"connected_time":1007000000000,"state":"active","ping":93},{"user_id":470,"name":"happypurple","steam_id":76561198114782270,"connected_time":604000000000,"state":"active","ping":54},{"user_id":461,"name":"intek","steam_id":76561198052705291,"connected_time":1126000000000,"state":"active","ping":92},{"user_id":477,"name":"M336","steam_id":76561198060881884,"connected_time":258000000000,"state":"active","ping":98},{"user_id":467,"name":"dangerously furry","steam_id":76561198177914742,"connected_time":887000000000,"state":"active","ping":148},{"user_id":447,"name":"perc 10","steam_id":76561198116471653,"connected_time":2281000000000,"state":"active","ping":60},{"user_id":437,"name":"Babyface","steam_id":76561199240579044,"connected_time":3027000000000,"state":"active","ping":86},{"user_id":424,"name":"mafu","steam_id":76561198028028045,"connected_time":3960000000000,"state":"active","ping":44},{"user_id":471,"name":"‚ô•Pony Mommy Cadey‚ô•","steam_id":76561199477663347,"connected_time":595000000000,"state":"active","ping":55},{"user_id":479,"name":"mineblast99","steam_id":76561199065648954,"connected_time":220000000000,"state":"active","ping":191},{"user_id":436,"name":"-BRH- Tangled up in Bluegrass","steam_id":76561197987181139,"connected_time":3104000000000,"state":"active","ping":121},{"user_id":475,"name":"The Horselords and Animal Gods","steam_id":76561197975094050,"connected_time":323000000000,"state":"active","ping":54},{"user_id":473,"name":"Daperlin","steam_id":76561198091299113,"connected_time":524000000000,"state":"active","ping":138},{"user_id":416,"name":"Azul","steam_id":76561198123501918,"connected_time":4486000000000,"state":"active","ping":87}]},{"server_id":324,"name":"Uncletopia | Los Angeles | 3 | All Maps","name_short":"lax-3","host":"lax-1.us.uncletopia.com","port":27035,"enabled":true,"region":"us-west","cc":"us","latitude":33.94279,"longitude":-118.41004,"reserved":0,"last_update":"0001-01-01T00:00:00Z","name_a2s":"Uncletopia | Los Angeles | 3 | All Maps","protocol":17,"map":"koth_lakeside_final","folder":"tf","game":"Team Fortress","app_id":440,"player_count":16,"max_players":24,"Bots":0,"server_type":"Dedicated","server_os":"Linux","password":true,"vac":true,"version":"7882260","steam_id":85568392924510198,"keywords":["cp","nocrits","nodmgspread","uncletopia"],"game_id":440,"stv_port":27036,"stv_name":"Uncletopia | Los Angeles | 3 | All Maps | STV","players":[{"user_id":444,"name":"Lillie's Medic GF","steam_id":76561198275728291,"connected_time":2721000000000,"state":"active","ping":95},{"user_id":479,"name":"Sharq","steam_id":76561198079565915,"connected_time":349000000000,"state":"active","ping":60},{"user_id":480,"name":"Sgt Rathbone","steam_id":76561198171705397,"connected_time":325000000000,"state":"active","ping":99},{"user_id":483,"name":"KevzGotzIt","steam_id":76561197992706947,"connected_time":53000000000,"state":"active","ping":110},{"user_id":485,"name":"Anime Racist","steam_id":76561198100775015,"connected_time":23000000000,"state":"active","ping":152},{"user_id":475,"name":"‚ô•Lyra‚ô•","steam_id":76561198092853824,"connected_time":658000000000,"state":"active","ping":102},{"user_id":451,"name":"bigman1","steam_id":76561198050225055,"connected_time":2435000000000,"state":"active","ping":45},{"user_id":460,"name":"philio2010","steam_id":76561199086384636,"connected_time":2006000000000,"state":"active","ping":56},{"user_id":430,"name":"goblin64","steam_id":76561198969156830,"connected_time":3317000000000,"state":"active","ping":47},{"user_id":458,"name":"Merpling","steam_id":76561198048272047,"connected_time":2093000000000,"state":"active","ping":118},{"user_id":476,"name":"dAiLyGrInD","steam_id":76561198163531915,"connected_time":416000000000,"state":"active","ping":90},{"user_id":405,"name":"_Ati","steam_id":76561198339777801,"connected_time":4611000000000,"state":"active","ping":64},{"user_id":438,"name":"Snowyfrost","steam_id":76561198319103731,"connected_time":2948000000000,"state":"active","ping":84},{"user_id":443,"name":"lillie","steam_id":76561198062297621,"connected_time":2735000000000,"state":"active","ping":103},{"user_id":472,"name":"Real (real)","steam_id":76561199059653595,"connected_time":1378000000000,"state":"active","ping":72},{"user_id":452,"name":"yogi","steam_id":76561198067986753,"connected_time":2314000000000,"state":"active","ping":38}]},{"server_id":25,"name":"Uncletopia | Los Angeles | 4 | Stopwatch Beta","name_short":"lax-4","host":"lax-1.us.uncletopia.com","port":27045,"enabled":true,"region":"us-west","cc":"us","latitude":33.94279,"longitude":-118.41004,"reserved":0,"last_update":"0001-01-01T00:00:00Z","name_a2s":"Uncletopia | Los Angeles | 4 | Stopwatch Beta","protocol":17,"map":"koth_highpass","folder":"tf","game":"Team Fortress","app_id":440,"player_count":23,"max_players":24,"Bots":0,"server_type":"Dedicated","server_os":"Linux","password":true,"vac":true,"version":"7882260","steam_id":85568392924510199,"keywords":["cp","nocrits","nodmgspread","uncletopia"],"game_id":440,"stv_port":27046,"stv_name":"Uncletopia | Los Angeles | 4 | Stopwatch Beta | STV","players":[{"user_id":194,"name":"The Bombinomicon","steam_id":76561198209881263,"connected_time":791000000000,"state":"active","ping":55},{"user_id":204,"name":"2JZ_","steam_id":76561198064027289,"connected_time":21000000000,"state":"spawning","ping":88},{"user_id":185,"name":"Clifford Banes","steam_id":76561198145921847,"connected_time":996000000000,"state":"active","ping":75},{"user_id":161,"name":"Bones0010","steam_id":76561198096186958,"connected_time":2177000000000,"state":"active","ping":84},{"user_id":93,"name":"Puppy Doggy","steam_id":76561198006257234,"connected_time":5451000000000,"state":"spawning","ping":63},{"user_id":85,"name":"Pixel","steam_id":76561198096221632,"connected_time":6024000000000,"state":"active","ping":76},{"user_id":171,"name":"Garry115","steam_id":76561198039459581,"connected_time":1789000000000,"state":"active","ping":59},{"user_id":76,"name":"Dongus","steam_id":76561197979056451,"connected_time":6289000000000,"state":"active","ping":75},{"user_id":205,"name":"Lasagna Fan","steam_id":76561199169204754,"connected_time":17000000000,"state":"active","ping":118},{"user_id":165,"name":"Golurk with some bitches","steam_id":76561198085888959,"connected_time":2122000000000,"state":"spawning","ping":88},{"user_id":195,"name":"EleventhGoose","steam_id":76561198912390211,"connected_time":705000000000,"state":"active","ping":58},{"user_id":162,"name":"Sir.TopHats","steam_id":76561198267326839,"connected_time":2173000000000,"state":"active","ping":92},{"user_id":83,"name":"Estradiol yummy","steam_id":76561198085813708,"connected_time":6089000000000,"state":"spawning","ping":75},{"user_id":206,"name":"HanakoToast","steam_id":76561198045233131,"connected_time":5000000000,"state":"spawning","ping":54},{"user_id":186,"name":"ApplesMate","steam_id":76561198832763278,"connected_time":967000000000,"state":"active","ping":54},{"user_id":196,"name":"Cobalt","steam_id":76561198334505143,"connected_time":661000000000,"state":"active","ping":64},{"user_id":197,"name":"Bonk Co.","steam_id":76561198009355408,"connected_time":660000000000,"state":"spawning","ping":44},{"user_id":173,"name":"Minedark","steam_id":76561198250995706,"connected_time":1635000000000,"state":"active","ping":75},{"user_id":191,"name":"Ad3ptus","steam_id":76561198272045750,"connected_time":827000000000,"state":"spawning","ping":64},{"user_id":201,"name":"elephant thumb","steam_id":76561198118859752,"connected_time":391000000000,"state":"active","ping":44},{"user_id":182,"name":"Avro","steam_id":76561198343276573,"connected_time":1256000000000,"state":"active","ping":81},{"user_id":183,"name":"solger","steam_id":76561199180146165,"connected_time":1188000000000,"state":"active","ping":80},{"user_id":193,"name":"pollito_luchador","steam_id":76561199051466304,"connected_time":806000000000,"state":"active","ping":80}]},{"server_id":11,"name":"Uncletopia | London | 1 | All Maps","name_short":"lon-1","host":"lon-1.uk.uncletopia.com","port":27015,"enabled":true,"region":"eu","cc":"gb","latitude":51.509865,"longitude":-0.118092,"reserved":0,"last_update":"0001-01-01T00:00:00Z","name_a2s":"Uncletopia | London | 1 | All Maps","protocol":17,"map":"pl_badwater","folder":"tf","game":"Team Fortress","app_id":440,"player_count":24,"max_players":24,"Bots":0,"server_type":"Dedicated","server_os":"Linux","password":true,"vac":true,"version":"7882260","steam_id":85568392924367362,"keywords":["nocrits","nodmgspread","payload","uncletopia"],"game_id":440,"stv_port":27016,"stv_name":"Uncletopia | London | 1 | All Maps | STV","players":[{"user_id":671,"name":"BELIEVE THE MACHINE","steam_id":76561198027033926,"connected_time":2391000000000,"state":"active","ping":56},{"user_id":656,"name":"Some White Guy","steam_id":76561198042528726,"connected_time":4039000000000,"state":"active","ping":45},{"user_id":692,"name":"Bambi","steam_id":76561198166972711,"connected_time":182000000000,"state":"active","ping":55},{"user_id":673,"name":"K√¶–Ø","steam_id":76561198088151684,"connected_time":2304000000000,"state":"active","ping":70},{"user_id":659,"name":"Riordan the Armpit Inspector","steam_id":76561198001346236,"connected_time":4002000000000,"state":"active","ping":77},{"user_id":687,"name":"Quill","steam_id":76561198348124998,"connected_time":310000000000,"state":"active","ping":63},{"user_id":682,"name":"MoeruKurowassan","steam_id":76561198319349647,"connected_time":1096000000000,"state":"active","ping":83},{"user_id":695,"name":"General Petrov","steam_id":76561198027204104,"connected_time":86000000000,"state":"active","ping":86},{"user_id":693,"name":"Soda Drink","steam_id":76561198202990635,"connected_time":161000000000,"state":"active","ping":69},{"user_id":684,"name":"Pestdoktor","steam_id":76561198058159271,"connected_time":731000000000,"state":"active","ping":72},{"user_id":617,"name":"Anri Okita's Massive Milkers","steam_id":76561199186352720,"connected_time":6796000000000,"state":"active","ping":62},{"user_id":625,"name":"Guy called Tycho","steam_id":76561198044560715,"connected_time":6490000000000,"state":"active","ping":57},{"user_id":694,"name":"Pinochet","steam_id":76561198194042394,"connected_time":145000000000,"state":"active","ping":161},{"user_id":661,"name":"Utvar","steam_id":76561198131838460,"connected_time":3914000000000,"state":"active","ping":67},{"user_id":688,"name":"Samuel L. Jackson","steam_id":76561198130427881,"connected_time":293000000000,"state":"active","ping":165},{"user_id":669,"name":"Critless","steam_id":76561198133968184,"connected_time":2402000000000,"state":"active","ping":49},{"user_id":690,"name":"Mumble","steam_id":76561198386885092,"connected_time":273000000000,"state":"active","ping":73},{"user_id":683,"name":"namelsquatsfuqllibabanju","steam_id":76561198372891738,"connected_time":905000000000,"state":"active","ping":91},{"user_id":668,"name":"Lucan","steam_id":76561198219195135,"connected_time":2991000000000,"state":"active","ping":52},{"user_id":691,"name":"JohnsBriefcase","steam_id":76561198117657002,"connected_time":238000000000,"state":"active","ping":120},{"user_id":679,"name":"Whippin Forgies","steam_id":76561198071058300,"connected_time":1973000000000,"state":"active","ping":133},{"user_id":655,"name":"REN","steam_id":76561198000596385,"connected_time":4366000000000,"state":"active","ping":86},{"user_id":662,"name":"bob ross","steam_id":76561198344588858,"connected_time":3859000000000,"state":"active","ping":45},{"user_id":663,"name":"ÀπFate's¬∑MarionetteÀº","steam_id":76561198034197381,"connected_time":3859000000000,"state":"active","ping":46}]},{"server_id":114,"name":"Uncletopia | London | 2 | All Maps","name_short":"lon-2","host":"lon-1.uk.uncletopia.com","port":27025,"enabled":true,"region":"eu","cc":"gb","latitude":51.509865,"longitude":-0.118092,"reserved":0,"last_update":"0001-01-01T00:00:00Z","name_a2s":"Uncletopia | London | 2 | All Maps","protocol":17,"map":"pl_badwater","folder":"tf","game":"Team Fortress","app_id":440,"player_count":16,"max_players":24,"Bots":0,"server_type":"Dedicated","server_os":"Linux","password":true,"vac":true,"version":"7882260","steam_id":85568392924470941,"keywords":["nocrits","nodmgspread","payload","uncletopia"],"game_id":440,"stv_port":27026,"stv_name":"Uncletopia | London | 2 | All Maps | STV","players":[{"user_id":1058,"name":"Neanderthal Gaming","steam_id":76561198069469779,"connected_time":130000000000,"state":"active","ping":45},{"user_id":1059,"name":"Flintown Gooner","steam_id":76561198030800309,"connected_time":129000000000,"state":"active","ping":146},{"user_id":1060,"name":"DVUZI","steam_id":76561198026037217,"connected_time":64000000000,"state":"active","ping":72},{"user_id":1051,"name":"ORTEGA","steam_id":76561198105721091,"connected_time":941000000000,"state":"active","ping":48},{"user_id":1061,"name":"jerome","steam_id":76561199063223088,"connected_time":45000000000,"state":"active","ping":154},{"user_id":1054,"name":"DiscoTraveler","steam_id":76561199240168088,"connected_time":876000000000,"state":"active","ping":113},{"user_id":1006,"name":"Lennox","steam_id":76561198069063554,"connected_time":5512000000000,"state":"active","ping":46},{"user_id":1048,"name":"Anon","steam_id":76561198161044725,"connected_time":1024000000000,"state":"active","ping":45},{"user_id":1034,"name":"Zadira","steam_id":76561197970502828,"connected_time":2684000000000,"state":"active","ping":120},{"user_id":1062,"name":"BoofPack650","steam_id":76561198053562203,"connected_time":0,"state":"spawning","ping":48},{"user_id":1047,"name":"aolkdi","steam_id":76561198025479415,"connected_time":1754000000000,"state":"active","ping":131},{"user_id":1042,"name":"bachusa1657","steam_id":76561198202175911,"connected_time":2135000000000,"state":"active","ping":73},{"user_id":1038,"name":"Homebound","steam_id":76561198531978435,"connected_time":2311000000000,"state":"active","ping":69},{"user_id":1043,"name":"dd","steam_id":76561198257836694,"connected_time":2013000000000,"state":"active","ping":44},{"user_id":1004,"name":"Aaron(Real)#KZK#RTRD","steam_id":76561198324775476,"connected_time":5897000000000,"state":"active","ping":45},{"user_id":1033,"name":"Mushy.","steam_id":76561198107247371,"connected_time":2816000000000,"state":"active","ping":70}]},{"server_id":320,"name":"Uncletopia | London | 3 | All Maps","name_short":"lon-3","host":"lon-1.uk.uncletopia.com","port":27035,"enabled":true,"region":"eu","cc":"gb","latitude":51.509865,"longitude":-0.118092,"reserved":0,"last_update":"0001-01-01T00:00:00Z","name_a2s":"Uncletopia | London | 3 | All Maps","protocol":17,"map":"koth_lakeside_final","folder":"tf","game":"Team Fortress","app_id":440,"player_count":0,"max_players":24,"Bots":0,"server_type":"Dedicated","server_os":"Linux","password":true,"vac":true,"version":"7882260","steam_id":85568392924510192,"keywords":["cp","nocrits","nodmgspread","uncletopia"],"game_id":440,"stv_port":27036,"stv_name":"Uncletopia | London | 3 | All Maps | STV","players":null},{"server_id":321,"name":"Uncletopia | London | 4 | All Maps","name_short":"lon-4","host":"lon-1.uk.uncletopia.com","port":27045,"enabled":true,"region":"eu","cc":"gb","latitude":51.509865,"longitude":-0.118092,"reserved":0,"last_update":"0001-01-01T00:00:00Z","name_a2s":"Uncletopia | London | 4 | All Maps","protocol":17,"map":"koth_cascade","folder":"tf","game":"Team Fortress","app_id":440,"player_count":0,"max_players":24,"Bots":0,"server_type":"Dedicated","server_os":"Linux","password":true,"vac":true,"version":"7882260","steam_id":85568392924510193,"keywords":["cp","nocrits","nodmgspread","uncletopia"],"game_id":440,"stv_port":27046,"stv_name":"Uncletopia | London | 4 | All Maps | STV","players":null},{"server_id":21,"name":"Uncletopia | London | 5 | All Maps","name_short":"lon-5","host":"lon-1.uk.uncletopia.com","port":27055,"enabled":true,"region":"eu","cc":"gb","latitude":51.509865,"longitude":-0.118092,"reserved":0,"last_update":"0001-01-01T00:00:00Z","name_a2s":"Uncletopia | London | 5 | All Maps","protocol":17,"map":"cp_snakewater_final1","folder":"tf","game":"Team Fortress","app_id":440,"player_count":0,"max_players":24,"Bots":0,"server_type":"Dedicated","server_os":"Linux","password":true,"vac":true,"version":"7882260","steam_id":85568392924742829,"keywords":["cp","nocrits","nodmgspread","uncletopia"],"game_id":440,"stv_port":27056,"stv_name":"Uncletopia | London | 5 | All Maps | STV","players":null},{"server_id":22,"name":"Uncletopia | London | 6 | All Maps","name_short":"lon-6","host":"lon-1.uk.uncletopia.com","port":27065,"enabled":true,"region":"eu","cc":"gb","latitude":51.509865,"longitude":-0.118092,"reserved":0,"last_update":"0001-01-01T00:00:00Z","name_a2s":"Uncletopia | London | 6 | All Maps","protocol":17,"map":"pl_barnblitz","folder":"tf","game":"Team Fortress","app_id":440,"player_count":11,"max_players":24,"Bots":0,"server_type":"Dedicated","server_os":"Linux","password":true,"vac":true,"version":"7882260","steam_id":85568392924742830,"keywords":["nocrits","nodmgspread","payload","uncletopia"],"game_id":440,"stv_port":27066,"stv_name":"Uncletopia | London | 6 | All Maps | STV","players":[{"user_id":967,"name":"Lyncurion","steam_id":76561199260022725,"connected_time":5381000000000,"state":"active","ping":76},{"user_id":1011,"name":"Amyxts36","steam_id":76561198872232094,"connected_time":493000000000,"state":"active","ping":162},{"user_id":1004,"name":"Imac32","steam_id":76561198057791945,"connected_time":1416000000000,"state":"active","ping":138},{"user_id":975,"name":"Glitch","steam_id":76561198081895538,"connected_time":4542000000000,"state":"active","ping":53},{"user_id":996,"name":"ezekiel","steam_id":76561199275353719,"connected_time":2603000000000,"state":"active","ping":61},{"user_id":928,"name":"FreezeFrame","steam_id":76561198276468587,"connected_time":8874000000000,"state":"active","ping":46},{"user_id":985,"name":"ball","steam_id":76561199045806741,"connected_time":3492000000000,"state":"active","ping":53},{"user_id":988,"name":"wide appreciator","steam_id":76561198083286511,"connected_time":3208000000000,"state":"active","ping":35},{"user_id":929,"name":"Joshibar","steam_id":76561198917388051,"connected_time":8858000000000,"state":"active","ping":60},{"user_id":950,"name":"stinkyhoovy","steam_id":76561198273397341,"connected_time":6828000000000,"state":"active","ping":44},{"user_id":999,"name":"Reimu Hakurei","steam_id":76561198038078831,"connected_time":2372000000000,"state":"active","ping":59}]},{"server_id":40,"name":"Uncletopia | London | 7 | No Payload","name_short":"lon-7","host":"lon-1.uk.uncletopia.com","port":27075,"enabled":true,"region":"eu","cc":"gb","latitude":51.509865,"longitude":-0.118092,"reserved":0,"last_update":"0001-01-01T00:00:00Z","name_a2s":"Uncletopia | London | 7 | No Payload","protocol":17,"map":"koth_badlands","folder":"tf","game":"Team Fortress","app_id":440,"player_count":0,"max_players":24,"Bots":0,"server_type":"Dedicated","server_os":"Linux","password":true,"vac":true,"version":"7882260","steam_id":85568392924964314,"keywords":["cp","nocrits","nodmgspread","uncletopia"],"game_id":440,"stv_port":27076,"stv_name":"Uncletopia | London | 7 | No Payload | STV","players":null},{"server_id":41,"name":"Uncletopia | London | 8 | Community","name_short":"lon-8","host":"lon-1.uk.uncletopia.com","port":27085,"enabled":true,"region":"eu","cc":"gb","latitude":51.509865,"longitude":-0.118092,"reserved":0,"last_update":"0001-01-01T00:00:00Z","name_a2s":"Uncletopia | London | 8 | Community","protocol":17,"map":"workshop/koth_trenchfoot_b1a.ugc731436616","folder":"tf","game":"Team Fortress","app_id":440,"player_count":0,"max_players":24,"Bots":0,"server_type":"Dedicated","server_os":"Linux","password":true,"vac":true,"version":"7882260","steam_id":85568392924964315,"keywords":["cp","nocrits","nodmgspread","uncletopia"],"game_id":440,"stv_port":27086,"stv_name":"Uncletopia | London | 8 | Community | STV","players":null},{"server_id":300,"name":"Uncletopia | Montr√©al | 1 | All Maps","name_short":"mtl-1","host":"mtl-1.ca.uncletopia.com","port":27015,"enabled":true,"region":"us-east","cc":"ca","latitude":45.50889,"longitude":-73.56167,"reserved":0,"last_update":"0001-01-01T00:00:00Z","name_a2s":"Uncletopia | Montr√©al | 1 | All Maps","protocol":17,"map":"pl_frontier_final","folder":"tf","game":"Team Fortress","app_id":440,"player_count":21,"max_players":24,"Bots":0,"server_type":"Dedicated","server_os":"Linux","password":true,"vac":true,"version":"7882260","steam_id":85568392924500087,"keywords":["nocrits","nodmgspread","payload","uncletopia"],"game_id":440,"stv_port":27016,"stv_name":"Uncletopia | Montr√©al | 1 | All Maps | STV","players":[{"user_id":260,"name":"The Nut Kicker","steam_id":76561198210247443,"connected_time":2024000000000,"state":"active","ping":43},{"user_id":227,"name":"Lavender","steam_id":76561198142770666,"connected_time":3339000000000,"state":"active","ping":68},{"user_id":271,"name":"Furrio","steam_id":76561198174104607,"connected_time":745000000000,"state":"active","ping":77},{"user_id":267,"name":"Badscatter","steam_id":76561198413869034,"connected_time":1590000000000,"state":"active","ping":104},{"user_id":257,"name":"Motreir","steam_id":76561198151717946,"connected_time":2236000000000,"state":"active","ping":109},{"user_id":204,"name":"odacovA","steam_id":76561199383345208,"connected_time":5101000000000,"state":"active","ping":76},{"user_id":238,"name":"Lou Skunt","steam_id":76561198043392637,"connected_time":3054000000000,"state":"active","ping":117},{"user_id":230,"name":"AshMouse","steam_id":76561198151145819,"connected_time":3222000000000,"state":"active","ping":85},{"user_id":263,"name":"WX-78","steam_id":76561199117263527,"connected_time":1770000000000,"state":"spawning","ping":58},{"user_id":219,"name":"bakura.1812","steam_id":76561197995915934,"connected_time":3729000000000,"state":"active","ping":72},{"user_id":228,"name":"zeredis","steam_id":76561198076596689,"connected_time":3315000000000,"state":"active","ping":60},{"user_id":266,"name":"Shuu","steam_id":76561199199180558,"connected_time":1666000000000,"state":"active","ping":70},{"user_id":223,"name":"JWT524","steam_id":76561198873672996,"connected_time":3485000000000,"state":"active","ping":50},{"user_id":229,"name":"Erebus","steam_id":76561199061956673,"connected_time":3299000000000,"state":"spawning","ping":46},{"user_id":226,"name":"danko","steam_id":76561199025124784,"connected_time":3415000000000,"state":"active","ping":50},{"user_id":274,"name":"regular_consuelo","steam_id":76561198327831852,"connected_time":314000000000,"state":"active","ping":56},{"user_id":235,"name":"Goose of Wisdom","steam_id":76561198233465044,"connected_time":3094000000000,"state":"active","ping":64},{"user_id":259,"name":"JACOB","steam_id":76561198211874895,"connected_time":2111000000000,"state":"spawning","ping":177},{"user_id":275,"name":"demon high","steam_id":76561198144909435,"connected_time":100000000000,"state":"active","ping":125},{"user_id":270,"name":"pm_h","steam_id":76561198245025912,"connected_time":1324000000000,"state":"active","ping":74},{"user_id":251,"name":"Xuulis","steam_id":76561198042810905,"connected_time":2638000000000,"state":"active","ping":82}]},{"server_id":301,"name":"Uncletopia | Montr√©al | 2 | All Maps","name_short":"mtl-2","host":"mtl-1.ca.uncletopia.com","port":27025,"enabled":true,"region":"us-east","cc":"ca","latitude":45.50889,"longitude":-73.56167,"reserved":0,"last_update":"0001-01-01T00:00:00Z","name_a2s":"Uncletopia | Montr√©al | 2 | All Maps","protocol":17,"map":"pl_upward","folder":"tf","game":"Team Fortress","app_id":440,"player_count":18,"max_players":24,"Bots":0,"server_type":"Dedicated","server_os":"Linux","password":true,"vac":true,"version":"7882260","steam_id":85568392924500088,"keywords":["nocrits","nodmgspread","payload","uncletopia"],"game_id":440,"stv_port":27026,"stv_name":"Uncletopia | Montr√©al | 2 | All Maps | STV","players":[{"user_id":230,"name":"The_Epic_Conclusion","steam_id":76561198084250179,"connected_time":2409000000000,"state":"active","ping":72},{"user_id":168,"name":"dog","steam_id":76561198263873491,"connected_time":5959000000000,"state":"active","ping":73},{"user_id":222,"name":"Atlas (Skylar)","steam_id":76561198041531774,"connected_time":3503000000000,"state":"active","ping":70},{"user_id":227,"name":"IMPACT CPU","steam_id":76561198001344879,"connected_time":3101000000000,"state":"active","ping":48},{"user_id":237,"name":"Beef","steam_id":76561198171898605,"connected_time":1924000000000,"state":"active","ping":76},{"user_id":200,"name":"Zen Obron","steam_id":76561198130167754,"connected_time":4637000000000,"state":"active","ping":84},{"user_id":229,"name":"Jarvis from Avengers","steam_id":76561198164035863,"connected_time":2506000000000,"state":"active","ping":53},{"user_id":198,"name":"sailaser","steam_id":76561198035752229,"connected_time":5161000000000,"state":"active","ping":61},{"user_id":231,"name":"SaLt_VauLt","steam_id":76561199096277985,"connected_time":2393000000000,"state":"active","ping":84},{"user_id":232,"name":"Spring Beans","steam_id":76561197978546259,"connected_time":2376000000000,"state":"active","ping":71},{"user_id":253,"name":"Pizza Party","steam_id":76561198165730754,"connected_time":469000000000,"state":"active","ping":73},{"user_id":254,"name":"JohnnyBoi","steam_id":76561199082599937,"connected_time":456000000000,"state":"active","ping":128},{"user_id":244,"name":"Cars Mk.3","steam_id":76561199121256780,"connected_time":1190000000000,"state":"active","ping":86},{"user_id":255,"name":"Apetometrist","steam_id":76561198045391635,"connected_time":399000000000,"state":"active","ping":62},{"user_id":211,"name":"custodian","steam_id":76561198058793778,"connected_time":4080000000000,"state":"active","ping":58},{"user_id":257,"name":"Snoman","steam_id":76561197969248675,"connected_time":192000000000,"state":"active","ping":64},{"user_id":248,"name":"Asphalt","steam_id":76561198014827224,"connected_time":1071000000000,"state":"active","ping":32},{"user_id":256,"name":"Reskin sniper","steam_id":76561199229170788,"connected_time":369000000000,"state":"active","ping":92}]},{"server_id":302,"name":"Uncletopia | Montr√©al | 3 | All Maps","name_short":"mtl-3","host":"mtl-1.ca.uncletopia.com","port":27035,"enabled":true,"region":"us-east","cc":"ca","latitude":45.50889,"longitude":-73.56167,"reserved":0,"last_update":"0001-01-01T00:00:00Z","name_a2s":"Uncletopia | Montr√©al | 3 | All Maps","protocol":17,"map":"cp_altitude","folder":"tf","game":"Team Fortress","app_id":440,"player_count":0,"max_players":24,"Bots":0,"server_type":"Dedicated","server_os":"Linux","password":true,"vac":true,"version":"7882260","steam_id":85568392924500089,"keywords":["cp","nocrits","nodmgspread","uncletopia"],"game_id":440,"stv_port":27036,"stv_name":"Uncletopia | Montr√©al | 3 | All Maps | STV","players":null},{"server_id":303,"name":"Uncletopia | Montr√©al | 4 | No Payload","name_short":"mtl-4","host":"mtl-1.ca.uncletopia.com","port":27045,"enabled":true,"region":"us-east","cc":"ca","latitude":45.50889,"longitude":-73.56167,"reserved":0,"last_update":"0001-01-01T00:00:00Z","name_a2s":"Uncletopia | Montr√©al | 4 | No Payload","protocol":17,"map":"koth_harvest_final","folder":"tf","game":"Team Fortress","app_id":440,"player_count":0,"max_players":24,"Bots":0,"server_type":"Dedicated","server_os":"Linux","password":true,"vac":true,"version":"7882260","steam_id":85568392924500090,"keywords":["cp","nocrits","nodmgspread","uncletopia"],"game_id":440,"stv_port":27046,"stv_name":"Uncletopia | Montr√©al | 4 | No Payload | STV","players":null},{"server_id":13,"name":"Uncletopia | New York City | 1 | All Maps","name_short":"nyc-1","host":"nyc-1.us.uncletopia.com","port":27015,"enabled":true,"region":"us-east","cc":"us","latitude":40.73061,"longitude":-73.93524,"reserved":0,"last_update":"0001-01-01T00:00:00Z","name_a2s":"Uncletopia | New York City | 1 | All Maps","protocol":17,"map":"pl_swiftwater_final1","folder":"tf","game":"Team Fortress","app_id":440,"player_count":24,"max_players":24,"Bots":0,"server_type":"Dedicated","server_os":"Linux","password":true,"vac":true,"version":"7882260","steam_id":85568392924469993,"keywords":["nocrits","nodmgspread","payload","uncletopia"],"game_id":440,"stv_port":27016,"stv_name":"Uncletopia | New York City | 1 | All Maps | STV","players":[{"user_id":457,"name":"WALL-E","steam_id":76561198154701370,"connected_time":10798000000000,"state":"active","ping":72},{"user_id":581,"name":"Len","steam_id":76561199141913673,"connected_time":1778000000000,"state":"active","ping":106},{"user_id":568,"name":"Bzamo","steam_id":76561198039883392,"connected_time":2489000000000,"state":"active","ping":45},{"user_id":553,"name":"Menacing Pile of Frogs","steam_id":76561198360134800,"connected_time":3891000000000,"state":"active","ping":60},{"user_id":598,"name":"SortOfABigDeal","steam_id":76561198323397375,"connected_time":743000000000,"state":"active","ping":157},{"user_id":592,"name":"Joy #savetf2","steam_id":76561198073690173,"connected_time":1081000000000,"state":"active","ping":56},{"user_id":595,"name":"StaticSpark","steam_id":76561198801517151,"connected_time":981000000000,"state":"active","ping":73},{"user_id":570,"name":"TheAprilDingbat","steam_id":76561198301088661,"connected_time":2456000000000,"state":"active","ping":67},{"user_id":544,"name":"Wiener Hole Paper Cut","steam_id":76561198000808203,"connected_time":4853000000000,"state":"active","ping":67},{"user_id":558,"name":"Alcohol Hominid","steam_id":76561198320313950,"connected_time":3620000000000,"state":"active","ping":99},{"user_id":594,"name":"Buh","steam_id":76561198040731465,"connected_time":1005000000000,"state":"active","ping":78},{"user_id":597,"name":"vgMaster749","steam_id":76561198205048900,"connected_time":791000000000,"state":"active","ping":61},{"user_id":506,"name":"--_Cook_--","steam_id":76561198080855748,"connected_time":7817000000000,"state":"active","ping":64},{"user_id":566,"name":"Bert","steam_id":76561198073902241,"connected_time":2837000000000,"state":"active","ping":60},{"user_id":593,"name":"Hearing Aid Salesman","steam_id":76561197960489193,"connected_time":1075000000000,"state":"active","ping":60},{"user_id":586,"name":"Rex","steam_id":76561198138365053,"connected_time":1477000000000,"state":"active","ping":123},{"user_id":528,"name":"Yesu","steam_id":76561198026522528,"connected_time":5994000000000,"state":"active","ping":48},{"user_id":582,"name":"Spag Hekki","steam_id":76561198207579353,"connected_time":1608000000000,"state":"active","ping":86},{"user_id":596,"name":"Gamerdude313","steam_id":76561198869211435,"connected_time":961000000000,"state":"active","ping":72},{"user_id":575,"name":"GladosBackpack","steam_id":76561199219020294,"connected_time":2419000000000,"state":"active","ping":59},{"user_id":583,"name":"4","steam_id":76561198241371924,"connected_time":1608000000000,"state":"active","ping":88},{"user_id":600,"name":"RazE","steam_id":76561198074181336,"connected_time":604000000000,"state":"active","ping":60},{"user_id":591,"name":"yop","steam_id":76561198137241159,"connected_time":1160000000000,"state":"active","ping":54},{"user_id":589,"name":"hill of the king","steam_id":76561198099491925,"connected_time":1358000000000,"state":"active","ping":75}]},{"server_id":14,"name":"Uncletopia | New York City | 2 | All Maps","name_short":"nyc-2","host":"nyc-1.us.uncletopia.com","port":27025,"enabled":true,"region":"us-east","cc":"us","latitude":40.73061,"longitude":-73.93524,"reserved":0,"last_update":"0001-01-01T00:00:00Z","name_a2s":"Uncletopia | New York City | 2 | All Maps","protocol":17,"map":"pl_snowycoast","folder":"tf","game":"Team Fortress","app_id":440,"player_count":24,"max_players":24,"Bots":0,"server_type":"Dedicated","server_os":"Linux","password":true,"vac":true,"version":"7882260","steam_id":85568392924469994,"keywords":["nocrits","nodmgspread","payload","uncletopia"],"game_id":440,"stv_port":27026,"stv_name":"Uncletopia | New York City | 2 | All Maps | STV","players":[{"user_id":567,"name":"go touch keyboard","steam_id":76561198197388678,"connected_time":1380000000000,"state":"active","ping":75},{"user_id":534,"name":"How does he","steam_id":76561199101373436,"connected_time":3517000000000,"state":"active","ping":63},{"user_id":579,"name":"Give Me Chicken","steam_id":76561199376462977,"connected_time":21000000000,"state":"active","ping":105},{"user_id":574,"name":"LEGALIZE METH ‚Å£ ","steam_id":76561198015076638,"connected_time":727000000000,"state":"active","ping":49},{"user_id":540,"name":"Bootes","steam_id":76561197968255551,"connected_time":2966000000000,"state":"active","ping":51},{"user_id":466,"name":"2Case","steam_id":76561198451849633,"connected_time":8502000000000,"state":"active","ping":84},{"user_id":561,"name":"pigswill","steam_id":76561197999081865,"connected_time":1455000000000,"state":"active","ping":70},{"user_id":577,"name":"Rat Prophet","steam_id":76561198040884019,"connected_time":573000000000,"state":"active","ping":70},{"user_id":504,"name":"Coward","steam_id":76561199291879621,"connected_time":5461000000000,"state":"active","ping":48},{"user_id":575,"name":"Eazy_Peazy16","steam_id":76561198079056194,"connected_time":726000000000,"state":"active","ping":76},{"user_id":477,"name":"Gonzo The All Killing","steam_id":76561198113067183,"connected_time":8059000000000,"state":"active","ping":70},{"user_id":576,"name":"eWVra2Vy","steam_id":76561198453565942,"connected_time":582000000000,"state":"active","ping":73},{"user_id":573,"name":"Slime Rancher 2 Enjoyer","steam_id":76561199171272762,"connected_time":770000000000,"state":"active","ping":77},{"user_id":471,"name":"Toppy Eggcaliber","steam_id":76561198043228363,"connected_time":8450000000000,"state":"active","ping":68},{"user_id":558,"name":"mammoth!?","steam_id":76561198066881911,"connected_time":1763000000000,"state":"active","ping":73},{"user_id":556,"name":"newt","steam_id":76561198964101426,"connected_time":1919000000000,"state":"active","ping":42},{"user_id":565,"name":"Aristotle Voulton","steam_id":76561198100174923,"connected_time":1433000000000,"state":"active","ping":82},{"user_id":578,"name":"BigOrca54","steam_id":76561198181360271,"connected_time":527000000000,"state":"active","ping":82},{"user_id":566,"name":"yeyoi","steam_id":76561198069821885,"connected_time":1433000000000,"state":"active","ping":66},{"user_id":539,"name":"chiswola","steam_id":76561198046920142,"connected_time":3135000000000,"state":"active","ping":96},{"user_id":505,"name":"Cole Boye","steam_id":76561198282449106,"connected_time":5443000000000,"state":"active","ping":100},{"user_id":530,"name":"Cielchi","steam_id":76561198020696265,"connected_time":3650000000000,"state":"active","ping":72},{"user_id":557,"name":"bojack from the show bojack hor","steam_id":76561198053006712,"connected_time":1851000000000,"state":"active","ping":46},{"user_id":572,"name":"AADDAAMM","steam_id":76561198068584852,"connected_time":951000000000,"state":"active","ping":66}]},{"server_id":15,"name":"Uncletopia | New York City | 3 | Stopwatch Beta","name_short":"nyc-3","host":"nyc-1.us.uncletopia.com","port":27035,"enabled":true,"region":"us-east","cc":"us","latitude":40.73061,"longitude":-73.93524,"reserved":0,"last_update":"0001-01-01T00:00:00Z","name_a2s":"Uncletopia | New York City | 3 | Stopwatch Beta","protocol":17,"map":"koth_highpass","folder":"tf","game":"Team Fortress","app_id":440,"player_count":2,"max_players":24,"Bots":0,"server_type":"Dedicated","server_os":"Linux","password":true,"vac":true,"version":"7882260","steam_id":85568392924742820,"keywords":["cp","nocrits","nodmgspread","uncletopia"],"game_id":440,"stv_port":27036,"stv_name":"Uncletopia | New York City | 3 | Stopwatch Beta | STV","players":[{"user_id":49,"name":"Scully","steam_id":76561198158234998,"connected_time":321000000000,"state":"active","ping":86},{"user_id":50,"name":"MapleSyrup","steam_id":76561199222442855,"connected_time":262000000000,"state":"active","ping":116}]},{"server_id":16,"name":"Uncletopia | New York City | 4 | Community","name_short":"nyc-4","host":"nyc-1.us.uncletopia.com","port":27045,"enabled":true,"region":"us-east","cc":"us","latitude":40.73061,"longitude":-73.93524,"reserved":0,"last_update":"0001-01-01T00:00:00Z","name_a2s":"Uncletopia | New York City | 4 | Community","protocol":17,"map":"workshop/pl_barnblitz_pro7.ugc582280235","folder":"tf","game":"Team Fortress","app_id":440,"player_count":24,"max_players":24,"Bots":0,"server_type":"Dedicated","server_os":"Linux","password":true,"vac":true,"version":"7882260","steam_id":85568392924742821,"keywords":["nocrits","nodmgspread","payload","uncletopia"],"game_id":440,"stv_port":27046,"stv_name":"Uncletopia | New York City | 4 | Community | STV","players":[{"user_id":356,"name":"Pepsy","steam_id":76561198167294143,"connected_time":105000000000,"state":"active","ping":58},{"user_id":358,"name":"OptiCxmShot","steam_id":76561198049019578,"connected_time":38000000000,"state":"active","ping":131},{"user_id":354,"name":"owieMYDICKHURT","steam_id":76561199445629071,"connected_time":322000000000,"state":"active","ping":44},{"user_id":338,"name":"got me drip drip","steam_id":76561198000564263,"connected_time":1401000000000,"state":"active","ping":75},{"user_id":343,"name":"lanoc","steam_id":76561198055415367,"connected_time":1155000000000,"state":"active","ping":74},{"user_id":317,"name":"SiurWurg","steam_id":76561198799928755,"connected_time":2603000000000,"state":"active","ping":83},{"user_id":305,"name":"el hopaness romtic","steam_id":76561198123287268,"connected_time":3096000000000,"state":"active","ping":60},{"user_id":344,"name":"MrrPamplemousse","steam_id":76561198072241333,"connected_time":1130000000000,"state":"active","ping":60},{"user_id":339,"name":"hoarse whisperer","steam_id":76561198106690989,"connected_time":1385000000000,"state":"active","ping":56},{"user_id":355,"name":"DJ Absolute Garbage","steam_id":76561198068000747,"connected_time":229000000000,"state":"active","ping":49},{"user_id":346,"name":"CORGI.EXE","steam_id":76561198077093432,"connected_time":1046000000000,"state":"active","ping":51},{"user_id":321,"name":":3","steam_id":76561198256791253,"connected_time":2456000000000,"state":"active","ping":75},{"user_id":318,"name":"Hamm_b0ned","steam_id":76561198313408455,"connected_time":2594000000000,"state":"active","ping":83},{"user_id":319,"name":"Weema!","steam_id":76561198256509860,"connected_time":2589000000000,"state":"active","ping":88},{"user_id":348,"name":"Squilly","steam_id":76561198084059258,"connected_time":944000000000,"state":"active","ping":62},{"user_id":310,"name":"‚í∑‚ì™‚ì™‚ì£‚ì®‚ìí‚ìê‚ìö‚ìî‚ì¢","steam_id":76561198088776421,"connected_time":3036000000000,"state":"active","ping":77},{"user_id":357,"name":"Notation","steam_id":76561198119509319,"connected_time":94000000000,"state":"active","ping":65},{"user_id":320,"name":"Red_Hatkins","steam_id":76561198214004105,"connected_time":2544000000000,"state":"active","ping":77},{"user_id":336,"name":"Michaelpc1","steam_id":76561198088365519,"connected_time":1699000000000,"state":"active","ping":60},{"user_id":359,"name":"psychic","steam_id":76561198070903458,"connected_time":28000000000,"state":"active","ping":1181},{"user_id":342,"name":"Dr. Cube","steam_id":76561198025469828,"connected_time":1271000000000,"state":"active","ping":64},{"user_id":330,"name":"Rx Auntie","steam_id":76561198051618393,"connected_time":1770000000000,"state":"active","ping":46},{"user_id":360,"name":"DJ Chalice","steam_id":76561197974872458,"connected_time":2000000000,"state":"spawning","ping":43},{"user_id":325,"name":"Sim","steam_id":76561198119227922,"connected_time":2037000000000,"state":"active","ping":48}]},{"server_id":142,"name":"Uncletopia | S√£o Paulo | 1 | All Maps","name_short":"sao-1","host":"sao-1.br.uncletopia.com","port":27015,"enabled":true,"region":"sa","cc":"br","latitude":-23.533773,"longitude":-46.62529,"reserved":0,"last_update":"0001-01-01T00:00:00Z","name_a2s":"Uncletopia | S√£o Paulo | 1 | All Maps","protocol":17,"map":"koth_lakeside_final","folder":"tf","game":"Team Fortress","app_id":440,"player_count":0,"max_players":24,"Bots":0,"server_type":"Dedicated","server_os":"Linux","password":true,"vac":true,"version":"7882260","steam_id":85568392924469996,"keywords":["cp","nocrits","nodmgspread","uncletopia"],"game_id":440,"stv_port":27016,"stv_name":"Uncletopia | S√£o Paulo | 1 | All Maps | STV","players":null},{"server_id":143,"name":"Uncletopia | S√£o Paulo | 2 | All Maps","name_short":"sao-2","host":"sao-2.br.uncletopia.com","port":27015,"enabled":true,"region":"sa","cc":"br","latitude":-23.533773,"longitude":-46.62529,"reserved":0,"last_update":"0001-01-01T00:00:00Z","name_a2s":"Uncletopia | S√£o Paulo | 2 | All Maps","protocol":17,"map":"pl_swiftwater_final1","folder":"tf","game":"Team Fortress","app_id":440,"player_count":17,"max_players":24,"Bots":0,"server_type":"Dedicated","server_os":"Linux","password":true,"vac":true,"version":"7882260","steam_id":85568392924485349,"keywords":["nocrits","nodmgspread","payload","uncletopia"],"game_id":440,"stv_port":27016,"stv_name":"Uncletopia | S√£o Paulo | 2 | All Maps | STV","players":[{"user_id":448,"name":"Bellesi","steam_id":76561198056750369,"connected_time":1308000000000,"state":"active","ping":50},{"user_id":289,"name":"flamingo","steam_id":76561198854099251,"connected_time":10421000000000,"state":"active","ping":80},{"user_id":367,"name":"lets get re[IT STARTED] in here","steam_id":76561198062467781,"connected_time":7182000000000,"state":"active","ping":43},{"user_id":467,"name":"WASTEDTALENT247","steam_id":76561199444251416,"connected_time":218000000000,"state":"active","ping":189},{"user_id":471,"name":"Cone","steam_id":76561199134325795,"connected_time":17000000000,"state":"active","ping":54},{"user_id":366,"name":"Duped Stickybomb Launcher","steam_id":76561198052570931,"connected_time":7227000000000,"state":"active","ping":89},{"user_id":453,"name":"Tommy","steam_id":76561198396889148,"connected_time":961000000000,"state":"active","ping":71},{"user_id":444,"name":"0","steam_id":76561198803255218,"connected_time":2039000000000,"state":"active","ping":45},{"user_id":458,"name":"Quoth","steam_id":76561198113465470,"connected_time":617000000000,"state":"active","ping":43},{"user_id":461,"name":"shima‚ô°","steam_id":76561199079561482,"connected_time":425000000000,"state":"active","ping":74},{"user_id":460,"name":"PI RA CAN JU BA","steam_id":76561198145232554,"connected_time":453000000000,"state":"active","ping":70},{"user_id":447,"name":"gasper753","steam_id":76561198111072977,"connected_time":1389000000000,"state":"active","ping":56},{"user_id":469,"name":"CryshireWithAK","steam_id":76561198857908089,"connected_time":127000000000,"state":"active","ping":203},{"user_id":436,"name":"ezra pound","steam_id":76561198399737890,"connected_time":2592000000000,"state":"active","ping":75},{"user_id":462,"name":"Tails The Fox uwu","steam_id":76561198999384275,"connected_time":416000000000,"state":"active","ping":111},{"user_id":432,"name":"Copmmer","steam_id":76561199080964271,"connected_time":2851000000000,"state":"active","ping":67},{"user_id":377,"name":"SrC","steam_id":76561199009799676,"connected_time":6864000000000,"state":"active","ping":74}]},{"server_id":7,"name":"Uncletopia | Seattle | 1 | All Maps","name_short":"sea-1","host":"sea-1.us.uncletopia.com","port":27015,"enabled":true,"region":"us-west","cc":"us","latitude":47.608013,"longitude":-122.33517,"reserved":0,"last_update":"0001-01-01T00:00:00Z","name_a2s":"Uncletopia | Seattle | 1 | All Maps","protocol":17,"map":"cp_badlands","folder":"tf","game":"Team Fortress","app_id":440,"player_count":24,"max_players":24,"Bots":0,"server_type":"Dedicated","server_os":"Linux","password":true,"vac":true,"version":"7882260","steam_id":85568392924469997,"keywords":["cp","nocrits","nodmgspread","uncletopia"],"game_id":440,"stv_port":27016,"stv_name":"Uncletopia | Seattle | 1 | All Maps | STV","players":[{"user_id":524,"name":"Cursed Bones","steam_id":76561198090419068,"connected_time":4909000000000,"state":"active","ping":69},{"user_id":557,"name":"dansal","steam_id":76561197997042510,"connected_time":1404000000000,"state":"active","ping":126},{"user_id":538,"name":"Cyanotype","steam_id":76561198164984732,"connected_time":3499000000000,"state":"active","ping":146},{"user_id":510,"name":"Neptune *:ÔΩ•Ôæü‚úß*:ÔΩ•Ôæü","steam_id":76561199054203198,"connected_time":6087000000000,"state":"active","ping":117},{"user_id":488,"name":"HaphazardHazel","steam_id":76561198316812693,"connected_time":7397000000000,"state":"active","ping":134},{"user_id":565,"name":"Greskrendtregk","steam_id":76561197969553142,"connected_time":51000000000,"state":"active","ping":58},{"user_id":541,"name":"Jack Horner in a F-16","steam_id":76561198062438923,"connected_time":3049000000000,"state":"active","ping":128},{"user_id":542,"name":"Diesel","steam_id":76561198448815852,"connected_time":2891000000000,"state":"active","ping":69},{"user_id":536,"name":"Ayayayayayahuasca","steam_id":76561199002906056,"connected_time":3782000000000,"state":"active","ping":46},{"user_id":548,"name":"keithykeithers","steam_id":76561197995552615,"connected_time":2065000000000,"state":"active","ping":45},{"user_id":532,"name":"Broly","steam_id":76561198271939793,"connected_time":4300000000000,"state":"active","ping":56},{"user_id":558,"name":"mega","steam_id":76561198089520959,"connected_time":1200000000000,"state":"active","ping":88},{"user_id":547,"name":"Smile","steam_id":76561198110008786,"connected_time":2198000000000,"state":"active","ping":45},{"user_id":572,"name":"Depths","steam_id":76561198343435310,"connected_time":29000000000,"state":"active","ping":76},{"user_id":535,"name":"a floating shopping list","steam_id":76561197991015780,"connected_time":4010000000000,"state":"active","ping":70},{"user_id":563,"name":"TheMagicMrWaffle","steam_id":76561198104357256,"connected_time":328000000000,"state":"active","ping":72},{"user_id":573,"name":"emissions_master","steam_id":76561198870649125,"connected_time":29000000000,"state":"active","ping":89},{"user_id":534,"name":"evilOlive","steam_id":76561198106222025,"connected_time":4055000000000,"state":"active","ping":76},{"user_id":566,"name":"Luca","steam_id":76561198125087140,"connected_time":51000000000,"state":"active","ping":52},{"user_id":501,"name":"jayeskae","steam_id":76561198144220801,"connected_time":6625000000000,"state":"active","ping":45},{"user_id":544,"name":"blinkerton city","steam_id":76561198054270410,"connected_time":2556000000000,"state":"active","ping":53},{"user_id":574,"name":"Cam","steam_id":76561198285054047,"connected_time":29000000000,"state":"active","ping":77},{"user_id":561,"name":"soda","steam_id":76561198105924953,"connected_time":1047000000000,"state":"active","ping":71},{"user_id":569,"name":"Aja by Steely Dan","steam_id":76561198313517179,"connected_time":47000000000,"state":"active","ping":90}]},{"server_id":119,"name":"Uncletopia | Seattle | 2 | All Maps","name_short":"sea-2","host":"sea-1.us.uncletopia.com","port":27025,"enabled":true,"region":"us-west","cc":"us","latitude":47.608013,"longitude":-122.33517,"reserved":0,"last_update":"0001-01-01T00:00:00Z","name_a2s":"Uncletopia | Seattle | 2 | All Maps","protocol":17,"map":"pl_upward","folder":"tf","game":"Team Fortress","app_id":440,"player_count":24,"max_players":24,"Bots":0,"server_type":"Dedicated","server_os":"Linux","password":true,"vac":true,"version":"7882260","steam_id":85568392924469998,"keywords":["nocrits","nodmgspread","payload","uncletopia"],"game_id":440,"stv_port":27026,"stv_name":"Uncletopia | Seattle | 2 | All Maps | STV","players":[{"user_id":405,"name":"MCman","steam_id":76561198412110305,"connected_time":4394000000000,"state":"active","ping":74},{"user_id":436,"name":"Yoinkinator","steam_id":76561198011366624,"connected_time":1838000000000,"state":"active","ping":64},{"user_id":445,"name":"chicken","steam_id":76561198196998007,"connected_time":1065000000000,"state":"active","ping":83},{"user_id":446,"name":"BrokenPC","steam_id":76561198304440221,"connected_time":1061000000000,"state":"active","ping":109},{"user_id":397,"name":"soup","steam_id":76561198043209046,"connected_time":4665000000000,"state":"active","ping":85},{"user_id":447,"name":"Burgie","steam_id":76561198066425198,"connected_time":1038000000000,"state":"active","ping":83},{"user_id":418,"name":"jenny possum","steam_id":76561198062879460,"connected_time":2879000000000,"state":"active","ping":47},{"user_id":426,"name":"obamaconsumespancakes","steam_id":76561199283740228,"connected_time":2052000000000,"state":"active","ping":62},{"user_id":425,"name":"PvZ Enthusiast","steam_id":76561199089562026,"connected_time":2090000000000,"state":"active","ping":51},{"user_id":444,"name":"K2f","steam_id":76561198049600563,"connected_time":1157000000000,"state":"active","ping":63},{"user_id":437,"name":"Hector Salamanca","steam_id":76561199103213955,"connected_time":1723000000000,"state":"active","ping":90},{"user_id":456,"name":"Mr.Frundles","steam_id":76561198134559026,"connected_time":447000000000,"state":"active","ping":56},{"user_id":384,"name":"Turtimos","steam_id":76561198093519137,"connected_time":5615000000000,"state":"active","ping":90},{"user_id":403,"name":"johnnytoiletseat39","steam_id":76561199473132988,"connected_time":4468000000000,"state":"active","ping":80},{"user_id":452,"name":"Eraser cat","steam_id":76561199045570463,"connected_time":772000000000,"state":"active","ping":47},{"user_id":416,"name":"tokemaster69","steam_id":76561198083996924,"connected_time":3343000000000,"state":"active","ping":92},{"user_id":453,"name":"mub","steam_id":76561197961943948,"connected_time":746000000000,"state":"active","ping":48},{"user_id":441,"name":"Frogzilla","steam_id":76561198077657538,"connected_time":1590000000000,"state":"active","ping":79},{"user_id":450,"name":"Wandows95","steam_id":76561198029042032,"connected_time":1009000000000,"state":"active","ping":77},{"user_id":439,"name":"Mustachacre","steam_id":76561198056309992,"connected_time":1693000000000,"state":"active","ping":54},{"user_id":440,"name":"Bot Maxwell","steam_id":76561198040781615,"connected_time":1672000000000,"state":"active","ping":45},{"user_id":455,"name":"Nevercity","steam_id":76561198057689285,"connected_time":549000000000,"state":"active","ping":187},{"user_id":451,"name":"chinese speaking frog","steam_id":76561198253134732,"connected_time":984000000000,"state":"active","ping":102},{"user_id":443,"name":"Ekuseebia","steam_id":76561198037504112,"connected_time":1392000000000,"state":"active","ping":83}]},{"server_id":406,"name":"Uncletopia | Seattle | 3 | Stopwatch Beta","name_short":"sea-3","host":"sea-1.us.uncletopia.com","port":27035,"enabled":true,"region":"us-west","cc":"us","latitude":47.608013,"longitude":-122.33517,"reserved":0,"last_update":"0001-01-01T00:00:00Z","name_a2s":"Uncletopia | Seattle | 3 | Stopwatch Beta","protocol":17,"map":"cp_snakewater_final1","folder":"tf","game":"Team Fortress","app_id":440,"player_count":24,"max_players":24,"Bots":0,"server_type":"Dedicated","server_os":"Linux","password":true,"vac":true,"version":"7882260","steam_id":85568392924515217,"keywords":["cp","nocrits","nodmgspread","uncletopia"],"game_id":440,"stv_port":27036,"stv_name":"Uncletopia | Seattle | 3 | Stopwatch Beta | STV","players":[{"user_id":140,"name":"Back to Basics","steam_id":76561198125692166,"connected_time":1698000000000,"state":"active","ping":93},{"user_id":129,"name":"Vardin","steam_id":76561198926151899,"connected_time":2185000000000,"state":"active","ping":46},{"user_id":146,"name":"vioametgsme","steam_id":76561198025295263,"connected_time":1000000000000,"state":"active","ping":117},{"user_id":118,"name":"Professor Chromosomes","steam_id":76561198042020662,"connected_time":2693000000000,"state":"active","ping":137},{"user_id":112,"name":"PinguEnjoyer6","steam_id":76561199186723516,"connected_time":3002000000000,"state":"active","ping":64},{"user_id":151,"name":"Schnoz Gaming","steam_id":76561198246772410,"connected_time":787000000000,"state":"active","ping":80},{"user_id":121,"name":"ArchmageF","steam_id":76561197992246851,"connected_time":2512000000000,"state":"active","ping":59},{"user_id":98,"name":"sex","steam_id":76561198104679689,"connected_time":3390000000000,"state":"active","ping":54},{"user_id":152,"name":"Glitchybot404","steam_id":76561198964222864,"connected_time":487000000000,"state":"active","ping":70},{"user_id":149,"name":"noellehound","steam_id":76561198108844158,"connected_time":873000000000,"state":"active","ping":86},{"user_id":117,"name":"Rickysuper_52","steam_id":76561198067865179,"connected_time":2725000000000,"state":"active","ping":59},{"user_id":154,"name":"CamWtheDestroyer","steam_id":76561198950777742,"connected_time":341000000000,"state":"active","ping":101},{"user_id":115,"name":"dog","steam_id":76561198090737207,"connected_time":2957000000000,"state":"active","ping":45},{"user_id":135,"name":"Bum","steam_id":76561198108372769,"connected_time":2017000000000,"state":"active","ping":60},{"user_id":150,"name":"pirte","steam_id":76561198974258097,"connected_time":832000000000,"state":"active","ping":83},{"user_id":84,"name":"Everlong_23","steam_id":76561198348037881,"connected_time":3692000000000,"state":"active","ping":81},{"user_id":91,"name":"Swag_Master_1999","steam_id":76561198068654268,"connected_time":3585000000000,"state":"active","ping":57},{"user_id":148,"name":"Plinko","steam_id":76561197968530638,"connected_time":971000000000,"state":"active","ping":113},{"user_id":136,"name":"neet","steam_id":76561197968115168,"connected_time":2002000000000,"state":"active","ping":114},{"user_id":153,"name":"choi","steam_id":76561198053669887,"connected_time":486000000000,"state":"active","ping":89},{"user_id":142,"name":"\u003c- FULL OF EVIL","steam_id":76561198798667624,"connected_time":1391000000000,"state":"active","ping":46},{"user_id":143,"name":"VixianUwU","steam_id":76561198948815060,"connected_time":1341000000000,"state":"active","ping":88},{"user_id":144,"name":"Seriously Bruh","steam_id":76561198070408485,"connected_time":1167000000000,"state":"active","ping":49},{"user_id":139,"name":"superlogan","steam_id":76561199483791498,"connected_time":1914000000000,"state":"active","ping":69}]},{"server_id":17,"name":"Uncletopia | San Francisco | 1 | All Maps","name_short":"sfo-1","host":"sfo-1.us.uncletopia.com","port":27015,"enabled":true,"region":"us-west","cc":"us","latitude":37.77397,"longitude":-122.4313,"reserved":0,"last_update":"0001-01-01T00:00:00Z","name_a2s":"Uncletopia | San Francisco | 1 | All Maps","protocol":17,"map":"cp_process_final","folder":"tf","game":"Team Fortress","app_id":440,"player_count":0,"max_players":24,"Bots":0,"server_type":"Dedicated","server_os":"Linux","password":true,"vac":true,"version":"7757534","steam_id":85568392924469999,"keywords":["cp","nocrits","nodmgspread","uncletopia"],"game_id":440,"stv_port":27016,"stv_name":"Uncletopia | San Francisco | 1 | All Maps | STV","players":null},{"server_id":18,"name":"Uncletopia | San Francisco | 2 | All Maps","name_short":"sfo-2","host":"sfo-1.us.uncletopia.com","port":27025,"enabled":true,"region":"us-west","cc":"us","latitude":37.77397,"longitude":-122.4313,"reserved":0,"last_update":"0001-01-01T00:00:00Z","name_a2s":"Uncletopia | San Francisco | 2 | All Maps","protocol":17,"map":"koth_highpass","folder":"tf","game":"Team Fortress","app_id":440,"player_count":0,"max_players":24,"Bots":0,"server_type":"Dedicated","server_os":"Linux","password":true,"vac":true,"version":"7757534","steam_id":85568392924470000,"keywords":["cp","nocrits","nodmgspread","uncletopia"],"game_id":440,"stv_port":27026,"stv_name":"Uncletopia | San Francisco | 2 | All Maps | STV","players":null},{"server_id":19,"name":"Uncletopia | San Francisco | 3 | Stopwatch Beta","name_short":"sfo-3","host":"sfo-1.us.uncletopia.com","port":27035,"enabled":true,"region":"us-west","cc":"us","latitude":37.77397,"longitude":-122.4313,"reserved":0,"last_update":"0001-01-01T00:00:00Z","name_a2s":"Uncletopia | San Francisco | 3 | Stopwatch Beta","protocol":17,"map":"koth_lakeside_final","folder":"tf","game":"Team Fortress","app_id":440,"player_count":0,"max_players":24,"Bots":0,"server_type":"Dedicated","server_os":"Linux","password":true,"vac":true,"version":"7757534","steam_id":85568392924742824,"keywords":["cp","nocrits","nodmgspread","uncletopia"],"game_id":440,"stv_port":27036,"stv_name":"Uncletopia | San Francisco | 3 | Stopwatch Beta | STV","players":null},{"server_id":20,"name":"Uncletopia | San Francisco | 4 | Community","name_short":"sfo-4","host":"sfo-1.us.uncletopia.com","port":27045,"enabled":true,"region":"us-west","cc":"us","latitude":37.77397,"longitude":-122.4313,"reserved":0,"last_update":"0001-01-01T00:00:00Z","name_a2s":"Uncletopia | San Francisco | 4 | Community","protocol":17,"map":"cp_altitude","folder":"tf","game":"Team Fortress","app_id":440,"player_count":0,"max_players":24,"Bots":0,"server_type":"Dedicated","server_os":"Linux","password":true,"vac":true,"version":"7757534","steam_id":85568392924742826,"keywords":["cp","nocrits","nodmgspread","uncletopia"],"game_id":440,"stv_port":27046,"stv_name":"Uncletopia | San Francisco | 4 | Community | STV","players":null},{"server_id":141,"name":"Uncletopia | Sydney | 1 | All Maps","name_short":"syd-1","host":"syd-1.au.uncletopia.com","port":27015,"enabled":true,"region":"au","cc":"au","latitude":-33.865143,"longitude":151.2099,"reserved":0,"last_update":"0001-01-01T00:00:00Z","name_a2s":"Uncletopia | Sydney | 1 | All Maps","protocol":17,"map":"cp_dustbowl","folder":"tf","game":"Team Fortress","app_id":440,"player_count":21,"max_players":24,"Bots":0,"server_type":"Dedicated","server_os":"Linux","password":true,"vac":true,"version":"7882260","steam_id":85568392924470001,"keywords":["cp","nocrits","nodmgspread","uncletopia"],"game_id":440,"stv_port":27016,"stv_name":"Uncletopia | Sydney | 1 | All Maps | STV","players":[{"user_id":100,"name":"goob","steam_id":76561199480479443,"connected_time":790000000000,"state":"active","ping":87},{"user_id":102,"name":"IZ*","steam_id":76561198834621927,"connected_time":388000000000,"state":"active","ping":156},{"user_id":76,"name":"WussPoppinJimbo","steam_id":76561199111828033,"connected_time":2168000000000,"state":"active","ping":134},{"user_id":17,"name":"BloxWich","steam_id":76561198120361288,"connected_time":5658000000000,"state":"active","ping":54},{"user_id":96,"name":"uwotm8","steam_id":76561198152215695,"connected_time":1064000000000,"state":"active","ping":70},{"user_id":81,"name":"Bamooxa","steam_id":76561198067160709,"connected_time":1962000000000,"state":"active","ping":76},{"user_id":30,"name":"Psalm 118:10-17","steam_id":76561198305904806,"connected_time":4507000000000,"state":"active","ping":56},{"user_id":105,"name":"OMW to pyro","steam_id":76561199417300659,"connected_time":57000000000,"state":"active","ping":59},{"user_id":82,"name":"Rizeo","steam_id":76561198147901488,"connected_time":1785000000000,"state":"active","ping":59},{"user_id":69,"name":"thrax","steam_id":76561197992385270,"connected_time":2781000000000,"state":"active","ping":51},{"user_id":68,"name":"Kremmen","steam_id":76561198051368641,"connected_time":2933000000000,"state":"active","ping":61},{"user_id":94,"name":"TheCloraxLorax","steam_id":76561198061344330,"connected_time":1322000000000,"state":"active","ping":60},{"user_id":66,"name":"Creamy Gusset","steam_id":76561198001544539,"connected_time":3040000000000,"state":"active","ping":53},{"user_id":97,"name":"f2p","steam_id":76561198288113974,"connected_time":988000000000,"state":"active","ping":53},{"user_id":103,"name":"helton1 #RemoveCrossbow","steam_id":76561198841855657,"connected_time":381000000000,"state":"active","ping":53},{"user_id":101,"name":"veteran","steam_id":76561199457046392,"connected_time":549000000000,"state":"active","ping":80},{"user_id":70,"name":"Zeppy","steam_id":76561198074766231,"connected_time":2747000000000,"state":"active","ping":70},{"user_id":60,"name":"beamerfork","steam_id":76561199013115354,"connected_time":3514000000000,"state":"active","ping":84},{"user_id":56,"name":"Crimson Aurora","steam_id":76561198157492747,"connected_time":3664000000000,"state":"active","ping":111},{"user_id":88,"name":"lavanderpumpernickle","steam_id":76561199093611800,"connected_time":1642000000000,"state":"active","ping":72},{"user_id":93,"name":"Owlenstein‚Ñ¢","steam_id":76561198093983826,"connected_time":1403000000000,"state":"active","ping":132}]},{"server_id":123,"name":"Uncletopia | Sydney | 2 | All Maps","name_short":"syd-2","host":"syd-1.au.uncletopia.com","port":27025,"enabled":true,"region":"au","cc":"au","latitude":-33.865143,"longitude":151.2099,"reserved":0,"last_update":"0001-01-01T00:00:00Z","name_a2s":"Uncletopia | Sydney | 2 | All Maps","protocol":17,"map":"pl_upward","folder":"tf","game":"Team Fortress","app_id":440,"player_count":17,"max_players":24,"Bots":0,"server_type":"Dedicated","server_os":"Linux","password":true,"vac":true,"version":"7882260","steam_id":85568392924470002,"keywords":["nocrits","nodmgspread","payload","uncletopia"],"game_id":440,"stv_port":27026,"stv_name":"Uncletopia | Sydney | 2 | All Maps | STV","players":[{"user_id":8,"name":"STUM","steam_id":76561198169226621,"connected_time":2820000000000,"state":"active","ping":96},{"user_id":9,"name":"MikkyD","steam_id":76561198043452962,"connected_time":2760000000000,"state":"active","ping":62},{"user_id":33,"name":"weezer","steam_id":76561199439508788,"connected_time":32000000000,"state":"active","ping":64},{"user_id":25,"name":"Charikarp","steam_id":76561198132766743,"connected_time":474000000000,"state":"active","ping":84},{"user_id":12,"name":"Racc-Off","steam_id":76561198401371450,"connected_time":2666000000000,"state":"active","ping":67},{"user_id":16,"name":"Lord Oink","steam_id":76561198125237921,"connected_time":1526000000000,"state":"active","ping":39},{"user_id":17,"name":"nuts ack","steam_id":76561198027417343,"connected_time":1165000000000,"state":"active","ping":68},{"user_id":26,"name":"Rexas Ted","steam_id":76561198848660828,"connected_time":455000000000,"state":"active","ping":106},{"user_id":19,"name":"Bea","steam_id":76561198077669412,"connected_time":1056000000000,"state":"active","ping":73},{"user_id":20,"name":"bird up","steam_id":76561198347964028,"connected_time":906000000000,"state":"active","ping":39},{"user_id":22,"name":"Mikey","steam_id":76561198438203131,"connected_time":821000000000,"state":"active","ping":61},{"user_id":23,"name":"chimney","steam_id":76561198808724546,"connected_time":770000000000,"state":"active","ping":62},{"user_id":24,"name":"N9-Relz #4rwaste","steam_id":76561197972786509,"connected_time":544000000000,"state":"active","ping":76},{"user_id":27,"name":"xX_PURPLE_ENGI_Xx","steam_id":76561199222567706,"connected_time":451000000000,"state":"active","ping":148},{"user_id":31,"name":"Angelina Jolies Petroleum Jelly","steam_id":76561198301282416,"connected_time":187000000000,"state":"active","ping":54},{"user_id":29,"name":"wlfgrl","steam_id":76561199082845518,"connected_time":367000000000,"state":"active","ping":58},{"user_id":32,"name":"perturb (feed/seed)","steam_id":76561198085124297,"connected_time":167000000000,"state":"active","ping":45}]},{"server_id":395,"name":"Uncletopia | Sydney | 3 | All Maps","name_short":"syd-3","host":"syd-1.au.uncletopia.com","port":27035,"enabled":true,"region":"au","cc":"au","latitude":-33.865143,"longitude":151.2099,"reserved":0,"last_update":"0001-01-01T00:00:00Z","name_a2s":"Uncletopia | Sydney | 3 | All Maps","protocol":17,"map":"koth_cascade","folder":"tf","game":"Team Fortress","app_id":440,"player_count":0,"max_players":24,"Bots":0,"server_type":"Dedicated","server_os":"Linux","password":true,"vac":true,"version":"7882260","steam_id":85568392925194467,"keywords":["cp","nocrits","nodmgspread","uncletopia"],"game_id":440,"stv_port":27036,"stv_name":"Uncletopia | Sydney | 3 | All Maps | STV","players":null},{"server_id":396,"name":"Uncletopia | Sydney | 4 | All Maps","name_short":"syd-4","host":"syd-1.au.uncletopia.com","port":27045,"enabled":true,"region":"au","cc":"au","latitude":-33.865143,"longitude":151.2099,"reserved":0,"last_update":"0001-01-01T00:00:00Z","name_a2s":"Uncletopia | Sydney | 4 | All Maps","protocol":17,"map":"pl_frontier_final","folder":"tf","game":"Team Fortress","app_id":440,"player_count":2,"max_players":24,"Bots":0,"server_type":"Dedicated","server_os":"Linux","password":true,"vac":true,"version":"7882260","steam_id":85568392925397958,"keywords":["nocrits","nodmgspread","payload","uncletopia"],"game_id":440,"stv_port":27046,"stv_name":"Uncletopia | Sydney | 4 | All Maps | STV","players":[{"user_id":8,"name":"alexandermyers171","steam_id":76561199076897356,"connected_time":473000000000,"state":"active","ping":250},{"user_id":9,"name":"yellow spy","steam_id":76561199128050459,"connected_time":406000000000,"state":"active","ping":258}]},{"server_id":58,"name":"Uncletopia | Sydney | 5 | Stopwatch Beta","name_short":"syd-5","host":"syd-1.au.uncletopia.com","port":27055,"enabled":true,"region":"au","cc":"au","latitude":-33.865143,"longitude":151.2099,"reserved":0,"last_update":"0001-01-01T00:00:00Z","name_a2s":"Uncletopia | Sydney | 5 | Stopwatch Beta","protocol":17,"map":"cp_snakewater_final1","folder":"tf","game":"Team Fortress","app_id":440,"player_count":0,"max_players":24,"Bots":0,"server_type":"Dedicated","server_os":"Linux","password":true,"vac":true,"version":"7882260","steam_id":85568392925397959,"keywords":["cp","nocrits","nodmgspread","uncletopia"],"game_id":440,"stv_port":27056,"stv_name":"Uncletopia | Sydney | 5 | Stopwatch Beta | STV","players":null},{"server_id":59,"name":"Uncletopia | Sydney | 6 | Community","name_short":"syd-6","host":"syd-1.au.uncletopia.com","port":27065,"enabled":true,"region":"au","cc":"au","latitude":-33.865143,"longitude":151.2099,"reserved":0,"last_update":"0001-01-01T00:00:00Z","name_a2s":"Uncletopia | Sydney | 6 | Community","protocol":17,"map":"workshop/cp_indulge.ugc528106646","folder":"tf","game":"Team Fortress","app_id":440,"player_count":0,"max_players":24,"Bots":0,"server_type":"Dedicated","server_os":"Linux","password":true,"vac":true,"version":"7882260","steam_id":85568392925397960,"keywords":["cp","nocrits","nodmgspread","uncletopia"],"game_id":440,"stv_port":27066,"stv_name":"Uncletopia | Sydney | 6 | Community | STV","players":null},{"server_id":49,"name":"Uncletopia | Warsaw | 1 | All Maps","name_short":"waw-1","host":"waw-1.pl.uncletopia.com","port":27015,"enabled":true,"region":"eu","cc":"pl","latitude":52.2297,"longitude":21.017532,"reserved":0,"last_update":"0001-01-01T00:00:00Z","name_a2s":"","protocol":0,"map":"","folder":"","game":"","app_id":0,"player_count":0,"max_players":0,"Bots":0,"server_type":"","server_os":"","password":false,"vac":false,"version":"","steam_id":0,"keywords":null,"game_id":0,"stv_port":0,"stv_name":"","players":null},{"server_id":50,"name":"Uncletopia | Warsaw | 2 | All Maps","name_short":"waw-2","host":"waw-1.pl.uncletopia.com","port":27025,"enabled":true,"region":"eu","cc":"pl","latitude":52.2297,"longitude":21.017532,"reserved":0,"last_update":"0001-01-01T00:00:00Z","name_a2s":"Uncletopia | Warsaw | 2 | All Maps","protocol":17,"map":"koth_cascade","folder":"tf","game":"Team Fortress","app_id":440,"player_count":0,"max_players":24,"Bots":0,"server_type":"Dedicated","server_os":"Linux","password":true,"vac":true,"version":"7882260","steam_id":85568392925397851,"keywords":["cp","nocrits","nodmgspread","uncletopia"],"game_id":440,"stv_port":27026,"stv_name":"Uncletopia | Warsaw | 2 | All Maps | STV","players":null},{"server_id":51,"name":"Uncletopia | Warsaw | 3 | All Maps","name_short":"waw-3","host":"waw-1.pl.uncletopia.com","port":27035,"enabled":true,"region":"eu","cc":"pl","latitude":52.2297,"longitude":21.017532,"reserved":0,"last_update":"0001-01-01T00:00:00Z","name_a2s":"Uncletopia | Warsaw | 3 | All Maps","protocol":17,"map":"pl_frontier_final","folder":"tf","game":"Team Fortress","app_id":440,"player_count":0,"max_players":24,"Bots":0,"server_type":"Dedicated","server_os":"Linux","password":true,"vac":true,"version":"7882260","steam_id":85568392925397852,"keywords":["nocrits","nodmgspread","payload","uncletopia"],"game_id":440,"stv_port":27036,"stv_name":"Uncletopia | Warsaw | 3 | All Maps | STV","players":null},{"server_id":52,"name":"Uncletopia | Warsaw | 4 | All Maps","name_short":"waw-4","host":"waw-1.pl.uncletopia.com","port":27045,"enabled":true,"region":"eu","cc":"pl","latitude":52.2297,"longitude":21.017532,"reserved":0,"last_update":"0001-01-01T00:00:00Z","name_a2s":"Uncletopia | Warsaw | 4 | All Maps","protocol":17,"map":"pl_frontier_final","folder":"tf","game":"Team Fortress","app_id":440,"player_count":0,"max_players":24,"Bots":0,"server_type":"Dedicated","server_os":"Linux","password":true,"vac":true,"version":"7882260","steam_id":85568392925397853,"keywords":["nocrits","nodmgspread","payload","uncletopia"],"game_id":440,"stv_port":27046,"stv_name":"Uncletopia | Warsaw | 4 | All Maps | STV","players":null},{"server_id":53,"name":"Uncletopia | Warsaw | 5 | Stopwatch Beta","name_short":"waw-5","host":"waw-1.pl.uncletopia.com","port":27055,"enabled":true,"region":"eu","cc":"pl","latitude":52.2297,"longitude":21.017532,"reserved":0,"last_update":"0001-01-01T00:00:00Z","name_a2s":"Uncletopia | Warsaw | 5 | Stopwatch Beta","protocol":17,"map":"workshop/koth_bagel_rc6.ugc2514036946","folder":"tf","game":"Team Fortress","app_id":440,"player_count":0,"max_players":24,"Bots":0,"server_type":"Dedicated","server_os":"Linux","password":true,"vac":true,"version":"7882260","steam_id":85568392925397854,"keywords":["cp","nocrits","nodmgspread","uncletopia"],"game_id":440,"stv_port":27056,"stv_name":"Uncletopia | Warsaw | 5 | Stopwatch Beta | STV","players":null},{"server_id":54,"name":"Uncletopia | Warsaw | 6 | Community","name_short":"waw-6","host":"waw-1.pl.uncletopia.com","port":27065,"enabled":true,"region":"eu","cc":"pl","latitude":52.2297,"longitude":21.017532,"reserved":0,"last_update":"0001-01-01T00:00:00Z","name_a2s":"Uncletopia | Warsaw | 6 | Community","protocol":17,"map":"workshop/koth_bagel_rc6.ugc2514036946","folder":"tf","game":"Team Fortress","app_id":440,"player_count":0,"max_players":24,"Bots":0,"server_type":"Dedicated","server_os":"Linux","password":true,"vac":true,"version":"7882260","steam_id":85568392925397856,"keywords":["cp","nocrits","nodmgspread","uncletopia"],"game_id":440,"stv_port":27066,"stv_name":"Uncletopia | Warsaw | 6 | Community | STV","players":null}]}