{"status":true,"message":"","result":[{"server_id":9,"name":"Uncletopia | Atlanta | 1 | All Maps","name_short":"atl-1","host":"atl-1.us.uncletopia.com","port":27015,"enabled":true,"region":"us-east","cc":"us","latitude":33.753746,"longitude":-84.38633,"reserved":0,"last_update":"0001-01-01T00:00:00Z","name_a2s":"Uncletopia | Atlanta | 1 | All Maps","protocol":17,"map":"pl_barnblitz","folder":"tf","game":"Team Fortress","app_id":440,"player_count":9,"max_players":24,"Bots":0,"server_type":"Dedicated","server_os":"Linux","password":true,"vac":true,"version":"7961495","steam_id":85568392924469982,"keywords":["nocrits","nodmgspread","payload","uncletopia"],"game_id":440,"stv_port":27016,"stv_name":"Uncletopia | Atlanta | 1 | All Maps | STV","players":null},{"server_id":104,"name":"Uncletopia | Atlanta | 2 | All Maps","name_short":"atl-2","host":"atl-1.us.uncletopia.com","port":27025,"enabled":true,"region":"us-east","cc":"us","latitude":33.753746,"longitude":-84.38633,"reserved":0,"last_update":"0001-01-01T00:00:00Z","name_a2s":"","protocol":0,"map":"","folder":"","game":"","app_id":0,"player_count":0,"max_players":0,"Bots":0,"server_type":"","server_os":"","password":false,"vac":false,"version":"","steam_id":0,"keywords":null,"game_id":0,"stv_port":0,"stv_name":"","players":null},{"server_id":400,"name":"Uncletopia | Atlanta | 3 | All Maps","name_short":"atl-3","host":"atl-1.us.uncletopia.com","port":27035,"enabled":true,"region":"us-east","cc":"us","latitude":33.753746,"longitude":-84.38633,"reserved":0,"last_update":"0001-01-01T00:00:00Z","name_a2s":"","protocol":0,"map":"","folder":"","game":"","app_id":0,"player_count":0,"max_players":0,"Bots":0,"server_type":"","server_os":"","password":false,"vac":false,"version":"","steam_id":0,"keywords":null,"game_id":0,"stv_port":0,"stv_name":"","players":null},{"server_id":401,"name":"Uncletopia | Atlanta | 4 | Community","name_short":"atl-4","host":"atl-1.us.uncletopia.com","port":27045,"enabled":true,"region":"us-east","cc":"us","latitude":33.753746,"longitude":-84.38633,"reserved":0,"last_update":"0001-01-01T00:00:00Z","name_a2s":"","protocol":0,"map":"","folder":"","game":"","app_id":0,"player_count":0,"max_players":0,"Bots":0,"server_type":"","server_os":"","password":false,"vac":false,"version":"","steam_id":0,"keywords":null,"game_id":0,"stv_port":0,"stv_name":"","players":null},{"server_id":2,"name":"Uncletopia | Chicago | 1 | All Maps","name_short":"chi-1","host":"chi-1.us.uncletopia.com","port":27015,"enabled":true,"region":"us-central","cc":"us","latitude":41.881832,"longitude":-87.62318,"reserved":0,"last_update":"0001-01-01T00:00:00Z","name_a2s":"Uncletopia | Chicago | 1 | All Maps","protocol":17,"map":"pl_upward","folder":"tf","game":"Team Fortress","app_id":440,"player_count":3,"max_players":24,"Bots":0,"server_type":"Dedicated","server_os":"Linux","password":true,"vac":true,"version":"7961495","steam_id":85568392924469984,"keywords":["nocrits","nodmgspread","payload","uncletopia"],"game_id":440,"stv_port":27016,"stv_name":"Uncletopia | Chicago | 1 | All Maps | STV","players":[{"user_id":724,"name":"WovenGnat723992","steam_id":76561199236974259,"connected_time":540000000000,"state":"active","ping":68},{"user_id":722,"name":"TriggyDiggy","steam_id":76561198364366159,"connected_time":844000000000,"state":"active","ping":46},{"user_id":723,"name":"La.Z.yTurtle","steam_id":76561198095712651,"connected_time":800000000000,"state":"active","ping":71}]},{"server_id":106,"name":"Uncletopia | Chicago | 2 | All Maps","name_short":"chi-2","host":"chi-1.us.uncletopia.com","port":27025,"enabled":true,"region":"us-central","cc":"us","latitude":41.881832,"longitude":-87.62318,"reserved":0,"last_update":"0001-01-01T00:00:00Z","name_a2s":"Uncletopia | Chicago | 2 | All Maps","protocol":17,"map":"cp_sunshine","folder":"tf","game":"Team Fortress","app_id":440,"player_count":0,"max_players":24,"Bots":0,"server_type":"Dedicated","server_os":"Linux","password":true,"vac":true,"version":"7961495","steam_id":85568392924469985,"keywords":["cp","nocrits","nodmgspread","uncletopia"],"game_id":440,"stv_port":27026,"stv_name":"Uncletopia | Chicago | 2 | All Maps | STV","players":null},{"server_id":402,"name":"Uncletopia | Chicago | 3 | All Maps","name_short":"chi-3","host":"chi-1.us.uncletopia.com","port":27035,"enabled":true,"region":"us-central","cc":"us","latitude":41.881832,"longitude":-87.62318,"reserved":0,"last_update":"0001-01-01T00:00:00Z","name_a2s":"Uncletopia | Chicago | 3 | All Maps","protocol":17,"map":"koth_cascade","folder":"tf","game":"Team Fortress","app_id":440,"player_count":0,"max_players":24,"Bots":0,"server_type":"Dedicated","server_os":"Linux","password":true,"vac":true,"version":"7961495","steam_id":85568392924515191,"keywords":["cp","nocrits","nodmgspread","uncletopia"],"game_id":440,"stv_port":27036,"stv_name":"Uncletopia | Chicago | 3 | All Maps | STV","players":null},{"server_id":403,"name":"Uncletopia | Chicago | 4 | All Maps","name_short":"chi-4","host":"chi-1.us.uncletopia.com","port":27045,"enabled":true,"region":"us-central","cc":"us","latitude":41.881832,"longitude":-87.62318,"reserved":0,"last_update":"0001-01-01T00:00:00Z","name_a2s":"Uncletopia | Chicago | 4 | All Maps","protocol":17,"map":"koth_viaduct","folder":"tf","game":"Team Fortress","app_id":440,"player_count":0,"max_players":24,"Bots":0,"server_type":"Dedicated","server_os":"Linux","password":true,"vac":true,"version":"7961495","steam_id":85568392924515193,"keywords":["cp","nocrits","nodmgspread","uncletopia"],"game_id":440,"stv_port":27046,"stv_name":"Uncletopia | Chicago | 4 | All Maps | STV","players":null},{"server_id":36,"name":"Uncletopia | Chicago | 5 | All Maps","name_short":"chi-5","host":"chi-2.us.uncletopia.com","port":27015,"enabled":true,"region":"us-central","cc":"us","latitude":41.881832,"longitude":-87.62318,"reserved":0,"last_update":"0001-01-01T00:00:00Z","name_a2s":"Uncletopia | Chicago | 5 | All Maps","protocol":17,"map":"pl_borneo","folder":"tf","game":"Team Fortress","app_id":440,"player_count":24,"max_players":24,"Bots":0,"server_type":"Dedicated","server_os":"Linux","password":true,"vac":true,"version":"7961495","steam_id":85568392924866362,"keywords":["nocrits","nodmgspread","payload","uncletopia"],"game_id":440,"stv_port":27016,"stv_name":"Uncletopia | Chicago | 5 | All Maps | STV","players":[{"user_id":448,"name":"Stranger in a Strange Land","steam_id":76561198049843671,"connected_time":5004000000000,"state":"active","ping":57},{"user_id":501,"name":"Super Ghostbusters (Full Album)","steam_id":76561198057415490,"connected_time":1230000000000,"state":"active","ping":52},{"user_id":521,"name":"OrangeYoshi","steam_id":76561198086959951,"connected_time":83000000000,"state":"active","ping":67},{"user_id":502,"name":"buckydargon","steam_id":76561197991480502,"connected_time":1105000000000,"state":"active","ping":87},{"user_id":480,"name":"Red Metal","steam_id":76561198362722560,"connected_time":3128000000000,"state":"active","ping":81},{"user_id":518,"name":"d1NeRo","steam_id":76561198295578318,"connected_time":405000000000,"state":"active","ping":90},{"user_id":506,"name":"TJGSASQUATCH","steam_id":76561198077806921,"connected_time":1002000000000,"state":"active","ping":87},{"user_id":522,"name":"tobrehto","steam_id":76561198097544038,"connected_time":48000000000,"state":"active","ping":92},{"user_id":504,"name":"alolan duntski","steam_id":76561198038826744,"connected_time":1041000000000,"state":"active","ping":60},{"user_id":508,"name":"poopshitter9000","steam_id":76561198074624639,"connected_time":986000000000,"state":"active","ping":60},{"user_id":519,"name":"tlmKillah789","steam_id":76561198180890982,"connected_time":336000000000,"state":"active","ping":76},{"user_id":494,"name":"Nephew Lyle","steam_id":76561198398918486,"connected_time":1999000000000,"state":"active","ping":68},{"user_id":507,"name":"Number K","steam_id":76561199030987614,"connected_time":1000000000000,"state":"active","ping":72},{"user_id":509,"name":"josh","steam_id":76561198077902438,"connected_time":967000000000,"state":"active","ping":75},{"user_id":510,"name":"TheSnipersHat","steam_id":76561198057684066,"connected_time":882000000000,"state":"active","ping":53},{"user_id":520,"name":"TIME TO GO DERP MODE","steam_id":76561198097588802,"connected_time":209000000000,"state":"active","ping":44},{"user_id":511,"name":"cass","steam_id":76561198074502046,"connected_time":879000000000,"state":"active","ping":94},{"user_id":512,"name":"atlas","steam_id":76561198398383076,"connected_time":855000000000,"state":"active","ping":82},{"user_id":478,"name":"scooterre","steam_id":76561198055068182,"connected_time":3237000000000,"state":"active","ping":56},{"user_id":513,"name":"TTV Hunter","steam_id":76561198115812405,"connected_time":846000000000,"state":"active","ping":76},{"user_id":524,"name":"Paradox","steam_id":76561198284164847,"connected_time":44000000000,"state":"active","ping":72},{"user_id":514,"name":"[ᎴᏋᏋᎮ] Danmar33","steam_id":76561198056453091,"connected_time":750000000000,"state":"active","ping":46},{"user_id":525,"name":"Karabang","steam_id":76561198181143029,"connected_time":21000000000,"state":"spawning","ping":72},{"user_id":463,"name":"stao","steam_id":76561198110348558,"connected_time":4389000000000,"state":"active","ping":77}]},{"server_id":37,"name":"Uncletopia | Chicago | 6 | All Maps","name_short":"chi-6","host":"chi-2.us.uncletopia.com","port":27025,"enabled":true,"region":"us-central","cc":"us","latitude":41.881832,"longitude":-87.62318,"reserved":0,"last_update":"0001-01-01T00:00:00Z","name_a2s":"Uncletopia | Chicago | 6 | All Maps","protocol":17,"map":"pl_barnblitz","folder":"tf","game":"Team Fortress","app_id":440,"player_count":24,"max_players":24,"Bots":0,"server_type":"Dedicated","server_os":"Linux","password":true,"vac":true,"version":"7961495","steam_id":85568392924866363,"keywords":["nocrits","nodmgspread","payload","uncletopia"],"game_id":440,"stv_port":27026,"stv_name":"Uncletopia | Chicago | 6 | All Maps | STV","players":[{"user_id":415,"name":"*","steam_id":76561198173047169,"connected_time":212000000000,"state":"active","ping":59},{"user_id":410,"name":"Bunlo","steam_id":76561198300702210,"connected_time":923000000000,"state":"active","ping":162},{"user_id":392,"name":"f","steam_id":76561198215559840,"connected_time":1936000000000,"state":"active","ping":67},{"user_id":347,"name":"Strange Festive Femboy","steam_id":76561198050385093,"connected_time":5819000000000,"state":"active","ping":84},{"user_id":318,"name":"wakeupbdot","steam_id":76561198160786631,"connected_time":8097000000000,"state":"active","ping":68},{"user_id":377,"name":"C Papi","steam_id":76561198027779564,"connected_time":4062000000000,"state":"active","ping":57},{"user_id":282,"name":"Hipkid81","steam_id":76561198209679029,"connected_time":11516000000000,"state":"active","ping":89},{"user_id":413,"name":"lcd soundsystem","steam_id":76561198207881077,"connected_time":248000000000,"state":"active","ping":82},{"user_id":351,"name":"WitheringLeo","steam_id":76561198046722918,"connected_time":5654000000000,"state":"active","ping":90},{"user_id":405,"name":"grug cake","steam_id":76561198120973162,"connected_time":1352000000000,"state":"active","ping":73},{"user_id":408,"name":"vulcan nightclub pon farr night","steam_id":76561197974283797,"connected_time":960000000000,"state":"active","ping":45},{"user_id":355,"name":"Walfools","steam_id":76561198798909928,"connected_time":5335000000000,"state":"active","ping":49},{"user_id":382,"name":"Spare(8)Ball","steam_id":76561197982432995,"connected_time":3705000000000,"state":"active","ping":102},{"user_id":394,"name":"rontu","steam_id":76561199072955534,"connected_time":1898000000000,"state":"active","ping":50},{"user_id":418,"name":"Mongolito","steam_id":76561198204388417,"connected_time":144000000000,"state":"active","ping":95},{"user_id":416,"name":"BuncusBeffer","steam_id":76561198285936616,"connected_time":199000000000,"state":"active","ping":102},{"user_id":402,"name":"Xyverle","steam_id":76561198799726415,"connected_time":1492000000000,"state":"active","ping":56},{"user_id":417,"name":"elliott9980","steam_id":76561198131313601,"connected_time":154000000000,"state":"active","ping":108},{"user_id":419,"name":"30 Curry","steam_id":76561197970747655,"connected_time":101000000000,"state":"active","ping":107},{"user_id":409,"name":"Jae","steam_id":76561198060026844,"connected_time":958000000000,"state":"active","ping":71},{"user_id":391,"name":"George","steam_id":76561198047994501,"connected_time":2186000000000,"state":"active","ping":60},{"user_id":411,"name":"Jezzus","steam_id":76561199289676387,"connected_time":910000000000,"state":"active","ping":94},{"user_id":420,"name":"kiv","steam_id":76561198838223023,"connected_time":27000000000,"state":"active","ping":58},{"user_id":370,"name":"eat Pant","steam_id":76561197974965536,"connected_time":4384000000000,"state":"active","ping":64}]},{"server_id":38,"name":"Uncletopia | Chicago | 7 | Stopwatch Beta","name_short":"chi-7","host":"chi-2.us.uncletopia.com","port":27035,"enabled":true,"region":"us-central","cc":"us","latitude":41.881832,"longitude":-87.62318,"reserved":0,"last_update":"0001-01-01T00:00:00Z","name_a2s":"Uncletopia | Chicago | 7 | Stopwatch Beta","protocol":17,"map":"pl_badwater","folder":"tf","game":"Team Fortress","app_id":440,"player_count":0,"max_players":24,"Bots":0,"server_type":"Dedicated","server_os":"Linux","password":true,"vac":true,"version":"7961495","steam_id":85568392924866364,"keywords":["nocrits","nodmgspread","payload","uncletopia"],"game_id":440,"stv_port":27036,"stv_name":"Uncletopia | Chicago | 7 | Stopwatch Beta | STV","players":null},{"server_id":39,"name":"Uncletopia | Chicago | 8 | Community","name_short":"chi-8","host":"chi-2.us.uncletopia.com","port":27045,"enabled":true,"region":"us-central","cc":"us","latitude":41.881832,"longitude":-87.62318,"reserved":0,"last_update":"0001-01-01T00:00:00Z","name_a2s":"Uncletopia | Chicago | 8 | Community","protocol":17,"map":"workshop/cp_snowbase_b18.ugc2081770490","folder":"tf","game":"Team Fortress","app_id":440,"player_count":0,"max_players":24,"Bots":0,"server_type":"Dedicated","server_os":"Linux","password":true,"vac":true,"version":"7961495","steam_id":85568392924866365,"keywords":["cp","nocrits","nodmgspread","uncletopia"],"game_id":440,"stv_port":27046,"stv_name":"Uncletopia | Chicago | 8 | Community | STV","players":null},{"server_id":8,"name":"Uncletopia | Dallas | 1 | All Maps","name_short":"dal-1","host":"dal-1.us.uncletopia.com","port":27015,"enabled":true,"region":"us-central","cc":"us","latitude":32.779167,"longitude":-96.80889,"reserved":0,"last_update":"0001-01-01T00:00:00Z","name_a2s":"Uncletopia | Dallas | 1 | All Maps","protocol":17,"map":"pl_hoodoo_final","folder":"tf","game":"Team Fortress","app_id":440,"player_count":24,"max_players":24,"Bots":0,"server_type":"Dedicated","server_os":"Linux","password":true,"vac":true,"version":"7961495","steam_id":85568392924469986,"keywords":["nocrits","nodmgspread","payload","uncletopia"],"game_id":440,"stv_port":27016,"stv_name":"Uncletopia | Dallas | 1 | All Maps | STV","players":[{"user_id":516,"name":"denzell05","steam_id":76561198086987061,"connected_time":3709000000000,"state":"active","ping":86},{"user_id":477,"name":"McCanny","steam_id":76561198324340383,"connected_time":6477000000000,"state":"active","ping":129},{"user_id":555,"name":"☂Bliffenstimmers☂","steam_id":76561198059984896,"connected_time":1280000000000,"state":"active","ping":61},{"user_id":554,"name":"IZISOO","steam_id":76561198970380577,"connected_time":1292000000000,"state":"active","ping":73},{"user_id":529,"name":"Fightin Cow","steam_id":76561198080941486,"connected_time":3210000000000,"state":"active","ping":58},{"user_id":546,"name":"An Unhappy Clown","steam_id":76561198175516514,"connected_time":1559000000000,"state":"active","ping":46},{"user_id":559,"name":"Toast","steam_id":76561198234616616,"connected_time":668000000000,"state":"active","ping":82},{"user_id":486,"name":"Charles","steam_id":76561199124935140,"connected_time":5522000000000,"state":"active","ping":63},{"user_id":493,"name":"cringeass nae-nae girl","steam_id":76561198108753857,"connected_time":4807000000000,"state":"active","ping":65},{"user_id":528,"name":"BlancaLamb","steam_id":76561198025646073,"connected_time":3272000000000,"state":"active","ping":77},{"user_id":544,"name":"roast pig with apple in mouth","steam_id":76561198051353647,"connected_time":1889000000000,"state":"active","ping":83},{"user_id":548,"name":"Manchurian Bandit","steam_id":76561198072410042,"connected_time":1487000000000,"state":"active","ping":81},{"user_id":549,"name":"Scoops M'Gooch","steam_id":76561198048423812,"connected_time":1454000000000,"state":"active","ping":93},{"user_id":550,"name":"Ratchet55","steam_id":76561198208655521,"connected_time":1396000000000,"state":"active","ping":109},{"user_id":498,"name":"pimpmykek","steam_id":76561198271911317,"connected_time":4501000000000,"state":"active","ping":117},{"user_id":545,"name":"for the king","steam_id":76561197973488858,"connected_time":1791000000000,"state":"active","ping":75},{"user_id":467,"name":"Greg Boberton 2012","steam_id":76561198983566026,"connected_time":8098000000000,"state":"active","ping":89},{"user_id":556,"name":"Slogly","steam_id":76561198057242179,"connected_time":1247000000000,"state":"active","ping":75},{"user_id":474,"name":"Missing Minus","steam_id":76561198120822928,"connected_time":7077000000000,"state":"active","ping":63},{"user_id":551,"name":"Mythical Lag","steam_id":76561198347031281,"connected_time":1353000000000,"state":"active","ping":64},{"user_id":531,"name":"oak","steam_id":76561198092135570,"connected_time":3170000000000,"state":"active","ping":45},{"user_id":558,"name":"GangstaPuddin","steam_id":76561198045414782,"connected_time":858000000000,"state":"active","ping":77},{"user_id":553,"name":"Loogus","steam_id":76561198811561721,"connected_time":1344000000000,"state":"active","ping":67},{"user_id":541,"name":"GX Icarus the legend","steam_id":76561199013250091,"connected_time":2498000000000,"state":"active","ping":50}]},{"server_id":108,"name":"Uncletopia | Dallas | 2 | All Maps","name_short":"dal-2","host":"dal-1.us.uncletopia.com","port":27025,"enabled":true,"region":"us-central","cc":"us","latitude":32.779167,"longitude":-96.80889,"reserved":0,"last_update":"0001-01-01T00:00:00Z","name_a2s":"Uncletopia | Dallas | 2 | All Maps","protocol":17,"map":"cp_dustbowl","folder":"tf","game":"Team Fortress","app_id":440,"player_count":24,"max_players":24,"Bots":0,"server_type":"Dedicated","server_os":"Linux","password":true,"vac":true,"version":"7961495","steam_id":85568392924469988,"keywords":["cp","nocrits","nodmgspread","uncletopia"],"game_id":440,"stv_port":27026,"stv_name":"Uncletopia | Dallas | 2 | All Maps | STV","players":[{"user_id":445,"name":"Manic","steam_id":76561198128149670,"connected_time":5410000000000,"state":"active","ping":49},{"user_id":498,"name":"LordGandalf23","steam_id":76561198086928298,"connected_time":1697000000000,"state":"active","ping":101},{"user_id":394,"name":"Plains Phoenix","steam_id":76561198817161299,"connected_time":8781000000000,"state":"active","ping":52},{"user_id":483,"name":"C^a^L","steam_id":76561198241124222,"connected_time":2284000000000,"state":"active","ping":85},{"user_id":479,"name":"Legit_Jaxer","steam_id":76561198172234053,"connected_time":2803000000000,"state":"active","ping":108},{"user_id":499,"name":"minecraft","steam_id":76561198104345201,"connected_time":1635000000000,"state":"active","ping":72},{"user_id":481,"name":"Etomb","steam_id":76561198210017208,"connected_time":2315000000000,"state":"active","ping":132},{"user_id":496,"name":"dilfbot","steam_id":76561198099988165,"connected_time":1921000000000,"state":"active","ping":54},{"user_id":484,"name":"SGT Disoriented","steam_id":76561198058177958,"connected_time":2278000000000,"state":"active","ping":59},{"user_id":485,"name":"Clear Sights","steam_id":76561198006215683,"connected_time":2237000000000,"state":"active","ping":89},{"user_id":439,"name":"deb","steam_id":76561198414336279,"connected_time":5735000000000,"state":"active","ping":51},{"user_id":486,"name":"salmon","steam_id":76561198050061475,"connected_time":2222000000000,"state":"active","ping":79},{"user_id":488,"name":"John16Mark","steam_id":76561198119445407,"connected_time":2194000000000,"state":"active","ping":68},{"user_id":489,"name":"Zero","steam_id":76561198033384990,"connected_time":2109000000000,"state":"active","ping":77},{"user_id":454,"name":"Giselle","steam_id":76561198162593640,"connected_time":5219000000000,"state":"active","ping":104},{"user_id":497,"name":"DarkLink909","steam_id":76561198084139172,"connected_time":1803000000000,"state":"active","ping":102},{"user_id":473,"name":"StarManMatt","steam_id":76561198125513574,"connected_time":3529000000000,"state":"active","ping":97},{"user_id":477,"name":"Ruby Gillman (He/Him)","steam_id":76561198366299848,"connected_time":2985000000000,"state":"active","ping":69},{"user_id":478,"name":"Railly","steam_id":76561198357355915,"connected_time":2935000000000,"state":"active","ping":88},{"user_id":476,"name":"the master of cats","steam_id":76561198819255576,"connected_time":2999000000000,"state":"active","ping":72},{"user_id":441,"name":"Belts the Puppet","steam_id":76561198322969864,"connected_time":5708000000000,"state":"active","ping":97},{"user_id":494,"name":"Galactamarx","steam_id":76561198028065755,"connected_time":1946000000000,"state":"active","ping":72},{"user_id":500,"name":"loco503","steam_id":76561198827495121,"connected_time":692000000000,"state":"active","ping":105},{"user_id":491,"name":"HundchenTanque","steam_id":76561198122692754,"connected_time":2095000000000,"state":"active","ping":89}]},{"server_id":404,"name":"Uncletopia | Dallas | 3 | All Maps","name_short":"dal-3","host":"dal-1.us.uncletopia.com","port":27035,"enabled":true,"region":"us-central","cc":"us","latitude":32.779167,"longitude":-96.80889,"reserved":0,"last_update":"0001-01-01T00:00:00Z","name_a2s":"Uncletopia | Dallas | 3 | All Maps","protocol":17,"map":"pl_borneo","folder":"tf","game":"Team Fortress","app_id":440,"player_count":21,"max_players":24,"Bots":0,"server_type":"Dedicated","server_os":"Linux","password":true,"vac":true,"version":"7961495","steam_id":85568392924515219,"keywords":["nocrits","nodmgspread","payload","uncletopia"],"game_id":440,"stv_port":27036,"stv_name":"Uncletopia | Dallas | 3 | All Maps | STV","players":[{"user_id":471,"name":"Snoopy","steam_id":76561198273735974,"connected_time":11564000000000,"state":"active","ping":78},{"user_id":601,"name":"Defragmented","steam_id":76561198854210081,"connected_time":203000000000,"state":"active","ping":56},{"user_id":576,"name":"2002 Toyota Corolla VE","steam_id":76561198149172070,"connected_time":2593000000000,"state":"active","ping":44},{"user_id":583,"name":"roddy ricch - ballin","steam_id":76561198111290441,"connected_time":1679000000000,"state":"active","ping":70},{"user_id":584,"name":"Svepport","steam_id":76561198071373137,"connected_time":1678000000000,"state":"active","ping":57},{"user_id":565,"name":"little_neb","steam_id":76561198117396733,"connected_time":3741000000000,"state":"active","ping":49},{"user_id":585,"name":"Fantastic","steam_id":76561198079088978,"connected_time":1653000000000,"state":"active","ping":62},{"user_id":586,"name":"YeshieSirYesSir","steam_id":76561198080214214,"connected_time":1635000000000,"state":"active","ping":66},{"user_id":602,"name":"Professionally Braindead ツ","steam_id":76561198276714220,"connected_time":30000000000,"state":"active","ping":84},{"user_id":603,"name":"HOG RIDER","steam_id":76561198298589502,"connected_time":29000000000,"state":"active","ping":77},{"user_id":588,"name":"Squishy","steam_id":76561198066798426,"connected_time":1607000000000,"state":"active","ping":73},{"user_id":566,"name":"ropesnek","steam_id":76561198140591498,"connected_time":3725000000000,"state":"active","ping":59},{"user_id":589,"name":"PurplePanda","steam_id":76561198076484653,"connected_time":1580000000000,"state":"active","ping":39},{"user_id":600,"name":"raya","steam_id":76561198051504581,"connected_time":338000000000,"state":"active","ping":45},{"user_id":590,"name":"HK™","steam_id":76561198196793415,"connected_time":1565000000000,"state":"active","ping":90},{"user_id":604,"name":"stall","steam_id":76561199152861652,"connected_time":0,"state":"spawning","ping":43},{"user_id":593,"name":"Harrow41","steam_id":76561198085748198,"connected_time":1237000000000,"state":"active","ping":58},{"user_id":594,"name":"BloopDeKloop","steam_id":76561198416703611,"connected_time":1208000000000,"state":"active","ping":77},{"user_id":595,"name":"LordKiro711","steam_id":76561198121680121,"connected_time":1198000000000,"state":"active","ping":101},{"user_id":596,"name":"Derpyderk","steam_id":76561198135034761,"connected_time":1182000000000,"state":"active","ping":102},{"user_id":597,"name":"trans they gender she/her/they/","steam_id":76561198212470305,"connected_time":1167000000000,"state":"active","ping":88}]},{"server_id":405,"name":"Uncletopia | Dallas | 4 | Community","name_short":"dal-4","host":"dal-1.us.uncletopia.com","port":27045,"enabled":true,"region":"us-central","cc":"us","latitude":32.779167,"longitude":-96.80889,"reserved":0,"last_update":"0001-01-01T00:00:00Z","name_a2s":"Uncletopia | Dallas | 4 | Community","protocol":17,"map":"workshop/pl_emerge_rc2.ugc888027758","folder":"tf","game":"Team Fortress","app_id":440,"player_count":0,"max_players":24,"Bots":0,"server_type":"Dedicated","server_os":"Linux","password":true,"vac":true,"version":"7961495","steam_id":85568392924515220,"keywords":["nocrits","nodmgspread","payload","uncletopia"],"game_id":440,"stv_port":27046,"stv_name":"Uncletopia | Dallas | 4 | Community | STV","players":null},{"server_id":5,"name":"Uncletopia | Frankfurt | 1 | All Maps","name_short":"frk-1","host":"frk-1.de.uncletopia.com","port":27015,"enabled":true,"region":"eu","cc":"de","latitude":50.110924,"longitude":8.682127,"reserved":0,"last_update":"0001-01-01T00:00:00Z","name_a2s":"Uncletopia | Frankfurt | 1 | All Maps","protocol":17,"map":"pl_badwater","folder":"tf","game":"Team Fortress","app_id":440,"player_count":0,"max_players":24,"Bots":0,"server_type":"Dedicated","server_os":"Linux","password":true,"vac":true,"version":"7961495","steam_id":85568392924469989,"keywords":["nocrits","nodmgspread","payload","uncletopia"],"game_id":440,"stv_port":27016,"stv_name":"Uncletopia | Frankfurt | 1 | All Maps | STV","players":null},{"server_id":110,"name":"Uncletopia | Frankfurt | 2 | All Maps","name_short":"frk-2","host":"frk-1.de.uncletopia.com","port":27025,"enabled":true,"region":"eu","cc":"de","latitude":50.110924,"longitude":8.682127,"reserved":0,"last_update":"0001-01-01T00:00:00Z","name_a2s":"Uncletopia | Frankfurt | 2 | All Maps","protocol":17,"map":"koth_lakeside_final","folder":"tf","game":"Team Fortress","app_id":440,"player_count":0,"max_players":24,"Bots":0,"server_type":"Dedicated","server_os":"Linux","password":true,"vac":true,"version":"7961495","steam_id":85568392924469990,"keywords":["cp","nocrits","nodmgspread","uncletopia"],"game_id":440,"stv_port":27026,"stv_name":"Uncletopia | Frankfurt | 2 | All Maps | STV","players":null},{"server_id":308,"name":"Uncletopia | Frankfurt | 3 | All Maps","name_short":"frk-3","host":"frk-1.de.uncletopia.com","port":27035,"enabled":true,"region":"eu","cc":"de","latitude":50.110924,"longitude":8.682127,"reserved":0,"last_update":"0001-01-01T00:00:00Z","name_a2s":"Uncletopia | Frankfurt | 3 | All Maps","protocol":17,"map":"cp_sunshine","folder":"tf","game":"Team Fortress","app_id":440,"player_count":0,"max_players":24,"Bots":0,"server_type":"Dedicated","server_os":"Linux","password":true,"vac":true,"version":"7961495","steam_id":85568392924504274,"keywords":["cp","nocrits","nodmgspread","uncletopia"],"game_id":440,"stv_port":27036,"stv_name":"Uncletopia | Frankfurt | 3 | All Maps | STV","players":null},{"server_id":309,"name":"Uncletopia | Frankfurt | 4 | All Maps","name_short":"frk-4","host":"frk-1.de.uncletopia.com","port":27045,"enabled":true,"region":"eu","cc":"de","latitude":50.110924,"longitude":8.682127,"reserved":0,"last_update":"0001-01-01T00:00:00Z","name_a2s":"Uncletopia | Frankfurt | 4 | All Maps","protocol":17,"map":"cp_altitude","folder":"tf","game":"Team Fortress","app_id":440,"player_count":0,"max_players":24,"Bots":0,"server_type":"Dedicated","server_os":"Linux","password":true,"vac":true,"version":"7961495","steam_id":85568392924504275,"keywords":["cp","nocrits","nodmgspread","uncletopia"],"game_id":440,"stv_port":27046,"stv_name":"Uncletopia | Frankfurt | 4 | All Maps | STV","players":null},{"server_id":310,"name":"Uncletopia | Frankfurt | 5 | All Maps","name_short":"frk-5","host":"frk-1.de.uncletopia.com","port":27055,"enabled":true,"region":"eu","cc":"de","latitude":50.110924,"longitude":8.682127,"reserved":0,"last_update":"0001-01-01T00:00:00Z","name_a2s":"Uncletopia | Frankfurt | 5 | All Maps","protocol":17,"map":"cp_process_final","folder":"tf","game":"Team Fortress","app_id":440,"player_count":0,"max_players":24,"Bots":0,"server_type":"Dedicated","server_os":"Linux","password":true,"vac":true,"version":"7961495","steam_id":85568392924504277,"keywords":["cp","nocrits","nodmgspread","uncletopia"],"game_id":440,"stv_port":27056,"stv_name":"Uncletopia | Frankfurt | 5 | All Maps | STV","players":null},{"server_id":311,"name":"Uncletopia | Frankfurt | 6 | All Maps","name_short":"frk-6","host":"frk-1.de.uncletopia.com","port":27065,"enabled":true,"region":"eu","cc":"de","latitude":50.110924,"longitude":8.682127,"reserved":0,"last_update":"0001-01-01T00:00:00Z","name_a2s":"Uncletopia | Frankfurt | 6 | All Maps","protocol":17,"map":"pl_barnblitz","folder":"tf","game":"Team Fortress","app_id":440,"player_count":0,"max_players":24,"Bots":0,"server_type":"Dedicated","server_os":"Linux","password":true,"vac":true,"version":"7961495","steam_id":85568392924504278,"keywords":["nocrits","nodmgspread","payload","uncletopia"],"game_id":440,"stv_port":27066,"stv_name":"Uncletopia | Frankfurt | 6 | All Maps | STV","players":null},{"server_id":23,"name":"Uncletopia | Frankfurt | 7 | Stopwatch Beta","name_short":"frk-7","host":"frk-1.de.uncletopia.com","port":27075,"enabled":true,"region":"eu","cc":"de","latitude":50.110924,"longitude":8.682127,"reserved":0,"last_update":"0001-01-01T00:00:00Z","name_a2s":"Uncletopia | Frankfurt | 7 | Stopwatch Beta","protocol":17,"map":"koth_cascade","folder":"tf","game":"Team Fortress","app_id":440,"player_count":0,"max_players":24,"Bots":0,"server_type":"Dedicated","server_os":"Linux","password":true,"vac":true,"version":"7961495","steam_id":85568392924742827,"keywords":["cp","nocrits","nodmgspread","uncletopia"],"game_id":440,"stv_port":27076,"stv_name":"Uncletopia | Frankfurt | 7 | Stopwatch Beta | STV","players":null},{"server_id":24,"name":"Uncletopia | Frankfurt | 8 | Community","name_short":"frk-8","host":"frk-1.de.uncletopia.com","port":27085,"enabled":true,"region":"eu","cc":"de","latitude":50.110924,"longitude":8.682127,"reserved":0,"last_update":"0001-01-01T00:00:00Z","name_a2s":"Uncletopia | Frankfurt | 8 | Community","protocol":17,"map":"cp_dustbowl","folder":"tf","game":"Team Fortress","app_id":440,"player_count":0,"max_players":24,"Bots":0,"server_type":"Dedicated","server_os":"Linux","password":true,"vac":true,"version":"7961495","steam_id":85568392924742828,"keywords":["cp","nocrits","nodmgspread","uncletopia"],"game_id":440,"stv_port":27086,"stv_name":"Uncletopia | Frankfurt | 8 | Community | STV","players":null},{"server_id":202,"name":"Uncletopia | Hong Kong | 1 | All Maps","name_short":"hgk-1","host":"hgk-1.hk.uncletopia.com","port":27015,"enabled":true,"region":"asia","cc":"hk","latitude":22.302711,"longitude":114.177216,"reserved":0,"last_update":"0001-01-01T00:00:00Z","name_a2s":"Uncletopia | Hong Kong | 1 | All Maps","protocol":17,"map":"koth_viaduct","folder":"tf","game":"Team Fortress","app_id":440,"player_count":0,"max_players":24,"Bots":0,"server_type":"Dedicated","server_os":"Linux","password":true,"vac":true,"version":"7961495","steam_id":85568392924494504,"keywords":["cp","nocrits","nodmgspread","uncletopia"],"game_id":440,"stv_port":27016,"stv_name":"Uncletopia | Hong Kong | 1 | All Maps | STV","players":null},{"server_id":1,"name":"Uncletopia | Los Angeles | 1 | All Maps","name_short":"lax-1","host":"lax-1.us.uncletopia.com","port":27015,"enabled":true,"region":"us-west","cc":"us","latitude":33.94279,"longitude":-118.41004,"reserved":0,"last_update":"0001-01-01T00:00:00Z","name_a2s":"Uncletopia | Los Angeles | 1 | All Maps","protocol":17,"map":"cp_process_final","folder":"tf","game":"Team Fortress","app_id":440,"player_count":24,"max_players":24,"Bots":0,"server_type":"Dedicated","server_os":"Linux","password":true,"vac":true,"version":"7961495","steam_id":85568392924469991,"keywords":["cp","nocrits","nodmgspread","uncletopia"],"game_id":440,"stv_port":27016,"stv_name":"Uncletopia | Los Angeles | 1 | All Maps | STV","players":[{"user_id":466,"name":"LtK","steam_id":76561197993180943,"connected_time":4640000000000,"state":"active","ping":61},{"user_id":520,"name":"Five","steam_id":76561198026640473,"connected_time":404000000000,"state":"active","ping":60},{"user_id":482,"name":"werolat","steam_id":76561197960544784,"connected_time":3209000000000,"state":"active","ping":75},{"user_id":505,"name":"no name","steam_id":76561198312741335,"connected_time":2061000000000,"state":"active","ping":93},{"user_id":521,"name":"green demon","steam_id":76561198203353732,"connected_time":386000000000,"state":"active","ping":102},{"user_id":503,"name":"♜♥Serious Pisces♥♜","steam_id":76561198096129873,"connected_time":2373000000000,"state":"active","ping":73},{"user_id":515,"name":"Ora dominus (Kill stoners gang)","steam_id":76561198203381620,"connected_time":1698000000000,"state":"active","ping":90},{"user_id":522,"name":"Actually a Shoggoth","steam_id":76561198065857964,"connected_time":383000000000,"state":"active","ping":101},{"user_id":494,"name":"Whiskey","steam_id":76561198858154667,"connected_time":2766000000000,"state":"active","ping":49},{"user_id":523,"name":"mollusk_obliteration","steam_id":76561198085388962,"connected_time":369000000000,"state":"active","ping":98},{"user_id":519,"name":"Lily Thorn","steam_id":76561198305488625,"connected_time":419000000000,"state":"active","ping":85},{"user_id":495,"name":"BurningKev","steam_id":76561198057688837,"connected_time":2761000000000,"state":"active","ping":75},{"user_id":496,"name":"Antzen","steam_id":76561198041343470,"connected_time":2757000000000,"state":"active","ping":56},{"user_id":497,"name":"Grassman (Cc)","steam_id":76561198026488532,"connected_time":2735000000000,"state":"active","ping":55},{"user_id":511,"name":"iSilentShooter","steam_id":76561198851343507,"connected_time":1774000000000,"state":"active","ping":93},{"user_id":512,"name":"yummyham2","steam_id":76561199006339325,"connected_time":1772000000000,"state":"active","ping":66},{"user_id":506,"name":"Cael Thavain","steam_id":76561198136789464,"connected_time":2034000000000,"state":"active","ping":60},{"user_id":500,"name":"Whisper!","steam_id":76561198119609795,"connected_time":2592000000000,"state":"active","ping":51},{"user_id":517,"name":"S O U N D W A V E","steam_id":76561198093417449,"connected_time":870000000000,"state":"active","ping":36},{"user_id":516,"name":"DaBeatGoOff2?","steam_id":76561198106507400,"connected_time":1295000000000,"state":"active","ping":52},{"user_id":526,"name":"MR. BEEEEEEEEEEEEEAAAAAAAAAAST","steam_id":76561198205346760,"connected_time":273000000000,"state":"active","ping":90},{"user_id":525,"name":"Ralph Kramden (Slim Charles)","steam_id":76561197981687895,"connected_time":359000000000,"state":"active","ping":57},{"user_id":527,"name":"Big Boy Beni","steam_id":76561197995469460,"connected_time":163000000000,"state":"active","ping":45},{"user_id":514,"name":"Super Gangsta Mario","steam_id":76561198411623667,"connected_time":1722000000000,"state":"active","ping":100}]},{"server_id":112,"name":"Uncletopia | Los Angeles | 2 | All Maps","name_short":"lax-2","host":"lax-1.us.uncletopia.com","port":27025,"enabled":true,"region":"us-west","cc":"us","latitude":33.94279,"longitude":-118.41004,"reserved":0,"last_update":"0001-01-01T00:00:00Z","name_a2s":"Uncletopia | Los Angeles | 2 | All Maps","protocol":17,"map":"pl_snowycoast","folder":"tf","game":"Team Fortress","app_id":440,"player_count":24,"max_players":24,"Bots":0,"server_type":"Dedicated","server_os":"Linux","password":true,"vac":true,"version":"7961495","steam_id":85568392924469992,"keywords":["nocrits","nodmgspread","payload","uncletopia"],"game_id":440,"stv_port":27026,"stv_name":"Uncletopia | Los Angeles | 2 | All Maps | STV","players":[{"user_id":143,"name":"choo choo train","steam_id":76561198206922028,"connected_time":707000000000,"state":"active","ping":56},{"user_id":132,"name":"Handsome Pete","steam_id":76561198003224229,"connected_time":1103000000000,"state":"active","ping":48},{"user_id":136,"name":"Rustys_Revenge","steam_id":76561198269414024,"connected_time":958000000000,"state":"active","ping":48},{"user_id":151,"name":"guy","steam_id":76561198196443262,"connected_time":282000000000,"state":"active","ping":46},{"user_id":138,"name":"HitsujiVT","steam_id":76561198053447948,"connected_time":806000000000,"state":"active","ping":96},{"user_id":126,"name":"sissy fuckdoll $","steam_id":76561199064932372,"connected_time":1258000000000,"state":"active","ping":49},{"user_id":112,"name":"Kpotion","steam_id":76561199172756279,"connected_time":2923000000000,"state":"active","ping":67},{"user_id":45,"name":"mrthugpug1732","steam_id":76561198881200768,"connected_time":7896000000000,"state":"active","ping":63},{"user_id":120,"name":"LX-24","steam_id":76561198016168993,"connected_time":1806000000000,"state":"active","ping":84},{"user_id":117,"name":"Misha","steam_id":76561198045937454,"connected_time":2287000000000,"state":"active","ping":83},{"user_id":121,"name":"brando_not_lando","steam_id":76561198163197384,"connected_time":1757000000000,"state":"active","ping":61},{"user_id":141,"name":"Jones","steam_id":76561198046037216,"connected_time":710000000000,"state":"active","ping":149},{"user_id":142,"name":"Flexo","steam_id":76561198111618506,"connected_time":710000000000,"state":"active","ping":114},{"user_id":133,"name":"uheye whuant moy ehmdeevee","steam_id":76561198028981154,"connected_time":1088000000000,"state":"active","ping":56},{"user_id":130,"name":"CocoCryptid","steam_id":76561198135993835,"connected_time":1170000000000,"state":"active","ping":86},{"user_id":144,"name":"Preston","steam_id":76561198335444084,"connected_time":662000000000,"state":"active","ping":139},{"user_id":134,"name":"Sahalanthro","steam_id":76561199073298722,"connected_time":1014000000000,"state":"active","ping":48},{"user_id":105,"name":"Human Resources Manager","steam_id":76561198066386411,"connected_time":4057000000000,"state":"active","ping":58},{"user_id":145,"name":"Red","steam_id":76561198001939529,"connected_time":649000000000,"state":"active","ping":117},{"user_id":146,"name":"riSygneD","steam_id":76561198331618687,"connected_time":544000000000,"state":"active","ping":37},{"user_id":152,"name":"giveit5","steam_id":76561198030815437,"connected_time":177000000000,"state":"active","ping":58},{"user_id":107,"name":"Jolly Wolly","steam_id":76561198087571347,"connected_time":3408000000000,"state":"active","ping":64},{"user_id":149,"name":"Primrose","steam_id":76561198031708819,"connected_time":509000000000,"state":"active","ping":72},{"user_id":150,"name":"1000 Ping","steam_id":76561198098330939,"connected_time":486000000000,"state":"active","ping":69}]},{"server_id":324,"name":"Uncletopia | Los Angeles | 3 | All Maps","name_short":"lax-3","host":"lax-1.us.uncletopia.com","port":27035,"enabled":true,"region":"us-west","cc":"us","latitude":33.94279,"longitude":-118.41004,"reserved":0,"last_update":"0001-01-01T00:00:00Z","name_a2s":"Uncletopia | Los Angeles | 3 | All Maps","protocol":17,"map":"koth_viaduct","folder":"tf","game":"Team Fortress","app_id":440,"player_count":14,"max_players":24,"Bots":0,"server_type":"Dedicated","server_os":"Linux","password":true,"vac":true,"version":"7961495","steam_id":85568392924510198,"keywords":["cp","nocrits","nodmgspread","uncletopia"],"game_id":440,"stv_port":27036,"stv_name":"Uncletopia | Los Angeles | 3 | All Maps | STV","players":[{"user_id":78,"name":"fallingtree123","steam_id":76561198937414442,"connected_time":461000000000,"state":"active","ping":81},{"user_id":79,"name":"Ozzyhalen","steam_id":76561198025207814,"connected_time":453000000000,"state":"active","ping":90},{"user_id":82,"name":"KrylonHeretic","steam_id":76561198139811459,"connected_time":359000000000,"state":"active","ping":55},{"user_id":80,"name":"ุ","steam_id":76561198404271005,"connected_time":434000000000,"state":"active","ping":51},{"user_id":88,"name":"eminixx","steam_id":76561198962857708,"connected_time":115000000000,"state":"active","ping":104},{"user_id":83,"name":"Joe Biden (Deceased)","steam_id":76561198170427507,"connected_time":335000000000,"state":"active","ping":46},{"user_id":85,"name":"Ryan Lewis truther","steam_id":76561198050505826,"connected_time":235000000000,"state":"active","ping":102},{"user_id":86,"name":"self sufficient kitten","steam_id":76561197960592612,"connected_time":197000000000,"state":"active","ping":71},{"user_id":71,"name":"TeCon","steam_id":76561198049127236,"connected_time":1461000000000,"state":"active","ping":52},{"user_id":87,"name":"yes","steam_id":76561199371694361,"connected_time":182000000000,"state":"active","ping":46},{"user_id":67,"name":"SoldMyKidneyForCollege","steam_id":76561198096329559,"connected_time":2259000000000,"state":"active","ping":44},{"user_id":42,"name":"Gerbias","steam_id":76561198001002427,"connected_time":3785000000000,"state":"active","ping":64},{"user_id":47,"name":"Odd Life","steam_id":76561198244979998,"connected_time":3616000000000,"state":"active","ping":55},{"user_id":69,"name":"♠Silver♠","steam_id":76561198206109224,"connected_time":2237000000000,"state":"active","ping":107}]},{"server_id":25,"name":"Uncletopia | Los Angeles | 4 | Stopwatch Beta","name_short":"lax-4","host":"lax-1.us.uncletopia.com","port":27045,"enabled":true,"region":"us-west","cc":"us","latitude":33.94279,"longitude":-118.41004,"reserved":0,"last_update":"0001-01-01T00:00:00Z","name_a2s":"Uncletopia | Los Angeles | 4 | Stopwatch Beta","protocol":17,"map":"workshop/pl_vigil_rc9.ugc1266210012","folder":"tf","game":"Team Fortress","app_id":440,"player_count":0,"max_players":24,"Bots":0,"server_type":"Dedicated","server_os":"Linux","password":true,"vac":true,"version":"7961495","steam_id":85568392924510199,"keywords":["nocrits","nodmgspread","payload","uncletopia"],"game_id":440,"stv_port":27046,"stv_name":"Uncletopia | Los Angeles | 4 | Stopwatch Beta | STV","players":null},{"server_id":11,"name":"Uncletopia | London | 1 | All Maps","name_short":"lon-1","host":"lon-1.uk.uncletopia.com","port":27015,"enabled":true,"region":"eu","cc":"gb","latitude":51.509865,"longitude":-0.118092,"reserved":0,"last_update":"0001-01-01T00:00:00Z","name_a2s":"Uncletopia | London | 1 | All Maps","protocol":17,"map":"ctf_sawmill","folder":"tf","game":"Team Fortress","app_id":440,"player_count":17,"max_players":24,"Bots":0,"server_type":"Dedicated","server_os":"Linux","password":true,"vac":true,"version":"7961495","steam_id":85568392924367362,"keywords":["ctf","nocrits","nodmgspread","uncletopia"],"game_id":440,"stv_port":27016,"stv_name":"Uncletopia | London | 1 | All Maps | STV","players":[{"user_id":90,"name":"Noam","steam_id":76561198057789807,"connected_time":16000000000,"state":"active","ping":94},{"user_id":68,"name":"sAmasam","steam_id":76561198114953928,"connected_time":1031000000000,"state":"active","ping":60},{"user_id":50,"name":"Reverend","steam_id":76561198059847638,"connected_time":1976000000000,"state":"active","ping":97},{"user_id":74,"name":"bird ideas","steam_id":76561199480942903,"connected_time":629000000000,"state":"active","ping":75},{"user_id":89,"name":"MAGNAKARTA","steam_id":76561198398677108,"connected_time":23000000000,"state":"active","ping":233},{"user_id":8,"name":"spxcy","steam_id":76561198080296853,"connected_time":4632000000000,"state":"active","ping":88},{"user_id":12,"name":"Hamst123","steam_id":76561198957312452,"connected_time":4606000000000,"state":"active","ping":60},{"user_id":66,"name":"raccoon fingers","steam_id":76561197987365751,"connected_time":1169000000000,"state":"active","ping":86},{"user_id":87,"name":"MrXtr","steam_id":76561198966247397,"connected_time":291000000000,"state":"active","ping":67},{"user_id":16,"name":"Economic crisis","steam_id":76561198063562843,"connected_time":4588000000000,"state":"active","ping":68},{"user_id":27,"name":"thog","steam_id":76561198219901556,"connected_time":4196000000000,"state":"active","ping":105},{"user_id":45,"name":"thorn648","steam_id":76561198012565777,"connected_time":2466000000000,"state":"active","ping":173},{"user_id":84,"name":"capitan jamacia","steam_id":76561198071440081,"connected_time":364000000000,"state":"active","ping":90},{"user_id":67,"name":"Grill Gamer","steam_id":76561198014665774,"connected_time":1130000000000,"state":"active","ping":117},{"user_id":31,"name":"Lewylow","steam_id":76561198005425686,"connected_time":3943000000000,"state":"active","ping":54},{"user_id":47,"name":"Cosmetic brain","steam_id":76561198055936410,"connected_time":2340000000000,"state":"active","ping":75},{"user_id":73,"name":"Tomfool","steam_id":76561197993256481,"connected_time":767000000000,"state":"active","ping":88}]},{"server_id":114,"name":"Uncletopia | London | 2 | All Maps","name_short":"lon-2","host":"lon-1.uk.uncletopia.com","port":27025,"enabled":true,"region":"eu","cc":"gb","latitude":51.509865,"longitude":-0.118092,"reserved":0,"last_update":"0001-01-01T00:00:00Z","name_a2s":"Uncletopia | London | 2 | All Maps","protocol":17,"map":"cp_snakewater_final1","folder":"tf","game":"Team Fortress","app_id":440,"player_count":0,"max_players":24,"Bots":0,"server_type":"Dedicated","server_os":"Linux","password":true,"vac":true,"version":"7961495","steam_id":85568392924470941,"keywords":["cp","nocrits","nodmgspread","uncletopia"],"game_id":440,"stv_port":27026,"stv_name":"Uncletopia | London | 2 | All Maps | STV","players":null},{"server_id":320,"name":"Uncletopia | London | 3 | All Maps","name_short":"lon-3","host":"lon-1.uk.uncletopia.com","port":27035,"enabled":true,"region":"eu","cc":"gb","latitude":51.509865,"longitude":-0.118092,"reserved":0,"last_update":"0001-01-01T00:00:00Z","name_a2s":"Uncletopia | London | 3 | All Maps","protocol":17,"map":"ctf_doublecross","folder":"tf","game":"Team Fortress","app_id":440,"player_count":2,"max_players":24,"Bots":0,"server_type":"Dedicated","server_os":"Linux","password":true,"vac":true,"version":"7961495","steam_id":85568392924510192,"keywords":["ctf","nocrits","nodmgspread","uncletopia"],"game_id":440,"stv_port":27036,"stv_name":"Uncletopia | London | 3 | All Maps | STV","players":[{"user_id":3,"name":"Barry Bee Benson","steam_id":76561198115199225,"connected_time":1318000000000,"state":"active","ping":47},{"user_id":4,"name":"superd0074","steam_id":76561199440927207,"connected_time":989000000000,"state":"active","ping":73}]},{"server_id":321,"name":"Uncletopia | London | 4 | All Maps","name_short":"lon-4","host":"lon-1.uk.uncletopia.com","port":27045,"enabled":true,"region":"eu","cc":"gb","latitude":51.509865,"longitude":-0.118092,"reserved":0,"last_update":"0001-01-01T00:00:00Z","name_a2s":"Uncletopia | London | 4 | All Maps","protocol":17,"map":"koth_viaduct","folder":"tf","game":"Team Fortress","app_id":440,"player_count":0,"max_players":24,"Bots":0,"server_type":"Dedicated","server_os":"Linux","password":true,"vac":true,"version":"7961495","steam_id":85568392924510193,"keywords":["cp","nocrits","nodmgspread","uncletopia"],"game_id":440,"stv_port":27046,"stv_name":"Uncletopia | London | 4 | All Maps | STV","players":null},{"server_id":21,"name":"Uncletopia | London | 5 | All Maps","name_short":"lon-5","host":"lon-1.uk.uncletopia.com","port":27055,"enabled":true,"region":"eu","cc":"gb","latitude":51.509865,"longitude":-0.118092,"reserved":0,"last_update":"0001-01-01T00:00:00Z","name_a2s":"Uncletopia | London | 5 | All Maps","protocol":17,"map":"pl_barnblitz","folder":"tf","game":"Team Fortress","app_id":440,"player_count":0,"max_players":24,"Bots":0,"server_type":"Dedicated","server_os":"Linux","password":true,"vac":true,"version":"7961495","steam_id":85568392924742829,"keywords":["nocrits","nodmgspread","payload","uncletopia"],"game_id":440,"stv_port":27056,"stv_name":"Uncletopia | London | 5 | All Maps | STV","players":null},{"server_id":22,"name":"Uncletopia | London | 6 | All Maps","name_short":"lon-6","host":"lon-1.uk.uncletopia.com","port":27065,"enabled":true,"region":"eu","cc":"gb","latitude":51.509865,"longitude":-0.118092,"reserved":0,"last_update":"0001-01-01T00:00:00Z","name_a2s":"Uncletopia | London | 6 | All Maps","protocol":17,"map":"pl_borneo","folder":"tf","game":"Team Fortress","app_id":440,"player_count":0,"max_players":24,"Bots":0,"server_type":"Dedicated","server_os":"Linux","password":true,"vac":true,"version":"7961495","steam_id":85568392924742830,"keywords":["nocrits","nodmgspread","payload","uncletopia"],"game_id":440,"stv_port":27066,"stv_name":"Uncletopia | London | 6 | All Maps | STV","players":null},{"server_id":40,"name":"Uncletopia | London | 7 | No Payload","name_short":"lon-7","host":"lon-1.uk.uncletopia.com","port":27075,"enabled":true,"region":"eu","cc":"gb","latitude":51.509865,"longitude":-0.118092,"reserved":0,"last_update":"0001-01-01T00:00:00Z","name_a2s":"Uncletopia | London | 7 | No Payload","protocol":17,"map":"koth_brazil","folder":"tf","game":"Team Fortress","app_id":440,"player_count":1,"max_players":24,"Bots":0,"server_type":"Dedicated","server_os":"Linux","password":true,"vac":true,"version":"7961495","steam_id":85568392924964314,"keywords":["cp","nocrits","nodmgspread","uncletopia"],"game_id":440,"stv_port":27076,"stv_name":"Uncletopia | London | 7 | No Payload | STV","players":[{"user_id":5,"name":"cm999","steam_id":76561198372392420,"connected_time":4577000000000,"state":"active","ping":159}]},{"server_id":41,"name":"Uncletopia | London | 8 | Community","name_short":"lon-8","host":"lon-1.uk.uncletopia.com","port":27085,"enabled":true,"region":"eu","cc":"gb","latitude":51.509865,"longitude":-0.118092,"reserved":0,"last_update":"0001-01-01T00:00:00Z","name_a2s":"Uncletopia | London | 8 | Community","protocol":17,"map":"pl_borneo","folder":"tf","game":"Team Fortress","app_id":440,"player_count":0,"max_players":24,"Bots":0,"server_type":"Dedicated","server_os":"Linux","password":true,"vac":true,"version":"7961495","steam_id":85568392924964315,"keywords":["nocrits","nodmgspread","payload","uncletopia"],"game_id":440,"stv_port":27086,"stv_name":"Uncletopia | London | 8 | Community | STV","players":null},{"server_id":300,"name":"Uncletopia | Montréal | 1 | All Maps","name_short":"mtl-1","host":"mtl-1.ca.uncletopia.com","port":27015,"enabled":true,"region":"us-east","cc":"ca","latitude":45.50889,"longitude":-73.56167,"reserved":0,"last_update":"0001-01-01T00:00:00Z","name_a2s":"Uncletopia | Montréal | 1 | All Maps","protocol":17,"map":"pl_barnblitz","folder":"tf","game":"Team Fortress","app_id":440,"player_count":0,"max_players":24,"Bots":0,"server_type":"Dedicated","server_os":"Linux","password":true,"vac":true,"version":"7961495","steam_id":85568392924500087,"keywords":["nocrits","nodmgspread","payload","uncletopia"],"game_id":440,"stv_port":27016,"stv_name":"Uncletopia | Montréal | 1 | All Maps | STV","players":null},{"server_id":301,"name":"Uncletopia | Montréal | 2 | All Maps","name_short":"mtl-2","host":"mtl-1.ca.uncletopia.com","port":27025,"enabled":true,"region":"us-east","cc":"ca","latitude":45.50889,"longitude":-73.56167,"reserved":0,"last_update":"0001-01-01T00:00:00Z","name_a2s":"Uncletopia | Montréal | 2 | All Maps","protocol":17,"map":"pl_upward","folder":"tf","game":"Team Fortress","app_id":440,"player_count":0,"max_players":24,"Bots":0,"server_type":"Dedicated","server_os":"Linux","password":true,"vac":true,"version":"7961495","steam_id":85568392924500088,"keywords":["nocrits","nodmgspread","payload","uncletopia"],"game_id":440,"stv_port":27026,"stv_name":"Uncletopia | Montréal | 2 | All Maps | STV","players":null},{"server_id":302,"name":"Uncletopia | Montréal | 3 | All Maps","name_short":"mtl-3","host":"mtl-1.ca.uncletopia.com","port":27035,"enabled":true,"region":"us-east","cc":"ca","latitude":45.50889,"longitude":-73.56167,"reserved":0,"last_update":"0001-01-01T00:00:00Z","name_a2s":"Uncletopia | Montréal | 3 | All Maps","protocol":17,"map":"pl_pier","folder":"tf","game":"Team Fortress","app_id":440,"player_count":0,"max_players":24,"Bots":0,"server_type":"Dedicated","server_os":"Linux","password":true,"vac":true,"version":"7961495","steam_id":85568392924500089,"keywords":["nocrits","nodmgspread","payload","uncletopia"],"game_id":440,"stv_port":27036,"stv_name":"Uncletopia | Montréal | 3 | All Maps | STV","players":null},{"server_id":303,"name":"Uncletopia | Montréal | 4 | No Payload","name_short":"mtl-4","host":"mtl-1.ca.uncletopia.com","port":27045,"enabled":true,"region":"us-east","cc":"ca","latitude":45.50889,"longitude":-73.56167,"reserved":0,"last_update":"0001-01-01T00:00:00Z","name_a2s":"Uncletopia | Montréal | 4 | No Payload","protocol":17,"map":"koth_lakeside_final","folder":"tf","game":"Team Fortress","app_id":440,"player_count":0,"max_players":24,"Bots":0,"server_type":"Dedicated","server_os":"Linux","password":true,"vac":true,"version":"7961495","steam_id":85568392924500090,"keywords":["cp","nocrits","nodmgspread","uncletopia"],"game_id":440,"stv_port":27046,"stv_name":"Uncletopia | Montréal | 4 | No Payload | STV","players":null},{"server_id":13,"name":"Uncletopia | New York City | 1 | All Maps","name_short":"nyc-1","host":"nyc-1.us.uncletopia.com","port":27015,"enabled":true,"region":"us-east","cc":"us","latitude":40.73061,"longitude":-73.93524,"reserved":0,"last_update":"0001-01-01T00:00:00Z","name_a2s":"Uncletopia | New York City | 1 | All Maps","protocol":17,"map":"pl_upward","folder":"tf","game":"Team Fortress","app_id":440,"player_count":24,"max_players":24,"Bots":0,"server_type":"Dedicated","server_os":"Linux","password":true,"vac":true,"version":"7961495","steam_id":85568392924469993,"keywords":["nocrits","nodmgspread","payload","uncletopia"],"game_id":440,"stv_port":27016,"stv_name":"Uncletopia | New York City | 1 | All Maps | STV","players":[{"user_id":537,"name":"Two-Teste Tommy","steam_id":76561198064308936,"connected_time":3403000000000,"state":"active","ping":60},{"user_id":568,"name":"Mobster Lobster","steam_id":76561198025376883,"connected_time":831000000000,"state":"active","ping":73},{"user_id":574,"name":"Lore","steam_id":76561198098407538,"connected_time":216000000000,"state":"active","ping":65},{"user_id":558,"name":"ThaGunslinger","steam_id":76561198096307725,"connected_time":1372000000000,"state":"active","ping":71},{"user_id":376,"name":"็Periculosum PhD in Funny","steam_id":76561198123370914,"connected_time":18215000000000,"state":"active","ping":85},{"user_id":559,"name":"Alabit","steam_id":76561198065578560,"connected_time":1348000000000,"state":"active","ping":98},{"user_id":560,"name":"erf","steam_id":76561198078203677,"connected_time":1312000000000,"state":"active","ping":58},{"user_id":569,"name":"warrior","steam_id":76561198074500319,"connected_time":779000000000,"state":"active","ping":130},{"user_id":570,"name":"Rango","steam_id":76561198067275912,"connected_time":754000000000,"state":"active","ping":127},{"user_id":545,"name":"tesagi","steam_id":76561198026664629,"connected_time":3089000000000,"state":"active","ping":51},{"user_id":562,"name":"SpiritBear","steam_id":76561198099128035,"connected_time":1209000000000,"state":"active","ping":109},{"user_id":563,"name":"Wizard Raccoon","steam_id":76561198072562591,"connected_time":1206000000000,"state":"active","ping":95},{"user_id":553,"name":"Vibe Check","steam_id":76561198087326826,"connected_time":2067000000000,"state":"active","ping":53},{"user_id":564,"name":"Gram Tokers Count Doinkula","steam_id":76561198112811565,"connected_time":1206000000000,"state":"active","ping":58},{"user_id":550,"name":"Sky!","steam_id":76561198141953747,"connected_time":2745000000000,"state":"active","ping":73},{"user_id":494,"name":"Talented","steam_id":76561198800259660,"connected_time":7580000000000,"state":"active","ping":74},{"user_id":565,"name":"Artic_Ryuu","steam_id":76561198182194918,"connected_time":1190000000000,"state":"active","ping":101},{"user_id":573,"name":"Gamba","steam_id":76561198069264650,"connected_time":291000000000,"state":"active","ping":81},{"user_id":547,"name":"Cosmic sR","steam_id":76561198081738675,"connected_time":3025000000000,"state":"active","ping":81},{"user_id":477,"name":"mytoyo2k2","steam_id":76561199486326945,"connected_time":8685000000000,"state":"active","ping":75},{"user_id":572,"name":"crayonnipple","steam_id":76561198070253331,"connected_time":385000000000,"state":"active","ping":72},{"user_id":567,"name":"Kvothe","steam_id":76561198934086162,"connected_time":1144000000000,"state":"active","ping":64},{"user_id":548,"name":"ShadozoneX","steam_id":76561198255452404,"connected_time":3025000000000,"state":"active","ping":90}]},{"server_id":14,"name":"Uncletopia | New York City | 2 | All Maps","name_short":"nyc-2","host":"nyc-1.us.uncletopia.com","port":27025,"enabled":true,"region":"us-east","cc":"us","latitude":40.73061,"longitude":-73.93524,"reserved":0,"last_update":"0001-01-01T00:00:00Z","name_a2s":"Uncletopia | New York City | 2 | All Maps","protocol":17,"map":"pl_pier","folder":"tf","game":"Team Fortress","app_id":440,"player_count":0,"max_players":24,"Bots":0,"server_type":"Dedicated","server_os":"Linux","password":true,"vac":true,"version":"7961495","steam_id":85568392924469994,"keywords":["nocrits","nodmgspread","payload","uncletopia"],"game_id":440,"stv_port":27026,"stv_name":"Uncletopia | New York City | 2 | All Maps | STV","players":null},{"server_id":15,"name":"Uncletopia | New York City | 3 | Stopwatch Beta","name_short":"nyc-3","host":"nyc-1.us.uncletopia.com","port":27035,"enabled":true,"region":"us-east","cc":"us","latitude":40.73061,"longitude":-73.93524,"reserved":0,"last_update":"0001-01-01T00:00:00Z","name_a2s":"Uncletopia | New York City | 3 | Stopwatch Beta","protocol":17,"map":"workshop/pl_badwater_pro_v12.ugc2142942074","folder":"tf","game":"Team Fortress","app_id":440,"player_count":0,"max_players":24,"Bots":0,"server_type":"Dedicated","server_os":"Linux","password":true,"vac":true,"version":"7961495","steam_id":85568392924742820,"keywords":["nocrits","nodmgspread","payload","uncletopia"],"game_id":440,"stv_port":27036,"stv_name":"Uncletopia | New York City | 3 | Stopwatch Beta | STV","players":null},{"server_id":16,"name":"Uncletopia | New York City | 4 | Community","name_short":"nyc-4","host":"nyc-1.us.uncletopia.com","port":27045,"enabled":true,"region":"us-east","cc":"us","latitude":40.73061,"longitude":-73.93524,"reserved":0,"last_update":"0001-01-01T00:00:00Z","name_a2s":"Uncletopia | New York City | 4 | Community","protocol":17,"map":"workshop/cp_indulge.ugc528106646","folder":"tf","game":"Team Fortress","app_id":440,"player_count":0,"max_players":24,"Bots":0,"server_type":"Dedicated","server_os":"Linux","password":true,"vac":true,"version":"7961495","steam_id":85568392924742821,"keywords":["cp","nocrits","nodmgspread","uncletopia"],"game_id":440,"stv_port":27046,"stv_name":"Uncletopia | New York City | 4 | Community | STV","players":null},{"server_id":142,"name":"Uncletopia | São Paulo | 1 | All Maps","name_short":"sao-1","host":"sao-1.br.uncletopia.com","port":27015,"enabled":true,"region":"sa","cc":"br","latitude":-23.533773,"longitude":-46.62529,"reserved":0,"last_update":"0001-01-01T00:00:00Z","name_a2s":"Uncletopia | São Paulo | 1 | All Maps","protocol":17,"map":"koth_cascade","folder":"tf","game":"Team Fortress","app_id":440,"player_count":0,"max_players":24,"Bots":0,"server_type":"Dedicated","server_os":"Linux","password":true,"vac":true,"version":"7961495","steam_id":85568392924469996,"keywords":["cp","nocrits","nodmgspread","uncletopia"],"game_id":440,"stv_port":27016,"stv_name":"Uncletopia | São Paulo | 1 | All Maps | STV","players":null},{"server_id":143,"name":"Uncletopia | São Paulo | 2 | Community","name_short":"sao-2","host":"sao-2.br.uncletopia.com","port":27015,"enabled":true,"region":"sa","cc":"br","latitude":-23.533773,"longitude":-46.62529,"reserved":0,"last_update":"0001-01-01T00:00:00Z","name_a2s":"Uncletopia | São Paulo | 2 | Community","protocol":17,"map":"workshop/cp_indulge.ugc528106646","folder":"tf","game":"Team Fortress","app_id":440,"player_count":0,"max_players":24,"Bots":0,"server_type":"Dedicated","server_os":"Linux","password":true,"vac":true,"version":"7961495","steam_id":85568392924485349,"keywords":["cp","nocrits","nodmgspread","uncletopia"],"game_id":440,"stv_port":27016,"stv_name":"Uncletopia | São Paulo | 2 | Community | STV","players":null},{"server_id":7,"name":"Uncletopia | Seattle | 1 | All Maps","name_short":"sea-1","host":"sea-1.us.uncletopia.com","port":27015,"enabled":true,"region":"us-west","cc":"us","latitude":47.608013,"longitude":-122.33517,"reserved":0,"last_update":"0001-01-01T00:00:00Z","name_a2s":"Uncletopia | Seattle | 1 | All Maps","protocol":17,"map":"pl_borneo","folder":"tf","game":"Team Fortress","app_id":440,"player_count":22,"max_players":24,"Bots":0,"server_type":"Dedicated","server_os":"Linux","password":true,"vac":true,"version":"7961495","steam_id":85568392924469997,"keywords":["nocrits","nodmgspread","payload","uncletopia"],"game_id":440,"stv_port":27016,"stv_name":"Uncletopia | Seattle | 1 | All Maps | STV","players":[{"user_id":854,"name":"squash","steam_id":76561198150281353,"connected_time":341000000000,"state":"connecting","ping":76},{"user_id":850,"name":"Arsonist Goose","steam_id":76561198147441830,"connected_time":1541000000000,"state":"connecting","ping":82},{"user_id":837,"name":"Das Anchor","steam_id":76561198060173151,"connected_time":2201000000000,"state":"connecting","ping":99},{"user_id":851,"name":"roryisonamobilehotspot","steam_id":76561198065825165,"connected_time":1532000000000,"state":"connecting","ping":122},{"user_id":855,"name":"JACK BRUNO","steam_id":76561198027957690,"connected_time":175000000000,"state":"connecting","ping":78},{"user_id":818,"name":"westward (was/were)","steam_id":76561198805512350,"connected_time":3867000000000,"state":"connecting","ping":70},{"user_id":856,"name":"fungi","steam_id":76561198169755734,"connected_time":32000000000,"state":"connecting","ping":76},{"user_id":857,"name":"lil boogie","steam_id":76561198064059721,"connected_time":7000000000,"state":"connecting","ping":36},{"user_id":852,"name":"Peppy","steam_id":76561198866629645,"connected_time":967000000000,"state":"connecting","ping":79},{"user_id":847,"name":"TwoForFlinching","steam_id":76561198073814209,"connected_time":1673000000000,"state":"connecting","ping":131},{"user_id":848,"name":"Goosey","steam_id":76561198139648585,"connected_time":1642000000000,"state":"connecting","ping":97},{"user_id":841,"name":"littengamer1112","steam_id":76561198992690060,"connected_time":2133000000000,"state":"connecting","ping":71},{"user_id":842,"name":"skittle ducks lft","steam_id":76561198309823950,"connected_time":2117000000000,"state":"connecting","ping":57},{"user_id":821,"name":"HotHead","steam_id":76561198138468982,"connected_time":3670000000000,"state":"spawning","ping":57},{"user_id":849,"name":"NEBULA","steam_id":76561198086878595,"connected_time":1572000000000,"state":"connecting","ping":82},{"user_id":794,"name":"mike, agro drunk","steam_id":76561198225411004,"connected_time":6142000000000,"state":"connecting","ping":91},{"user_id":825,"name":"Villchip","steam_id":76561198198599982,"connected_time":3541000000000,"state":"connecting","ping":74},{"user_id":800,"name":"Ayayayayayahuasca","steam_id":76561199002906056,"connected_time":6045000000000,"state":"connecting","ping":57},{"user_id":820,"name":"Cheezbeargur","steam_id":76561198164702899,"connected_time":3783000000000,"state":"connecting","ping":90},{"user_id":832,"name":"oil","steam_id":76561198099980149,"connected_time":3008000000000,"state":"connecting","ping":98},{"user_id":835,"name":"camp3r","steam_id":76561197992870439,"connected_time":2513000000000,"state":"connecting","ping":38}]},{"server_id":119,"name":"Uncletopia | Seattle | 2 | All Maps","name_short":"sea-2","host":"sea-1.us.uncletopia.com","port":27025,"enabled":true,"region":"us-west","cc":"us","latitude":47.608013,"longitude":-122.33517,"reserved":0,"last_update":"0001-01-01T00:00:00Z","name_a2s":"Uncletopia | Seattle | 2 | All Maps","protocol":17,"map":"cp_snakewater_final1","folder":"tf","game":"Team Fortress","app_id":440,"player_count":24,"max_players":24,"Bots":0,"server_type":"Dedicated","server_os":"Linux","password":true,"vac":true,"version":"7961495","steam_id":85568392924469998,"keywords":["cp","nocrits","nodmgspread","uncletopia"],"game_id":440,"stv_port":27026,"stv_name":"Uncletopia | Seattle | 2 | All Maps | STV","players":[{"user_id":499,"name":"Guccini","steam_id":76561198094391395,"connected_time":410000000000,"state":"active","ping":106},{"user_id":480,"name":"havarti gaming","steam_id":76561198069895678,"connected_time":1178000000000,"state":"active","ping":66},{"user_id":496,"name":"Irritated Duck","steam_id":76561198247792076,"connected_time":454000000000,"state":"active","ping":114},{"user_id":502,"name":"DannyGamerXD","steam_id":76561198799224408,"connected_time":289000000000,"state":"active","ping":116},{"user_id":465,"name":"MyMonkeyBaby","steam_id":76561198046896670,"connected_time":2268000000000,"state":"active","ping":58},{"user_id":503,"name":"Greenland","steam_id":76561198860933958,"connected_time":243000000000,"state":"active","ping":80},{"user_id":455,"name":"Nyx","steam_id":76561198100929724,"connected_time":2627000000000,"state":"active","ping":45},{"user_id":475,"name":"zinqi","steam_id":76561198376838848,"connected_time":1694000000000,"state":"active","ping":149},{"user_id":485,"name":"summerlis","steam_id":76561198165324438,"connected_time":916000000000,"state":"active","ping":64},{"user_id":446,"name":"benji","steam_id":76561198084417967,"connected_time":3060000000000,"state":"active","ping":74},{"user_id":504,"name":"roger roger","steam_id":76561198130032444,"connected_time":137000000000,"state":"active","ping":49},{"user_id":479,"name":"_cza","steam_id":76561198079793576,"connected_time":1270000000000,"state":"active","ping":46},{"user_id":494,"name":"GameBreaker","steam_id":76561198836171572,"connected_time":493000000000,"state":"active","ping":61},{"user_id":488,"name":"here2he1p","steam_id":76561199216977630,"connected_time":799000000000,"state":"active","ping":76},{"user_id":491,"name":"The King of Piss World","steam_id":76561198082806956,"connected_time":643000000000,"state":"active","ping":145},{"user_id":473,"name":"ars110","steam_id":76561198030492435,"connected_time":1806000000000,"state":"active","ping":60},{"user_id":451,"name":"011sra","steam_id":76561199489542125,"connected_time":2797000000000,"state":"active","ping":60},{"user_id":484,"name":"Noxus","steam_id":76561198124721812,"connected_time":953000000000,"state":"active","ping":90},{"user_id":495,"name":"spurious george","steam_id":76561198043558709,"connected_time":482000000000,"state":"active","ping":47},{"user_id":497,"name":"throat_man","steam_id":76561199321657653,"connected_time":438000000000,"state":"active","ping":86},{"user_id":459,"name":"10HourNaps","steam_id":76561199082304859,"connected_time":2505000000000,"state":"active","ping":57},{"user_id":486,"name":"Happy Chaos","steam_id":76561198194248527,"connected_time":901000000000,"state":"active","ping":49},{"user_id":501,"name":"Mr Sir Logan","steam_id":76561198088803891,"connected_time":401000000000,"state":"active","ping":90},{"user_id":498,"name":"WaveSmash","steam_id":76561198208785485,"connected_time":427000000000,"state":"active","ping":77}]},{"server_id":406,"name":"Uncletopia | Seattle | 3 | Stopwatch Beta","name_short":"sea-3","host":"sea-1.us.uncletopia.com","port":27035,"enabled":true,"region":"us-west","cc":"us","latitude":47.608013,"longitude":-122.33517,"reserved":0,"last_update":"0001-01-01T00:00:00Z","name_a2s":"Uncletopia | Seattle | 3 | Stopwatch Beta","protocol":17,"map":"workshop/koth_ramjam_rc1.ugc459778887","folder":"tf","game":"Team Fortress","app_id":440,"player_count":0,"max_players":24,"Bots":0,"server_type":"Dedicated","server_os":"Linux","password":true,"vac":true,"version":"7961495","steam_id":85568392924515217,"keywords":["cp","nocrits","nodmgspread","uncletopia"],"game_id":440,"stv_port":27036,"stv_name":"Uncletopia | Seattle | 3 | Stopwatch Beta | STV","players":null},{"server_id":17,"name":"Uncletopia | San Francisco | 1 | All Maps","name_short":"sfo-1","host":"sfo-1.us.uncletopia.com","port":27015,"enabled":true,"region":"us-west","cc":"us","latitude":37.77397,"longitude":-122.4313,"reserved":0,"last_update":"0001-01-01T00:00:00Z","name_a2s":"Uncletopia | San Francisco | 1 | All Maps","protocol":17,"map":"cp_egypt_final","folder":"tf","game":"Team Fortress","app_id":440,"player_count":21,"max_players":24,"Bots":0,"server_type":"Dedicated","server_os":"Linux","password":true,"vac":true,"version":"7961495","steam_id":85568392924469999,"keywords":["cp","nocrits","nodmgspread","uncletopia"],"game_id":440,"stv_port":27016,"stv_name":"Uncletopia | San Francisco | 1 | All Maps | STV","players":[{"user_id":297,"name":"Sleuth","steam_id":76561198418288939,"connected_time":2261000000000,"state":"active","ping":62},{"user_id":266,"name":"osiris","steam_id":76561197993619230,"connected_time":4114000000000,"state":"active","ping":62},{"user_id":306,"name":"Amogous Supreme","steam_id":76561198025476774,"connected_time":978000000000,"state":"active","ping":58},{"user_id":308,"name":"Mk","steam_id":76561198139790822,"connected_time":876000000000,"state":"active","ping":106},{"user_id":272,"name":"Ian","steam_id":76561198159334435,"connected_time":3954000000000,"state":"active","ping":173},{"user_id":319,"name":"EggPencil","steam_id":76561198043633284,"connected_time":235000000000,"state":"active","ping":73},{"user_id":320,"name":"Sir Grey The Ranger","steam_id":76561198096235582,"connected_time":92000000000,"state":"active","ping":104},{"user_id":312,"name":"Aporophobia","steam_id":76561198068672882,"connected_time":806000000000,"state":"active","ping":48},{"user_id":315,"name":"Ryshy02","steam_id":76561198055425447,"connected_time":696000000000,"state":"active","ping":133},{"user_id":321,"name":"RaixaR","steam_id":76561198025289430,"connected_time":17000000000,"state":"active","ping":113},{"user_id":310,"name":"ImmuneToPeas","steam_id":76561198342411594,"connected_time":829000000000,"state":"active","ping":63},{"user_id":285,"name":"Buffalo Gold","steam_id":76561198119693806,"connected_time":2971000000000,"state":"active","ping":59},{"user_id":286,"name":"El Gato Paranoico","steam_id":76561198116567116,"connected_time":2936000000000,"state":"active","ping":104},{"user_id":270,"name":"Paul Gaming","steam_id":76561198065538229,"connected_time":4048000000000,"state":"active","ping":57},{"user_id":278,"name":"Higuma","steam_id":76561198375229012,"connected_time":3461000000000,"state":"active","ping":56},{"user_id":273,"name":"pee_gulper_6161","steam_id":76561198161405836,"connected_time":3943000000000,"state":"active","ping":55},{"user_id":300,"name":"TonyBoi43","steam_id":76561198299127756,"connected_time":2021000000000,"state":"active","ping":66},{"user_id":303,"name":"CrazyInTheCoconut","steam_id":76561198040300800,"connected_time":1589000000000,"state":"active","ping":46},{"user_id":316,"name":"The Professor","steam_id":76561198046165617,"connected_time":656000000000,"state":"active","ping":73},{"user_id":296,"name":"Mr. Carfox","steam_id":76561198041664428,"connected_time":2317000000000,"state":"active","ping":46},{"user_id":317,"name":"Anthid","steam_id":76561198074493797,"connected_time":448000000000,"state":"active","ping":61}]},{"server_id":18,"name":"Uncletopia | San Francisco | 2 | All Maps","name_short":"sfo-2","host":"sfo-1.us.uncletopia.com","port":27025,"enabled":true,"region":"us-west","cc":"us","latitude":37.77397,"longitude":-122.4313,"reserved":0,"last_update":"0001-01-01T00:00:00Z","name_a2s":"Uncletopia | San Francisco | 2 | All Maps","protocol":17,"map":"cp_sunshine","folder":"tf","game":"Team Fortress","app_id":440,"player_count":8,"max_players":24,"Bots":0,"server_type":"Dedicated","server_os":"Linux","password":true,"vac":true,"version":"7961495","steam_id":85568392924470000,"keywords":["cp","nocrits","nodmgspread","uncletopia"],"game_id":440,"stv_port":27026,"stv_name":"Uncletopia | San Francisco | 2 | All Maps | STV","players":[{"user_id":327,"name":"SOGGY DOGGY","steam_id":76561199158847498,"connected_time":255000000000,"state":"active","ping":53},{"user_id":328,"name":"Thequirka #ForBlu2th","steam_id":76561198968058652,"connected_time":187000000000,"state":"active","ping":63},{"user_id":329,"name":"Frank Accardi","steam_id":76561198017275707,"connected_time":60000000000,"state":"active","ping":65},{"user_id":280,"name":"SolarusD","steam_id":76561198029279861,"connected_time":6741000000000,"state":"active","ping":40},{"user_id":285,"name":"Lambchop","steam_id":76561198043900363,"connected_time":6001000000000,"state":"active","ping":59},{"user_id":305,"name":"Seshreb","steam_id":76561198846614634,"connected_time":4096000000000,"state":"active","ping":61},{"user_id":283,"name":"Mapachito Lindo","steam_id":76561198031359995,"connected_time":6082000000000,"state":"active","ping":59},{"user_id":303,"name":"Dragoninventor (He/Him)","steam_id":76561198956224948,"connected_time":4458000000000,"state":"active","ping":70}]},{"server_id":19,"name":"Uncletopia | San Francisco | 3 | Stopwatch Beta","name_short":"sfo-3","host":"sfo-1.us.uncletopia.com","port":27035,"enabled":true,"region":"us-west","cc":"us","latitude":37.77397,"longitude":-122.4313,"reserved":0,"last_update":"0001-01-01T00:00:00Z","name_a2s":"Uncletopia | San Francisco | 3 | Stopwatch Beta","protocol":17,"map":"workshop/pl_vigil_rc9.ugc1266210012","folder":"tf","game":"Team Fortress","app_id":440,"player_count":0,"max_players":24,"Bots":0,"server_type":"Dedicated","server_os":"Linux","password":true,"vac":true,"version":"7961495","steam_id":85568392924742824,"keywords":["nocrits","nodmgspread","payload","uncletopia"],"game_id":440,"stv_port":27036,"stv_name":"Uncletopia | San Francisco | 3 | Stopwatch Beta | STV","players":null},{"server_id":20,"name":"Uncletopia | San Francisco | 4 | Community","name_short":"sfo-4","host":"sfo-1.us.uncletopia.com","port":27045,"enabled":true,"region":"us-west","cc":"us","latitude":37.77397,"longitude":-122.4313,"reserved":0,"last_update":"0001-01-01T00:00:00Z","name_a2s":"Uncletopia | San Francisco | 4 | Community","protocol":17,"map":"workshop/pl_highwood_b13.ugc1769496557","folder":"tf","game":"Team Fortress","app_id":440,"player_count":0,"max_players":24,"Bots":0,"server_type":"Dedicated","server_os":"Linux","password":true,"vac":true,"version":"7961495","steam_id":85568392924742826,"keywords":["nocrits","nodmgspread","payload","uncletopia"],"game_id":440,"stv_port":27046,"stv_name":"Uncletopia | San Francisco | 4 | Community | STV","players":null},{"server_id":141,"name":"Uncletopia | Sydney | 1 | All Maps","name_short":"syd-1","host":"syd-1.au.uncletopia.com","port":27015,"enabled":true,"region":"au","cc":"au","latitude":-33.865143,"longitude":151.2099,"reserved":0,"last_update":"0001-01-01T00:00:00Z","name_a2s":"Uncletopia | Sydney | 1 | All Maps","protocol":17,"map":"pl_upward","folder":"tf","game":"Team Fortress","app_id":440,"player_count":14,"max_players":24,"Bots":0,"server_type":"Dedicated","server_os":"Linux","password":true,"vac":true,"version":"7961495","steam_id":85568392924470001,"keywords":["nocrits","nodmgspread","payload","uncletopia"],"game_id":440,"stv_port":27016,"stv_name":"Uncletopia | Sydney | 1 | All Maps | STV","players":[{"user_id":26,"name":"Albert4107","steam_id":76561198930030284,"connected_time":173000000000,"state":"active","ping":74},{"user_id":19,"name":"The :)","steam_id":76561198958059883,"connected_time":540000000000,"state":"active","ping":72},{"user_id":5,"name":"cakey","steam_id":76561198173746761,"connected_time":1679000000000,"state":"active","ping":47},{"user_id":10,"name":"juusha","steam_id":76561198911542330,"connected_time":1314000000000,"state":"active","ping":83},{"user_id":8,"name":"Drakeo","steam_id":76561198268859184,"connected_time":1567000000000,"state":"active","ping":96},{"user_id":20,"name":"using a laptop","steam_id":76561199445302425,"connected_time":536000000000,"state":"active","ping":162},{"user_id":21,"name":"Gallamellow","steam_id":76561198069046033,"connected_time":505000000000,"state":"active","ping":32},{"user_id":12,"name":"Doctor Estonia","steam_id":76561198057365089,"connected_time":1236000000000,"state":"active","ping":81},{"user_id":22,"name":"kingofthelaffs","steam_id":76561199234024173,"connected_time":437000000000,"state":"active","ping":104},{"user_id":23,"name":"Brick","steam_id":76561199177456602,"connected_time":379000000000,"state":"active","ping":166},{"user_id":17,"name":"Hungry for thumbtacks","steam_id":76561198059129270,"connected_time":927000000000,"state":"active","ping":64},{"user_id":24,"name":"camchoobies","steam_id":76561198951609539,"connected_time":344000000000,"state":"active","ping":67},{"user_id":25,"name":"Denszeal","steam_id":76561198313718095,"connected_time":303000000000,"state":"active","ping":76},{"user_id":27,"name":"Michaelsoft Binbows","steam_id":76561198422847304,"connected_time":73000000000,"state":"active","ping":58}]},{"server_id":123,"name":"Uncletopia | Sydney | 2 | All Maps","name_short":"syd-2","host":"syd-1.au.uncletopia.com","port":27025,"enabled":true,"region":"au","cc":"au","latitude":-33.865143,"longitude":151.2099,"reserved":0,"last_update":"0001-01-01T00:00:00Z","name_a2s":"Uncletopia | Sydney | 2 | All Maps","protocol":17,"map":"pl_snowycoast","folder":"tf","game":"Team Fortress","app_id":440,"player_count":0,"max_players":24,"Bots":0,"server_type":"Dedicated","server_os":"Linux","password":true,"vac":true,"version":"7961495","steam_id":85568392924470002,"keywords":["nocrits","nodmgspread","payload","uncletopia"],"game_id":440,"stv_port":27026,"stv_name":"Uncletopia | Sydney | 2 | All Maps | STV","players":null},{"server_id":395,"name":"Uncletopia | Sydney | 3 | All Maps","name_short":"syd-3","host":"syd-1.au.uncletopia.com","port":27035,"enabled":true,"region":"au","cc":"au","latitude":-33.865143,"longitude":151.2099,"reserved":0,"last_update":"0001-01-01T00:00:00Z","name_a2s":"Uncletopia | Sydney | 3 | All Maps","protocol":17,"map":"cp_dustbowl","folder":"tf","game":"Team Fortress","app_id":440,"player_count":0,"max_players":24,"Bots":0,"server_type":"Dedicated","server_os":"Linux","password":true,"vac":true,"version":"7961495","steam_id":85568392925194467,"keywords":["cp","nocrits","nodmgspread","uncletopia"],"game_id":440,"stv_port":27036,"stv_name":"Uncletopia | Sydney | 3 | All Maps | STV","players":null},{"server_id":396,"name":"Uncletopia | Sydney | 4 | All Maps","name_short":"syd-4","host":"syd-1.au.uncletopia.com","port":27045,"enabled":true,"region":"au","cc":"au","latitude":-33.865143,"longitude":151.2099,"reserved":0,"last_update":"0001-01-01T00:00:00Z","name_a2s":"Uncletopia | Sydney | 4 | All Maps","protocol":17,"map":"cp_dustbowl","folder":"tf","game":"Team Fortress","app_id":440,"player_count":0,"max_players":24,"Bots":0,"server_type":"Dedicated","server_os":"Linux","password":true,"vac":true,"version":"7961495","steam_id":85568392925397958,"keywords":["cp","nocrits","nodmgspread","uncletopia"],"game_id":440,"stv_port":27046,"stv_name":"Uncletopia | Sydney | 4 | All Maps | STV","players":null},{"server_id":58,"name":"Uncletopia | Sydney | 5 | Stopwatch Beta","name_short":"syd-5","host":"syd-1.au.uncletopia.com","port":27055,"enabled":true,"region":"au","cc":"au","latitude":-33.865143,"longitude":151.2099,"reserved":0,"last_update":"0001-01-01T00:00:00Z","name_a2s":"Uncletopia | Sydney | 5 | Stopwatch Beta","protocol":17,"map":"koth_viaduct","folder":"tf","game":"Team Fortress","app_id":440,"player_count":0,"max_players":24,"Bots":0,"server_type":"Dedicated","server_os":"Linux","password":true,"vac":true,"version":"7961495","steam_id":85568392925397959,"keywords":["cp","nocrits","nodmgspread","uncletopia"],"game_id":440,"stv_port":27056,"stv_name":"Uncletopia | Sydney | 5 | Stopwatch Beta | STV","players":null},{"server_id":59,"name":"Uncletopia | Sydney | 6 | Community","name_short":"syd-6","host":"syd-1.au.uncletopia.com","port":27065,"enabled":true,"region":"au","cc":"au","latitude":-33.865143,"longitude":151.2099,"reserved":0,"last_update":"0001-01-01T00:00:00Z","name_a2s":"Uncletopia | Sydney | 6 | Community","protocol":17,"map":"koth_cascade","folder":"tf","game":"Team Fortress","app_id":440,"player_count":0,"max_players":24,"Bots":0,"server_type":"Dedicated","server_os":"Linux","password":true,"vac":true,"version":"7961495","steam_id":85568392925397960,"keywords":["cp","nocrits","nodmgspread","uncletopia"],"game_id":440,"stv_port":27066,"stv_name":"Uncletopia | Sydney | 6 | Community | STV","players":null},{"server_id":49,"name":"Uncletopia | Warsaw | 1 | All Maps","name_short":"waw-1","host":"waw-1.pl.uncletopia.com","port":27015,"enabled":true,"region":"eu","cc":"pl","latitude":52.2297,"longitude":21.017532,"reserved":0,"last_update":"0001-01-01T00:00:00Z","name_a2s":"Uncletopia | Warsaw | 1 | All Maps","protocol":17,"map":"pl_swiftwater_final1","folder":"tf","game":"Team Fortress","app_id":440,"player_count":0,"max_players":24,"Bots":0,"server_type":"Dedicated","server_os":"Linux","password":true,"vac":true,"version":"7961495","steam_id":85568392925397850,"keywords":["nocrits","nodmgspread","payload","uncletopia"],"game_id":440,"stv_port":27016,"stv_name":"Uncletopia | Warsaw | 1 | All Maps | STV","players":null},{"server_id":50,"name":"Uncletopia | Warsaw | 2 | All Maps","name_short":"waw-2","host":"waw-1.pl.uncletopia.com","port":27025,"enabled":true,"region":"eu","cc":"pl","latitude":52.2297,"longitude":21.017532,"reserved":0,"last_update":"0001-01-01T00:00:00Z","name_a2s":"Uncletopia | Warsaw | 2 | All Maps","protocol":17,"map":"cp_dustbowl","folder":"tf","game":"Team Fortress","app_id":440,"player_count":0,"max_players":24,"Bots":0,"server_type":"Dedicated","server_os":"Linux","password":true,"vac":true,"version":"7961495","steam_id":85568392925397851,"keywords":["cp","nocrits","nodmgspread","uncletopia"],"game_id":440,"stv_port":27026,"stv_name":"Uncletopia | Warsaw | 2 | All Maps | STV","players":null},{"server_id":51,"name":"Uncletopia | Warsaw | 3 | All Maps","name_short":"waw-3","host":"waw-1.pl.uncletopia.com","port":27035,"enabled":true,"region":"eu","cc":"pl","latitude":52.2297,"longitude":21.017532,"reserved":0,"last_update":"0001-01-01T00:00:00Z","name_a2s":"Uncletopia | Warsaw | 3 | All Maps","protocol":17,"map":"pl_upward","folder":"tf","game":"Team Fortress","app_id":440,"player_count":0,"max_players":24,"Bots":0,"server_type":"Dedicated","server_os":"Linux","password":true,"vac":true,"version":"7961495","steam_id":85568392925397852,"keywords":["nocrits","nodmgspread","payload","uncletopia"],"game_id":440,"stv_port":27036,"stv_name":"Uncletopia | Warsaw | 3 | All Maps | STV","players":null},{"server_id":52,"name":"Uncletopia | Warsaw | 4 | All Maps","name_short":"waw-4","host":"waw-1.pl.uncletopia.com","port":27045,"enabled":true,"region":"eu","cc":"pl","latitude":52.2297,"longitude":21.017532,"reserved":0,"last_update":"0001-01-01T00:00:00Z","name_a2s":"Uncletopia | Warsaw | 4 | All Maps","protocol":17,"map":"koth_viaduct","folder":"tf","game":"Team Fortress","app_id":440,"player_count":0,"max_players":24,"Bots":0,"server_type":"Dedicated","server_os":"Linux","password":true,"vac":true,"version":"7961495","steam_id":85568392925397853,"keywords":["cp","nocrits","nodmgspread","uncletopia"],"game_id":440,"stv_port":27046,"stv_name":"Uncletopia | Warsaw | 4 | All Maps | STV","players":null},{"server_id":53,"name":"Uncletopia | Warsaw | 5 | Stopwatch Beta","name_short":"waw-5","host":"waw-1.pl.uncletopia.com","port":27055,"enabled":true,"region":"eu","cc":"pl","latitude":52.2297,"longitude":21.017532,"reserved":0,"last_update":"0001-01-01T00:00:00Z","name_a2s":"Uncletopia | Warsaw | 5 | Stopwatch Beta","protocol":17,"map":"cp_snakewater_final1","folder":"tf","game":"Team Fortress","app_id":440,"player_count":0,"max_players":24,"Bots":0,"server_type":"Dedicated","server_os":"Linux","password":true,"vac":true,"version":"7961495","steam_id":85568392925397854,"keywords":["cp","nocrits","nodmgspread","uncletopia"],"game_id":440,"stv_port":27056,"stv_name":"Uncletopia | Warsaw | 5 | Stopwatch Beta | STV","players":null},{"server_id":54,"name":"Uncletopia | Warsaw | 6 | Community","name_short":"waw-6","host":"waw-1.pl.uncletopia.com","port":27065,"enabled":true,"region":"eu","cc":"pl","latitude":52.2297,"longitude":21.017532,"reserved":0,"last_update":"0001-01-01T00:00:00Z","name_a2s":"Uncletopia | Warsaw | 6 | Community","protocol":17,"map":"workshop/cp_glacier_rc6.ugc2905735376","folder":"tf","game":"Team Fortress","app_id":440,"player_count":0,"max_players":24,"Bots":0,"server_type":"Dedicated","server_os":"Linux","password":true,"vac":true,"version":"7961495","steam_id":85568392925397856,"keywords":["cp","nocrits","nodmgspread","uncletopia"],"game_id":440,"stv_port":27066,"stv_name":"Uncletopia | Warsaw | 6 | Community | STV","players":null}]}