{"status":true,"message":"","result":[{"server_id":9,"name":"Uncletopia | Atlanta | 1 | All Maps","name_short":"atl-1","host":"atl-1.us.uncletopia.com","port":27015,"enabled":true,"region":"us-east","cc":"us","latitude":33.753746,"longitude":-84.38633,"reserved":0,"last_update":"0001-01-01T00:00:00Z","name_a2s":"Uncletopia | Atlanta | 1 | All Maps","protocol":17,"map":"pl_borneo","folder":"tf","game":"Team Fortress","app_id":440,"player_count":24,"max_players":24,"Bots":0,"server_type":"Dedicated","server_os":"Linux","password":true,"vac":true,"version":"7742253","steam_id":85568392924469982,"keywords":["nocrits","nodmgspread","payload","uncletopia"],"game_id":440,"stv_port":27016,"stv_name":"Uncletopia | Atlanta | 1 | All Maps | STV","players":[{"user_id":673,"name":"jsparks00","steam_id":76561198355516166,"connected_time":133000000000,"state":"active","ping":123},{"user_id":651,"name":"☙ Corrupt ❧","steam_id":76561197977631915,"connected_time":1865000000000,"state":"active","ping":65},{"user_id":655,"name":"Plains Phoenix","steam_id":76561198817161299,"connected_time":981000000000,"state":"active","ping":59},{"user_id":620,"name":"guappodiablo2","steam_id":76561198132087785,"connected_time":5370000000000,"state":"active","ping":70},{"user_id":666,"name":"Likely Scripting|Bitch Im Geeke","steam_id":76561199173343569,"connected_time":299000000000,"state":"active","ping":64},{"user_id":633,"name":"Shmoopy","steam_id":76561198030459152,"connected_time":2953000000000,"state":"active","ping":61},{"user_id":668,"name":"kittenkitchen24","steam_id":76561199171056489,"connected_time":283000000000,"state":"active","ping":94},{"user_id":674,"name":"Zekn","steam_id":76561198047686236,"connected_time":74000000000,"state":"active","ping":76},{"user_id":658,"name":"hey beautiful!","steam_id":76561198224614084,"connected_time":885000000000,"state":"active","ping":68},{"user_id":659,"name":"Generic Name","steam_id":76561198840019488,"connected_time":824000000000,"state":"active","ping":93},{"user_id":648,"name":"xZackAttack27x","steam_id":76561198035446639,"connected_time":2034000000000,"state":"active","ping":61},{"user_id":660,"name":"Humi","steam_id":76561198016692337,"connected_time":779000000000,"state":"active","ping":110},{"user_id":671,"name":"Nerf Gun Survivor","steam_id":76561198036032168,"connected_time":184000000000,"state":"active","ping":72},{"user_id":614,"name":"Rose","steam_id":76561198068421587,"connected_time":5651000000000,"state":"active","ping":105},{"user_id":629,"name":"Abbashea","steam_id":76561199182136969,"connected_time":3241000000000,"state":"active","ping":101},{"user_id":661,"name":"FemboyNate","steam_id":76561198146636410,"connected_time":768000000000,"state":"active","ping":74},{"user_id":670,"name":"nooobness611","steam_id":76561198252586536,"connected_time":217000000000,"state":"active","ping":103},{"user_id":672,"name":"immortalwon","steam_id":76561198009384724,"connected_time":164000000000,"state":"active","ping":118},{"user_id":669,"name":"gangstalker","steam_id":76561198363267009,"connected_time":225000000000,"state":"active","ping":69},{"user_id":667,"name":"Anika","steam_id":76561198276724202,"connected_time":289000000000,"state":"active","ping":75},{"user_id":617,"name":"Egg","steam_id":76561198408593857,"connected_time":5433000000000,"state":"active","ping":64},{"user_id":665,"name":"geg","steam_id":76561197999690786,"connected_time":483000000000,"state":"active","ping":73},{"user_id":636,"name":"hello","steam_id":76561198063595962,"connected_time":2168000000000,"state":"active","ping":169}]},{"server_id":400,"name":"Uncletopia | Atlanta | 3 | Stopwatch Beta","name_short":"atl-3","host":"atl-1.us.uncletopia.com","port":27035,"enabled":true,"region":"us-east","cc":"us","latitude":33.753746,"longitude":-84.38633,"reserved":0,"last_update":"0001-01-01T00:00:00Z","name_a2s":"Uncletopia | Atlanta | 3 | Stopwatch Beta","protocol":17,"map":"cp_sunshine","folder":"tf","game":"Team Fortress","app_id":440,"player_count":0,"max_players":24,"Bots":0,"server_type":"Dedicated","server_os":"Linux","password":true,"vac":true,"version":"7742253","steam_id":85568392924515187,"keywords":["cp","nocrits","nodmgspread","uncletopia"],"game_id":440,"stv_port":27036,"stv_name":"Uncletopia | Atlanta | 3 | Stopwatch Beta | STV","players":null},{"server_id":401,"name":"Uncletopia | Atlanta | 4 | No Payload","name_short":"atl-4","host":"atl-1.us.uncletopia.com","port":27045,"enabled":true,"region":"us-east","cc":"us","latitude":33.753746,"longitude":-84.38633,"reserved":0,"last_update":"0001-01-01T00:00:00Z","name_a2s":"Uncletopia | Atlanta | 4 | No Payload","protocol":17,"map":"pl_pier","folder":"tf","game":"Team Fortress","app_id":440,"player_count":0,"max_players":24,"Bots":0,"server_type":"Dedicated","server_os":"Linux","password":true,"vac":true,"version":"7723704","steam_id":85568392924515188,"keywords":["nocrits","nodmgspread","payload","uncletopia"],"game_id":440,"stv_port":27046,"stv_name":"Uncletopia | Atlanta | 4 | No Payload | STV","players":null},{"server_id":2,"name":"Uncletopia | Chicago | 1 | All Maps","name_short":"chi-1","host":"chi-1.us.uncletopia.com","port":27015,"enabled":true,"region":"us-central","cc":"us","latitude":41.881832,"longitude":-87.62318,"reserved":0,"last_update":"0001-01-01T00:00:00Z","name_a2s":"Uncletopia | Chicago | 1 | All Maps","protocol":17,"map":"pl_frontier_final","folder":"tf","game":"Team Fortress","app_id":440,"player_count":20,"max_players":24,"Bots":0,"server_type":"Dedicated","server_os":"Linux","password":true,"vac":true,"version":"7742253","steam_id":85568392924469984,"keywords":["nocrits","nodmgspread","payload","uncletopia"],"game_id":440,"stv_port":27016,"stv_name":"Uncletopia | Chicago | 1 | All Maps | STV","players":[{"user_id":821,"name":"violetcassette","steam_id":76561199028224555,"connected_time":2934000000000,"state":"active","ping":93},{"user_id":835,"name":"Female Gamer","steam_id":76561199366482682,"connected_time":258000000000,"state":"active","ping":95},{"user_id":827,"name":"radical larry","steam_id":76561198172246829,"connected_time":1116000000000,"state":"active","ping":38},{"user_id":798,"name":"peter griffin","steam_id":76561198079485096,"connected_time":6071000000000,"state":"active","ping":77},{"user_id":810,"name":"SWISS!","steam_id":76561198271971252,"connected_time":3945000000000,"state":"active","ping":72},{"user_id":832,"name":"Adrena1ine","steam_id":76561198393206876,"connected_time":521000000000,"state":"active","ping":77},{"user_id":836,"name":"♀Gaming in a dress♀","steam_id":76561198177067938,"connected_time":241000000000,"state":"active","ping":48},{"user_id":824,"name":"Aribari","steam_id":76561198117327938,"connected_time":2088000000000,"state":"active","ping":62},{"user_id":834,"name":"Bishop","steam_id":76561197997899507,"connected_time":352000000000,"state":"active","ping":78},{"user_id":830,"name":"Marceline the Vampire Queen","steam_id":76561198322969864,"connected_time":702000000000,"state":"active","ping":83},{"user_id":811,"name":"Adversarry","steam_id":76561198964350076,"connected_time":3926000000000,"state":"active","ping":46},{"user_id":804,"name":"Legion","steam_id":76561199036242643,"connected_time":4195000000000,"state":"active","ping":62},{"user_id":842,"name":"JFK Gamer","steam_id":76561199229169396,"connected_time":35000000000,"state":"active","ping":66},{"user_id":770,"name":"Jolly evil little man","steam_id":76561198311053471,"connected_time":9386000000000,"state":"active","ping":76},{"user_id":840,"name":"xFactr","steam_id":76561198129007422,"connected_time":104000000000,"state":"active","ping":57},{"user_id":839,"name":"Ryan Lewis truther","steam_id":76561198050505826,"connected_time":123000000000,"state":"active","ping":80},{"user_id":843,"name":"Mr. Soupman","steam_id":76561198021649598,"connected_time":12000000000,"state":"active","ping":54},{"user_id":826,"name":"Cliff Gremlin","steam_id":76561198409907417,"connected_time":1177000000000,"state":"active","ping":110},{"user_id":776,"name":"the deadliest pyroshark","steam_id":76561198374227766,"connected_time":9092000000000,"state":"active","ping":61}]},{"server_id":106,"name":"Uncletopia | Chicago | 2 | All Maps","name_short":"chi-2","host":"chi-1.us.uncletopia.com","port":27025,"enabled":true,"region":"us-central","cc":"us","latitude":41.881832,"longitude":-87.62318,"reserved":0,"last_update":"0001-01-01T00:00:00Z","name_a2s":"Uncletopia | Chicago | 2 | All Maps","protocol":17,"map":"pl_upward","folder":"tf","game":"Team Fortress","app_id":440,"player_count":24,"max_players":24,"Bots":0,"server_type":"Dedicated","server_os":"Linux","password":true,"vac":true,"version":"7742253","steam_id":85568392924469985,"keywords":["nocrits","nodmgspread","payload","uncletopia"],"game_id":440,"stv_port":27026,"stv_name":"Uncletopia | Chicago | 2 | All Maps | STV","players":[{"user_id":716,"name":"BigSchwif","steam_id":76561198007976941,"connected_time":8023000000000,"state":"active","ping":76},{"user_id":771,"name":"Semi","steam_id":76561199105889252,"connected_time":2859000000000,"state":"active","ping":166},{"user_id":770,"name":"walito12","steam_id":76561198244902626,"connected_time":3311000000000,"state":"active","ping":110},{"user_id":759,"name":"SensualNic","steam_id":76561198042566460,"connected_time":4815000000000,"state":"active","ping":70},{"user_id":679,"name":"Shuzzilay","steam_id":76561197969138678,"connected_time":10663000000000,"state":"active","ping":68},{"user_id":773,"name":"can my wife use your toilet","steam_id":76561198120973162,"connected_time":2821000000000,"state":"active","ping":78},{"user_id":774,"name":"kairOs.fk","steam_id":76561197972421260,"connected_time":2820000000000,"state":"active","ping":60},{"user_id":777,"name":"Lore","steam_id":76561198098407538,"connected_time":946000000000,"state":"active","ping":47},{"user_id":692,"name":"whizwit","steam_id":76561198011759651,"connected_time":10044000000000,"state":"active","ping":150},{"user_id":781,"name":"Lavender","steam_id":76561198142770666,"connected_time":66000000000,"state":"active","ping":58},{"user_id":655,"name":"Squid121","steam_id":76561198038832034,"connected_time":12114000000000,"state":"active","ping":95},{"user_id":762,"name":"femineralization","steam_id":76561198090412935,"connected_time":4608000000000,"state":"active","ping":81},{"user_id":602,"name":"you are loved","steam_id":76561198108524571,"connected_time":16288000000000,"state":"active","ping":72},{"user_id":752,"name":"Gooey Gaped Grannys","steam_id":76561198089731303,"connected_time":5463000000000,"state":"active","ping":85},{"user_id":760,"name":"knip","steam_id":76561198147061182,"connected_time":4661000000000,"state":"active","ping":78},{"user_id":775,"name":"Merry Yaoimas","steam_id":76561198111290441,"connected_time":2516000000000,"state":"active","ping":52},{"user_id":780,"name":"Gibus Man","steam_id":76561198257241062,"connected_time":730000000000,"state":"active","ping":90},{"user_id":766,"name":"NovaSc6ut","steam_id":76561198277163301,"connected_time":4264000000000,"state":"active","ping":63},{"user_id":647,"name":"A Puppy","steam_id":76561198828184456,"connected_time":13025000000000,"state":"active","ping":60},{"user_id":782,"name":"Your Dad","steam_id":76561199273830609,"connected_time":54000000000,"state":"active","ping":125},{"user_id":733,"name":"Ace Chromatica","steam_id":76561198042211131,"connected_time":7094000000000,"state":"active","ping":51},{"user_id":761,"name":"Nickson1","steam_id":76561198175839309,"connected_time":4619000000000,"state":"active","ping":64},{"user_id":764,"name":"Joseph \"Biden\" Stalin","steam_id":76561198213863907,"connected_time":4568000000000,"state":"active","ping":149},{"user_id":767,"name":"Phillip Jeffries","steam_id":76561198064052174,"connected_time":3899000000000,"state":"active","ping":60}]},{"server_id":402,"name":"Uncletopia | Chicago | 3 | All Maps","name_short":"chi-3","host":"chi-1.us.uncletopia.com","port":27035,"enabled":true,"region":"us-central","cc":"us","latitude":41.881832,"longitude":-87.62318,"reserved":0,"last_update":"0001-01-01T00:00:00Z","name_a2s":"Uncletopia | Chicago | 3 | All Maps","protocol":17,"map":"pl_borneo","folder":"tf","game":"Team Fortress","app_id":440,"player_count":16,"max_players":24,"Bots":0,"server_type":"Dedicated","server_os":"Linux","password":true,"vac":true,"version":"7742253","steam_id":85568392924515191,"keywords":["nocrits","nodmgspread","payload","uncletopia"],"game_id":440,"stv_port":27036,"stv_name":"Uncletopia | Chicago | 3 | All Maps | STV","players":[{"user_id":699,"name":"Julia","steam_id":76561198175727790,"connected_time":2065000000000,"state":"active","ping":96},{"user_id":732,"name":"JuiceBoxoi","steam_id":76561198892677253,"connected_time":97000000000,"state":"active","ping":48},{"user_id":726,"name":"jayy.t","steam_id":76561198059575962,"connected_time":758000000000,"state":"active","ping":48},{"user_id":733,"name":"JZ","steam_id":76561198377029198,"connected_time":7000000000,"state":"spawning","ping":244},{"user_id":652,"name":"weeb_whacker #Jenius","steam_id":76561198187098041,"connected_time":4198000000000,"state":"active","ping":57},{"user_id":734,"name":"*alias*","steam_id":76561199102293508,"connected_time":1000000000,"state":"spawning","ping":78},{"user_id":728,"name":"roughly 7 italians","steam_id":76561199443213821,"connected_time":517000000000,"state":"active","ping":148},{"user_id":682,"name":"Mr.Silver","steam_id":76561198156382508,"connected_time":2792000000000,"state":"active","ping":56},{"user_id":709,"name":"TÖZI","steam_id":76561198045268695,"connected_time":1426000000000,"state":"active","ping":60},{"user_id":677,"name":"jj874181","steam_id":76561199455124144,"connected_time":3003000000000,"state":"active","ping":117},{"user_id":667,"name":"josh","steam_id":76561198111565081,"connected_time":3298000000000,"state":"active","ping":108},{"user_id":730,"name":"quacked!","steam_id":76561198970819395,"connected_time":449000000000,"state":"active","ping":84},{"user_id":689,"name":"MR.Badatgames","steam_id":76561198820423721,"connected_time":2674000000000,"state":"active","ping":56},{"user_id":722,"name":"SoggyOreos","steam_id":76561198139240925,"connected_time":930000000000,"state":"active","ping":65},{"user_id":731,"name":"boofgall319","steam_id":76561199122095813,"connected_time":433000000000,"state":"active","ping":71},{"user_id":713,"name":"Yodeadclick","steam_id":76561199132056906,"connected_time":1327000000000,"state":"active","ping":58}]},{"server_id":403,"name":"Uncletopia | Chicago | 4 | All Maps","name_short":"chi-4","host":"chi-1.us.uncletopia.com","port":27045,"enabled":true,"region":"us-central","cc":"us","latitude":41.881832,"longitude":-87.62318,"reserved":0,"last_update":"0001-01-01T00:00:00Z","name_a2s":"Uncletopia | Chicago | 4 | All Maps","protocol":17,"map":"pl_barnblitz","folder":"tf","game":"Team Fortress","app_id":440,"player_count":24,"max_players":24,"Bots":0,"server_type":"Dedicated","server_os":"Linux","password":true,"vac":true,"version":"7742253","steam_id":85568392924515193,"keywords":["nocrits","nodmgspread","payload","uncletopia"],"game_id":440,"stv_port":27046,"stv_name":"Uncletopia | Chicago | 4 | All Maps | STV","players":[{"user_id":674,"name":"HanakoToast","steam_id":76561198045233131,"connected_time":1152000000000,"state":"active","ping":94},{"user_id":671,"name":"WhoIsFrosty","steam_id":76561198880588117,"connected_time":1534000000000,"state":"active","ping":58},{"user_id":683,"name":"Ace Attorney","steam_id":76561198133011705,"connected_time":64000000000,"state":"active","ping":66},{"user_id":667,"name":"Vaude","steam_id":76561198369187511,"connected_time":1754000000000,"state":"active","ping":73},{"user_id":679,"name":"loyaldandan0764","steam_id":76561199231020424,"connected_time":185000000000,"state":"active","ping":224},{"user_id":492,"name":"Zubats |TAOZ|","steam_id":76561198041819445,"connected_time":7899000000000,"state":"active","ping":49},{"user_id":621,"name":"Némiscau","steam_id":76561198257979613,"connected_time":4531000000000,"state":"active","ping":86},{"user_id":680,"name":"dzcreeper","steam_id":76561198072250723,"connected_time":175000000000,"state":"active","ping":75},{"user_id":622,"name":"foura","steam_id":76561198181972739,"connected_time":4526000000000,"state":"active","ping":95},{"user_id":676,"name":"tranquil monk arc","steam_id":76561198185980055,"connected_time":647000000000,"state":"active","ping":60},{"user_id":644,"name":"LAMMY FROM UM JAMMER LAMMY","steam_id":76561199013140117,"connected_time":3094000000000,"state":"active","ping":105},{"user_id":661,"name":"CFDv20","steam_id":76561198450073779,"connected_time":2002000000000,"state":"active","ping":103},{"user_id":684,"name":"Reloadstudios","steam_id":76561198064775507,"connected_time":5000000000,"state":"spawning","ping":86},{"user_id":651,"name":"Van","steam_id":76561198073518712,"connected_time":2696000000000,"state":"active","ping":120},{"user_id":677,"name":"ratboy","steam_id":76561198087649133,"connected_time":568000000000,"state":"active","ping":82},{"user_id":658,"name":"baja blatsune miku","steam_id":76561198402783260,"connected_time":2133000000000,"state":"active","ping":49},{"user_id":647,"name":"Sovulous","steam_id":76561198045389233,"connected_time":2971000000000,"state":"active","ping":68},{"user_id":659,"name":"turveyy","steam_id":76561198283507975,"connected_time":2129000000000,"state":"active","ping":69},{"user_id":675,"name":"Autozone Mechanic","steam_id":76561198077030510,"connected_time":1133000000000,"state":"active","ping":59},{"user_id":681,"name":"dunk on em","steam_id":76561197988279147,"connected_time":156000000000,"state":"active","ping":95},{"user_id":682,"name":"shokie","steam_id":76561197997961542,"connected_time":146000000000,"state":"active","ping":66},{"user_id":672,"name":"Rabbitone","steam_id":76561198132691749,"connected_time":1458000000000,"state":"active","ping":102},{"user_id":634,"name":"Trusty","steam_id":76561198035444237,"connected_time":3534000000000,"state":"active","ping":70},{"user_id":648,"name":"Spider","steam_id":76561198051430727,"connected_time":2939000000000,"state":"active","ping":84}]},{"server_id":36,"name":"Uncletopia | Chicago | 5 | All Maps","name_short":"chi-5","host":"chi-2.us.uncletopia.com","port":27015,"enabled":true,"region":"us-central","cc":"us","latitude":41.881832,"longitude":-87.62318,"reserved":0,"last_update":"0001-01-01T00:00:00Z","name_a2s":"Uncletopia | Chicago | 5 | All Maps","protocol":17,"map":"koth_cascade","folder":"tf","game":"Team Fortress","app_id":440,"player_count":0,"max_players":24,"Bots":0,"server_type":"Dedicated","server_os":"Linux","password":true,"vac":true,"version":"7742253","steam_id":85568392924866362,"keywords":["cp","nocrits","nodmgspread","uncletopia"],"game_id":440,"stv_port":27016,"stv_name":"Uncletopia | Chicago | 5 | All Maps | STV","players":null},{"server_id":37,"name":"Uncletopia | Chicago | 6 | All Maps","name_short":"chi-6","host":"chi-2.us.uncletopia.com","port":27025,"enabled":true,"region":"us-central","cc":"us","latitude":41.881832,"longitude":-87.62318,"reserved":0,"last_update":"0001-01-01T00:00:00Z","name_a2s":"Uncletopia | Chicago | 6 | All Maps","protocol":17,"map":"cp_process_final","folder":"tf","game":"Team Fortress","app_id":440,"player_count":0,"max_players":24,"Bots":0,"server_type":"Dedicated","server_os":"Linux","password":true,"vac":true,"version":"7742253","steam_id":85568392924866363,"keywords":["cp","nocrits","nodmgspread","uncletopia"],"game_id":440,"stv_port":27026,"stv_name":"Uncletopia | Chicago | 6 | All Maps | STV","players":null},{"server_id":38,"name":"Uncletopia | Chicago | 7 | Stopwatch Beta","name_short":"chi-7","host":"chi-2.us.uncletopia.com","port":27035,"enabled":true,"region":"us-central","cc":"us","latitude":41.881832,"longitude":-87.62318,"reserved":0,"last_update":"0001-01-01T00:00:00Z","name_a2s":"Uncletopia | Chicago | 7 | Stopwatch Beta","protocol":17,"map":"workshop/pl_barnblitz_pro7.ugc582280235","folder":"tf","game":"Team Fortress","app_id":440,"player_count":0,"max_players":24,"Bots":0,"server_type":"Dedicated","server_os":"Linux","password":true,"vac":true,"version":"7742253","steam_id":85568392924866364,"keywords":["nocrits","nodmgspread","payload","uncletopia"],"game_id":440,"stv_port":27036,"stv_name":"Uncletopia | Chicago | 7 | Stopwatch Beta | STV","players":null},{"server_id":39,"name":"Uncletopia | Chicago | 8 | Community","name_short":"chi-8","host":"chi-2.us.uncletopia.com","port":27045,"enabled":true,"region":"us-central","cc":"us","latitude":41.881832,"longitude":-87.62318,"reserved":0,"last_update":"0001-01-01T00:00:00Z","name_a2s":"Uncletopia | Chicago | 8 | Community","protocol":17,"map":"koth_lakeside_final","folder":"tf","game":"Team Fortress","app_id":440,"player_count":0,"max_players":24,"Bots":0,"server_type":"Dedicated","server_os":"Linux","password":true,"vac":true,"version":"7742253","steam_id":85568392924866365,"keywords":["cp","nocrits","nodmgspread","uncletopia"],"game_id":440,"stv_port":27046,"stv_name":"Uncletopia | Chicago | 8 | Community | STV","players":null},{"server_id":8,"name":"Uncletopia | Dallas | 1 | All Maps","name_short":"dal-1","host":"dal-1.us.uncletopia.com","port":27015,"enabled":true,"region":"us-central","cc":"us","latitude":32.779167,"longitude":-96.80889,"reserved":0,"last_update":"0001-01-01T00:00:00Z","name_a2s":"Uncletopia | Dallas | 1 | All Maps","protocol":17,"map":"pl_wutville_event","folder":"tf","game":"Team Fortress","app_id":440,"player_count":24,"max_players":24,"Bots":0,"server_type":"Dedicated","server_os":"Linux","password":true,"vac":true,"version":"7742253","steam_id":85568392924469986,"keywords":["nocrits","nodmgspread","payload","uncletopia"],"game_id":440,"stv_port":27016,"stv_name":"Uncletopia | Dallas | 1 | All Maps | STV","players":[{"user_id":472,"name":"BIG HOG","steam_id":76561198079923652,"connected_time":859000000000,"state":"active","ping":54},{"user_id":485,"name":"Albino Jellyfish","steam_id":76561198208561097,"connected_time":149000000000,"state":"active","ping":77},{"user_id":455,"name":"Sdehv2","steam_id":76561198067719497,"connected_time":1998000000000,"state":"active","ping":41},{"user_id":402,"name":"Pepsi-Man","steam_id":76561198052061790,"connected_time":7014000000000,"state":"active","ping":87},{"user_id":429,"name":"Etomb","steam_id":76561198210017208,"connected_time":4162000000000,"state":"active","ping":91},{"user_id":389,"name":"sil","steam_id":76561198046650995,"connected_time":7433000000000,"state":"active","ping":47},{"user_id":421,"name":"bad spy player","steam_id":76561198873699671,"connected_time":5277000000000,"state":"active","ping":85},{"user_id":477,"name":"Festive Turnip","steam_id":76561198215801344,"connected_time":491000000000,"state":"active","ping":53},{"user_id":478,"name":"SumTingWong","steam_id":76561198119286222,"connected_time":476000000000,"state":"active","ping":62},{"user_id":468,"name":"ManiacalPotato","steam_id":76561198055603041,"connected_time":1077000000000,"state":"active","ping":38},{"user_id":434,"name":"StarManMatt","steam_id":76561198125513574,"connected_time":3287000000000,"state":"active","ping":92},{"user_id":479,"name":"Pyro410","steam_id":76561199241277109,"connected_time":472000000000,"state":"active","ping":71},{"user_id":393,"name":"HumFreY","steam_id":76561198076639682,"connected_time":7348000000000,"state":"active","ping":95},{"user_id":443,"name":"UnlimitedRune","steam_id":76561199170761237,"connected_time":3088000000000,"state":"active","ping":43},{"user_id":457,"name":"Oshawott82","steam_id":76561198122783743,"connected_time":1857000000000,"state":"active","ping":64},{"user_id":480,"name":"DF46","steam_id":76561198381627021,"connected_time":448000000000,"state":"active","ping":51},{"user_id":456,"name":"a bucket of chicken","steam_id":76561198023710042,"connected_time":1859000000000,"state":"active","ping":53},{"user_id":459,"name":"Omegalite","steam_id":76561198796787101,"connected_time":1846000000000,"state":"active","ping":49},{"user_id":450,"name":"Branos","steam_id":76561198396414319,"connected_time":2471000000000,"state":"active","ping":81},{"user_id":417,"name":"little hog","steam_id":76561199230929836,"connected_time":5821000000000,"state":"active","ping":55},{"user_id":474,"name":"IntravenusDeMilo","steam_id":76561197970629020,"connected_time":660000000000,"state":"active","ping":95},{"user_id":481,"name":"Xernnu","steam_id":76561198316618177,"connected_time":441000000000,"state":"active","ping":74},{"user_id":482,"name":"festive jester","steam_id":76561198079609974,"connected_time":411000000000,"state":"active","ping":82},{"user_id":483,"name":"DeckofDragons","steam_id":76561198057398213,"connected_time":343000000000,"state":"active","ping":71}]},{"server_id":108,"name":"Uncletopia | Dallas | 2 | All Maps","name_short":"dal-2","host":"dal-1.us.uncletopia.com","port":27025,"enabled":true,"region":"us-central","cc":"us","latitude":32.779167,"longitude":-96.80889,"reserved":0,"last_update":"0001-01-01T00:00:00Z","name_a2s":"Uncletopia | Dallas | 2 | All Maps","protocol":17,"map":"cp_process_final","folder":"tf","game":"Team Fortress","app_id":440,"player_count":0,"max_players":24,"Bots":0,"server_type":"Dedicated","server_os":"Linux","password":true,"vac":true,"version":"7742253","steam_id":85568392924469988,"keywords":["cp","nocrits","nodmgspread","uncletopia"],"game_id":440,"stv_port":27026,"stv_name":"Uncletopia | Dallas | 2 | All Maps | STV","players":null},{"server_id":5,"name":"Uncletopia | Frankfurt | 1 | All Maps","name_short":"frk-1","host":"frk-1.de.uncletopia.com","port":27015,"enabled":true,"region":"eu","cc":"de","latitude":50.110924,"longitude":8.682127,"reserved":0,"last_update":"0001-01-01T00:00:00Z","name_a2s":"Uncletopia | Frankfurt | 1 | All Maps","protocol":17,"map":"pl_borneo","folder":"tf","game":"Team Fortress","app_id":440,"player_count":0,"max_players":24,"Bots":0,"server_type":"Dedicated","server_os":"Linux","password":true,"vac":true,"version":"7742253","steam_id":85568392924469989,"keywords":["nocrits","nodmgspread","payload","uncletopia"],"game_id":440,"stv_port":27016,"stv_name":"Uncletopia | Frankfurt | 1 | All Maps | STV","players":null},{"server_id":110,"name":"Uncletopia | Frankfurt | 2 | All Maps","name_short":"frk-2","host":"frk-1.de.uncletopia.com","port":27025,"enabled":true,"region":"eu","cc":"de","latitude":50.110924,"longitude":8.682127,"reserved":0,"last_update":"0001-01-01T00:00:00Z","name_a2s":"Uncletopia | Frankfurt | 2 | All Maps","protocol":17,"map":"pl_swiftwater_final1","folder":"tf","game":"Team Fortress","app_id":440,"player_count":0,"max_players":24,"Bots":0,"server_type":"Dedicated","server_os":"Linux","password":true,"vac":true,"version":"7742253","steam_id":85568392924469990,"keywords":["nocrits","nodmgspread","payload","uncletopia"],"game_id":440,"stv_port":27026,"stv_name":"Uncletopia | Frankfurt | 2 | All Maps | STV","players":null},{"server_id":308,"name":"Uncletopia | Frankfurt | 3 | All Maps","name_short":"frk-3","host":"frk-1.de.uncletopia.com","port":27035,"enabled":true,"region":"eu","cc":"de","latitude":50.110924,"longitude":8.682127,"reserved":0,"last_update":"0001-01-01T00:00:00Z","name_a2s":"Uncletopia | Frankfurt | 3 | All Maps","protocol":17,"map":"cp_dustbowl","folder":"tf","game":"Team Fortress","app_id":440,"player_count":0,"max_players":24,"Bots":0,"server_type":"Dedicated","server_os":"Linux","password":true,"vac":true,"version":"7742253","steam_id":85568392924504274,"keywords":["cp","nocrits","nodmgspread","uncletopia"],"game_id":440,"stv_port":27036,"stv_name":"Uncletopia | Frankfurt | 3 | All Maps | STV","players":null},{"server_id":309,"name":"Uncletopia | Frankfurt | 4 | All Maps","name_short":"frk-4","host":"frk-1.de.uncletopia.com","port":27045,"enabled":true,"region":"eu","cc":"de","latitude":50.110924,"longitude":8.682127,"reserved":0,"last_update":"0001-01-01T00:00:00Z","name_a2s":"Uncletopia | Frankfurt | 4 | All Maps","protocol":17,"map":"cp_snakewater_final1","folder":"tf","game":"Team Fortress","app_id":440,"player_count":0,"max_players":24,"Bots":0,"server_type":"Dedicated","server_os":"Linux","password":true,"vac":true,"version":"7742253","steam_id":85568392924504275,"keywords":["cp","nocrits","nodmgspread","uncletopia"],"game_id":440,"stv_port":27046,"stv_name":"Uncletopia | Frankfurt | 4 | All Maps | STV","players":null},{"server_id":310,"name":"Uncletopia | Frankfurt | 5 | All Maps","name_short":"frk-5","host":"frk-1.de.uncletopia.com","port":27055,"enabled":true,"region":"eu","cc":"de","latitude":50.110924,"longitude":8.682127,"reserved":0,"last_update":"0001-01-01T00:00:00Z","name_a2s":"Uncletopia | Frankfurt | 5 | All Maps","protocol":17,"map":"koth_highpass","folder":"tf","game":"Team Fortress","app_id":440,"player_count":0,"max_players":24,"Bots":0,"server_type":"Dedicated","server_os":"Linux","password":true,"vac":true,"version":"7742253","steam_id":85568392924504277,"keywords":["cp","nocrits","nodmgspread","uncletopia"],"game_id":440,"stv_port":27056,"stv_name":"Uncletopia | Frankfurt | 5 | All Maps | STV","players":null},{"server_id":311,"name":"Uncletopia | Frankfurt | 6 | All Maps","name_short":"frk-6","host":"frk-1.de.uncletopia.com","port":27065,"enabled":true,"region":"eu","cc":"de","latitude":50.110924,"longitude":8.682127,"reserved":0,"last_update":"0001-01-01T00:00:00Z","name_a2s":"Uncletopia | Frankfurt | 6 | All Maps","protocol":17,"map":"koth_lakeside_final","folder":"tf","game":"Team Fortress","app_id":440,"player_count":0,"max_players":24,"Bots":0,"server_type":"Dedicated","server_os":"Linux","password":true,"vac":true,"version":"7742253","steam_id":85568392924504278,"keywords":["cp","nocrits","nodmgspread","uncletopia"],"game_id":440,"stv_port":27066,"stv_name":"Uncletopia | Frankfurt | 6 | All Maps | STV","players":null},{"server_id":23,"name":"Uncletopia | Frankfurt | 7 | Stopwatch Beta","name_short":"frk-7","host":"frk-1.de.uncletopia.com","port":27075,"enabled":true,"region":"eu","cc":"de","latitude":50.110924,"longitude":8.682127,"reserved":0,"last_update":"0001-01-01T00:00:00Z","name_a2s":"Uncletopia | Frankfurt | 7 | Stopwatch Beta","protocol":17,"map":"workshop/koth_bagel_rc5.ugc2514036946","folder":"tf","game":"Team Fortress","app_id":440,"player_count":0,"max_players":24,"Bots":0,"server_type":"Dedicated","server_os":"Linux","password":true,"vac":true,"version":"7742253","steam_id":85568392924742827,"keywords":["cp","nocrits","nodmgspread","uncletopia"],"game_id":440,"stv_port":27076,"stv_name":"Uncletopia | Frankfurt | 7 | Stopwatch Beta | STV","players":null},{"server_id":24,"name":"Uncletopia | Frankfurt | 8 | Community","name_short":"frk-8","host":"frk-1.de.uncletopia.com","port":27085,"enabled":true,"region":"eu","cc":"de","latitude":50.110924,"longitude":8.682127,"reserved":0,"last_update":"0001-01-01T00:00:00Z","name_a2s":"Uncletopia | Frankfurt | 8 | Community","protocol":17,"map":"koth_cascade","folder":"tf","game":"Team Fortress","app_id":440,"player_count":0,"max_players":24,"Bots":0,"server_type":"Dedicated","server_os":"Linux","password":true,"vac":true,"version":"7742253","steam_id":85568392924742828,"keywords":["cp","nocrits","nodmgspread","uncletopia"],"game_id":440,"stv_port":27086,"stv_name":"Uncletopia | Frankfurt | 8 | Community | STV","players":null},{"server_id":202,"name":"Uncletopia | Hong Kong | 1 | All Maps","name_short":"hgk-1","host":"hgk-1.hk.uncletopia.com","port":27015,"enabled":true,"region":"asia","cc":"hk","latitude":22.302711,"longitude":114.177216,"reserved":0,"last_update":"0001-01-01T00:00:00Z","name_a2s":"Uncletopia | Hong Kong | 1 | All Maps","protocol":17,"map":"pl_badwater","folder":"tf","game":"Team Fortress","app_id":440,"player_count":24,"max_players":24,"Bots":0,"server_type":"Dedicated","server_os":"Linux","password":true,"vac":true,"version":"7742253","steam_id":85568392924494504,"keywords":["nocrits","nodmgspread","payload","uncletopia"],"game_id":440,"stv_port":27016,"stv_name":"Uncletopia | Hong Kong | 1 | All Maps | STV","players":[{"user_id":276,"name":"JayJ","steam_id":76561198324008555,"connected_time":5042000000000,"state":"active","ping":60},{"user_id":337,"name":":)","steam_id":76561198437941450,"connected_time":1347000000000,"state":"active","ping":76},{"user_id":348,"name":"big poo (training arc)","steam_id":76561199104552936,"connected_time":1298000000000,"state":"active","ping":115},{"user_id":175,"name":"Lu","steam_id":76561198320532821,"connected_time":9520000000000,"state":"active","ping":57},{"user_id":278,"name":"Beef Wellington","steam_id":76561197995635241,"connected_time":4973000000000,"state":"active","ping":115},{"user_id":314,"name":"ZCary","steam_id":76561198173516050,"connected_time":4015000000000,"state":"active","ping":103},{"user_id":350,"name":"conq","steam_id":76561199110124835,"connected_time":1219000000000,"state":"active","ping":138},{"user_id":326,"name":"lettuce at 58p","steam_id":76561199401283123,"connected_time":2420000000000,"state":"active","ping":92},{"user_id":317,"name":"Clark Redgrave","steam_id":76561198247578638,"connected_time":3412000000000,"state":"active","ping":72},{"user_id":342,"name":"unchi","steam_id":76561197969873415,"connected_time":1324000000000,"state":"active","ping":107},{"user_id":293,"name":"trillionaire grindset sigma","steam_id":76561198160089663,"connected_time":4498000000000,"state":"active","ping":86},{"user_id":333,"name":"TomProPlayer","steam_id":76561199223292521,"connected_time":1512000000000,"state":"active","ping":68},{"user_id":343,"name":"Michael Scott","steam_id":76561198023082794,"connected_time":1321000000000,"state":"active","ping":49},{"user_id":349,"name":"goodly rotten apple","steam_id":76561198136506876,"connected_time":1229000000000,"state":"active","ping":76},{"user_id":298,"name":"Missile","steam_id":76561198375891540,"connected_time":4394000000000,"state":"active","ping":79},{"user_id":356,"name":"brizzard","steam_id":76561198048438653,"connected_time":337000000000,"state":"active","ping":50},{"user_id":358,"name":"Light Rainbow","steam_id":76561198118966673,"connected_time":160000000000,"state":"active","ping":44},{"user_id":354,"name":"r/leroy","steam_id":76561199137927625,"connected_time":446000000000,"state":"active","ping":97},{"user_id":340,"name":"MS PowerPoint","steam_id":76561198369523192,"connected_time":1342000000000,"state":"active","ping":66},{"user_id":347,"name":"Urotsuki","steam_id":76561198074339034,"connected_time":1315000000000,"state":"active","ping":76},{"user_id":164,"name":"Violezine","steam_id":76561199000502615,"connected_time":10707000000000,"state":"active","ping":82},{"user_id":309,"name":"UZ","steam_id":76561198179320563,"connected_time":4152000000000,"state":"active","ping":138},{"user_id":312,"name":"Kroma","steam_id":76561198440429955,"connected_time":4072000000000,"state":"active","ping":84},{"user_id":332,"name":"Mega 00F","steam_id":76561198962485791,"connected_time":1864000000000,"state":"active","ping":131}]},{"server_id":1,"name":"Uncletopia | Los Angeles | 1 | All Maps","name_short":"lax-1","host":"lax-1.us.uncletopia.com","port":27015,"enabled":true,"region":"us-west","cc":"us","latitude":33.94279,"longitude":-118.41004,"reserved":0,"last_update":"0001-01-01T00:00:00Z","name_a2s":"Uncletopia | Los Angeles | 1 | All Maps","protocol":17,"map":"koth_lakeside_final","folder":"tf","game":"Team Fortress","app_id":440,"player_count":0,"max_players":24,"Bots":0,"server_type":"Dedicated","server_os":"Linux","password":true,"vac":true,"version":"7742253","steam_id":85568392924469991,"keywords":["cp","nocrits","nodmgspread","uncletopia"],"game_id":440,"stv_port":27016,"stv_name":"Uncletopia | Los Angeles | 1 | All Maps | STV","players":null},{"server_id":112,"name":"Uncletopia | Los Angeles | 2 | All Maps","name_short":"lax-2","host":"lax-1.us.uncletopia.com","port":27025,"enabled":true,"region":"us-west","cc":"us","latitude":33.94279,"longitude":-118.41004,"reserved":0,"last_update":"0001-01-01T00:00:00Z","name_a2s":"Uncletopia | Los Angeles | 2 | All Maps","protocol":17,"map":"pl_snowycoast","folder":"tf","game":"Team Fortress","app_id":440,"player_count":24,"max_players":24,"Bots":0,"server_type":"Dedicated","server_os":"Linux","password":true,"vac":true,"version":"7742253","steam_id":85568392924469992,"keywords":["nocrits","nodmgspread","payload","uncletopia"],"game_id":440,"stv_port":27026,"stv_name":"Uncletopia | Los Angeles | 2 | All Maps | STV","players":[{"user_id":447,"name":"Doctor X (Michiko Daemon)","steam_id":76561199106264424,"connected_time":5378000000000,"state":"active","ping":94},{"user_id":356,"name":"Pyrotek⁴","steam_id":76561198072747672,"connected_time":13089000000000,"state":"active","ping":45},{"user_id":486,"name":"A 7/10","steam_id":76561198075814864,"connected_time":2448000000000,"state":"active","ping":118},{"user_id":496,"name":"hyperledz","steam_id":76561198807917808,"connected_time":1710000000000,"state":"active","ping":127},{"user_id":511,"name":"Knight","steam_id":76561198129638206,"connected_time":249000000000,"state":"active","ping":97},{"user_id":491,"name":"Pacman","steam_id":76561199466007022,"connected_time":1735000000000,"state":"active","ping":52},{"user_id":452,"name":"player 2","steam_id":76561198158952440,"connected_time":5325000000000,"state":"active","ping":67},{"user_id":510,"name":"Kershaw","steam_id":76561198000244778,"connected_time":411000000000,"state":"active","ping":84},{"user_id":446,"name":"Pog","steam_id":76561198957479336,"connected_time":5379000000000,"state":"active","ping":94},{"user_id":457,"name":"howtobepker","steam_id":76561198115053865,"connected_time":5133000000000,"state":"active","ping":75},{"user_id":448,"name":"kebo","steam_id":76561198237159430,"connected_time":5374000000000,"state":"active","ping":56},{"user_id":497,"name":"poey","steam_id":76561198865346767,"connected_time":1704000000000,"state":"active","ping":50},{"user_id":500,"name":"Yukihana","steam_id":76561198348354629,"connected_time":1670000000000,"state":"active","ping":44},{"user_id":454,"name":"Video game victim","steam_id":76561198308017082,"connected_time":5289000000000,"state":"active","ping":74},{"user_id":455,"name":"HELP ME!!!!!!!!!!!!!!!!!!!!","steam_id":76561198069229523,"connected_time":5281000000000,"state":"active","ping":63},{"user_id":509,"name":"ReallyItsRow","steam_id":76561198185023111,"connected_time":539000000000,"state":"active","ping":61},{"user_id":489,"name":"el Rey","steam_id":76561198105928603,"connected_time":1914000000000,"state":"active","ping":51},{"user_id":499,"name":"Frontier Psychiatrist","steam_id":76561198038689088,"connected_time":1695000000000,"state":"active","ping":118},{"user_id":503,"name":"Sarcastic Toaster","steam_id":76561198103175983,"connected_time":1142000000000,"state":"active","ping":60},{"user_id":506,"name":"Joker's Skull","steam_id":76561199185320627,"connected_time":952000000000,"state":"active","ping":91},{"user_id":474,"name":"HeroOfTime","steam_id":76561199096218001,"connected_time":3624000000000,"state":"active","ping":54},{"user_id":505,"name":"Alberto2104","steam_id":76561198094968873,"connected_time":985000000000,"state":"active","ping":56},{"user_id":508,"name":"mush","steam_id":76561198310089797,"connected_time":605000000000,"state":"active","ping":111},{"user_id":501,"name":"Knock on the sky and listen","steam_id":76561198077597130,"connected_time":1522000000000,"state":"active","ping":66}]},{"server_id":324,"name":"Uncletopia | Los Angeles | 3 | All Maps","name_short":"lax-3","host":"lax-1.us.uncletopia.com","port":27035,"enabled":true,"region":"us-west","cc":"us","latitude":33.94279,"longitude":-118.41004,"reserved":0,"last_update":"0001-01-01T00:00:00Z","name_a2s":"Uncletopia | Los Angeles | 3 | All Maps","protocol":17,"map":"koth_viaduct","folder":"tf","game":"Team Fortress","app_id":440,"player_count":24,"max_players":24,"Bots":0,"server_type":"Dedicated","server_os":"Linux","password":true,"vac":true,"version":"7742253","steam_id":85568392924510198,"keywords":["cp","nocrits","nodmgspread","uncletopia"],"game_id":440,"stv_port":27036,"stv_name":"Uncletopia | Los Angeles | 3 | All Maps | STV","players":[{"user_id":287,"name":"bdrakey1","steam_id":76561199217865228,"connected_time":1564000000000,"state":"active","ping":103},{"user_id":295,"name":"BackToSchoolAds","steam_id":76561198870281128,"connected_time":1333000000000,"state":"active","ping":82},{"user_id":270,"name":"SweetLou","steam_id":76561198064569582,"connected_time":3011000000000,"state":"active","ping":62},{"user_id":268,"name":"Dr Frasier Crane","steam_id":76561198071790583,"connected_time":3137000000000,"state":"active","ping":87},{"user_id":288,"name":"p9 brobtlcehc","steam_id":76561198043558709,"connected_time":1561000000000,"state":"active","ping":74},{"user_id":286,"name":"CorbOnTheCob","steam_id":76561198121944963,"connected_time":1598000000000,"state":"active","ping":87},{"user_id":292,"name":"Biggest Dude In Town 4U","steam_id":76561198070281464,"connected_time":1511000000000,"state":"active","ping":80},{"user_id":280,"name":"Killerofzombie23","steam_id":76561198799173778,"connected_time":2679000000000,"state":"active","ping":67},{"user_id":272,"name":"panda","steam_id":76561198025214612,"connected_time":2936000000000,"state":"active","ping":81},{"user_id":290,"name":"NeoN","steam_id":76561198117608366,"connected_time":1560000000000,"state":"active","ping":65},{"user_id":281,"name":"Frongus","steam_id":76561197979056451,"connected_time":2268000000000,"state":"active","ping":75},{"user_id":282,"name":"Rx Auntie","steam_id":76561198051618393,"connected_time":2226000000000,"state":"active","ping":59},{"user_id":293,"name":"feenjareen","steam_id":76561198125950530,"connected_time":1458000000000,"state":"active","ping":120},{"user_id":302,"name":"Dylanardo","steam_id":76561198294726950,"connected_time":626000000000,"state":"active","ping":114},{"user_id":300,"name":"thoughtographic","steam_id":76561198123607452,"connected_time":947000000000,"state":"active","ping":65},{"user_id":276,"name":"Bevan(The Manager)","steam_id":76561198073890273,"connected_time":2790000000000,"state":"active","ping":77},{"user_id":277,"name":"self sufficient kitten","steam_id":76561197960592612,"connected_time":2754000000000,"state":"active","ping":76},{"user_id":262,"name":"Arbiter Soul (Gimmickless)","steam_id":76561198067798973,"connected_time":3757000000000,"state":"active","ping":96},{"user_id":294,"name":"LovexLove","steam_id":76561199055842624,"connected_time":1447000000000,"state":"active","ping":88},{"user_id":303,"name":"I'm sorry in advance","steam_id":76561198087380785,"connected_time":371000000000,"state":"active","ping":45},{"user_id":253,"name":"SomethinS535","steam_id":76561198375850101,"connected_time":4335000000000,"state":"active","ping":48},{"user_id":278,"name":"mozzie","steam_id":76561198233647680,"connected_time":2750000000000,"state":"active","ping":60},{"user_id":283,"name":"Sasuri","steam_id":76561198404769732,"connected_time":2017000000000,"state":"active","ping":55},{"user_id":279,"name":"butt3r_","steam_id":76561198156374792,"connected_time":2742000000000,"state":"active","ping":69}]},{"server_id":25,"name":"Uncletopia | Los Angeles | 4 | Stopwatch Beta","name_short":"lax-4","host":"lax-1.us.uncletopia.com","port":27045,"enabled":true,"region":"us-west","cc":"us","latitude":33.94279,"longitude":-118.41004,"reserved":0,"last_update":"0001-01-01T00:00:00Z","name_a2s":"Uncletopia | Los Angeles | 4 | Stopwatch Beta","protocol":17,"map":"pl_borneo","folder":"tf","game":"Team Fortress","app_id":440,"player_count":0,"max_players":24,"Bots":0,"server_type":"Dedicated","server_os":"Linux","password":true,"vac":true,"version":"7742253","steam_id":85568392924510199,"keywords":["nocrits","nodmgspread","payload","uncletopia"],"game_id":440,"stv_port":27046,"stv_name":"Uncletopia | Los Angeles | 4 | Stopwatch Beta | STV","players":null},{"server_id":11,"name":"Uncletopia | London | 1 | All Maps","name_short":"lon-1","host":"lon-1.uk.uncletopia.com","port":27015,"enabled":true,"region":"eu","cc":"gb","latitude":51.509865,"longitude":-0.118092,"reserved":0,"last_update":"0001-01-01T00:00:00Z","name_a2s":"Uncletopia | London | 1 | All Maps","protocol":17,"map":"pl_borneo","folder":"tf","game":"Team Fortress","app_id":440,"player_count":0,"max_players":24,"Bots":0,"server_type":"Dedicated","server_os":"Linux","password":true,"vac":true,"version":"7742253","steam_id":85568392924367362,"keywords":["nocrits","nodmgspread","payload","uncletopia"],"game_id":440,"stv_port":27016,"stv_name":"Uncletopia | London | 1 | All Maps | STV","players":null},{"server_id":114,"name":"Uncletopia | London | 2 | All Maps","name_short":"lon-2","host":"lon-1.uk.uncletopia.com","port":27025,"enabled":true,"region":"eu","cc":"gb","latitude":51.509865,"longitude":-0.118092,"reserved":0,"last_update":"0001-01-01T00:00:00Z","name_a2s":"Uncletopia | London | 2 | All Maps","protocol":17,"map":"pl_badwater","folder":"tf","game":"Team Fortress","app_id":440,"player_count":24,"max_players":24,"Bots":0,"server_type":"Dedicated","server_os":"Linux","password":true,"vac":true,"version":"7742253","steam_id":85568392924470941,"keywords":["nocrits","nodmgspread","payload","uncletopia"],"game_id":440,"stv_port":27026,"stv_name":"Uncletopia | London | 2 | All Maps | STV","players":[{"user_id":60,"name":"juicymangoes","steam_id":76561198131670413,"connected_time":1013000000000,"state":"active","ping":61},{"user_id":31,"name":"Lazulura","steam_id":76561198103569919,"connected_time":2933000000000,"state":"active","ping":80},{"user_id":55,"name":"Chad IV","steam_id":76561198107767058,"connected_time":1374000000000,"state":"active","ping":88},{"user_id":33,"name":"lagzer","steam_id":76561198029295449,"connected_time":2903000000000,"state":"active","ping":84},{"user_id":8,"name":"IKARUS","steam_id":76561198850898422,"connected_time":5182000000000,"state":"active","ping":80},{"user_id":35,"name":"MonkeyBOYXD","steam_id":76561198156224952,"connected_time":2641000000000,"state":"active","ping":44},{"user_id":62,"name":"Mega Saturn","steam_id":76561198024750500,"connected_time":601000000000,"state":"active","ping":80},{"user_id":63,"name":"Ben Doverr","steam_id":76561198034264020,"connected_time":531000000000,"state":"active","ping":127},{"user_id":41,"name":"dorak","steam_id":76561198818037965,"connected_time":2196000000000,"state":"active","ping":101},{"user_id":39,"name":"Peat","steam_id":76561197992168067,"connected_time":2302000000000,"state":"active","ping":69},{"user_id":40,"name":"grig_83","steam_id":76561198963325441,"connected_time":2288000000000,"state":"active","ping":109},{"user_id":72,"name":"Утилизатор","steam_id":76561198001490104,"connected_time":290000000000,"state":"active","ping":90},{"user_id":42,"name":"Fan","steam_id":76561198210792815,"connected_time":2114000000000,"state":"active","ping":81},{"user_id":43,"name":"тукку ирма","steam_id":76561197998715016,"connected_time":2062000000000,"state":"active","ping":62},{"user_id":44,"name":"khuligan.abdullah.95","steam_id":76561198349000185,"connected_time":2058000000000,"state":"active","ping":74},{"user_id":45,"name":"Natha","steam_id":76561198022248546,"connected_time":1995000000000,"state":"active","ping":54},{"user_id":46,"name":"Pirateer","steam_id":76561198017114970,"connected_time":1869000000000,"state":"active","ping":43},{"user_id":47,"name":"minn","steam_id":76561198099101232,"connected_time":1829000000000,"state":"active","ping":47},{"user_id":56,"name":"raz","steam_id":76561198147277460,"connected_time":1272000000000,"state":"active","ping":61},{"user_id":52,"name":"peruna","steam_id":76561198000721196,"connected_time":1602000000000,"state":"active","ping":77},{"user_id":73,"name":"toe eater","steam_id":76561199272782484,"connected_time":46000000000,"state":"active","ping":70},{"user_id":71,"name":"drezzo","steam_id":76561198028444359,"connected_time":373000000000,"state":"active","ping":45},{"user_id":61,"name":"Grey","steam_id":76561198073954578,"connected_time":960000000000,"state":"active","ping":98},{"user_id":58,"name":"Floppa The Slav","steam_id":76561199388080503,"connected_time":1217000000000,"state":"active","ping":74}]},{"server_id":320,"name":"Uncletopia | London | 3 | All Maps","name_short":"lon-3","host":"lon-1.uk.uncletopia.com","port":27035,"enabled":true,"region":"eu","cc":"gb","latitude":51.509865,"longitude":-0.118092,"reserved":0,"last_update":"0001-01-01T00:00:00Z","name_a2s":"Uncletopia | London | 3 | All Maps","protocol":17,"map":"pl_upward","folder":"tf","game":"Team Fortress","app_id":440,"player_count":0,"max_players":24,"Bots":0,"server_type":"Dedicated","server_os":"Linux","password":true,"vac":true,"version":"7742253","steam_id":85568392924510192,"keywords":["nocrits","nodmgspread","payload","uncletopia"],"game_id":440,"stv_port":27036,"stv_name":"Uncletopia | London | 3 | All Maps | STV","players":null},{"server_id":321,"name":"Uncletopia | London | 4 | All Maps","name_short":"lon-4","host":"lon-1.uk.uncletopia.com","port":27045,"enabled":true,"region":"eu","cc":"gb","latitude":51.509865,"longitude":-0.118092,"reserved":0,"last_update":"0001-01-01T00:00:00Z","name_a2s":"Uncletopia | London | 4 | All Maps","protocol":17,"map":"koth_highpass","folder":"tf","game":"Team Fortress","app_id":440,"player_count":0,"max_players":24,"Bots":0,"server_type":"Dedicated","server_os":"Linux","password":true,"vac":true,"version":"7742253","steam_id":85568392924510193,"keywords":["cp","nocrits","nodmgspread","uncletopia"],"game_id":440,"stv_port":27046,"stv_name":"Uncletopia | London | 4 | All Maps | STV","players":null},{"server_id":21,"name":"Uncletopia | London | 5 | All Maps","name_short":"lon-5","host":"lon-1.uk.uncletopia.com","port":27055,"enabled":true,"region":"eu","cc":"gb","latitude":51.509865,"longitude":-0.118092,"reserved":0,"last_update":"0001-01-01T00:00:00Z","name_a2s":"Uncletopia | London | 5 | All Maps","protocol":17,"map":"pl_frontier_final","folder":"tf","game":"Team Fortress","app_id":440,"player_count":0,"max_players":24,"Bots":0,"server_type":"Dedicated","server_os":"Linux","password":true,"vac":true,"version":"7742253","steam_id":85568392924742829,"keywords":["nocrits","nodmgspread","payload","uncletopia"],"game_id":440,"stv_port":27056,"stv_name":"Uncletopia | London | 5 | All Maps | STV","players":null},{"server_id":22,"name":"Uncletopia | London | 6 | All Maps","name_short":"lon-6","host":"lon-1.uk.uncletopia.com","port":27065,"enabled":true,"region":"eu","cc":"gb","latitude":51.509865,"longitude":-0.118092,"reserved":0,"last_update":"0001-01-01T00:00:00Z","name_a2s":"Uncletopia | London | 6 | All Maps","protocol":17,"map":"cp_dustbowl","folder":"tf","game":"Team Fortress","app_id":440,"player_count":0,"max_players":24,"Bots":0,"server_type":"Dedicated","server_os":"Linux","password":true,"vac":true,"version":"7742253","steam_id":85568392924742830,"keywords":["cp","nocrits","nodmgspread","uncletopia"],"game_id":440,"stv_port":27066,"stv_name":"Uncletopia | London | 6 | All Maps | STV","players":null},{"server_id":40,"name":"Uncletopia | London | 7 | No Payload","name_short":"lon-7","host":"lon-1.uk.uncletopia.com","port":27075,"enabled":true,"region":"eu","cc":"gb","latitude":51.509865,"longitude":-0.118092,"reserved":0,"last_update":"0001-01-01T00:00:00Z","name_a2s":"Uncletopia | London | 7 | No Payload","protocol":17,"map":"koth_viaduct","folder":"tf","game":"Team Fortress","app_id":440,"player_count":0,"max_players":24,"Bots":0,"server_type":"Dedicated","server_os":"Linux","password":true,"vac":true,"version":"7742253","steam_id":85568392924964314,"keywords":["cp","nocrits","nodmgspread","uncletopia"],"game_id":440,"stv_port":27076,"stv_name":"Uncletopia | London | 7 | No Payload | STV","players":null},{"server_id":41,"name":"Uncletopia | London | 8 | Community","name_short":"lon-8","host":"lon-1.uk.uncletopia.com","port":27085,"enabled":true,"region":"eu","cc":"gb","latitude":51.509865,"longitude":-0.118092,"reserved":0,"last_update":"0001-01-01T00:00:00Z","name_a2s":"Uncletopia | London | 8 | Community","protocol":17,"map":"cp_altitude","folder":"tf","game":"Team Fortress","app_id":440,"player_count":0,"max_players":24,"Bots":0,"server_type":"Dedicated","server_os":"Linux","password":true,"vac":true,"version":"7742253","steam_id":85568392924964315,"keywords":["cp","nocrits","nodmgspread","uncletopia"],"game_id":440,"stv_port":27086,"stv_name":"Uncletopia | London | 8 | Community | STV","players":null},{"server_id":300,"name":"Uncletopia | Montréal | 1 | All Maps","name_short":"mtl-1","host":"mtl-1.ca.uncletopia.com","port":27015,"enabled":true,"region":"us-east","cc":"ca","latitude":45.50889,"longitude":-73.56167,"reserved":0,"last_update":"0001-01-01T00:00:00Z","name_a2s":"Uncletopia | Montréal | 1 | All Maps","protocol":17,"map":"pl_snowycoast","folder":"tf","game":"Team Fortress","app_id":440,"player_count":0,"max_players":24,"Bots":0,"server_type":"Dedicated","server_os":"Linux","password":true,"vac":true,"version":"7742253","steam_id":85568392924500087,"keywords":["nocrits","nodmgspread","payload","uncletopia"],"game_id":440,"stv_port":27016,"stv_name":"Uncletopia | Montréal | 1 | All Maps | STV","players":null},{"server_id":301,"name":"Uncletopia | Montréal | 2 | All Maps","name_short":"mtl-2","host":"mtl-1.ca.uncletopia.com","port":27025,"enabled":true,"region":"us-east","cc":"ca","latitude":45.50889,"longitude":-73.56167,"reserved":0,"last_update":"0001-01-01T00:00:00Z","name_a2s":"Uncletopia | Montréal | 2 | All Maps","protocol":17,"map":"koth_highpass","folder":"tf","game":"Team Fortress","app_id":440,"player_count":0,"max_players":24,"Bots":0,"server_type":"Dedicated","server_os":"Linux","password":true,"vac":true,"version":"7742253","steam_id":85568392924500088,"keywords":["cp","nocrits","nodmgspread","uncletopia"],"game_id":440,"stv_port":27026,"stv_name":"Uncletopia | Montréal | 2 | All Maps | STV","players":null},{"server_id":302,"name":"Uncletopia | Montréal | 3 | All Maps","name_short":"mtl-3","host":"mtl-1.ca.uncletopia.com","port":27035,"enabled":true,"region":"us-east","cc":"ca","latitude":45.50889,"longitude":-73.56167,"reserved":0,"last_update":"0001-01-01T00:00:00Z","name_a2s":"Uncletopia | Montréal | 3 | All Maps","protocol":17,"map":"cp_dustbowl","folder":"tf","game":"Team Fortress","app_id":440,"player_count":16,"max_players":24,"Bots":0,"server_type":"Dedicated","server_os":"Linux","password":true,"vac":true,"version":"7742253","steam_id":85568392924500089,"keywords":["cp","nocrits","nodmgspread","uncletopia"],"game_id":440,"stv_port":27036,"stv_name":"Uncletopia | Montréal | 3 | All Maps | STV","players":[{"user_id":184,"name":"Kripuld","steam_id":76561198054785703,"connected_time":181000000000,"state":"active","ping":111},{"user_id":185,"name":"-W3E- grim10465","steam_id":76561198045698581,"connected_time":139000000000,"state":"active","ping":39},{"user_id":168,"name":"--_Cook_--","steam_id":76561198080855748,"connected_time":1815000000000,"state":"active","ping":75},{"user_id":95,"name":"JoeShmo29","steam_id":76561198218745481,"connected_time":7334000000000,"state":"active","ping":60},{"user_id":159,"name":"C papi","steam_id":76561198027779564,"connected_time":2553000000000,"state":"active","ping":62},{"user_id":158,"name":"Room","steam_id":76561199174579733,"connected_time":2731000000000,"state":"active","ping":59},{"user_id":182,"name":"kezia","steam_id":76561198059815894,"connected_time":225000000000,"state":"active","ping":32},{"user_id":186,"name":"HYDROGEN BOMB","steam_id":76561198401455467,"connected_time":116000000000,"state":"active","ping":122},{"user_id":187,"name":"Captain James Hook","steam_id":76561198929773177,"connected_time":81000000000,"state":"active","ping":111},{"user_id":160,"name":"daemon","steam_id":76561198001541433,"connected_time":2549000000000,"state":"active","ping":61},{"user_id":175,"name":"mordecai","steam_id":76561198000689264,"connected_time":1403000000000,"state":"active","ping":176},{"user_id":97,"name":"mrsanto15","steam_id":76561199311793955,"connected_time":7269000000000,"state":"active","ping":50},{"user_id":149,"name":"LoverBoy","steam_id":76561199077181764,"connected_time":3840000000000,"state":"active","ping":60},{"user_id":151,"name":"trackclaw","steam_id":76561198355746681,"connected_time":3699000000000,"state":"active","ping":52},{"user_id":152,"name":"Moonshine Man","steam_id":76561198088010073,"connected_time":3427000000000,"state":"active","ping":93}]},{"server_id":303,"name":"Uncletopia | Montréal | 4 | No Payload","name_short":"mtl-4","host":"mtl-1.ca.uncletopia.com","port":27045,"enabled":true,"region":"us-east","cc":"ca","latitude":45.50889,"longitude":-73.56167,"reserved":0,"last_update":"0001-01-01T00:00:00Z","name_a2s":"Uncletopia | Montréal | 4 | No Payload","protocol":17,"map":"koth_nucleus","folder":"tf","game":"Team Fortress","app_id":440,"player_count":0,"max_players":24,"Bots":0,"server_type":"Dedicated","server_os":"Linux","password":true,"vac":true,"version":"7742253","steam_id":85568392924500090,"keywords":["cp","nocrits","nodmgspread","uncletopia"],"game_id":440,"stv_port":27046,"stv_name":"Uncletopia | Montréal | 4 | No Payload | STV","players":null},{"server_id":13,"name":"Uncletopia | New York City | 1 | All Maps","name_short":"nyc-1","host":"nyc-1.us.uncletopia.com","port":27015,"enabled":true,"region":"us-east","cc":"us","latitude":40.73061,"longitude":-73.93524,"reserved":0,"last_update":"0001-01-01T00:00:00Z","name_a2s":"Uncletopia | New York City | 1 | All Maps","protocol":17,"map":"koth_highpass","folder":"tf","game":"Team Fortress","app_id":440,"player_count":0,"max_players":24,"Bots":0,"server_type":"Dedicated","server_os":"Linux","password":true,"vac":true,"version":"7742253","steam_id":85568392924469993,"keywords":["cp","nocrits","nodmgspread","uncletopia"],"game_id":440,"stv_port":27016,"stv_name":"Uncletopia | New York City | 1 | All Maps | STV","players":null},{"server_id":14,"name":"Uncletopia | New York City | 2 | All Maps","name_short":"nyc-2","host":"nyc-1.us.uncletopia.com","port":27025,"enabled":true,"region":"us-east","cc":"us","latitude":40.73061,"longitude":-73.93524,"reserved":0,"last_update":"0001-01-01T00:00:00Z","name_a2s":"Uncletopia | New York City | 2 | All Maps","protocol":17,"map":"pl_upward","folder":"tf","game":"Team Fortress","app_id":440,"player_count":24,"max_players":24,"Bots":0,"server_type":"Dedicated","server_os":"Linux","password":true,"vac":true,"version":"7742253","steam_id":85568392924469994,"keywords":["nocrits","nodmgspread","payload","uncletopia"],"game_id":440,"stv_port":27026,"stv_name":"Uncletopia | New York City | 2 | All Maps | STV","players":[{"user_id":818,"name":"Carsen","steam_id":76561198225481404,"connected_time":1301000000000,"state":"active","ping":79},{"user_id":831,"name":"Angry Loona","steam_id":76561198282296334,"connected_time":563000000000,"state":"active","ping":50},{"user_id":820,"name":"ObeseLions","steam_id":76561198084095917,"connected_time":1272000000000,"state":"active","ping":65},{"user_id":788,"name":"iL","steam_id":76561198086331015,"connected_time":3851000000000,"state":"active","ping":34},{"user_id":836,"name":"Glitchy stick","steam_id":76561199013429386,"connected_time":331000000000,"state":"active","ping":61},{"user_id":787,"name":"Father Cocoa","steam_id":76561199023002514,"connected_time":3856000000000,"state":"active","ping":71},{"user_id":823,"name":"Big Dragon, Thick Wagon","steam_id":76561198040425096,"connected_time":1150000000000,"state":"active","ping":75},{"user_id":824,"name":"JoānKisaragiⱽ⁰","steam_id":76561199370650064,"connected_time":1109000000000,"state":"active","ping":138},{"user_id":838,"name":"qwertyuiop[]\\asdfghjkl;","steam_id":76561198119826352,"connected_time":296000000000,"state":"active","ping":82},{"user_id":827,"name":"matkaster","steam_id":76561197998546486,"connected_time":859000000000,"state":"active","ping":75},{"user_id":825,"name":"Kingcole2022","steam_id":76561198030663950,"connected_time":1104000000000,"state":"active","ping":93},{"user_id":810,"name":"Mr.Momo","steam_id":76561199013406551,"connected_time":2398000000000,"state":"active","ping":82},{"user_id":833,"name":"Spare(8)Ball","steam_id":76561197982432995,"connected_time":436000000000,"state":"active","ping":124},{"user_id":798,"name":"shoes","steam_id":76561198044104086,"connected_time":3109000000000,"state":"active","ping":102},{"user_id":726,"name":"Horrizan","steam_id":76561197965028480,"connected_time":10186000000000,"state":"active","ping":77},{"user_id":801,"name":"gazpacho","steam_id":76561198132903078,"connected_time":3081000000000,"state":"active","ping":119},{"user_id":829,"name":"Hotdog_Gentleman","steam_id":76561199309867837,"connected_time":739000000000,"state":"active","ping":178},{"user_id":785,"name":"Sir Quacksalot","steam_id":76561198048942777,"connected_time":4198000000000,"state":"active","ping":99},{"user_id":770,"name":"Braamklauw","steam_id":76561198283287697,"connected_time":4903000000000,"state":"active","ping":136},{"user_id":830,"name":"mammoth!?","steam_id":76561198066881911,"connected_time":649000000000,"state":"active","ping":74},{"user_id":816,"name":"drifloy","steam_id":76561198153437083,"connected_time":1651000000000,"state":"active","ping":51},{"user_id":834,"name":"peachy","steam_id":76561198026664629,"connected_time":436000000000,"state":"active","ping":45},{"user_id":835,"name":"Sprial.Prince","steam_id":76561198450813914,"connected_time":418000000000,"state":"active","ping":93},{"user_id":839,"name":"Kamakura","steam_id":76561198871892477,"connected_time":216000000000,"state":"active","ping":97}]},{"server_id":15,"name":"Uncletopia | New York City | 3 | Stopwatch Beta","name_short":"nyc-3","host":"nyc-1.us.uncletopia.com","port":27035,"enabled":true,"region":"us-east","cc":"us","latitude":40.73061,"longitude":-73.93524,"reserved":0,"last_update":"0001-01-01T00:00:00Z","name_a2s":"Uncletopia | New York City | 3 | Stopwatch Beta","protocol":17,"map":"workshop/pl_vigil_rc9.ugc1266210012","folder":"tf","game":"Team Fortress","app_id":440,"player_count":0,"max_players":24,"Bots":0,"server_type":"Dedicated","server_os":"Linux","password":true,"vac":true,"version":"7742253","steam_id":85568392924742820,"keywords":["nocrits","nodmgspread","payload","uncletopia"],"game_id":440,"stv_port":27036,"stv_name":"Uncletopia | New York City | 3 | Stopwatch Beta | STV","players":null},{"server_id":16,"name":"Uncletopia | New York City | 4 | Community","name_short":"nyc-4","host":"nyc-1.us.uncletopia.com","port":27045,"enabled":true,"region":"us-east","cc":"us","latitude":40.73061,"longitude":-73.93524,"reserved":0,"last_update":"0001-01-01T00:00:00Z","name_a2s":"Uncletopia | New York City | 4 | Community","protocol":17,"map":"workshop/koth_bagel_rc5.ugc2514036946","folder":"tf","game":"Team Fortress","app_id":440,"player_count":0,"max_players":24,"Bots":0,"server_type":"Dedicated","server_os":"Linux","password":true,"vac":true,"version":"7742253","steam_id":85568392924742821,"keywords":["cp","nocrits","nodmgspread","uncletopia"],"game_id":440,"stv_port":27046,"stv_name":"Uncletopia | New York City | 4 | Community | STV","players":null},{"server_id":142,"name":"Uncletopia | São Paulo | 1 | All Maps","name_short":"sao-1","host":"sao-1.br.uncletopia.com","port":27015,"enabled":true,"region":"sa","cc":"br","latitude":-23.533773,"longitude":-46.62529,"reserved":0,"last_update":"0001-01-01T00:00:00Z","name_a2s":"Uncletopia | São Paulo | 1 | All Maps","protocol":17,"map":"cp_sunshine","folder":"tf","game":"Team Fortress","app_id":440,"player_count":0,"max_players":24,"Bots":0,"server_type":"Dedicated","server_os":"Linux","password":true,"vac":true,"version":"7742253","steam_id":85568392924469996,"keywords":["cp","nocrits","nodmgspread","uncletopia"],"game_id":440,"stv_port":27016,"stv_name":"Uncletopia | São Paulo | 1 | All Maps | STV","players":null},{"server_id":143,"name":"Uncletopia | São Paulo | 2 | All Maps","name_short":"sao-2","host":"sao-2.br.uncletopia.com","port":27015,"enabled":true,"region":"sa","cc":"br","latitude":-23.533773,"longitude":-46.62529,"reserved":0,"last_update":"0001-01-01T00:00:00Z","name_a2s":"Uncletopia | São Paulo | 2 | All Maps","protocol":17,"map":"pl_barnblitz","folder":"tf","game":"Team Fortress","app_id":440,"player_count":0,"max_players":24,"Bots":0,"server_type":"Dedicated","server_os":"Linux","password":true,"vac":true,"version":"7742253","steam_id":85568392924485349,"keywords":["nocrits","nodmgspread","payload","uncletopia"],"game_id":440,"stv_port":27016,"stv_name":"Uncletopia | São Paulo | 2 | All Maps | STV","players":null},{"server_id":7,"name":"Uncletopia | Seattle | 1 | All Maps","name_short":"sea-1","host":"sea-1.us.uncletopia.com","port":27015,"enabled":true,"region":"us-west","cc":"us","latitude":47.608013,"longitude":-122.33517,"reserved":0,"last_update":"0001-01-01T00:00:00Z","name_a2s":"Uncletopia | Seattle | 1 | All Maps","protocol":17,"map":"pl_badwater","folder":"tf","game":"Team Fortress","app_id":440,"player_count":24,"max_players":24,"Bots":0,"server_type":"Dedicated","server_os":"Linux","password":true,"vac":true,"version":"7742253","steam_id":85568392924469997,"keywords":["nocrits","nodmgspread","payload","uncletopia"],"game_id":440,"stv_port":27016,"stv_name":"Uncletopia | Seattle | 1 | All Maps | STV","players":[{"user_id":814,"name":"goldhed","steam_id":76561198051751133,"connected_time":782000000000,"state":"active","ping":59},{"user_id":821,"name":"strong and healthy gamer","steam_id":76561198049489349,"connected_time":76000000000,"state":"active","ping":54},{"user_id":809,"name":"rat gets the cheese","steam_id":76561198031234032,"connected_time":1462000000000,"state":"active","ping":101},{"user_id":812,"name":"SvicidalBug","steam_id":76561198221390504,"connected_time":1161000000000,"state":"active","ping":66},{"user_id":671,"name":"Mignyanne :3","steam_id":76561198048754056,"connected_time":12957000000000,"state":"active","ping":71},{"user_id":728,"name":"Ayayahuasca","steam_id":76561199002906056,"connected_time":6761000000000,"state":"active","ping":56},{"user_id":813,"name":"octopus activities","steam_id":76561199248960166,"connected_time":838000000000,"state":"active","ping":44},{"user_id":739,"name":"Snoogs","steam_id":76561198444880931,"connected_time":6375000000000,"state":"active","ping":125},{"user_id":738,"name":"Pneumo.","steam_id":76561197987911883,"connected_time":6460000000000,"state":"active","ping":66},{"user_id":815,"name":"Pastaroni","steam_id":76561199114277354,"connected_time":652000000000,"state":"active","ping":77},{"user_id":743,"name":"SofaKing","steam_id":76561198176691859,"connected_time":6030000000000,"state":"active","ping":53},{"user_id":794,"name":"BlueZy","steam_id":76561198059111030,"connected_time":2776000000000,"state":"active","ping":50},{"user_id":731,"name":"Sniff","steam_id":76561198010270922,"connected_time":6726000000000,"state":"active","ping":43},{"user_id":806,"name":"SlothWrangler","steam_id":76561198131322716,"connected_time":1589000000000,"state":"active","ping":49},{"user_id":818,"name":"demoman","steam_id":76561199389584938,"connected_time":477000000000,"state":"active","ping":44},{"user_id":803,"name":"Mr. Big Quack","steam_id":76561198062219416,"connected_time":1628000000000,"state":"active","ping":80},{"user_id":811,"name":"Ricelover","steam_id":76561198064631164,"connected_time":1197000000000,"state":"active","ping":79},{"user_id":795,"name":"Scottish Skipper","steam_id":76561198184181215,"connected_time":2764000000000,"state":"active","ping":59},{"user_id":782,"name":"sara","steam_id":76561198283462369,"connected_time":4027000000000,"state":"active","ping":80},{"user_id":796,"name":"❤ Ashley ❤","steam_id":76561198056428303,"connected_time":2754000000000,"state":"active","ping":76},{"user_id":817,"name":"Scut","steam_id":76561198973734291,"connected_time":589000000000,"state":"active","ping":65},{"user_id":787,"name":"Lakue","steam_id":76561198047993241,"connected_time":3461000000000,"state":"active","ping":56},{"user_id":746,"name":"Arsonist Goose","steam_id":76561198147441830,"connected_time":5667000000000,"state":"active","ping":75}]},{"server_id":119,"name":"Uncletopia | Seattle | 2 | All Maps","name_short":"sea-2","host":"sea-1.us.uncletopia.com","port":27025,"enabled":true,"region":"us-west","cc":"us","latitude":47.608013,"longitude":-122.33517,"reserved":0,"last_update":"0001-01-01T00:00:00Z","name_a2s":"Uncletopia | Seattle | 2 | All Maps","protocol":17,"map":"plr_bananabay","folder":"tf","game":"Team Fortress","app_id":440,"player_count":23,"max_players":24,"Bots":0,"server_type":"Dedicated","server_os":"Linux","password":true,"vac":true,"version":"7742253","steam_id":85568392924469998,"keywords":["nocrits","nodmgspread","payload","uncletopia"],"game_id":440,"stv_port":27026,"stv_name":"Uncletopia | Seattle | 2 | All Maps | STV","players":[{"user_id":463,"name":"Optimore","steam_id":76561198047662990,"connected_time":9176000000000,"state":"active","ping":74},{"user_id":566,"name":"alexwasherefirst","steam_id":76561198846755124,"connected_time":620000000000,"state":"active","ping":85},{"user_id":498,"name":"Schnitz","steam_id":76561198265484253,"connected_time":6652000000000,"state":"active","ping":87},{"user_id":541,"name":"InfernoFlower64","steam_id":76561198181097391,"connected_time":3291000000000,"state":"active","ping":80},{"user_id":551,"name":"Bonesofa2can","steam_id":76561198153577770,"connected_time":2386000000000,"state":"active","ping":89},{"user_id":499,"name":"Yoozer","steam_id":76561198420257694,"connected_time":6642000000000,"state":"active","ping":88},{"user_id":547,"name":"Naffers","steam_id":76561198195957335,"connected_time":3087000000000,"state":"active","ping":44},{"user_id":565,"name":"haj","steam_id":76561198043902911,"connected_time":842000000000,"state":"active","ping":48},{"user_id":540,"name":"Nobuunga","steam_id":76561198100614981,"connected_time":3297000000000,"state":"active","ping":105},{"user_id":567,"name":"M4 Sherman","steam_id":76561198126990820,"connected_time":579000000000,"state":"active","ping":94},{"user_id":568,"name":"blubby blubster","steam_id":76561198175955138,"connected_time":578000000000,"state":"active","ping":90},{"user_id":501,"name":"gamer gunk","steam_id":76561198858328080,"connected_time":6622000000000,"state":"active","ping":66},{"user_id":542,"name":"Flyingcat9000","steam_id":76561198179561797,"connected_time":3187000000000,"state":"active","ping":57},{"user_id":555,"name":"[K.Y.L.L.]Grand Central City","steam_id":76561198027321950,"connected_time":2241000000000,"state":"active","ping":55},{"user_id":569,"name":"en.wikipedia.org/wiki/Nae_Nae","steam_id":76561198418288939,"connected_time":575000000000,"state":"active","ping":65},{"user_id":559,"name":"Be Gay, Do Crimes, Smoke Weed!","steam_id":76561198092419868,"connected_time":2163000000000,"state":"active","ping":45},{"user_id":574,"name":"epic","steam_id":76561198097321881,"connected_time":357000000000,"state":"active","ping":50},{"user_id":560,"name":"Bubbamanme","steam_id":76561198119778504,"connected_time":2120000000000,"state":"active","ping":55},{"user_id":548,"name":"Feasent","steam_id":76561198987316504,"connected_time":3043000000000,"state":"active","ping":51},{"user_id":512,"name":"Fire_box41238","steam_id":76561199185673650,"connected_time":6177000000000,"state":"active","ping":53},{"user_id":575,"name":"busy busy bee :D","steam_id":76561198128222331,"connected_time":353000000000,"state":"active","ping":126},{"user_id":550,"name":"Flourish (she/her)","steam_id":76561198087413354,"connected_time":2580000000000,"state":"active","ping":55},{"user_id":558,"name":"Blade","steam_id":76561198881093314,"connected_time":2232000000000,"state":"active","ping":62}]},{"server_id":406,"name":"Uncletopia | Seattle | 3 | Stopwatch Beta","name_short":"sea-3","host":"sea-1.us.uncletopia.com","port":27035,"enabled":true,"region":"us-west","cc":"us","latitude":47.608013,"longitude":-122.33517,"reserved":0,"last_update":"0001-01-01T00:00:00Z","name_a2s":"Uncletopia | Seattle | 3 | Stopwatch Beta","protocol":17,"map":"workshop/pl_badwater_pro_v12.ugc2142942074","folder":"tf","game":"Team Fortress","app_id":440,"player_count":0,"max_players":24,"Bots":0,"server_type":"Dedicated","server_os":"Linux","password":true,"vac":true,"version":"7742253","steam_id":85568392924515217,"keywords":["nocrits","nodmgspread","payload","uncletopia"],"game_id":440,"stv_port":27036,"stv_name":"Uncletopia | Seattle | 3 | Stopwatch Beta | STV","players":null},{"server_id":17,"name":"Uncletopia | San Francisco | 1 | All Maps","name_short":"sfo-1","host":"sfo-1.us.uncletopia.com","port":27015,"enabled":true,"region":"us-west","cc":"us","latitude":37.77397,"longitude":-122.4313,"reserved":0,"last_update":"0001-01-01T00:00:00Z","name_a2s":"Uncletopia | San Francisco | 1 | All Maps","protocol":17,"map":"pl_pier","folder":"tf","game":"Team Fortress","app_id":440,"player_count":5,"max_players":24,"Bots":0,"server_type":"Dedicated","server_os":"Linux","password":true,"vac":true,"version":"7742253","steam_id":85568392924469999,"keywords":["nocrits","nodmgspread","payload","uncletopia"],"game_id":440,"stv_port":27016,"stv_name":"Uncletopia | San Francisco | 1 | All Maps | STV","players":[{"user_id":37,"name":"flying rocket","steam_id":76561199401766251,"connected_time":68000000000,"state":"active","ping":212},{"user_id":30,"name":"DarthJiggles","steam_id":76561198088383875,"connected_time":2025000000000,"state":"active","ping":37},{"user_id":31,"name":"machomelon","steam_id":76561198043683564,"connected_time":1981000000000,"state":"active","ping":35},{"user_id":32,"name":"Leidon","steam_id":76561198078386945,"connected_time":1954000000000,"state":"active","ping":40},{"user_id":35,"name":"KnockOutClock","steam_id":76561199436877307,"connected_time":948000000000,"state":"active","ping":67}]},{"server_id":18,"name":"Uncletopia | San Francisco | 2 | All Maps","name_short":"sfo-2","host":"sfo-1.us.uncletopia.com","port":27025,"enabled":true,"region":"us-west","cc":"us","latitude":37.77397,"longitude":-122.4313,"reserved":0,"last_update":"0001-01-01T00:00:00Z","name_a2s":"Uncletopia | San Francisco | 2 | All Maps","protocol":17,"map":"koth_highpass","folder":"tf","game":"Team Fortress","app_id":440,"player_count":0,"max_players":24,"Bots":0,"server_type":"Dedicated","server_os":"Linux","password":true,"vac":true,"version":"7742253","steam_id":85568392924470000,"keywords":["cp","nocrits","nodmgspread","uncletopia"],"game_id":440,"stv_port":27026,"stv_name":"Uncletopia | San Francisco | 2 | All Maps | STV","players":null},{"server_id":19,"name":"Uncletopia | San Francisco | 3 | Stopwatch Beta","name_short":"sfo-3","host":"sfo-1.us.uncletopia.com","port":27035,"enabled":true,"region":"us-west","cc":"us","latitude":37.77397,"longitude":-122.4313,"reserved":0,"last_update":"0001-01-01T00:00:00Z","name_a2s":"Uncletopia | San Francisco | 3 | Stopwatch Beta","protocol":17,"map":"workshop/pl_vigil_rc9.ugc1266210012","folder":"tf","game":"Team Fortress","app_id":440,"player_count":0,"max_players":24,"Bots":0,"server_type":"Dedicated","server_os":"Linux","password":true,"vac":true,"version":"7742253","steam_id":85568392924742824,"keywords":["nocrits","nodmgspread","payload","uncletopia"],"game_id":440,"stv_port":27036,"stv_name":"Uncletopia | San Francisco | 3 | Stopwatch Beta | STV","players":null},{"server_id":20,"name":"Uncletopia | San Francisco | 4 | Community","name_short":"sfo-4","host":"sfo-1.us.uncletopia.com","port":27045,"enabled":true,"region":"us-west","cc":"us","latitude":37.77397,"longitude":-122.4313,"reserved":0,"last_update":"0001-01-01T00:00:00Z","name_a2s":"Uncletopia | San Francisco | 4 | Community","protocol":17,"map":"workshop/koth_ashville_final.ugc2130459942","folder":"tf","game":"Team Fortress","app_id":440,"player_count":0,"max_players":24,"Bots":0,"server_type":"Dedicated","server_os":"Linux","password":true,"vac":true,"version":"7742253","steam_id":85568392924742826,"keywords":["cp","nocrits","nodmgspread","uncletopia"],"game_id":440,"stv_port":27046,"stv_name":"Uncletopia | San Francisco | 4 | Community | STV","players":null},{"server_id":141,"name":"Uncletopia | Sydney | 1 | All Maps","name_short":"syd-1","host":"syd-1.au.uncletopia.com","port":27015,"enabled":true,"region":"au","cc":"au","latitude":-33.865143,"longitude":151.2099,"reserved":0,"last_update":"0001-01-01T00:00:00Z","name_a2s":"Uncletopia | Sydney | 1 | All Maps","protocol":17,"map":"cp_snakewater_final1","folder":"tf","game":"Team Fortress","app_id":440,"player_count":0,"max_players":24,"Bots":0,"server_type":"Dedicated","server_os":"Linux","password":true,"vac":true,"version":"7742253","steam_id":85568392924470001,"keywords":["cp","nocrits","nodmgspread","uncletopia"],"game_id":440,"stv_port":27016,"stv_name":"Uncletopia | Sydney | 1 | All Maps | STV","players":null},{"server_id":123,"name":"Uncletopia | Sydney | 2 | All Maps","name_short":"syd-2","host":"syd-1.au.uncletopia.com","port":27025,"enabled":true,"region":"au","cc":"au","latitude":-33.865143,"longitude":151.2099,"reserved":0,"last_update":"0001-01-01T00:00:00Z","name_a2s":"Uncletopia | Sydney | 2 | All Maps","protocol":17,"map":"pl_borneo","folder":"tf","game":"Team Fortress","app_id":440,"player_count":23,"max_players":24,"Bots":0,"server_type":"Dedicated","server_os":"Linux","password":true,"vac":true,"version":"7742253","steam_id":85568392924470002,"keywords":["nocrits","nodmgspread","payload","uncletopia"],"game_id":440,"stv_port":27026,"stv_name":"Uncletopia | Sydney | 2 | All Maps | STV","players":[{"user_id":395,"name":"MR Martian","steam_id":76561198157854561,"connected_time":5482000000000,"state":"active","ping":90},{"user_id":491,"name":"Bigrichard","steam_id":76561198032092945,"connected_time":450000000000,"state":"active","ping":70},{"user_id":490,"name":"ZaEpicScout205","steam_id":76561198170693338,"connected_time":460000000000,"state":"active","ping":75},{"user_id":460,"name":"NewChris","steam_id":76561198254754182,"connected_time":2187000000000,"state":"active","ping":76},{"user_id":461,"name":"LightningBlock","steam_id":76561198289997742,"connected_time":2176000000000,"state":"active","ping":43},{"user_id":472,"name":"Emerald the Snake","steam_id":76561199013344853,"connected_time":1824000000000,"state":"active","ping":62},{"user_id":485,"name":"Denz7","steam_id":76561198061365598,"connected_time":859000000000,"state":"active","ping":54},{"user_id":470,"name":"dying's for fools","steam_id":76561198031293430,"connected_time":1855000000000,"state":"active","ping":86},{"user_id":497,"name":"spy","steam_id":76561199448765541,"connected_time":184000000000,"state":"active","ping":61},{"user_id":449,"name":"lofty","steam_id":76561198380588357,"connected_time":2958000000000,"state":"active","ping":61},{"user_id":498,"name":"Warwick","steam_id":76561199121938819,"connected_time":137000000000,"state":"active","ping":74},{"user_id":487,"name":"WIKE MIZOWSKI","steam_id":76561198084596123,"connected_time":838000000000,"state":"active","ping":102},{"user_id":492,"name":"yons","steam_id":76561198083920784,"connected_time":443000000000,"state":"active","ping":63},{"user_id":493,"name":"v1.","steam_id":76561198037571054,"connected_time":426000000000,"state":"active","ping":155},{"user_id":496,"name":"Nenguu","steam_id":76561198243952386,"connected_time":263000000000,"state":"active","ping":65},{"user_id":412,"name":"April","steam_id":76561198848287180,"connected_time":4326000000000,"state":"active","ping":53},{"user_id":495,"name":"Dr Rags","steam_id":76561198179481430,"connected_time":339000000000,"state":"active","ping":97},{"user_id":499,"name":"boonie777","steam_id":76561198007574726,"connected_time":122000000000,"state":"active","ping":100},{"user_id":432,"name":"MikkyD","steam_id":76561198043452962,"connected_time":3648000000000,"state":"active","ping":61},{"user_id":431,"name":"zebulon","steam_id":76561198063481761,"connected_time":3754000000000,"state":"active","ping":47},{"user_id":475,"name":"AcidOxidant","steam_id":76561198053504029,"connected_time":1671000000000,"state":"active","ping":43},{"user_id":481,"name":"BreastInspector2","steam_id":76561198386067188,"connected_time":1081000000000,"state":"active","ping":55},{"user_id":482,"name":"precious.","steam_id":76561198054804209,"connected_time":1080000000000,"state":"active","ping":91}]},{"server_id":395,"name":"Uncletopia | Sydney | 3 | All Maps","name_short":"syd-3","host":"syd-1.au.uncletopia.com","port":27035,"enabled":true,"region":"au","cc":"au","latitude":-33.865143,"longitude":151.2099,"reserved":0,"last_update":"0001-01-01T00:00:00Z","name_a2s":"Uncletopia | Sydney | 3 | All Maps","protocol":17,"map":"koth_viaduct","folder":"tf","game":"Team Fortress","app_id":440,"player_count":0,"max_players":24,"Bots":0,"server_type":"Dedicated","server_os":"Linux","password":true,"vac":true,"version":"7742253","steam_id":85568392925194467,"keywords":["cp","nocrits","nodmgspread","uncletopia"],"game_id":440,"stv_port":27036,"stv_name":"Uncletopia | Sydney | 3 | All Maps | STV","players":null},{"server_id":396,"name":"Uncletopia | Sydney | 4 | All Maps","name_short":"syd-4","host":"syd-1.au.uncletopia.com","port":27045,"enabled":true,"region":"au","cc":"au","latitude":-33.865143,"longitude":151.2099,"reserved":0,"last_update":"0001-01-01T00:00:00Z","name_a2s":"Uncletopia | Sydney | 4 | All Maps","protocol":17,"map":"cp_mountainlab","folder":"tf","game":"Team Fortress","app_id":440,"player_count":0,"max_players":24,"Bots":0,"server_type":"Dedicated","server_os":"Linux","password":true,"vac":true,"version":"7742253","steam_id":85568392925397958,"keywords":["cp","nocrits","nodmgspread","uncletopia"],"game_id":440,"stv_port":27046,"stv_name":"Uncletopia | Sydney | 4 | All Maps | STV","players":null},{"server_id":58,"name":"Uncletopia | Sydney | 5 | Stopwatch Beta","name_short":"syd-5","host":"syd-1.au.uncletopia.com","port":27055,"enabled":true,"region":"au","cc":"au","latitude":-33.865143,"longitude":151.2099,"reserved":0,"last_update":"0001-01-01T00:00:00Z","name_a2s":"Uncletopia | Sydney | 5 | Stopwatch Beta","protocol":17,"map":"workshop/cp_process_f11.ugc2302948105","folder":"tf","game":"Team Fortress","app_id":440,"player_count":0,"max_players":24,"Bots":0,"server_type":"Dedicated","server_os":"Linux","password":true,"vac":true,"version":"7742253","steam_id":85568392925397959,"keywords":["cp","nocrits","nodmgspread","uncletopia"],"game_id":440,"stv_port":27056,"stv_name":"Uncletopia | Sydney | 5 | Stopwatch Beta | STV","players":null},{"server_id":59,"name":"Uncletopia | Sydney | 6 | Community","name_short":"syd-6","host":"syd-1.au.uncletopia.com","port":27065,"enabled":true,"region":"au","cc":"au","latitude":-33.865143,"longitude":151.2099,"reserved":0,"last_update":"0001-01-01T00:00:00Z","name_a2s":"Uncletopia | Sydney | 6 | Community","protocol":17,"map":"workshop/koth_slaughter_rc1.ugc1712845210","folder":"tf","game":"Team Fortress","app_id":440,"player_count":0,"max_players":24,"Bots":0,"server_type":"Dedicated","server_os":"Linux","password":true,"vac":true,"version":"7742253","steam_id":85568392925397960,"keywords":["cp","nocrits","nodmgspread","uncletopia"],"game_id":440,"stv_port":27066,"stv_name":"Uncletopia | Sydney | 6 | Community | STV","players":null},{"server_id":49,"name":"Uncletopia | Warsaw | 1 | All Maps","name_short":"waw-1","host":"waw-1.pl.uncletopia.com","port":27015,"enabled":true,"region":"eu","cc":"pl","latitude":52.2297,"longitude":21.017532,"reserved":0,"last_update":"0001-01-01T00:00:00Z","name_a2s":"","protocol":0,"map":"","folder":"","game":"","app_id":0,"player_count":0,"max_players":0,"Bots":0,"server_type":"","server_os":"","password":false,"vac":false,"version":"","steam_id":0,"keywords":null,"game_id":0,"stv_port":0,"stv_name":"","players":null},{"server_id":50,"name":"Uncletopia | Warsaw | 2 | All Maps","name_short":"waw-2","host":"waw-1.pl.uncletopia.com","port":27025,"enabled":true,"region":"eu","cc":"pl","latitude":52.2297,"longitude":21.017532,"reserved":0,"last_update":"0001-01-01T00:00:00Z","name_a2s":"Uncletopia | Warsaw | 2 | All Maps","protocol":17,"map":"cp_snakewater_final1","folder":"tf","game":"Team Fortress","app_id":440,"player_count":0,"max_players":24,"Bots":0,"server_type":"Dedicated","server_os":"Linux","password":true,"vac":true,"version":"7742253","steam_id":85568392925397851,"keywords":["cp","nocrits","nodmgspread","uncletopia"],"game_id":440,"stv_port":27026,"stv_name":"Uncletopia | Warsaw | 2 | All Maps | STV","players":null},{"server_id":51,"name":"Uncletopia | Warsaw | 3 | All Maps","name_short":"waw-3","host":"waw-1.pl.uncletopia.com","port":27035,"enabled":true,"region":"eu","cc":"pl","latitude":52.2297,"longitude":21.017532,"reserved":0,"last_update":"0001-01-01T00:00:00Z","name_a2s":"Uncletopia | Warsaw | 3 | All Maps","protocol":17,"map":"koth_lakeside_final","folder":"tf","game":"Team Fortress","app_id":440,"player_count":0,"max_players":24,"Bots":0,"server_type":"Dedicated","server_os":"Linux","password":true,"vac":true,"version":"7742253","steam_id":85568392925397852,"keywords":["cp","nocrits","nodmgspread","uncletopia"],"game_id":440,"stv_port":27036,"stv_name":"Uncletopia | Warsaw | 3 | All Maps | STV","players":null},{"server_id":52,"name":"Uncletopia | Warsaw | 4 | All Maps","name_short":"waw-4","host":"waw-1.pl.uncletopia.com","port":27045,"enabled":true,"region":"eu","cc":"pl","latitude":52.2297,"longitude":21.017532,"reserved":0,"last_update":"0001-01-01T00:00:00Z","name_a2s":"Uncletopia | Warsaw | 4 | All Maps","protocol":17,"map":"pl_upward","folder":"tf","game":"Team Fortress","app_id":440,"player_count":2,"max_players":24,"Bots":0,"server_type":"Dedicated","server_os":"Linux","password":true,"vac":true,"version":"7742253","steam_id":85568392925397853,"keywords":["nocrits","nodmgspread","payload","uncletopia"],"game_id":440,"stv_port":27046,"stv_name":"Uncletopia | Warsaw | 4 | All Maps | STV","players":[{"user_id":4,"name":"Pinkchup","steam_id":76561198106802803,"connected_time":589000000000,"state":"active","ping":59},{"user_id":6,"name":"BONK","steam_id":76561199120275042,"connected_time":572000000000,"state":"active","ping":71}]},{"server_id":53,"name":"Uncletopia | Warsaw | 5 | Stopwatch Beta","name_short":"waw-5","host":"waw-1.pl.uncletopia.com","port":27055,"enabled":true,"region":"eu","cc":"pl","latitude":52.2297,"longitude":21.017532,"reserved":0,"last_update":"0001-01-01T00:00:00Z","name_a2s":"Uncletopia | Warsaw | 5 | Stopwatch Beta","protocol":17,"map":"pl_swiftwater_final1","folder":"tf","game":"Team Fortress","app_id":440,"player_count":0,"max_players":24,"Bots":0,"server_type":"Dedicated","server_os":"Linux","password":true,"vac":true,"version":"7742253","steam_id":85568392925397854,"keywords":["nocrits","nodmgspread","payload","uncletopia"],"game_id":440,"stv_port":27056,"stv_name":"Uncletopia | Warsaw | 5 | Stopwatch Beta | STV","players":null},{"server_id":54,"name":"Uncletopia | Warsaw | 6 | Community","name_short":"waw-6","host":"waw-1.pl.uncletopia.com","port":27065,"enabled":true,"region":"eu","cc":"pl","latitude":52.2297,"longitude":21.017532,"reserved":0,"last_update":"0001-01-01T00:00:00Z","name_a2s":"Uncletopia | Warsaw | 6 | Community","protocol":17,"map":"koth_highpass","folder":"tf","game":"Team Fortress","app_id":440,"player_count":0,"max_players":24,"Bots":0,"server_type":"Dedicated","server_os":"Linux","password":true,"vac":true,"version":"7742253","steam_id":85568392925397856,"keywords":["cp","nocrits","nodmgspread","uncletopia"],"game_id":440,"stv_port":27066,"stv_name":"Uncletopia | Warsaw | 6 | Community | STV","players":null}]}