{"status":true,"message":"","result":[{"server_id":9,"name":"Uncletopia | Atlanta | 1 | All Maps","name_short":"atl-1","host":"atl-1.us.uncletopia.com","port":27015,"enabled":true,"region":"us-east","cc":"us","latitude":33.753746,"longitude":-84.38633,"reserved":0,"last_update":"0001-01-01T00:00:00Z","name_a2s":"Uncletopia | Atlanta | 1 | All Maps","protocol":17,"map":"pl_snowycoast","folder":"tf","game":"Team Fortress","app_id":440,"player_count":0,"max_players":24,"Bots":0,"server_type":"Dedicated","server_os":"Linux","password":true,"vac":true,"version":"7882260","steam_id":85568392924469982,"keywords":["nocrits","nodmgspread","payload","uncletopia"],"game_id":440,"stv_port":27016,"stv_name":"Uncletopia | Atlanta | 1 | All Maps | STV","players":null},{"server_id":104,"name":"Uncletopia | Atlanta | 2 | All Maps","name_short":"atl-2","host":"atl-1.us.uncletopia.com","port":27025,"enabled":true,"region":"us-east","cc":"us","latitude":33.753746,"longitude":-84.38633,"reserved":0,"last_update":"0001-01-01T00:00:00Z","name_a2s":"Uncletopia | Atlanta | 2 | All Maps","protocol":17,"map":"cp_process_final","folder":"tf","game":"Team Fortress","app_id":440,"player_count":0,"max_players":24,"Bots":0,"server_type":"Dedicated","server_os":"Linux","password":true,"vac":true,"version":"7882260","steam_id":85568392924469983,"keywords":["cp","nocrits","nodmgspread","uncletopia"],"game_id":440,"stv_port":27026,"stv_name":"Uncletopia | Atlanta | 2 | All Maps | STV","players":null},{"server_id":400,"name":"Uncletopia | Atlanta | 3 | Community","name_short":"atl-3","host":"atl-1.us.uncletopia.com","port":27035,"enabled":true,"region":"us-east","cc":"us","latitude":33.753746,"longitude":-84.38633,"reserved":0,"last_update":"0001-01-01T00:00:00Z","name_a2s":"Uncletopia | Atlanta | 3 | Community","protocol":17,"map":"workshop/pl_emerge_rc2.ugc888027758","folder":"tf","game":"Team Fortress","app_id":440,"player_count":0,"max_players":24,"Bots":0,"server_type":"Dedicated","server_os":"Linux","password":true,"vac":true,"version":"7882260","steam_id":85568392924515187,"keywords":["nocrits","nodmgspread","payload","uncletopia"],"game_id":440,"stv_port":27036,"stv_name":"Uncletopia | Atlanta | 3 | Community | STV","players":null},{"server_id":401,"name":"Uncletopia | Atlanta | 4 | No Payload","name_short":"atl-4","host":"atl-1.us.uncletopia.com","port":27045,"enabled":true,"region":"us-east","cc":"us","latitude":33.753746,"longitude":-84.38633,"reserved":0,"last_update":"0001-01-01T00:00:00Z","name_a2s":"","protocol":0,"map":"","folder":"","game":"","app_id":0,"player_count":0,"max_players":0,"Bots":0,"server_type":"","server_os":"","password":false,"vac":false,"version":"","steam_id":0,"keywords":null,"game_id":0,"stv_port":0,"stv_name":"","players":null},{"server_id":2,"name":"Uncletopia | Chicago | 1 | All Maps","name_short":"chi-1","host":"chi-1.us.uncletopia.com","port":27015,"enabled":true,"region":"us-central","cc":"us","latitude":41.881832,"longitude":-87.62318,"reserved":0,"last_update":"0001-01-01T00:00:00Z","name_a2s":"Uncletopia | Chicago | 1 | All Maps","protocol":17,"map":"pl_frontier_final","folder":"tf","game":"Team Fortress","app_id":440,"player_count":24,"max_players":24,"Bots":0,"server_type":"Dedicated","server_os":"Linux","password":true,"vac":true,"version":"7882260","steam_id":85568392924469984,"keywords":["nocrits","nodmgspread","payload","uncletopia"],"game_id":440,"stv_port":27016,"stv_name":"Uncletopia | Chicago | 1 | All Maps | STV","players":[{"user_id":5,"name":"WatchWill","steam_id":76561198157237945,"connected_time":8873000000000,"state":"active","ping":69},{"user_id":111,"name":"creeeeeee","steam_id":76561198392539722,"connected_time":1997000000000,"state":"active","ping":81},{"user_id":114,"name":"pool man","steam_id":76561198093145483,"connected_time":1665000000000,"state":"active","ping":70},{"user_id":115,"name":"alN","steam_id":76561198329171346,"connected_time":1658000000000,"state":"active","ping":43},{"user_id":109,"name":"BigGreenBeast","steam_id":76561199052862674,"connected_time":2491000000000,"state":"active","ping":69},{"user_id":20,"name":"Eviscerator","steam_id":76561197980073637,"connected_time":6786000000000,"state":"active","ping":73},{"user_id":87,"name":"Mixomin","steam_id":76561198295061570,"connected_time":4194000000000,"state":"active","ping":49},{"user_id":101,"name":"volta","steam_id":76561199214283884,"connected_time":2929000000000,"state":"active","ping":105},{"user_id":133,"name":"Lincs","steam_id":76561198049851872,"connected_time":530000000000,"state":"active","ping":125},{"user_id":122,"name":"LVL 4 Dispenser Gaming","steam_id":76561198044244547,"connected_time":1308000000000,"state":"active","ping":77},{"user_id":24,"name":"milo","steam_id":76561199061380038,"connected_time":6663000000000,"state":"active","ping":74},{"user_id":132,"name":"leumas","steam_id":76561198240408540,"connected_time":543000000000,"state":"active","ping":59},{"user_id":116,"name":"Drapph","steam_id":76561199384213314,"connected_time":1657000000000,"state":"active","ping":66},{"user_id":94,"name":"bread","steam_id":76561198291298731,"connected_time":3918000000000,"state":"active","ping":69},{"user_id":110,"name":"Arty","steam_id":76561198064047186,"connected_time":2188000000000,"state":"active","ping":59},{"user_id":117,"name":"-Kuu","steam_id":76561198060774066,"connected_time":1657000000000,"state":"active","ping":139},{"user_id":124,"name":"AquaPhoenix","steam_id":76561198157474924,"connected_time":1167000000000,"state":"active","ping":54},{"user_id":121,"name":"Zesno","steam_id":76561198075216015,"connected_time":1524000000000,"state":"active","ping":72},{"user_id":84,"name":"Chiki","steam_id":76561198063590320,"connected_time":4529000000000,"state":"active","ping":64},{"user_id":130,"name":"Rornir","steam_id":76561198081829615,"connected_time":624000000000,"state":"active","ping":38},{"user_id":137,"name":"BIG HOG","steam_id":76561198079923652,"connected_time":15000000000,"state":"active","ping":77},{"user_id":40,"name":"MasterAmongRust","steam_id":76561198010160233,"connected_time":6263000000000,"state":"active","ping":79},{"user_id":135,"name":"Cofi","steam_id":76561199026721822,"connected_time":367000000000,"state":"active","ping":108},{"user_id":100,"name":"Gremmy","steam_id":76561198226526104,"connected_time":2962000000000,"state":"active","ping":66}]},{"server_id":106,"name":"Uncletopia | Chicago | 2 | All Maps","name_short":"chi-2","host":"chi-1.us.uncletopia.com","port":27025,"enabled":true,"region":"us-central","cc":"us","latitude":41.881832,"longitude":-87.62318,"reserved":0,"last_update":"0001-01-01T00:00:00Z","name_a2s":"Uncletopia | Chicago | 2 | All Maps","protocol":17,"map":"cp_dustbowl","folder":"tf","game":"Team Fortress","app_id":440,"player_count":0,"max_players":24,"Bots":0,"server_type":"Dedicated","server_os":"Linux","password":true,"vac":true,"version":"7882260","steam_id":85568392924469985,"keywords":["cp","nocrits","nodmgspread","uncletopia"],"game_id":440,"stv_port":27026,"stv_name":"Uncletopia | Chicago | 2 | All Maps | STV","players":null},{"server_id":402,"name":"Uncletopia | Chicago | 3 | All Maps","name_short":"chi-3","host":"chi-1.us.uncletopia.com","port":27035,"enabled":true,"region":"us-central","cc":"us","latitude":41.881832,"longitude":-87.62318,"reserved":0,"last_update":"0001-01-01T00:00:00Z","name_a2s":"Uncletopia | Chicago | 3 | All Maps","protocol":17,"map":"pl_frontier_final","folder":"tf","game":"Team Fortress","app_id":440,"player_count":0,"max_players":24,"Bots":0,"server_type":"Dedicated","server_os":"Linux","password":true,"vac":true,"version":"7882260","steam_id":85568392924515191,"keywords":["nocrits","nodmgspread","payload","uncletopia"],"game_id":440,"stv_port":27036,"stv_name":"Uncletopia | Chicago | 3 | All Maps | STV","players":null},{"server_id":403,"name":"Uncletopia | Chicago | 4 | All Maps","name_short":"chi-4","host":"chi-1.us.uncletopia.com","port":27045,"enabled":true,"region":"us-central","cc":"us","latitude":41.881832,"longitude":-87.62318,"reserved":0,"last_update":"0001-01-01T00:00:00Z","name_a2s":"Uncletopia | Chicago | 4 | All Maps","protocol":17,"map":"koth_cascade","folder":"tf","game":"Team Fortress","app_id":440,"player_count":0,"max_players":24,"Bots":0,"server_type":"Dedicated","server_os":"Linux","password":true,"vac":true,"version":"7882260","steam_id":85568392924515193,"keywords":["cp","nocrits","nodmgspread","uncletopia"],"game_id":440,"stv_port":27046,"stv_name":"Uncletopia | Chicago | 4 | All Maps | STV","players":null},{"server_id":36,"name":"Uncletopia | Chicago | 5 | All Maps","name_short":"chi-5","host":"chi-2.us.uncletopia.com","port":27015,"enabled":true,"region":"us-central","cc":"us","latitude":41.881832,"longitude":-87.62318,"reserved":0,"last_update":"0001-01-01T00:00:00Z","name_a2s":"Uncletopia | Chicago | 5 | All Maps","protocol":17,"map":"koth_highpass","folder":"tf","game":"Team Fortress","app_id":440,"player_count":0,"max_players":24,"Bots":0,"server_type":"Dedicated","server_os":"Linux","password":true,"vac":true,"version":"7882260","steam_id":85568392924866362,"keywords":["cp","nocrits","nodmgspread","uncletopia"],"game_id":440,"stv_port":27016,"stv_name":"Uncletopia | Chicago | 5 | All Maps | STV","players":null},{"server_id":37,"name":"Uncletopia | Chicago | 6 | All Maps","name_short":"chi-6","host":"chi-2.us.uncletopia.com","port":27025,"enabled":true,"region":"us-central","cc":"us","latitude":41.881832,"longitude":-87.62318,"reserved":0,"last_update":"0001-01-01T00:00:00Z","name_a2s":"Uncletopia | Chicago | 6 | All Maps","protocol":17,"map":"cp_gorge","folder":"tf","game":"Team Fortress","app_id":440,"player_count":24,"max_players":24,"Bots":0,"server_type":"Dedicated","server_os":"Linux","password":true,"vac":true,"version":"7882260","steam_id":85568392924866363,"keywords":["cp","nocrits","nodmgspread","uncletopia"],"game_id":440,"stv_port":27026,"stv_name":"Uncletopia | Chicago | 6 | All Maps | STV","players":[{"user_id":213,"name":"Meat Mans Meat","steam_id":76561198062149455,"connected_time":3353000000000,"state":"active","ping":60},{"user_id":237,"name":"Open Mailbox","steam_id":76561198051933580,"connected_time":1519000000000,"state":"active","ping":83},{"user_id":234,"name":"night.light","steam_id":76561198014557455,"connected_time":1744000000000,"state":"active","ping":52},{"user_id":218,"name":"Lifial","steam_id":76561198271885819,"connected_time":2795000000000,"state":"active","ping":74},{"user_id":243,"name":"lost in spaaaaace","steam_id":76561199085974120,"connected_time":1385000000000,"state":"active","ping":74},{"user_id":230,"name":"Dad 2","steam_id":76561198138546187,"connected_time":2025000000000,"state":"active","ping":74},{"user_id":236,"name":"Cedric","steam_id":76561198072090580,"connected_time":1610000000000,"state":"active","ping":88},{"user_id":235,"name":"Sir Coreden","steam_id":76561198008430589,"connected_time":1742000000000,"state":"active","ping":63},{"user_id":168,"name":"and i'm javert!","steam_id":76561198117033273,"connected_time":7044000000000,"state":"active","ping":142},{"user_id":240,"name":"Anomalous Materials Scientist","steam_id":76561198092542997,"connected_time":1441000000000,"state":"active","ping":63},{"user_id":211,"name":"Huey","steam_id":76561198972816386,"connected_time":3395000000000,"state":"active","ping":87},{"user_id":258,"name":"Just a Good Friend","steam_id":76561198140052403,"connected_time":260000000000,"state":"active","ping":75},{"user_id":187,"name":"lingulata","steam_id":76561198076208960,"connected_time":5350000000000,"state":"active","ping":78},{"user_id":212,"name":"adiosToreador","steam_id":76561198297961039,"connected_time":3376000000000,"state":"active","ping":101},{"user_id":239,"name":"Acro Banwagon","steam_id":76561198092451804,"connected_time":1454000000000,"state":"active","ping":67},{"user_id":238,"name":"waltuh","steam_id":76561198363541736,"connected_time":1466000000000,"state":"active","ping":85},{"user_id":231,"name":"Sup m8","steam_id":76561198081659121,"connected_time":2002000000000,"state":"active","ping":71},{"user_id":244,"name":"KaleScrooge","steam_id":76561199229442595,"connected_time":1374000000000,"state":"active","ping":126},{"user_id":248,"name":"Spicy Jumbo Big Daddy","steam_id":76561198076364318,"connected_time":712000000000,"state":"active","ping":59},{"user_id":247,"name":"SeaBass","steam_id":76561197982949108,"connected_time":1208000000000,"state":"active","ping":69},{"user_id":229,"name":"Mom 2","steam_id":76561198200961750,"connected_time":2064000000000,"state":"active","ping":127},{"user_id":202,"name":"anonion","steam_id":76561198056477584,"connected_time":4180000000000,"state":"active","ping":78},{"user_id":250,"name":"gamerlegend47","steam_id":76561198122776598,"connected_time":532000000000,"state":"active","ping":68},{"user_id":254,"name":"Gas Can","steam_id":76561198162853003,"connected_time":356000000000,"state":"active","ping":72}]},{"server_id":38,"name":"Uncletopia | Chicago | 7 | Stopwatch Beta","name_short":"chi-7","host":"chi-2.us.uncletopia.com","port":27035,"enabled":true,"region":"us-central","cc":"us","latitude":41.881832,"longitude":-87.62318,"reserved":0,"last_update":"0001-01-01T00:00:00Z","name_a2s":"Uncletopia | Chicago | 7 | Stopwatch Beta","protocol":17,"map":"pl_borneo","folder":"tf","game":"Team Fortress","app_id":440,"player_count":0,"max_players":24,"Bots":0,"server_type":"Dedicated","server_os":"Linux","password":true,"vac":true,"version":"7882260","steam_id":85568392924866364,"keywords":["nocrits","nodmgspread","payload","uncletopia"],"game_id":440,"stv_port":27036,"stv_name":"Uncletopia | Chicago | 7 | Stopwatch Beta | STV","players":null},{"server_id":39,"name":"Uncletopia | Chicago | 8 | Community","name_short":"chi-8","host":"chi-2.us.uncletopia.com","port":27045,"enabled":true,"region":"us-central","cc":"us","latitude":41.881832,"longitude":-87.62318,"reserved":0,"last_update":"0001-01-01T00:00:00Z","name_a2s":"Uncletopia | Chicago | 8 | Community","protocol":17,"map":"workshop/koth_ashville_final.ugc2130459942","folder":"tf","game":"Team Fortress","app_id":440,"player_count":0,"max_players":24,"Bots":0,"server_type":"Dedicated","server_os":"Linux","password":true,"vac":true,"version":"7882260","steam_id":85568392924866365,"keywords":["cp","nocrits","nodmgspread","uncletopia"],"game_id":440,"stv_port":27046,"stv_name":"Uncletopia | Chicago | 8 | Community | STV","players":null},{"server_id":8,"name":"Uncletopia | Dallas | 1 | All Maps","name_short":"dal-1","host":"dal-1.us.uncletopia.com","port":27015,"enabled":true,"region":"us-central","cc":"us","latitude":32.779167,"longitude":-96.80889,"reserved":0,"last_update":"0001-01-01T00:00:00Z","name_a2s":"Uncletopia | Dallas | 1 | All Maps","protocol":17,"map":"pl_borneo","folder":"tf","game":"Team Fortress","app_id":440,"player_count":0,"max_players":24,"Bots":0,"server_type":"Dedicated","server_os":"Linux","password":true,"vac":true,"version":"7882260","steam_id":85568392924469986,"keywords":["nocrits","nodmgspread","payload","uncletopia"],"game_id":440,"stv_port":27016,"stv_name":"Uncletopia | Dallas | 1 | All Maps | STV","players":null},{"server_id":108,"name":"Uncletopia | Dallas | 2 | All Maps","name_short":"dal-2","host":"dal-1.us.uncletopia.com","port":27025,"enabled":true,"region":"us-central","cc":"us","latitude":32.779167,"longitude":-96.80889,"reserved":0,"last_update":"0001-01-01T00:00:00Z","name_a2s":"Uncletopia | Dallas | 2 | All Maps","protocol":17,"map":"koth_lakeside_final","folder":"tf","game":"Team Fortress","app_id":440,"player_count":0,"max_players":24,"Bots":0,"server_type":"Dedicated","server_os":"Linux","password":true,"vac":true,"version":"7882260","steam_id":85568392924469988,"keywords":["cp","nocrits","nodmgspread","uncletopia"],"game_id":440,"stv_port":27026,"stv_name":"Uncletopia | Dallas | 2 | All Maps | STV","players":null},{"server_id":5,"name":"Uncletopia | Frankfurt | 1 | All Maps","name_short":"frk-1","host":"frk-1.de.uncletopia.com","port":27015,"enabled":true,"region":"eu","cc":"de","latitude":50.110924,"longitude":8.682127,"reserved":0,"last_update":"0001-01-01T00:00:00Z","name_a2s":"Uncletopia | Frankfurt | 1 | All Maps","protocol":17,"map":"pl_frontier_final","folder":"tf","game":"Team Fortress","app_id":440,"player_count":22,"max_players":24,"Bots":0,"server_type":"Dedicated","server_os":"Linux","password":true,"vac":true,"version":"7882260","steam_id":85568392924469989,"keywords":["nocrits","nodmgspread","payload","uncletopia"],"game_id":440,"stv_port":27016,"stv_name":"Uncletopia | Frankfurt | 1 | All Maps | STV","players":[{"user_id":279,"name":"Fiasco","steam_id":76561197961138997,"connected_time":660000000000,"state":"active","ping":75},{"user_id":278,"name":"pijuka*venomxhairs","steam_id":76561198083063005,"connected_time":771000000000,"state":"active","ping":47},{"user_id":281,"name":"Valdis","steam_id":76561198057340489,"connected_time":648000000000,"state":"active","ping":59},{"user_id":150,"name":"す LightFlight し","steam_id":76561198079007530,"connected_time":9876000000000,"state":"active","ping":64},{"user_id":284,"name":"Adib al-asfar","steam_id":76561198095691592,"connected_time":626000000000,"state":"active","ping":59},{"user_id":260,"name":"Marty™","steam_id":76561198060073673,"connected_time":2432000000000,"state":"active","ping":60},{"user_id":276,"name":"thedarksaponetta","steam_id":76561198198538509,"connected_time":919000000000,"state":"active","ping":57},{"user_id":285,"name":"Bob Sacamano","steam_id":76561198085610701,"connected_time":616000000000,"state":"active","ping":89},{"user_id":252,"name":"_⁧⁧NxtPerfect","steam_id":76561198265938609,"connected_time":2995000000000,"state":"active","ping":91},{"user_id":287,"name":"Big Dick Furry","steam_id":76561198321902838,"connected_time":376000000000,"state":"active","ping":75},{"user_id":263,"name":"Storm's Foreshadow","steam_id":76561198098462526,"connected_time":1775000000000,"state":"active","ping":70},{"user_id":286,"name":"1312589","steam_id":76561198079293782,"connected_time":616000000000,"state":"active","ping":71},{"user_id":275,"name":"Sh1n","steam_id":76561199012155377,"connected_time":975000000000,"state":"active","ping":45},{"user_id":288,"name":"taima","steam_id":76561198281053248,"connected_time":273000000000,"state":"active","ping":69},{"user_id":289,"name":"gaming","steam_id":76561198044461938,"connected_time":90000000000,"state":"active","ping":57},{"user_id":268,"name":"Krabs","steam_id":76561198161679477,"connected_time":1453000000000,"state":"active","ping":62},{"user_id":128,"name":"wieto","steam_id":76561198050626427,"connected_time":11763000000000,"state":"active","ping":58},{"user_id":290,"name":"zeppa114","steam_id":76561198065192734,"connected_time":21000000000,"state":"active","ping":59},{"user_id":291,"name":"congo","steam_id":76561198236836866,"connected_time":12000000000,"state":"active","ping":78},{"user_id":277,"name":"Metal Pipe","steam_id":76561199001657140,"connected_time":812000000000,"state":"active","ping":89},{"user_id":283,"name":"Hubero","steam_id":76561198017053653,"connected_time":646000000000,"state":"active","ping":74},{"user_id":243,"name":"._.","steam_id":76561198056227515,"connected_time":3311000000000,"state":"active","ping":72}]},{"server_id":110,"name":"Uncletopia | Frankfurt | 2 | All Maps","name_short":"frk-2","host":"frk-1.de.uncletopia.com","port":27025,"enabled":true,"region":"eu","cc":"de","latitude":50.110924,"longitude":8.682127,"reserved":0,"last_update":"0001-01-01T00:00:00Z","name_a2s":"Uncletopia | Frankfurt | 2 | All Maps","protocol":17,"map":"pl_pier","folder":"tf","game":"Team Fortress","app_id":440,"player_count":23,"max_players":24,"Bots":0,"server_type":"Dedicated","server_os":"Linux","password":true,"vac":true,"version":"7882260","steam_id":85568392924469990,"keywords":["nocrits","nodmgspread","payload","uncletopia"],"game_id":440,"stv_port":27026,"stv_name":"Uncletopia | Frankfurt | 2 | All Maps | STV","players":[{"user_id":138,"name":"skai","steam_id":76561198184881255,"connected_time":173000000000,"state":"active","ping":72},{"user_id":101,"name":"Healix","steam_id":76561198130270161,"connected_time":2461000000000,"state":"active","ping":55},{"user_id":139,"name":"Charles Darwin","steam_id":76561197973496139,"connected_time":65000000000,"state":"active","ping":64},{"user_id":135,"name":"multiflex \u003e\u003e\u003e+\u003c\u003c\u003c","steam_id":76561198049639319,"connected_time":247000000000,"state":"active","ping":74},{"user_id":125,"name":"Femboy Ambassador","steam_id":76561198972418498,"connected_time":873000000000,"state":"active","ping":102},{"user_id":67,"name":"mixxxa_french","steam_id":76561198085098243,"connected_time":4555000000000,"state":"active","ping":108},{"user_id":132,"name":"Yung Autism","steam_id":76561198021110471,"connected_time":409000000000,"state":"active","ping":97},{"user_id":136,"name":"BELADIT","steam_id":76561198011911501,"connected_time":233000000000,"state":"active","ping":74},{"user_id":90,"name":"Wardruna96","steam_id":76561199057083828,"connected_time":3384000000000,"state":"active","ping":75},{"user_id":116,"name":"Kumquat","steam_id":76561198200490386,"connected_time":1624000000000,"state":"active","ping":66},{"user_id":109,"name":"an idiot","steam_id":76561198172542535,"connected_time":2066000000000,"state":"active","ping":71},{"user_id":131,"name":"Rezzarezz","steam_id":76561198092020043,"connected_time":443000000000,"state":"active","ping":69},{"user_id":118,"name":"WHUSSKEY","steam_id":76561198137827441,"connected_time":1555000000000,"state":"active","ping":70},{"user_id":128,"name":"Daruun","steam_id":76561198019068781,"connected_time":786000000000,"state":"active","ping":70},{"user_id":86,"name":"LOBZIK","steam_id":76561198114830120,"connected_time":3497000000000,"state":"active","ping":75},{"user_id":104,"name":"B@yka","steam_id":76561198986736592,"connected_time":2310000000000,"state":"active","ping":63},{"user_id":113,"name":"dunduu","steam_id":76561198875240717,"connected_time":1692000000000,"state":"active","ping":62},{"user_id":129,"name":"dopamine enjoyer","steam_id":76561198140591983,"connected_time":654000000000,"state":"active","ping":109},{"user_id":140,"name":"lol","steam_id":76561198104438656,"connected_time":27000000000,"state":"active","ping":66},{"user_id":111,"name":"Leibeigener","steam_id":76561199275478305,"connected_time":1951000000000,"state":"active","ping":41},{"user_id":43,"name":"After8","steam_id":76561198090750865,"connected_time":6949000000000,"state":"active","ping":66},{"user_id":100,"name":"Animatic","steam_id":76561198186421601,"connected_time":2700000000000,"state":"active","ping":182},{"user_id":121,"name":"A fish and sea","steam_id":76561198194745827,"connected_time":1157000000000,"state":"active","ping":54}]},{"server_id":308,"name":"Uncletopia | Frankfurt | 3 | All Maps","name_short":"frk-3","host":"frk-1.de.uncletopia.com","port":27035,"enabled":true,"region":"eu","cc":"de","latitude":50.110924,"longitude":8.682127,"reserved":0,"last_update":"0001-01-01T00:00:00Z","name_a2s":"Uncletopia | Frankfurt | 3 | All Maps","protocol":17,"map":"cp_process_final","folder":"tf","game":"Team Fortress","app_id":440,"player_count":24,"max_players":24,"Bots":0,"server_type":"Dedicated","server_os":"Linux","password":true,"vac":true,"version":"7882260","steam_id":85568392924504274,"keywords":["cp","nocrits","nodmgspread","uncletopia"],"game_id":440,"stv_port":27036,"stv_name":"Uncletopia | Frankfurt | 3 | All Maps | STV","players":[{"user_id":163,"name":"leminsc8","steam_id":76561198825084995,"connected_time":51000000000,"state":"spawning","ping":51},{"user_id":168,"name":"Smaug [Ger]","steam_id":76561198853461583,"connected_time":27000000000,"state":"spawning","ping":92},{"user_id":105,"name":"skatie","steam_id":76561198169487380,"connected_time":3923000000000,"state":"active","ping":73},{"user_id":159,"name":"Dr.Nefario","steam_id":76561198874586020,"connected_time":79000000000,"state":"active","ping":64},{"user_id":153,"name":"Plop_","steam_id":76561198112567921,"connected_time":752000000000,"state":"active","ping":46},{"user_id":140,"name":"Titar Industries","steam_id":76561198143078476,"connected_time":1525000000000,"state":"active","ping":145},{"user_id":160,"name":"CRK496_Z","steam_id":76561198290573247,"connected_time":75000000000,"state":"active","ping":81},{"user_id":155,"name":"Abel","steam_id":76561198354150858,"connected_time":725000000000,"state":"active","ping":88},{"user_id":86,"name":"Caliban","steam_id":76561197999696839,"connected_time":4989000000000,"state":"active","ping":101},{"user_id":167,"name":"REN","steam_id":76561198000596385,"connected_time":30000000000,"state":"active","ping":107},{"user_id":161,"name":"man made of c4","steam_id":76561198202441870,"connected_time":70000000000,"state":"active","ping":61},{"user_id":145,"name":"Saxophone","steam_id":76561198984346408,"connected_time":1257000000000,"state":"active","ping":71},{"user_id":164,"name":"French Lym","steam_id":76561198954876624,"connected_time":47000000000,"state":"active","ping":63},{"user_id":158,"name":"mimi","steam_id":76561198060648946,"connected_time":622000000000,"state":"active","ping":51},{"user_id":136,"name":"JunkJen","steam_id":76561198017223402,"connected_time":1954000000000,"state":"active","ping":68},{"user_id":148,"name":"Jazzlike","steam_id":76561198839813662,"connected_time":1174000000000,"state":"active","ping":77},{"user_id":39,"name":"ducksattack","steam_id":76561198074706076,"connected_time":7788000000000,"state":"active","ping":80},{"user_id":162,"name":"lasagna ether","steam_id":76561198211967715,"connected_time":69000000000,"state":"active","ping":97},{"user_id":170,"name":"elijah","steam_id":76561198093936708,"connected_time":6000000000,"state":"active","ping":124},{"user_id":137,"name":"♥Hearth da Femboy♥","steam_id":76561199202438796,"connected_time":1936000000000,"state":"active","ping":55},{"user_id":165,"name":"hedon/","steam_id":76561198249832770,"connected_time":41000000000,"state":"active","ping":66},{"user_id":68,"name":"Chromega","steam_id":76561199075307750,"connected_time":6506000000000,"state":"active","ping":56},{"user_id":149,"name":"Zygocact","steam_id":76561197990776598,"connected_time":1154000000000,"state":"active","ping":130},{"user_id":166,"name":"Dom","steam_id":76561198056086416,"connected_time":37000000000,"state":"active","ping":50}]},{"server_id":309,"name":"Uncletopia | Frankfurt | 4 | All Maps","name_short":"frk-4","host":"frk-1.de.uncletopia.com","port":27045,"enabled":true,"region":"eu","cc":"de","latitude":50.110924,"longitude":8.682127,"reserved":0,"last_update":"0001-01-01T00:00:00Z","name_a2s":"Uncletopia | Frankfurt | 4 | All Maps","protocol":17,"map":"ctf_2fort","folder":"tf","game":"Team Fortress","app_id":440,"player_count":23,"max_players":24,"Bots":0,"server_type":"Dedicated","server_os":"Linux","password":true,"vac":true,"version":"7882260","steam_id":85568392924504275,"keywords":["ctf","nocrits","nodmgspread","uncletopia"],"game_id":440,"stv_port":27046,"stv_name":"Uncletopia | Frankfurt | 4 | All Maps | STV","players":[{"user_id":304,"name":"Tower t3098u2j5","steam_id":76561198090278447,"connected_time":3001000000000,"state":"active","ping":74},{"user_id":349,"name":"burndmeetbal","steam_id":76561199121834849,"connected_time":733000000000,"state":"active","ping":80},{"user_id":272,"name":"Spectral Sloth","steam_id":76561198170083139,"connected_time":5409000000000,"state":"active","ping":84},{"user_id":348,"name":"Ratatatatatatouille","steam_id":76561198182267098,"connected_time":749000000000,"state":"active","ping":86},{"user_id":284,"name":"P9Nexus","steam_id":76561198073416257,"connected_time":4204000000000,"state":"active","ping":45},{"user_id":316,"name":"XSCod","steam_id":76561198124586634,"connected_time":2259000000000,"state":"active","ping":84},{"user_id":362,"name":"dnljns","steam_id":76561198085091752,"connected_time":189000000000,"state":"active","ping":69},{"user_id":354,"name":"Itai","steam_id":76561198804555329,"connected_time":610000000000,"state":"active","ping":100},{"user_id":363,"name":"B.batt","steam_id":76561198998684199,"connected_time":85000000000,"state":"active","ping":105},{"user_id":351,"name":"mmlock","steam_id":76561198069516191,"connected_time":722000000000,"state":"active","ping":57},{"user_id":321,"name":"マリック","steam_id":76561199146501937,"connected_time":2115000000000,"state":"active","ping":132},{"user_id":325,"name":"T20Venom","steam_id":76561198394492116,"connected_time":2047000000000,"state":"active","ping":88},{"user_id":326,"name":"Conan","steam_id":76561198158321202,"connected_time":2016000000000,"state":"active","ping":68},{"user_id":358,"name":"the indomitable human spirit","steam_id":76561199444971686,"connected_time":537000000000,"state":"active","ping":58},{"user_id":328,"name":"Sauce Joke","steam_id":76561198842979843,"connected_time":1977000000000,"state":"active","ping":52},{"user_id":281,"name":"weedminion","steam_id":76561198061248329,"connected_time":4767000000000,"state":"active","ping":73},{"user_id":355,"name":"Mr. Mundy","steam_id":76561198132008918,"connected_time":606000000000,"state":"active","ping":77},{"user_id":311,"name":"SkillFullNinja","steam_id":76561198376246441,"connected_time":2569000000000,"state":"active","ping":126},{"user_id":356,"name":"calum92","steam_id":76561197992188760,"connected_time":588000000000,"state":"active","ping":80},{"user_id":295,"name":"burgz","steam_id":76561198109955787,"connected_time":4013000000000,"state":"active","ping":59},{"user_id":332,"name":"Driver's drunkest God","steam_id":76561198969373800,"connected_time":1916000000000,"state":"active","ping":73},{"user_id":360,"name":"Dr. Mike","steam_id":76561197991205793,"connected_time":470000000000,"state":"active","ping":60},{"user_id":333,"name":"Chiken | F","steam_id":76561198196440701,"connected_time":1915000000000,"state":"active","ping":64}]},{"server_id":310,"name":"Uncletopia | Frankfurt | 5 | All Maps","name_short":"frk-5","host":"frk-1.de.uncletopia.com","port":27055,"enabled":true,"region":"eu","cc":"de","latitude":50.110924,"longitude":8.682127,"reserved":0,"last_update":"0001-01-01T00:00:00Z","name_a2s":"Uncletopia | Frankfurt | 5 | All Maps","protocol":17,"map":"koth_cascade","folder":"tf","game":"Team Fortress","app_id":440,"player_count":0,"max_players":24,"Bots":0,"server_type":"Dedicated","server_os":"Linux","password":true,"vac":true,"version":"7882260","steam_id":85568392924504277,"keywords":["cp","nocrits","nodmgspread","uncletopia"],"game_id":440,"stv_port":27056,"stv_name":"Uncletopia | Frankfurt | 5 | All Maps | STV","players":null},{"server_id":311,"name":"Uncletopia | Frankfurt | 6 | All Maps","name_short":"frk-6","host":"frk-1.de.uncletopia.com","port":27065,"enabled":true,"region":"eu","cc":"de","latitude":50.110924,"longitude":8.682127,"reserved":0,"last_update":"0001-01-01T00:00:00Z","name_a2s":"Uncletopia | Frankfurt | 6 | All Maps","protocol":17,"map":"koth_lakeside_final","folder":"tf","game":"Team Fortress","app_id":440,"player_count":0,"max_players":24,"Bots":0,"server_type":"Dedicated","server_os":"Linux","password":true,"vac":true,"version":"7882260","steam_id":85568392924504278,"keywords":["cp","nocrits","nodmgspread","uncletopia"],"game_id":440,"stv_port":27066,"stv_name":"Uncletopia | Frankfurt | 6 | All Maps | STV","players":null},{"server_id":23,"name":"Uncletopia | Frankfurt | 7 | Stopwatch Beta","name_short":"frk-7","host":"frk-1.de.uncletopia.com","port":27075,"enabled":true,"region":"eu","cc":"de","latitude":50.110924,"longitude":8.682127,"reserved":0,"last_update":"0001-01-01T00:00:00Z","name_a2s":"Uncletopia | Frankfurt | 7 | Stopwatch Beta","protocol":17,"map":"workshop/koth_ashville_final.ugc2130459942","folder":"tf","game":"Team Fortress","app_id":440,"player_count":6,"max_players":24,"Bots":0,"server_type":"Dedicated","server_os":"Linux","password":true,"vac":true,"version":"7882260","steam_id":85568392924742827,"keywords":["cp","nocrits","nodmgspread","uncletopia"],"game_id":440,"stv_port":27076,"stv_name":"Uncletopia | Frankfurt | 7 | Stopwatch Beta | STV","players":[{"user_id":7,"name":"LackOfHeadshots","steam_id":76561198963700249,"connected_time":1280000000000,"state":"active","ping":54},{"user_id":8,"name":"thylos78","steam_id":76561199093896046,"connected_time":1266000000000,"state":"active","ping":61},{"user_id":10,"name":"Ass exploder","steam_id":76561198145312909,"connected_time":464000000000,"state":"active","ping":59},{"user_id":17,"name":"Artificial.Ignorance","steam_id":76561198453090180,"connected_time":99000000000,"state":"active","ping":172},{"user_id":12,"name":"kanjii","steam_id":76561199434389738,"connected_time":371000000000,"state":"active","ping":78},{"user_id":15,"name":"Dzan50","steam_id":76561198059758591,"connected_time":223000000000,"state":"active","ping":86}]},{"server_id":24,"name":"Uncletopia | Frankfurt | 8 | Community","name_short":"frk-8","host":"frk-1.de.uncletopia.com","port":27085,"enabled":true,"region":"eu","cc":"de","latitude":50.110924,"longitude":8.682127,"reserved":0,"last_update":"0001-01-01T00:00:00Z","name_a2s":"Uncletopia | Frankfurt | 8 | Community","protocol":17,"map":"koth_cascade","folder":"tf","game":"Team Fortress","app_id":440,"player_count":0,"max_players":24,"Bots":0,"server_type":"Dedicated","server_os":"Linux","password":true,"vac":true,"version":"7882260","steam_id":85568392924742828,"keywords":["cp","nocrits","nodmgspread","uncletopia"],"game_id":440,"stv_port":27086,"stv_name":"Uncletopia | Frankfurt | 8 | Community | STV","players":null},{"server_id":202,"name":"Uncletopia | Hong Kong | 1 | All Maps","name_short":"hgk-1","host":"hgk-1.hk.uncletopia.com","port":27015,"enabled":true,"region":"asia","cc":"hk","latitude":22.302711,"longitude":114.177216,"reserved":0,"last_update":"0001-01-01T00:00:00Z","name_a2s":"Uncletopia | Hong Kong | 1 | All Maps","protocol":17,"map":"koth_viaduct","folder":"tf","game":"Team Fortress","app_id":440,"player_count":0,"max_players":24,"Bots":0,"server_type":"Dedicated","server_os":"Linux","password":true,"vac":true,"version":"7882260","steam_id":85568392924494504,"keywords":["cp","nocrits","nodmgspread","uncletopia"],"game_id":440,"stv_port":27016,"stv_name":"Uncletopia | Hong Kong | 1 | All Maps | STV","players":null},{"server_id":1,"name":"Uncletopia | Los Angeles | 1 | All Maps","name_short":"lax-1","host":"lax-1.us.uncletopia.com","port":27015,"enabled":true,"region":"us-west","cc":"us","latitude":33.94279,"longitude":-118.41004,"reserved":0,"last_update":"0001-01-01T00:00:00Z","name_a2s":"Uncletopia | Los Angeles | 1 | All Maps","protocol":17,"map":"pl_pier","folder":"tf","game":"Team Fortress","app_id":440,"player_count":0,"max_players":24,"Bots":0,"server_type":"Dedicated","server_os":"Linux","password":true,"vac":true,"version":"7882260","steam_id":85568392924469991,"keywords":["nocrits","nodmgspread","payload","uncletopia"],"game_id":440,"stv_port":27016,"stv_name":"Uncletopia | Los Angeles | 1 | All Maps | STV","players":null},{"server_id":112,"name":"Uncletopia | Los Angeles | 2 | All Maps","name_short":"lax-2","host":"lax-1.us.uncletopia.com","port":27025,"enabled":true,"region":"us-west","cc":"us","latitude":33.94279,"longitude":-118.41004,"reserved":0,"last_update":"0001-01-01T00:00:00Z","name_a2s":"Uncletopia | Los Angeles | 2 | All Maps","protocol":17,"map":"cp_snakewater_final1","folder":"tf","game":"Team Fortress","app_id":440,"player_count":0,"max_players":24,"Bots":0,"server_type":"Dedicated","server_os":"Linux","password":true,"vac":true,"version":"7882260","steam_id":85568392924469992,"keywords":["cp","nocrits","nodmgspread","uncletopia"],"game_id":440,"stv_port":27026,"stv_name":"Uncletopia | Los Angeles | 2 | All Maps | STV","players":null},{"server_id":324,"name":"Uncletopia | Los Angeles | 3 | All Maps","name_short":"lax-3","host":"lax-1.us.uncletopia.com","port":27035,"enabled":true,"region":"us-west","cc":"us","latitude":33.94279,"longitude":-118.41004,"reserved":0,"last_update":"0001-01-01T00:00:00Z","name_a2s":"Uncletopia | Los Angeles | 3 | All Maps","protocol":17,"map":"cp_sunshine","folder":"tf","game":"Team Fortress","app_id":440,"player_count":0,"max_players":24,"Bots":0,"server_type":"Dedicated","server_os":"Linux","password":true,"vac":true,"version":"7882260","steam_id":85568392924510198,"keywords":["cp","nocrits","nodmgspread","uncletopia"],"game_id":440,"stv_port":27036,"stv_name":"Uncletopia | Los Angeles | 3 | All Maps | STV","players":null},{"server_id":25,"name":"Uncletopia | Los Angeles | 4 | Stopwatch Beta","name_short":"lax-4","host":"lax-1.us.uncletopia.com","port":27045,"enabled":true,"region":"us-west","cc":"us","latitude":33.94279,"longitude":-118.41004,"reserved":0,"last_update":"0001-01-01T00:00:00Z","name_a2s":"Uncletopia | Los Angeles | 4 | Stopwatch Beta","protocol":17,"map":"cp_snakewater_final1","folder":"tf","game":"Team Fortress","app_id":440,"player_count":0,"max_players":24,"Bots":0,"server_type":"Dedicated","server_os":"Linux","password":true,"vac":true,"version":"7882260","steam_id":85568392924510199,"keywords":["cp","nocrits","nodmgspread","uncletopia"],"game_id":440,"stv_port":27046,"stv_name":"Uncletopia | Los Angeles | 4 | Stopwatch Beta | STV","players":null},{"server_id":11,"name":"Uncletopia | London | 1 | All Maps","name_short":"lon-1","host":"lon-1.uk.uncletopia.com","port":27015,"enabled":true,"region":"eu","cc":"gb","latitude":51.509865,"longitude":-0.118092,"reserved":0,"last_update":"0001-01-01T00:00:00Z","name_a2s":"Uncletopia | London | 1 | All Maps","protocol":17,"map":"cp_process_final","folder":"tf","game":"Team Fortress","app_id":440,"player_count":24,"max_players":24,"Bots":0,"server_type":"Dedicated","server_os":"Linux","password":true,"vac":true,"version":"7882260","steam_id":85568392924367362,"keywords":["cp","nocrits","nodmgspread","uncletopia"],"game_id":440,"stv_port":27016,"stv_name":"Uncletopia | London | 1 | All Maps | STV","players":[{"user_id":538,"name":"Revo","steam_id":76561198046021202,"connected_time":1208000000000,"state":"active","ping":48},{"user_id":491,"name":"$nØw","steam_id":76561198238781028,"connected_time":4703000000000,"state":"active","ping":99},{"user_id":540,"name":"xavier","steam_id":76561198076494034,"connected_time":1111000000000,"state":"active","ping":47},{"user_id":537,"name":"box","steam_id":76561198049531483,"connected_time":1262000000000,"state":"active","ping":142},{"user_id":545,"name":"benifis163","steam_id":76561198420973492,"connected_time":992000000000,"state":"active","ping":109},{"user_id":541,"name":"jimmy bob","steam_id":76561198319583692,"connected_time":1015000000000,"state":"active","ping":60},{"user_id":493,"name":"Bajas","steam_id":76561198179339326,"connected_time":4646000000000,"state":"active","ping":83},{"user_id":542,"name":"Hermitcrack","steam_id":76561198149216441,"connected_time":1015000000000,"state":"active","ping":75},{"user_id":589,"name":"Sorky","steam_id":76561198007502339,"connected_time":3000000000,"state":"spawning","ping":78},{"user_id":452,"name":"clunk","steam_id":76561198836460767,"connected_time":7374000000000,"state":"active","ping":61},{"user_id":480,"name":"♛perry the platypus♛","steam_id":76561199379159771,"connected_time":6160000000000,"state":"active","ping":145},{"user_id":543,"name":"♥ aura ♥","steam_id":76561198066258544,"connected_time":1014000000000,"state":"active","ping":66},{"user_id":544,"name":"cazador","steam_id":76561198123096922,"connected_time":1012000000000,"state":"active","ping":137},{"user_id":529,"name":"Homebound","steam_id":76561198531978435,"connected_time":1990000000000,"state":"active","ping":67},{"user_id":501,"name":"transgender e-girl","steam_id":76561198168589809,"connected_time":4499000000000,"state":"active","ping":72},{"user_id":515,"name":"Criminal Fae","steam_id":76561198134407298,"connected_time":3170000000000,"state":"active","ping":57},{"user_id":548,"name":"wibe","steam_id":76561198002519060,"connected_time":979000000000,"state":"active","ping":76},{"user_id":549,"name":"madijo","steam_id":76561198012617400,"connected_time":844000000000,"state":"active","ping":64},{"user_id":587,"name":"Kahvi","steam_id":76561198723244199,"connected_time":168000000000,"state":"active","ping":74},{"user_id":507,"name":"dochris.2","steam_id":76561198026478625,"connected_time":3801000000000,"state":"active","ping":59},{"user_id":513,"name":"astra","steam_id":76561198042980579,"connected_time":3216000000000,"state":"active","ping":65},{"user_id":458,"name":"JeanCorben","steam_id":76561197965133561,"connected_time":6883000000000,"state":"active","ping":45},{"user_id":488,"name":"sareena","steam_id":76561198810194062,"connected_time":5442000000000,"state":"active","ping":73},{"user_id":528,"name":"Cheshireycat","steam_id":76561198067204908,"connected_time":2009000000000,"state":"active","ping":59}]},{"server_id":114,"name":"Uncletopia | London | 2 | All Maps","name_short":"lon-2","host":"lon-1.uk.uncletopia.com","port":27025,"enabled":true,"region":"eu","cc":"gb","latitude":51.509865,"longitude":-0.118092,"reserved":0,"last_update":"0001-01-01T00:00:00Z","name_a2s":"Uncletopia | London | 2 | All Maps","protocol":17,"map":"cp_altitude","folder":"tf","game":"Team Fortress","app_id":440,"player_count":24,"max_players":24,"Bots":0,"server_type":"Dedicated","server_os":"Linux","password":true,"vac":true,"version":"7882260","steam_id":85568392924470941,"keywords":["cp","nocrits","nodmgspread","uncletopia"],"game_id":440,"stv_port":27026,"stv_name":"Uncletopia | London | 2 | All Maps | STV","players":[{"user_id":65,"name":"Kowakum","steam_id":76561197998125950,"connected_time":3483000000000,"state":"active","ping":129},{"user_id":92,"name":"JOHN GAMING (#1 gunspy)","steam_id":76561199085822219,"connected_time":2411000000000,"state":"active","ping":83},{"user_id":138,"name":"SnowShot","steam_id":76561198004766638,"connected_time":232000000000,"state":"active","ping":75},{"user_id":115,"name":"NOne","steam_id":76561198002359947,"connected_time":1084000000000,"state":"active","ping":86},{"user_id":127,"name":"[waffles]","steam_id":76561198951206047,"connected_time":735000000000,"state":"active","ping":84},{"user_id":131,"name":"Syd","steam_id":76561198020515027,"connected_time":523000000000,"state":"active","ping":90},{"user_id":137,"name":"Scarlet","steam_id":76561198075966579,"connected_time":249000000000,"state":"active","ping":38},{"user_id":67,"name":"Dr.Cranium","steam_id":76561197992726926,"connected_time":3413000000000,"state":"active","ping":124},{"user_id":94,"name":"pippis!","steam_id":76561198264553801,"connected_time":2168000000000,"state":"active","ping":99},{"user_id":140,"name":"SirSangoor","steam_id":76561198044462559,"connected_time":60000000000,"state":"active","ping":110},{"user_id":91,"name":"Toastie","steam_id":76561198195077735,"connected_time":2416000000000,"state":"active","ping":45},{"user_id":135,"name":"Milk","steam_id":76561198125876588,"connected_time":366000000000,"state":"active","ping":65},{"user_id":109,"name":"p1dgeon シ","steam_id":76561199109713313,"connected_time":1466000000000,"state":"active","ping":46},{"user_id":133,"name":"Stayprone","steam_id":76561197963491785,"connected_time":458000000000,"state":"active","ping":62},{"user_id":111,"name":"JeromeGamer293","steam_id":76561199210404349,"connected_time":1393000000000,"state":"active","ping":55},{"user_id":134,"name":"Demoknight tf2","steam_id":76561198133041874,"connected_time":368000000000,"state":"active","ping":66},{"user_id":136,"name":"jona3838","steam_id":76561199097658195,"connected_time":263000000000,"state":"active","ping":95},{"user_id":113,"name":"3igen3ggy","steam_id":76561197989548015,"connected_time":1353000000000,"state":"active","ping":76},{"user_id":79,"name":"no1","steam_id":76561198067524060,"connected_time":2932000000000,"state":"active","ping":74},{"user_id":119,"name":"DOMAIN","steam_id":76561199095640319,"connected_time":1028000000000,"state":"active","ping":91},{"user_id":51,"name":"Milo","steam_id":76561198399302307,"connected_time":3676000000000,"state":"active","ping":74},{"user_id":129,"name":"SK4RD3S","steam_id":76561198058724777,"connected_time":668000000000,"state":"active","ping":79},{"user_id":122,"name":"Buggy","steam_id":76561198989158872,"connected_time":954000000000,"state":"active","ping":47},{"user_id":130,"name":"firehoes","steam_id":76561198322586709,"connected_time":644000000000,"state":"active","ping":49}]},{"server_id":320,"name":"Uncletopia | London | 3 | All Maps","name_short":"lon-3","host":"lon-1.uk.uncletopia.com","port":27035,"enabled":true,"region":"eu","cc":"gb","latitude":51.509865,"longitude":-0.118092,"reserved":0,"last_update":"0001-01-01T00:00:00Z","name_a2s":"Uncletopia | London | 3 | All Maps","protocol":17,"map":"koth_highpass","folder":"tf","game":"Team Fortress","app_id":440,"player_count":3,"max_players":24,"Bots":0,"server_type":"Dedicated","server_os":"Linux","password":true,"vac":true,"version":"7882260","steam_id":85568392924510192,"keywords":["cp","nocrits","nodmgspread","uncletopia"],"game_id":440,"stv_port":27036,"stv_name":"Uncletopia | London | 3 | All Maps | STV","players":[{"user_id":18,"name":"perc30 Advocated","steam_id":76561198201664381,"connected_time":226000000000,"state":"active","ping":142},{"user_id":19,"name":"SONIC THE GOD","steam_id":76561199185147093,"connected_time":180000000000,"state":"active","ping":84},{"user_id":20,"name":"scarfweather","steam_id":76561198121331836,"connected_time":119000000000,"state":"active","ping":45}]},{"server_id":321,"name":"Uncletopia | London | 4 | All Maps","name_short":"lon-4","host":"lon-1.uk.uncletopia.com","port":27045,"enabled":true,"region":"eu","cc":"gb","latitude":51.509865,"longitude":-0.118092,"reserved":0,"last_update":"0001-01-01T00:00:00Z","name_a2s":"Uncletopia | London | 4 | All Maps","protocol":17,"map":"koth_highpass","folder":"tf","game":"Team Fortress","app_id":440,"player_count":0,"max_players":24,"Bots":0,"server_type":"Dedicated","server_os":"Linux","password":true,"vac":true,"version":"7882260","steam_id":85568392924510193,"keywords":["cp","nocrits","nodmgspread","uncletopia"],"game_id":440,"stv_port":27046,"stv_name":"Uncletopia | London | 4 | All Maps | STV","players":null},{"server_id":21,"name":"Uncletopia | London | 5 | All Maps","name_short":"lon-5","host":"lon-1.uk.uncletopia.com","port":27055,"enabled":true,"region":"eu","cc":"gb","latitude":51.509865,"longitude":-0.118092,"reserved":0,"last_update":"0001-01-01T00:00:00Z","name_a2s":"Uncletopia | London | 5 | All Maps","protocol":17,"map":"ctf_doublecross","folder":"tf","game":"Team Fortress","app_id":440,"player_count":18,"max_players":24,"Bots":0,"server_type":"Dedicated","server_os":"Linux","password":true,"vac":true,"version":"7882260","steam_id":85568392924742829,"keywords":["ctf","nocrits","nodmgspread","uncletopia"],"game_id":440,"stv_port":27056,"stv_name":"Uncletopia | London | 5 | All Maps | STV","players":[{"user_id":10,"name":"chopsticks","steam_id":76561198045899345,"connected_time":3060000000000,"state":"active","ping":105},{"user_id":11,"name":"Butt Fangs Fetish","steam_id":76561198038130063,"connected_time":3054000000000,"state":"active","ping":84},{"user_id":12,"name":"Lastik","steam_id":76561198086394413,"connected_time":3052000000000,"state":"active","ping":120},{"user_id":67,"name":"ilimori","steam_id":76561197961231625,"connected_time":96000000000,"state":"active","ping":33},{"user_id":15,"name":"kornetov.vitalya","steam_id":76561199286034833,"connected_time":2936000000000,"state":"active","ping":99},{"user_id":17,"name":"Jonno","steam_id":76561198285144917,"connected_time":2905000000000,"state":"active","ping":112},{"user_id":18,"name":"Havelyn","steam_id":76561198036159862,"connected_time":2878000000000,"state":"active","ping":132},{"user_id":69,"name":"Gyro Zeppeli","steam_id":76561198143600606,"connected_time":58000000000,"state":"active","ping":72},{"user_id":66,"name":"twitch.tv/Dr.Sex","steam_id":76561198029044617,"connected_time":210000000000,"state":"active","ping":46},{"user_id":58,"name":"hygalation","steam_id":76561198012503944,"connected_time":1250000000000,"state":"active","ping":75},{"user_id":61,"name":"Jara.","steam_id":76561197992207165,"connected_time":599000000000,"state":"active","ping":96},{"user_id":26,"name":"Egor Pomidor","steam_id":76561199175688390,"connected_time":2671000000000,"state":"active","ping":89},{"user_id":39,"name":"StandAlloy","steam_id":76561199466218699,"connected_time":2333000000000,"state":"active","ping":112},{"user_id":29,"name":"Stupid Backburner Pyro","steam_id":76561199057422095,"connected_time":2519000000000,"state":"active","ping":78},{"user_id":60,"name":"wasto-/-™","steam_id":76561198102888038,"connected_time":1082000000000,"state":"active","ping":53},{"user_id":32,"name":"Remmy","steam_id":76561198268857418,"connected_time":2430000000000,"state":"active","ping":136},{"user_id":43,"name":"Котёнок Блювотыш","steam_id":76561198084585685,"connected_time":2258000000000,"state":"active","ping":127},{"user_id":45,"name":"Vinipux","steam_id":76561198224485952,"connected_time":2041000000000,"state":"active","ping":100}]},{"server_id":22,"name":"Uncletopia | London | 6 | All Maps","name_short":"lon-6","host":"lon-1.uk.uncletopia.com","port":27065,"enabled":true,"region":"eu","cc":"gb","latitude":51.509865,"longitude":-0.118092,"reserved":0,"last_update":"0001-01-01T00:00:00Z","name_a2s":"Uncletopia | London | 6 | All Maps","protocol":17,"map":"cp_mountainlab","folder":"tf","game":"Team Fortress","app_id":440,"player_count":0,"max_players":24,"Bots":0,"server_type":"Dedicated","server_os":"Linux","password":true,"vac":true,"version":"7882260","steam_id":85568392924742830,"keywords":["cp","nocrits","nodmgspread","uncletopia"],"game_id":440,"stv_port":27066,"stv_name":"Uncletopia | London | 6 | All Maps | STV","players":null},{"server_id":40,"name":"Uncletopia | London | 7 | No Payload","name_short":"lon-7","host":"lon-1.uk.uncletopia.com","port":27075,"enabled":true,"region":"eu","cc":"gb","latitude":51.509865,"longitude":-0.118092,"reserved":0,"last_update":"0001-01-01T00:00:00Z","name_a2s":"Uncletopia | London | 7 | No Payload","protocol":17,"map":"cp_process_final","folder":"tf","game":"Team Fortress","app_id":440,"player_count":0,"max_players":24,"Bots":0,"server_type":"Dedicated","server_os":"Linux","password":true,"vac":true,"version":"7882260","steam_id":85568392924964314,"keywords":["cp","nocrits","nodmgspread","uncletopia"],"game_id":440,"stv_port":27076,"stv_name":"Uncletopia | London | 7 | No Payload | STV","players":null},{"server_id":41,"name":"Uncletopia | London | 8 | Community","name_short":"lon-8","host":"lon-1.uk.uncletopia.com","port":27085,"enabled":true,"region":"eu","cc":"gb","latitude":51.509865,"longitude":-0.118092,"reserved":0,"last_update":"0001-01-01T00:00:00Z","name_a2s":"Uncletopia | London | 8 | Community","protocol":17,"map":"workshop/cp_mannbase_rc2a.ugc1900737467","folder":"tf","game":"Team Fortress","app_id":440,"player_count":24,"max_players":24,"Bots":0,"server_type":"Dedicated","server_os":"Linux","password":true,"vac":true,"version":"7882260","steam_id":85568392924964315,"keywords":["cp","nocrits","nodmgspread","uncletopia"],"game_id":440,"stv_port":27086,"stv_name":"Uncletopia | London | 8 | Community | STV","players":[{"user_id":397,"name":"i e d o","steam_id":76561198988894842,"connected_time":882000000000,"state":"active","ping":45},{"user_id":414,"name":"Ava9","steam_id":76561198975869024,"connected_time":448000000000,"state":"active","ping":89},{"user_id":410,"name":"fight","steam_id":76561198962808454,"connected_time":633000000000,"state":"active","ping":45},{"user_id":390,"name":"Fat Pigeon","steam_id":76561198817940142,"connected_time":1465000000000,"state":"active","ping":52},{"user_id":411,"name":"Wujek Cacek","steam_id":76561198010267943,"connected_time":567000000000,"state":"active","ping":75},{"user_id":366,"name":"bowchika wowa #SlavaUkraine","steam_id":76561198159564550,"connected_time":2181000000000,"state":"active","ping":72},{"user_id":383,"name":"elsuedi","steam_id":76561198074722832,"connected_time":1706000000000,"state":"active","ping":59},{"user_id":399,"name":"Logman","steam_id":76561198427403965,"connected_time":880000000000,"state":"active","ping":55},{"user_id":401,"name":"Endi","steam_id":76561198914938199,"connected_time":866000000000,"state":"active","ping":99},{"user_id":367,"name":"Tegnerud","steam_id":76561198214185612,"connected_time":2179000000000,"state":"active","ping":75},{"user_id":402,"name":"lore","steam_id":76561198120984188,"connected_time":866000000000,"state":"active","ping":63},{"user_id":371,"name":"band-aid copyright infringement","steam_id":76561199027095451,"connected_time":2058000000000,"state":"active","ping":96},{"user_id":357,"name":"truebosnianking","steam_id":76561199440060597,"connected_time":3444000000000,"state":"active","ping":92},{"user_id":180,"name":"Ran33","steam_id":76561197991474499,"connected_time":16579000000000,"state":"active","ping":79},{"user_id":408,"name":"BORGETENNISCLUB","steam_id":76561198049343723,"connected_time":752000000000,"state":"active","ping":59},{"user_id":378,"name":"j o n","steam_id":76561199229511741,"connected_time":1825000000000,"state":"active","ping":68},{"user_id":300,"name":"duplicated","steam_id":76561198344952248,"connected_time":7819000000000,"state":"active","ping":61},{"user_id":415,"name":"CEO of Pen Island","steam_id":76561198037212191,"connected_time":375000000000,"state":"active","ping":66},{"user_id":394,"name":"Mr. Frog","steam_id":76561198016568920,"connected_time":1299000000000,"state":"active","ping":55},{"user_id":405,"name":"quickfast","steam_id":76561199438900919,"connected_time":836000000000,"state":"active","ping":44},{"user_id":406,"name":"the scringly dingly","steam_id":76561198192179174,"connected_time":817000000000,"state":"active","ping":125},{"user_id":343,"name":"I eat pigeons","steam_id":76561198073769916,"connected_time":4764000000000,"state":"active","ping":60},{"user_id":387,"name":"God's Goofiest Goober","steam_id":76561198103175187,"connected_time":1662000000000,"state":"active","ping":75},{"user_id":391,"name":"LarsInABox","steam_id":76561198028329262,"connected_time":1465000000000,"state":"active","ping":69}]},{"server_id":300,"name":"Uncletopia | Montréal | 1 | All Maps","name_short":"mtl-1","host":"mtl-1.ca.uncletopia.com","port":27015,"enabled":true,"region":"us-east","cc":"ca","latitude":45.50889,"longitude":-73.56167,"reserved":0,"last_update":"0001-01-01T00:00:00Z","name_a2s":"Uncletopia | Montréal | 1 | All Maps","protocol":17,"map":"pl_snowycoast","folder":"tf","game":"Team Fortress","app_id":440,"player_count":4,"max_players":24,"Bots":0,"server_type":"Dedicated","server_os":"Linux","password":true,"vac":true,"version":"7882260","steam_id":85568392924500087,"keywords":["nocrits","nodmgspread","payload","uncletopia"],"game_id":440,"stv_port":27016,"stv_name":"Uncletopia | Montréal | 1 | All Maps | STV","players":[{"user_id":3,"name":"send dudes","steam_id":76561198084277762,"connected_time":754000000000,"state":"active","ping":34},{"user_id":5,"name":"tasty","steam_id":76561198083839061,"connected_time":593000000000,"state":"active","ping":74},{"user_id":6,"name":"Cwiishe","steam_id":76561199482943969,"connected_time":570000000000,"state":"active","ping":55},{"user_id":7,"name":"DrMisteryous2","steam_id":76561198336307012,"connected_time":471000000000,"state":"active","ping":191}]},{"server_id":301,"name":"Uncletopia | Montréal | 2 | All Maps","name_short":"mtl-2","host":"mtl-1.ca.uncletopia.com","port":27025,"enabled":true,"region":"us-east","cc":"ca","latitude":45.50889,"longitude":-73.56167,"reserved":0,"last_update":"0001-01-01T00:00:00Z","name_a2s":"Uncletopia | Montréal | 2 | All Maps","protocol":17,"map":"cp_sunshine","folder":"tf","game":"Team Fortress","app_id":440,"player_count":0,"max_players":24,"Bots":0,"server_type":"Dedicated","server_os":"Linux","password":true,"vac":true,"version":"7882260","steam_id":85568392924500088,"keywords":["cp","nocrits","nodmgspread","uncletopia"],"game_id":440,"stv_port":27026,"stv_name":"Uncletopia | Montréal | 2 | All Maps | STV","players":null},{"server_id":302,"name":"Uncletopia | Montréal | 3 | All Maps","name_short":"mtl-3","host":"mtl-1.ca.uncletopia.com","port":27035,"enabled":true,"region":"us-east","cc":"ca","latitude":45.50889,"longitude":-73.56167,"reserved":0,"last_update":"0001-01-01T00:00:00Z","name_a2s":"Uncletopia | Montréal | 3 | All Maps","protocol":17,"map":"koth_viaduct","folder":"tf","game":"Team Fortress","app_id":440,"player_count":0,"max_players":24,"Bots":0,"server_type":"Dedicated","server_os":"Linux","password":true,"vac":true,"version":"7882260","steam_id":85568392924500089,"keywords":["cp","nocrits","nodmgspread","uncletopia"],"game_id":440,"stv_port":27036,"stv_name":"Uncletopia | Montréal | 3 | All Maps | STV","players":null},{"server_id":303,"name":"Uncletopia | Montréal | 4 | No Payload","name_short":"mtl-4","host":"mtl-1.ca.uncletopia.com","port":27045,"enabled":true,"region":"us-east","cc":"ca","latitude":45.50889,"longitude":-73.56167,"reserved":0,"last_update":"0001-01-01T00:00:00Z","name_a2s":"Uncletopia | Montréal | 4 | No Payload","protocol":17,"map":"cp_sunshine","folder":"tf","game":"Team Fortress","app_id":440,"player_count":0,"max_players":24,"Bots":0,"server_type":"Dedicated","server_os":"Linux","password":true,"vac":true,"version":"7882260","steam_id":85568392924500090,"keywords":["cp","nocrits","nodmgspread","uncletopia"],"game_id":440,"stv_port":27046,"stv_name":"Uncletopia | Montréal | 4 | No Payload | STV","players":null},{"server_id":13,"name":"Uncletopia | New York City | 1 | All Maps","name_short":"nyc-1","host":"nyc-1.us.uncletopia.com","port":27015,"enabled":true,"region":"us-east","cc":"us","latitude":40.73061,"longitude":-73.93524,"reserved":0,"last_update":"0001-01-01T00:00:00Z","name_a2s":"Uncletopia | New York City | 1 | All Maps","protocol":17,"map":"cp_altitude","folder":"tf","game":"Team Fortress","app_id":440,"player_count":24,"max_players":24,"Bots":0,"server_type":"Dedicated","server_os":"Linux","password":true,"vac":true,"version":"7882260","steam_id":85568392924469993,"keywords":["cp","nocrits","nodmgspread","uncletopia"],"game_id":440,"stv_port":27016,"stv_name":"Uncletopia | New York City | 1 | All Maps | STV","players":[{"user_id":81,"name":"sasharudzik","steam_id":76561199126617781,"connected_time":505000000000,"state":"active","ping":72},{"user_id":76,"name":"Slazzer","steam_id":76561198404351844,"connected_time":565000000000,"state":"active","ping":54},{"user_id":39,"name":"RileyNiko","steam_id":76561198162093639,"connected_time":3351000000000,"state":"active","ping":54},{"user_id":9,"name":"Akilotel","steam_id":76561199130975290,"connected_time":4332000000000,"state":"active","ping":129},{"user_id":94,"name":"6t26j","steam_id":76561198278282836,"connected_time":226000000000,"state":"active","ping":55},{"user_id":100,"name":"illious","steam_id":76561198169925494,"connected_time":94000000000,"state":"active","ping":60},{"user_id":53,"name":"Silvercoat's Stargazer","steam_id":76561198399525329,"connected_time":1134000000000,"state":"active","ping":62},{"user_id":69,"name":"MOB Puppyslime","steam_id":76561198138942166,"connected_time":634000000000,"state":"active","ping":44},{"user_id":14,"name":"TJGSASQUATCH","steam_id":76561198077806921,"connected_time":3785000000000,"state":"active","ping":75},{"user_id":95,"name":"Baron von Whoopsie","steam_id":76561197996691013,"connected_time":208000000000,"state":"active","ping":57},{"user_id":32,"name":"Lovedaddy","steam_id":76561198006569710,"connected_time":3463000000000,"state":"active","ping":72},{"user_id":65,"name":"reallyfriendly","steam_id":76561197996819313,"connected_time":679000000000,"state":"active","ping":71},{"user_id":97,"name":"carbuzz","steam_id":76561198129361580,"connected_time":184000000000,"state":"active","ping":120},{"user_id":98,"name":"PapaPatrick","steam_id":76561199017975241,"connected_time":132000000000,"state":"active","ping":90},{"user_id":24,"name":"CookieFox","steam_id":76561198401204010,"connected_time":3566000000000,"state":"active","ping":120},{"user_id":48,"name":"kingjeffry2012@hotmail.com","steam_id":76561198314104415,"connected_time":2035000000000,"state":"active","ping":81},{"user_id":26,"name":"BiggFoot","steam_id":76561197998605599,"connected_time":3503000000000,"state":"active","ping":68},{"user_id":85,"name":"Zirael","steam_id":76561198057143358,"connected_time":424000000000,"state":"active","ping":61},{"user_id":50,"name":"Grease Monkey","steam_id":76561199073112578,"connected_time":1427000000000,"state":"active","ping":67},{"user_id":30,"name":"the gamer hermit crab","steam_id":76561198969402276,"connected_time":3479000000000,"state":"active","ping":54},{"user_id":45,"name":"Alpharious","steam_id":76561197970289529,"connected_time":2286000000000,"state":"active","ping":75},{"user_id":44,"name":"King Col","steam_id":76561198033384990,"connected_time":2740000000000,"state":"active","ping":49},{"user_id":43,"name":"Sprit ♥","steam_id":76561198268780781,"connected_time":2814000000000,"state":"active","ping":54},{"user_id":51,"name":"CORGI.EXE","steam_id":76561198077093432,"connected_time":1421000000000,"state":"active","ping":50}]},{"server_id":14,"name":"Uncletopia | New York City | 2 | All Maps","name_short":"nyc-2","host":"nyc-1.us.uncletopia.com","port":27025,"enabled":true,"region":"us-east","cc":"us","latitude":40.73061,"longitude":-73.93524,"reserved":0,"last_update":"0001-01-01T00:00:00Z","name_a2s":"Uncletopia | New York City | 2 | All Maps","protocol":17,"map":"cp_snakewater_final1","folder":"tf","game":"Team Fortress","app_id":440,"player_count":0,"max_players":24,"Bots":0,"server_type":"Dedicated","server_os":"Linux","password":true,"vac":true,"version":"7882260","steam_id":85568392924469994,"keywords":["cp","nocrits","nodmgspread","uncletopia"],"game_id":440,"stv_port":27026,"stv_name":"Uncletopia | New York City | 2 | All Maps | STV","players":null},{"server_id":15,"name":"Uncletopia | New York City | 3 | Stopwatch Beta","name_short":"nyc-3","host":"nyc-1.us.uncletopia.com","port":27035,"enabled":true,"region":"us-east","cc":"us","latitude":40.73061,"longitude":-73.93524,"reserved":0,"last_update":"0001-01-01T00:00:00Z","name_a2s":"Uncletopia | New York City | 3 | Stopwatch Beta","protocol":17,"map":"koth_lakeside_final","folder":"tf","game":"Team Fortress","app_id":440,"player_count":0,"max_players":24,"Bots":0,"server_type":"Dedicated","server_os":"Linux","password":true,"vac":true,"version":"7882260","steam_id":85568392924742820,"keywords":["cp","nocrits","nodmgspread","uncletopia"],"game_id":440,"stv_port":27036,"stv_name":"Uncletopia | New York City | 3 | Stopwatch Beta | STV","players":null},{"server_id":16,"name":"Uncletopia | New York City | 4 | Community","name_short":"nyc-4","host":"nyc-1.us.uncletopia.com","port":27045,"enabled":true,"region":"us-east","cc":"us","latitude":40.73061,"longitude":-73.93524,"reserved":0,"last_update":"0001-01-01T00:00:00Z","name_a2s":"Uncletopia | New York City | 4 | Community","protocol":17,"map":"pl_badwater","folder":"tf","game":"Team Fortress","app_id":440,"player_count":0,"max_players":24,"Bots":0,"server_type":"Dedicated","server_os":"Linux","password":true,"vac":true,"version":"7882260","steam_id":85568392924742821,"keywords":["nocrits","nodmgspread","payload","uncletopia"],"game_id":440,"stv_port":27046,"stv_name":"Uncletopia | New York City | 4 | Community | STV","players":null},{"server_id":142,"name":"Uncletopia | São Paulo | 1 | All Maps","name_short":"sao-1","host":"sao-1.br.uncletopia.com","port":27015,"enabled":true,"region":"sa","cc":"br","latitude":-23.533773,"longitude":-46.62529,"reserved":0,"last_update":"0001-01-01T00:00:00Z","name_a2s":"Uncletopia | São Paulo | 1 | All Maps","protocol":17,"map":"pl_swiftwater_final1","folder":"tf","game":"Team Fortress","app_id":440,"player_count":0,"max_players":24,"Bots":0,"server_type":"Dedicated","server_os":"Linux","password":true,"vac":true,"version":"7882260","steam_id":85568392924469996,"keywords":["nocrits","nodmgspread","payload","uncletopia"],"game_id":440,"stv_port":27016,"stv_name":"Uncletopia | São Paulo | 1 | All Maps | STV","players":null},{"server_id":143,"name":"Uncletopia | São Paulo | 2 | All Maps","name_short":"sao-2","host":"sao-2.br.uncletopia.com","port":27015,"enabled":true,"region":"sa","cc":"br","latitude":-23.533773,"longitude":-46.62529,"reserved":0,"last_update":"0001-01-01T00:00:00Z","name_a2s":"Uncletopia | São Paulo | 2 | All Maps","protocol":17,"map":"pl_pier","folder":"tf","game":"Team Fortress","app_id":440,"player_count":0,"max_players":24,"Bots":0,"server_type":"Dedicated","server_os":"Linux","password":true,"vac":true,"version":"7882260","steam_id":85568392924485349,"keywords":["nocrits","nodmgspread","payload","uncletopia"],"game_id":440,"stv_port":27016,"stv_name":"Uncletopia | São Paulo | 2 | All Maps | STV","players":null},{"server_id":7,"name":"Uncletopia | Seattle | 1 | All Maps","name_short":"sea-1","host":"sea-1.us.uncletopia.com","port":27015,"enabled":true,"region":"us-west","cc":"us","latitude":47.608013,"longitude":-122.33517,"reserved":0,"last_update":"0001-01-01T00:00:00Z","name_a2s":"Uncletopia | Seattle | 1 | All Maps","protocol":17,"map":"cp_steel","folder":"tf","game":"Team Fortress","app_id":440,"player_count":24,"max_players":24,"Bots":0,"server_type":"Dedicated","server_os":"Linux","password":true,"vac":true,"version":"7882260","steam_id":85568392924469997,"keywords":["cp","nocrits","nodmgspread","uncletopia"],"game_id":440,"stv_port":27016,"stv_name":"Uncletopia | Seattle | 1 | All Maps | STV","players":[{"user_id":151,"name":"Mel","steam_id":76561198327775249,"connected_time":1993000000000,"state":"active","ping":167},{"user_id":171,"name":"♡_Grey_♡","steam_id":76561199084277545,"connected_time":930000000000,"state":"active","ping":111},{"user_id":153,"name":"SibilantSerpent","steam_id":76561198154488754,"connected_time":1984000000000,"state":"active","ping":58},{"user_id":166,"name":"The Dumper","steam_id":76561198147302569,"connected_time":1620000000000,"state":"active","ping":66},{"user_id":164,"name":"DoubleX2000","steam_id":76561198164134387,"connected_time":1705000000000,"state":"active","ping":59},{"user_id":154,"name":"spider_murphy","steam_id":76561198079057101,"connected_time":1981000000000,"state":"active","ping":55},{"user_id":111,"name":"Dob Bole","steam_id":76561198056367220,"connected_time":5394000000000,"state":"active","ping":74},{"user_id":158,"name":"DOPEam1ne","steam_id":76561198112204774,"connected_time":1905000000000,"state":"active","ping":64},{"user_id":177,"name":"pt","steam_id":76561198143023330,"connected_time":365000000000,"state":"active","ping":73},{"user_id":159,"name":"Idiotden","steam_id":76561199340950135,"connected_time":1869000000000,"state":"active","ping":81},{"user_id":172,"name":"Level 99 Mudcrab","steam_id":76561198077452771,"connected_time":818000000000,"state":"active","ping":59},{"user_id":160,"name":"Mythical Lag","steam_id":76561198347031281,"connected_time":1858000000000,"state":"active","ping":119},{"user_id":174,"name":"momus","steam_id":76561198966979196,"connected_time":662000000000,"state":"active","ping":79},{"user_id":152,"name":"my monitor is off","steam_id":76561198074499537,"connected_time":1993000000000,"state":"active","ping":73},{"user_id":161,"name":"SAD MOSCOVIA","steam_id":76561198101081520,"connected_time":1851000000000,"state":"active","ping":70},{"user_id":129,"name":"mobe","steam_id":76561198121633820,"connected_time":4088000000000,"state":"active","ping":75},{"user_id":175,"name":"Warhead","steam_id":76561198067746049,"connected_time":660000000000,"state":"active","ping":52},{"user_id":173,"name":"DanceBunny","steam_id":76561198243610560,"connected_time":707000000000,"state":"active","ping":73},{"user_id":176,"name":"Women's Wrongs","steam_id":76561198315021197,"connected_time":470000000000,"state":"active","ping":72},{"user_id":141,"name":"lil uzi vert","steam_id":76561198326466375,"connected_time":3501000000000,"state":"active","ping":90},{"user_id":167,"name":"matt_rolltide","steam_id":76561198796727164,"connected_time":1163000000000,"state":"active","ping":67},{"user_id":169,"name":"Pombley","steam_id":76561198141227263,"connected_time":1092000000000,"state":"active","ping":133},{"user_id":149,"name":"Literally a Trans Woman","steam_id":76561198054639925,"connected_time":2883000000000,"state":"active","ping":109},{"user_id":126,"name":"fart","steam_id":76561198206922028,"connected_time":4380000000000,"state":"active","ping":75}]},{"server_id":119,"name":"Uncletopia | Seattle | 2 | All Maps","name_short":"sea-2","host":"sea-1.us.uncletopia.com","port":27025,"enabled":true,"region":"us-west","cc":"us","latitude":47.608013,"longitude":-122.33517,"reserved":0,"last_update":"0001-01-01T00:00:00Z","name_a2s":"Uncletopia | Seattle | 2 | All Maps","protocol":17,"map":"koth_highpass","folder":"tf","game":"Team Fortress","app_id":440,"player_count":24,"max_players":24,"Bots":0,"server_type":"Dedicated","server_os":"Linux","password":true,"vac":true,"version":"7882260","steam_id":85568392924469998,"keywords":["cp","nocrits","nodmgspread","uncletopia"],"game_id":440,"stv_port":27026,"stv_name":"Uncletopia | Seattle | 2 | All Maps | STV","players":[{"user_id":39,"name":"corik","steam_id":76561198261748842,"connected_time":238000000000,"state":"active","ping":64},{"user_id":40,"name":"Prof. Eggnog","steam_id":76561198193389166,"connected_time":230000000000,"state":"active","ping":133},{"user_id":41,"name":"Don't Fuckle with Shuckle","steam_id":76561199020102367,"connected_time":229000000000,"state":"active","ping":130},{"user_id":16,"name":"CJAIME01345","steam_id":76561199091599141,"connected_time":873000000000,"state":"active","ping":194},{"user_id":43,"name":"OminousNoises","steam_id":76561198263320321,"connected_time":66000000000,"state":"active","ping":85},{"user_id":18,"name":"PheebsyDeebsy","steam_id":76561198101509436,"connected_time":755000000000,"state":"active","ping":67},{"user_id":20,"name":"Anyar","steam_id":76561198160174097,"connected_time":665000000000,"state":"active","ping":86},{"user_id":21,"name":"Ew","steam_id":76561198059485070,"connected_time":658000000000,"state":"active","ping":148},{"user_id":22,"name":"Spartan","steam_id":76561198031861809,"connected_time":620000000000,"state":"active","ping":111},{"user_id":23,"name":"Borealis","steam_id":76561198064937621,"connected_time":615000000000,"state":"active","ping":106},{"user_id":28,"name":"jomples121","steam_id":76561199219685007,"connected_time":522000000000,"state":"active","ping":116},{"user_id":29,"name":"slafflow","steam_id":76561199381012350,"connected_time":487000000000,"state":"active","ping":67},{"user_id":45,"name":"🅜🅔🅔🅚🅢🅣🅔\ufffd\ufffd\ufffd","steam_id":76561197999748343,"connected_time":52000000000,"state":"active","ping":88},{"user_id":31,"name":"Pimastr","steam_id":76561198230996464,"connected_time":380000000000,"state":"active","ping":105},{"user_id":32,"name":"Bugz","steam_id":76561198049967903,"connected_time":365000000000,"state":"active","ping":129},{"user_id":42,"name":"*‧˚kitsu ʚ♥ɞ","steam_id":76561198091741658,"connected_time":104000000000,"state":"active","ping":75},{"user_id":34,"name":"[Squiddy]","steam_id":76561198027757551,"connected_time":343000000000,"state":"active","ping":86},{"user_id":35,"name":"HellaCopter","steam_id":76561198062313698,"connected_time":331000000000,"state":"active","ping":58},{"user_id":44,"name":"neet","steam_id":76561197968115168,"connected_time":61000000000,"state":"active","ping":108},{"user_id":37,"name":"Lock'd","steam_id":76561198170108230,"connected_time":310000000000,"state":"active","ping":104},{"user_id":38,"name":"Nathang238","steam_id":76561199190787886,"connected_time":294000000000,"state":"active","ping":61},{"user_id":46,"name":"Scorpie Doodle","steam_id":76561198021845763,"connected_time":44000000000,"state":"active","ping":107},{"user_id":47,"name":"Blitzy","steam_id":76561198149472890,"connected_time":5000000000,"state":"spawning","ping":49},{"user_id":48,"name":"Jerphf","steam_id":76561198328825964,"connected_time":5000000000,"state":"spawning","ping":103}]},{"server_id":406,"name":"Uncletopia | Seattle | 3 | Stopwatch Beta","name_short":"sea-3","host":"sea-1.us.uncletopia.com","port":27035,"enabled":true,"region":"us-west","cc":"us","latitude":47.608013,"longitude":-122.33517,"reserved":0,"last_update":"0001-01-01T00:00:00Z","name_a2s":"Uncletopia | Seattle | 3 | Stopwatch Beta","protocol":17,"map":"cp_mountainlab","folder":"tf","game":"Team Fortress","app_id":440,"player_count":0,"max_players":24,"Bots":0,"server_type":"Dedicated","server_os":"Linux","password":true,"vac":true,"version":"7882260","steam_id":85568392924515217,"keywords":["cp","nocrits","nodmgspread","uncletopia"],"game_id":440,"stv_port":27036,"stv_name":"Uncletopia | Seattle | 3 | Stopwatch Beta | STV","players":null},{"server_id":17,"name":"Uncletopia | San Francisco | 1 | All Maps","name_short":"sfo-1","host":"sfo-1.us.uncletopia.com","port":27015,"enabled":true,"region":"us-west","cc":"us","latitude":37.77397,"longitude":-122.4313,"reserved":0,"last_update":"0001-01-01T00:00:00Z","name_a2s":"Uncletopia | San Francisco | 1 | All Maps","protocol":17,"map":"cp_process_final","folder":"tf","game":"Team Fortress","app_id":440,"player_count":0,"max_players":24,"Bots":0,"server_type":"Dedicated","server_os":"Linux","password":true,"vac":true,"version":"7757534","steam_id":85568392924469999,"keywords":["cp","nocrits","nodmgspread","uncletopia"],"game_id":440,"stv_port":27016,"stv_name":"Uncletopia | San Francisco | 1 | All Maps | STV","players":null},{"server_id":18,"name":"Uncletopia | San Francisco | 2 | All Maps","name_short":"sfo-2","host":"sfo-1.us.uncletopia.com","port":27025,"enabled":true,"region":"us-west","cc":"us","latitude":37.77397,"longitude":-122.4313,"reserved":0,"last_update":"0001-01-01T00:00:00Z","name_a2s":"Uncletopia | San Francisco | 2 | All Maps","protocol":17,"map":"koth_highpass","folder":"tf","game":"Team Fortress","app_id":440,"player_count":0,"max_players":24,"Bots":0,"server_type":"Dedicated","server_os":"Linux","password":true,"vac":true,"version":"7757534","steam_id":85568392924470000,"keywords":["cp","nocrits","nodmgspread","uncletopia"],"game_id":440,"stv_port":27026,"stv_name":"Uncletopia | San Francisco | 2 | All Maps | STV","players":null},{"server_id":19,"name":"Uncletopia | San Francisco | 3 | Stopwatch Beta","name_short":"sfo-3","host":"sfo-1.us.uncletopia.com","port":27035,"enabled":true,"region":"us-west","cc":"us","latitude":37.77397,"longitude":-122.4313,"reserved":0,"last_update":"0001-01-01T00:00:00Z","name_a2s":"Uncletopia | San Francisco | 3 | Stopwatch Beta","protocol":17,"map":"koth_lakeside_final","folder":"tf","game":"Team Fortress","app_id":440,"player_count":0,"max_players":24,"Bots":0,"server_type":"Dedicated","server_os":"Linux","password":true,"vac":true,"version":"7757534","steam_id":85568392924742824,"keywords":["cp","nocrits","nodmgspread","uncletopia"],"game_id":440,"stv_port":27036,"stv_name":"Uncletopia | San Francisco | 3 | Stopwatch Beta | STV","players":null},{"server_id":20,"name":"Uncletopia | San Francisco | 4 | Community","name_short":"sfo-4","host":"sfo-1.us.uncletopia.com","port":27045,"enabled":true,"region":"us-west","cc":"us","latitude":37.77397,"longitude":-122.4313,"reserved":0,"last_update":"0001-01-01T00:00:00Z","name_a2s":"Uncletopia | San Francisco | 4 | Community","protocol":17,"map":"cp_altitude","folder":"tf","game":"Team Fortress","app_id":440,"player_count":0,"max_players":24,"Bots":0,"server_type":"Dedicated","server_os":"Linux","password":true,"vac":true,"version":"7757534","steam_id":85568392924742826,"keywords":["cp","nocrits","nodmgspread","uncletopia"],"game_id":440,"stv_port":27046,"stv_name":"Uncletopia | San Francisco | 4 | Community | STV","players":null},{"server_id":141,"name":"Uncletopia | Sydney | 1 | All Maps","name_short":"syd-1","host":"syd-1.au.uncletopia.com","port":27015,"enabled":true,"region":"au","cc":"au","latitude":-33.865143,"longitude":151.2099,"reserved":0,"last_update":"0001-01-01T00:00:00Z","name_a2s":"Uncletopia | Sydney | 1 | All Maps","protocol":17,"map":"pl_barnblitz","folder":"tf","game":"Team Fortress","app_id":440,"player_count":0,"max_players":24,"Bots":0,"server_type":"Dedicated","server_os":"Linux","password":true,"vac":true,"version":"7882260","steam_id":85568392924470001,"keywords":["nocrits","nodmgspread","payload","uncletopia"],"game_id":440,"stv_port":27016,"stv_name":"Uncletopia | Sydney | 1 | All Maps | STV","players":null},{"server_id":123,"name":"Uncletopia | Sydney | 2 | All Maps","name_short":"syd-2","host":"syd-1.au.uncletopia.com","port":27025,"enabled":true,"region":"au","cc":"au","latitude":-33.865143,"longitude":151.2099,"reserved":0,"last_update":"0001-01-01T00:00:00Z","name_a2s":"Uncletopia | Sydney | 2 | All Maps","protocol":17,"map":"cp_mountainlab","folder":"tf","game":"Team Fortress","app_id":440,"player_count":0,"max_players":24,"Bots":0,"server_type":"Dedicated","server_os":"Linux","password":true,"vac":true,"version":"7882260","steam_id":85568392924470002,"keywords":["cp","nocrits","nodmgspread","uncletopia"],"game_id":440,"stv_port":27026,"stv_name":"Uncletopia | Sydney | 2 | All Maps | STV","players":null},{"server_id":395,"name":"Uncletopia | Sydney | 3 | All Maps","name_short":"syd-3","host":"syd-1.au.uncletopia.com","port":27035,"enabled":true,"region":"au","cc":"au","latitude":-33.865143,"longitude":151.2099,"reserved":0,"last_update":"0001-01-01T00:00:00Z","name_a2s":"Uncletopia | Sydney | 3 | All Maps","protocol":17,"map":"koth_highpass","folder":"tf","game":"Team Fortress","app_id":440,"player_count":0,"max_players":24,"Bots":0,"server_type":"Dedicated","server_os":"Linux","password":true,"vac":true,"version":"7882260","steam_id":85568392925194467,"keywords":["cp","nocrits","nodmgspread","uncletopia"],"game_id":440,"stv_port":27036,"stv_name":"Uncletopia | Sydney | 3 | All Maps | STV","players":null},{"server_id":396,"name":"Uncletopia | Sydney | 4 | All Maps","name_short":"syd-4","host":"syd-1.au.uncletopia.com","port":27045,"enabled":true,"region":"au","cc":"au","latitude":-33.865143,"longitude":151.2099,"reserved":0,"last_update":"0001-01-01T00:00:00Z","name_a2s":"Uncletopia | Sydney | 4 | All Maps","protocol":17,"map":"koth_cascade","folder":"tf","game":"Team Fortress","app_id":440,"player_count":0,"max_players":24,"Bots":0,"server_type":"Dedicated","server_os":"Linux","password":true,"vac":true,"version":"7882260","steam_id":85568392925397958,"keywords":["cp","nocrits","nodmgspread","uncletopia"],"game_id":440,"stv_port":27046,"stv_name":"Uncletopia | Sydney | 4 | All Maps | STV","players":null},{"server_id":58,"name":"Uncletopia | Sydney | 5 | Stopwatch Beta","name_short":"syd-5","host":"syd-1.au.uncletopia.com","port":27055,"enabled":true,"region":"au","cc":"au","latitude":-33.865143,"longitude":151.2099,"reserved":0,"last_update":"0001-01-01T00:00:00Z","name_a2s":"Uncletopia | Sydney | 5 | Stopwatch Beta","protocol":17,"map":"koth_lakeside_final","folder":"tf","game":"Team Fortress","app_id":440,"player_count":0,"max_players":24,"Bots":0,"server_type":"Dedicated","server_os":"Linux","password":true,"vac":true,"version":"7882260","steam_id":85568392925397959,"keywords":["cp","nocrits","nodmgspread","uncletopia"],"game_id":440,"stv_port":27056,"stv_name":"Uncletopia | Sydney | 5 | Stopwatch Beta | STV","players":null},{"server_id":59,"name":"Uncletopia | Sydney | 6 | Community","name_short":"syd-6","host":"syd-1.au.uncletopia.com","port":27065,"enabled":true,"region":"au","cc":"au","latitude":-33.865143,"longitude":151.2099,"reserved":0,"last_update":"0001-01-01T00:00:00Z","name_a2s":"Uncletopia | Sydney | 6 | Community","protocol":17,"map":"workshop/rd_asteroid_redux_b1.ugc2154902912","folder":"tf","game":"Team Fortress","app_id":440,"player_count":0,"max_players":24,"Bots":0,"server_type":"Dedicated","server_os":"Linux","password":true,"vac":true,"version":"7882260","steam_id":85568392925397960,"keywords":["beta","nocrits","nodmgspread","rd","uncletopia"],"game_id":440,"stv_port":27066,"stv_name":"Uncletopia | Sydney | 6 | Community | STV","players":null},{"server_id":49,"name":"Uncletopia | Warsaw | 1 | All Maps","name_short":"waw-1","host":"waw-1.pl.uncletopia.com","port":27015,"enabled":true,"region":"eu","cc":"pl","latitude":52.2297,"longitude":21.017532,"reserved":0,"last_update":"0001-01-01T00:00:00Z","name_a2s":"","protocol":0,"map":"","folder":"","game":"","app_id":0,"player_count":0,"max_players":0,"Bots":0,"server_type":"","server_os":"","password":false,"vac":false,"version":"","steam_id":0,"keywords":null,"game_id":0,"stv_port":0,"stv_name":"","players":null},{"server_id":50,"name":"Uncletopia | Warsaw | 2 | All Maps","name_short":"waw-2","host":"waw-1.pl.uncletopia.com","port":27025,"enabled":true,"region":"eu","cc":"pl","latitude":52.2297,"longitude":21.017532,"reserved":0,"last_update":"0001-01-01T00:00:00Z","name_a2s":"Uncletopia | Warsaw | 2 | All Maps","protocol":17,"map":"koth_cascade","folder":"tf","game":"Team Fortress","app_id":440,"player_count":0,"max_players":24,"Bots":0,"server_type":"Dedicated","server_os":"Linux","password":true,"vac":true,"version":"7882260","steam_id":85568392925397851,"keywords":["cp","nocrits","nodmgspread","uncletopia"],"game_id":440,"stv_port":27026,"stv_name":"Uncletopia | Warsaw | 2 | All Maps | STV","players":null},{"server_id":51,"name":"Uncletopia | Warsaw | 3 | All Maps","name_short":"waw-3","host":"waw-1.pl.uncletopia.com","port":27035,"enabled":true,"region":"eu","cc":"pl","latitude":52.2297,"longitude":21.017532,"reserved":0,"last_update":"0001-01-01T00:00:00Z","name_a2s":"Uncletopia | Warsaw | 3 | All Maps","protocol":17,"map":"pl_badwater","folder":"tf","game":"Team Fortress","app_id":440,"player_count":23,"max_players":24,"Bots":0,"server_type":"Dedicated","server_os":"Linux","password":true,"vac":true,"version":"7882260","steam_id":85568392925397852,"keywords":["nocrits","nodmgspread","payload","uncletopia"],"game_id":440,"stv_port":27036,"stv_name":"Uncletopia | Warsaw | 3 | All Maps | STV","players":[{"user_id":75,"name":"big poo","steam_id":76561199088284199,"connected_time":4481000000000,"state":"active","ping":49},{"user_id":110,"name":"Purple Soup :D","steam_id":76561198985100366,"connected_time":2098000000000,"state":"active","ping":111},{"user_id":136,"name":"Marky","steam_id":76561199474556920,"connected_time":73000000000,"state":"active","ping":119},{"user_id":131,"name":"Gearless","steam_id":76561198362367074,"connected_time":357000000000,"state":"active","ping":87},{"user_id":83,"name":"Auxometer","steam_id":76561198048178137,"connected_time":3259000000000,"state":"active","ping":66},{"user_id":84,"name":"WATER KILLER","steam_id":76561198241231354,"connected_time":3247000000000,"state":"active","ping":89},{"user_id":123,"name":"Igames","steam_id":76561198414062544,"connected_time":817000000000,"state":"active","ping":71},{"user_id":137,"name":"froyo Pablo","steam_id":76561198322087870,"connected_time":18000000000,"state":"active","ping":124},{"user_id":115,"name":"MEATGOOD","steam_id":76561198346535909,"connected_time":1763000000000,"state":"active","ping":98},{"user_id":86,"name":"Galex","steam_id":76561198045637579,"connected_time":3142000000000,"state":"active","ping":64},{"user_id":87,"name":"Themoonisacheese","steam_id":76561198025594173,"connected_time":3059000000000,"state":"active","ping":75},{"user_id":124,"name":"WhatTheHellXeno","steam_id":76561199085127869,"connected_time":788000000000,"state":"active","ping":69},{"user_id":121,"name":"the_gambler","steam_id":76561198026052716,"connected_time":1351000000000,"state":"active","ping":75},{"user_id":126,"name":"Jaymie","steam_id":76561198405980575,"connected_time":777000000000,"state":"active","ping":75},{"user_id":128,"name":"jamkel #savetf2","steam_id":76561199088464666,"connected_time":624000000000,"state":"active","ping":92},{"user_id":93,"name":"Zakk","steam_id":76561199217826681,"connected_time":2839000000000,"state":"active","ping":100},{"user_id":94,"name":"Tywhip","steam_id":76561199207545191,"connected_time":2837000000000,"state":"active","ping":68},{"user_id":117,"name":"Kana","steam_id":76561198395222058,"connected_time":1631000000000,"state":"active","ping":53},{"user_id":118,"name":"MGE MELVIN","steam_id":76561198049312442,"connected_time":1594000000000,"state":"active","ping":89},{"user_id":120,"name":"Doughy","steam_id":76561198044084210,"connected_time":1364000000000,"state":"active","ping":76},{"user_id":99,"name":"Swedde","steam_id":76561198297296440,"connected_time":2764000000000,"state":"active","ping":91},{"user_id":104,"name":"POZO chachiply","steam_id":76561198316355509,"connected_time":2542000000000,"state":"active","ping":91},{"user_id":105,"name":"Battle_Pass90","steam_id":76561199367142516,"connected_time":2516000000000,"state":"active","ping":54}]},{"server_id":52,"name":"Uncletopia | Warsaw | 4 | All Maps","name_short":"waw-4","host":"waw-1.pl.uncletopia.com","port":27045,"enabled":true,"region":"eu","cc":"pl","latitude":52.2297,"longitude":21.017532,"reserved":0,"last_update":"0001-01-01T00:00:00Z","name_a2s":"Uncletopia | Warsaw | 4 | All Maps","protocol":17,"map":"koth_highpass","folder":"tf","game":"Team Fortress","app_id":440,"player_count":0,"max_players":24,"Bots":0,"server_type":"Dedicated","server_os":"Linux","password":true,"vac":true,"version":"7882260","steam_id":85568392925397853,"keywords":["cp","nocrits","nodmgspread","uncletopia"],"game_id":440,"stv_port":27046,"stv_name":"Uncletopia | Warsaw | 4 | All Maps | STV","players":null},{"server_id":53,"name":"Uncletopia | Warsaw | 5 | Stopwatch Beta","name_short":"waw-5","host":"waw-1.pl.uncletopia.com","port":27055,"enabled":true,"region":"eu","cc":"pl","latitude":52.2297,"longitude":21.017532,"reserved":0,"last_update":"0001-01-01T00:00:00Z","name_a2s":"Uncletopia | Warsaw | 5 | Stopwatch Beta","protocol":17,"map":"cp_mountainlab","folder":"tf","game":"Team Fortress","app_id":440,"player_count":0,"max_players":24,"Bots":0,"server_type":"Dedicated","server_os":"Linux","password":true,"vac":true,"version":"7882260","steam_id":85568392925397854,"keywords":["cp","nocrits","nodmgspread","uncletopia"],"game_id":440,"stv_port":27056,"stv_name":"Uncletopia | Warsaw | 5 | Stopwatch Beta | STV","players":null},{"server_id":54,"name":"Uncletopia | Warsaw | 6 | Community","name_short":"waw-6","host":"waw-1.pl.uncletopia.com","port":27065,"enabled":true,"region":"eu","cc":"pl","latitude":52.2297,"longitude":21.017532,"reserved":0,"last_update":"0001-01-01T00:00:00Z","name_a2s":"Uncletopia | Warsaw | 6 | Community","protocol":17,"map":"workshop/cp_indulge.ugc528106646","folder":"tf","game":"Team Fortress","app_id":440,"player_count":0,"max_players":24,"Bots":0,"server_type":"Dedicated","server_os":"Linux","password":true,"vac":true,"version":"7882260","steam_id":85568392925397856,"keywords":["cp","nocrits","nodmgspread","uncletopia"],"game_id":440,"stv_port":27066,"stv_name":"Uncletopia | Warsaw | 6 | Community | STV","players":null}]}