{"status":true,"message":"","result":[{"server_id":0,"name_short":"","name":"Uncletopia | Chicago | 2 | All Maps","host":"","port":0,"enabled":false,"region":"","cc":"","latitude":0,"longitude":0,"reserved":0,"last_update":"0001-01-01T00:00:00Z","protocol":17,"map":"cp_altitude","folder":"tf","game":"Team Fortress","app_id":440,"player_count":0,"max_players":24,"Bots":0,"server_type":"Dedicated","server_os":"Linux","password":true,"vac":true,"version":"7961495","steam_id":85568392924469985,"keywords":["cp","nocrits","nodmgspread","uncletopia"],"edicts":[499,2048],"game_id":440,"stv_port":27026,"stv_name":"Uncletopia | Chicago | 2 | All Maps | STV","players":null},{"server_id":0,"name_short":"","name":"Uncletopia | Atlanta | 3 | Stopwatch","host":"","port":0,"enabled":false,"region":"","cc":"","latitude":0,"longitude":0,"reserved":0,"last_update":"0001-01-01T00:00:00Z","protocol":17,"map":"pl_badwater_pro_v12","folder":"tf","game":"Team Fortress","app_id":440,"player_count":0,"max_players":24,"Bots":0,"server_type":"Dedicated","server_os":"Linux","password":true,"vac":true,"version":"7961495","steam_id":85568392924515187,"keywords":["nocrits","nodmgspread","payload","uncletopia"],"edicts":[713,2048],"game_id":440,"stv_port":27036,"stv_name":"Uncletopia | Atlanta | 3 | Stopwatch | STV","players":null},{"server_id":0,"name_short":"","name":"Uncletopia | San Francisco | 3 | Stopwatch","host":"","port":0,"enabled":false,"region":"","cc":"","latitude":0,"longitude":0,"reserved":0,"last_update":"0001-01-01T00:00:00Z","protocol":17,"map":"pl_vigil_rc10","folder":"tf","game":"Team Fortress","app_id":440,"player_count":0,"max_players":24,"Bots":0,"server_type":"Dedicated","server_os":"Linux","password":true,"vac":true,"version":"7961495","steam_id":85568392924742824,"keywords":["nocrits","nodmgspread","payload","uncletopia"],"edicts":[960,2048],"game_id":440,"stv_port":27036,"stv_name":"Uncletopia | San Francisco | 3 | Stopwatch | STV","players":null},{"server_id":0,"name_short":"","name":"Uncletopia | Frankfurt | 8 | Community","host":"","port":0,"enabled":false,"region":"","cc":"","latitude":0,"longitude":0,"reserved":0,"last_update":"0001-01-01T00:00:00Z","protocol":17,"map":"pl_stallberg_rc3","folder":"tf","game":"Team Fortress","app_id":440,"player_count":0,"max_players":24,"Bots":0,"server_type":"Dedicated","server_os":"Linux","password":true,"vac":true,"version":"7961495","steam_id":85568392924742828,"keywords":["nocrits","nodmgspread","payload","uncletopia"],"edicts":[614,2048],"game_id":440,"stv_port":27086,"stv_name":"Uncletopia | Frankfurt | 8 | Community | STV","players":null},{"server_id":0,"name_short":"","name":"Uncletopia | Warsaw | 3 | All Maps","host":"","port":0,"enabled":false,"region":"","cc":"","latitude":0,"longitude":0,"reserved":0,"last_update":"0001-01-01T00:00:00Z","protocol":17,"map":"pl_barnblitz","folder":"tf","game":"Team Fortress","app_id":440,"player_count":0,"max_players":24,"Bots":0,"server_type":"Dedicated","server_os":"Linux","password":true,"vac":true,"version":"7961495","steam_id":85568392925397852,"keywords":["nocrits","nodmgspread","payload","uncletopia"],"edicts":[805,2048],"game_id":440,"stv_port":27036,"stv_name":"Uncletopia | Warsaw | 3 | All Maps | STV","players":null},{"server_id":0,"name_short":"","name":"Uncletopia | Sydney | 6 | Community","host":"","port":0,"enabled":false,"region":"","cc":"","latitude":0,"longitude":0,"reserved":0,"last_update":"0001-01-01T00:00:00Z","protocol":17,"map":"koth_soot_final1","folder":"tf","game":"Team Fortress","app_id":440,"player_count":0,"max_players":24,"Bots":0,"server_type":"Dedicated","server_os":"Linux","password":true,"vac":true,"version":"7961495","steam_id":85568392925397960,"keywords":["cp","nocrits","nodmgspread","uncletopia"],"edicts":[240,2048],"game_id":440,"stv_port":27066,"stv_name":"Uncletopia | Sydney | 6 | Community | STV","players":null},{"server_id":0,"name_short":"","name":"Uncletopia | Sydney | 3 | All Maps","host":"","port":0,"enabled":false,"region":"","cc":"","latitude":0,"longitude":0,"reserved":0,"last_update":"0001-01-01T00:00:00Z","protocol":17,"map":"koth_brazil","folder":"tf","game":"Team Fortress","app_id":440,"player_count":0,"max_players":24,"Bots":0,"server_type":"Dedicated","server_os":"Linux","password":true,"vac":true,"version":"7961495","steam_id":85568392925194467,"keywords":["cp","nocrits","nodmgspread","uncletopia"],"edicts":[417,2048],"game_id":440,"stv_port":27036,"stv_name":"Uncletopia | Sydney | 3 | All Maps | STV","players":null},{"server_id":0,"name_short":"","name":"Uncletopia | Chicago | 1 | All Maps","host":"","port":0,"enabled":false,"region":"","cc":"","latitude":0,"longitude":0,"reserved":0,"last_update":"0001-01-01T00:00:00Z","protocol":17,"map":"koth_cascade","folder":"tf","game":"Team Fortress","app_id":440,"player_count":24,"max_players":24,"Bots":0,"server_type":"Dedicated","server_os":"Linux","password":true,"vac":true,"version":"7961495","steam_id":85568392924469984,"keywords":["cp","nocrits","nodmgspread","uncletopia"],"edicts":[855,2048],"game_id":440,"stv_port":27016,"stv_name":"Uncletopia | Chicago | 1 | All Maps | STV","players":[{"user_id":793,"name":"cylinder","steam_id":76561197995609787,"connected_time":1736000000000,"state":"active","ping":57},{"user_id":772,"name":"zpalmtree","steam_id":76561198134307620,"connected_time":4212000000000,"state":"active","ping":70},{"user_id":815,"name":"OKLOLOM3","steam_id":76561199151881507,"connected_time":437000000000,"state":"active","ping":58},{"user_id":816,"name":"Pika","steam_id":76561198080395122,"connected_time":421000000000,"state":"active","ping":98},{"user_id":781,"name":"drift","steam_id":76561198093781093,"connected_time":3555000000000,"state":"active","ping":59},{"user_id":814,"name":"subdromeda","steam_id":76561198884351860,"connected_time":837000000000,"state":"active","ping":67},{"user_id":809,"name":"CashBin","steam_id":76561199382865598,"connected_time":1365000000000,"state":"active","ping":63},{"user_id":796,"name":"Seskova","steam_id":76561198090207032,"connected_time":1659000000000,"state":"active","ping":109},{"user_id":797,"name":"Sodsboy","steam_id":76561198030482006,"connected_time":1636000000000,"state":"active","ping":132},{"user_id":802,"name":"Luca!","steam_id":76561198137880777,"connected_time":1529000000000,"state":"active","ping":68},{"user_id":804,"name":"Kelpy G","steam_id":76561198058105208,"connected_time":1500000000000,"state":"active","ping":114},{"user_id":791,"name":"CoziestGlobe","steam_id":76561198199237735,"connected_time":1895000000000,"state":"active","ping":75},{"user_id":766,"name":"GUH","steam_id":76561199013202758,"connected_time":4803000000000,"state":"active","ping":104},{"user_id":758,"name":"Punks | Pride Month \u003c3","steam_id":76561199140940650,"connected_time":5673000000000,"state":"active","ping":57},{"user_id":792,"name":"Backshot Insurrectionist","steam_id":76561198067176829,"connected_time":1893000000000,"state":"active","ping":113},{"user_id":801,"name":"gale","steam_id":76561198250068972,"connected_time":1551000000000,"state":"active","ping":92},{"user_id":775,"name":"RailRunner66","steam_id":76561198053779091,"connected_time":4203000000000,"state":"active","ping":91},{"user_id":817,"name":"on1on (juicy)","steam_id":76561197995304137,"connected_time":411000000000,"state":"active","ping":157},{"user_id":820,"name":"kikikikoboy","steam_id":76561198073380271,"connected_time":234000000000,"state":"active","ping":77},{"user_id":818,"name":"ndvr (femboy (REAL))","steam_id":76561199379200102,"connected_time":394000000000,"state":"active","ping":66},{"user_id":805,"name":"asscastle","steam_id":76561198097330521,"connected_time":1464000000000,"state":"active","ping":201},{"user_id":806,"name":"Blingo Bloingo","steam_id":76561198275250936,"connected_time":1413000000000,"state":"active","ping":68},{"user_id":761,"name":"shitass | pride \u003c3","steam_id":76561198210572481,"connected_time":5610000000000,"state":"active","ping":84},{"user_id":819,"name":"Boofenshmirtz","steam_id":76561198071649858,"connected_time":376000000000,"state":"active","ping":68}]},{"server_id":0,"name_short":"","name":"Uncletopia | Dallas | 1 | All Maps","host":"","port":0,"enabled":false,"region":"","cc":"","latitude":0,"longitude":0,"reserved":0,"last_update":"0001-01-01T00:00:00Z","protocol":17,"map":"pl_swiftwater_final1","folder":"tf","game":"Team Fortress","app_id":440,"player_count":22,"max_players":24,"Bots":0,"server_type":"Dedicated","server_os":"Linux","password":true,"vac":true,"version":"7961495","steam_id":85568392924469986,"keywords":["nocrits","nodmgspread","payload","uncletopia"],"edicts":[1091,2048],"game_id":440,"stv_port":27016,"stv_name":"Uncletopia | Dallas | 1 | All Maps | STV","players":[{"user_id":625,"name":"ok","steam_id":76561198968058652,"connected_time":2333000000000,"state":"active","ping":96},{"user_id":626,"name":"A Deranged Ape","steam_id":76561198060312042,"connected_time":2062000000000,"state":"active","ping":86},{"user_id":627,"name":"Velocircopter","steam_id":76561198847582048,"connected_time":2035000000000,"state":"active","ping":107},{"user_id":657,"name":"❤[S'more]❤","steam_id":76561198817361963,"connected_time":8000000000,"state":"spawning","ping":106},{"user_id":656,"name":"Zerffyy","steam_id":76561199040346564,"connected_time":15000000000,"state":"spawning","ping":63},{"user_id":644,"name":"freeman","steam_id":76561198070688101,"connected_time":657000000000,"state":"active","ping":50},{"user_id":646,"name":"fly","steam_id":76561199003715735,"connected_time":606000000000,"state":"active","ping":75},{"user_id":655,"name":"AvapXia","steam_id":76561198147476096,"connected_time":39000000000,"state":"spawning","ping":107},{"user_id":648,"name":"frank","steam_id":76561198137777483,"connected_time":552000000000,"state":"active","ping":81},{"user_id":631,"name":"jpeghuB","steam_id":76561198826739151,"connected_time":1945000000000,"state":"active","ping":62},{"user_id":587,"name":"Batso","steam_id":76561198106589452,"connected_time":5545000000000,"state":"active","ping":83},{"user_id":588,"name":"mr ploobmeister","steam_id":76561198128908529,"connected_time":5529000000000,"state":"active","ping":51},{"user_id":649,"name":"Domster536","steam_id":76561198152695768,"connected_time":479000000000,"state":"active","ping":64},{"user_id":622,"name":"fish","steam_id":76561198111396488,"connected_time":2727000000000,"state":"active","ping":40},{"user_id":654,"name":"Brainrot","steam_id":76561198316509697,"connected_time":188000000000,"state":"active","ping":73},{"user_id":549,"name":"uhooter","steam_id":76561198007829078,"connected_time":9156000000000,"state":"active","ping":71},{"user_id":650,"name":"papersonic","steam_id":76561199052718021,"connected_time":387000000000,"state":"active","ping":56},{"user_id":640,"name":"Juicy","steam_id":76561198049220780,"connected_time":1484000000000,"state":"active","ping":66},{"user_id":634,"name":"fart","steam_id":76561198074198286,"connected_time":1816000000000,"state":"active","ping":83},{"user_id":651,"name":"BoomieMcBoomPants","steam_id":76561198144516828,"connected_time":369000000000,"state":"active","ping":92},{"user_id":652,"name":"Funny Valentine","steam_id":76561198408678492,"connected_time":326000000000,"state":"active","ping":67},{"user_id":653,"name":"feed lips","steam_id":76561197971152439,"connected_time":258000000000,"state":"active","ping":80}]},{"server_id":0,"name_short":"","name":"Uncletopia | Seattle | 2 | All Maps","host":"","port":0,"enabled":false,"region":"","cc":"","latitude":0,"longitude":0,"reserved":0,"last_update":"0001-01-01T00:00:00Z","protocol":17,"map":"pl_swiftwater_final1","folder":"tf","game":"Team Fortress","app_id":440,"player_count":24,"max_players":24,"Bots":0,"server_type":"Dedicated","server_os":"Linux","password":true,"vac":true,"version":"7961495","steam_id":85568392924469998,"keywords":["nocrits","nodmgspread","payload","uncletopia"],"edicts":[1190,2048],"game_id":440,"stv_port":27026,"stv_name":"Uncletopia | Seattle | 2 | All Maps | STV","players":[{"user_id":465,"name":"Arcane Flame","steam_id":76561198360024422,"connected_time":2699000000000,"state":"active","ping":89},{"user_id":451,"name":"Thexx [she/they]","steam_id":76561198113823050,"connected_time":3805000000000,"state":"active","ping":48},{"user_id":391,"name":"roger roger","steam_id":76561198130032444,"connected_time":7083000000000,"state":"active","ping":42},{"user_id":472,"name":"Sorbis The Grungler","steam_id":76561198057138795,"connected_time":2191000000000,"state":"active","ping":91},{"user_id":473,"name":"Vibrantword3732","steam_id":76561198916638641,"connected_time":2185000000000,"state":"active","ping":64},{"user_id":488,"name":"moe","steam_id":76561198929586245,"connected_time":1296000000000,"state":"active","ping":67},{"user_id":494,"name":"mub","steam_id":76561197961943948,"connected_time":648000000000,"state":"active","ping":44},{"user_id":475,"name":"Butterton","steam_id":76561198833286517,"connected_time":2128000000000,"state":"active","ping":93},{"user_id":468,"name":"ferby","steam_id":76561198028229594,"connected_time":2318000000000,"state":"active","ping":65},{"user_id":495,"name":"Farseer Ulwithy","steam_id":76561197965179245,"connected_time":628000000000,"state":"active","ping":74},{"user_id":502,"name":"Dextersbrain","steam_id":76561198011831579,"connected_time":211000000000,"state":"active","ping":62},{"user_id":431,"name":"SnareString","steam_id":76561199082119457,"connected_time":4634000000000,"state":"active","ping":49},{"user_id":486,"name":"Cypress [ +/- ] ✔","steam_id":76561198067164431,"connected_time":1349000000000,"state":"active","ping":71},{"user_id":436,"name":"cream of the crop (ubersaw)","steam_id":76561198268581959,"connected_time":4576000000000,"state":"active","ping":64},{"user_id":503,"name":"Lil B (Tha Based/God)","steam_id":76561198133195238,"connected_time":193000000000,"state":"active","ping":114},{"user_id":484,"name":"rockar","steam_id":76561198154257166,"connected_time":1393000000000,"state":"active","ping":74},{"user_id":501,"name":"FidelGuevara","steam_id":76561198368296171,"connected_time":308000000000,"state":"active","ping":86},{"user_id":492,"name":"Jezzus","steam_id":76561199289676387,"connected_time":981000000000,"state":"active","ping":107},{"user_id":469,"name":"SolarusD","steam_id":76561198029279861,"connected_time":2295000000000,"state":"active","ping":62},{"user_id":487,"name":"Ratchet55","steam_id":76561198208655521,"connected_time":1328000000000,"state":"active","ping":100},{"user_id":481,"name":"Robogineer","steam_id":76561198026994739,"connected_time":1815000000000,"state":"active","ping":78},{"user_id":498,"name":"Alcohol Hominid","steam_id":76561198320313950,"connected_time":541000000000,"state":"active","ping":107},{"user_id":479,"name":"eatmysteel","steam_id":76561198976437527,"connected_time":2060000000000,"state":"active","ping":101},{"user_id":504,"name":"paws :3","steam_id":76561199371694361,"connected_time":158000000000,"state":"active","ping":78}]},{"server_id":0,"name_short":"","name":"Uncletopia | London | 8 | Community","host":"","port":0,"enabled":false,"region":"","cc":"","latitude":0,"longitude":0,"reserved":0,"last_update":"0001-01-01T00:00:00Z","protocol":17,"map":"cp_propaganda_b18","folder":"tf","game":"Team Fortress","app_id":440,"player_count":0,"max_players":24,"Bots":0,"server_type":"Dedicated","server_os":"Linux","password":true,"vac":true,"version":"7961495","steam_id":85568392924964315,"keywords":["cp","nocrits","nodmgspread","uncletopia"],"edicts":[412,2048],"game_id":440,"stv_port":27086,"stv_name":"Uncletopia | London | 8 | Community | STV","players":null},{"server_id":0,"name_short":"","name":"Uncletopia | London | 1 | All Maps","host":"","port":0,"enabled":false,"region":"","cc":"","latitude":0,"longitude":0,"reserved":0,"last_update":"0001-01-01T00:00:00Z","protocol":17,"map":"koth_sawmill","folder":"tf","game":"Team Fortress","app_id":440,"player_count":0,"max_players":24,"Bots":0,"server_type":"Dedicated","server_os":"Linux","password":true,"vac":true,"version":"7961495","steam_id":85568392924367362,"keywords":["cp","nocrits","nodmgspread","uncletopia"],"edicts":[237,2048],"game_id":440,"stv_port":27016,"stv_name":"Uncletopia | London | 1 | All Maps | STV","players":null},{"server_id":0,"name_short":"","name":"Uncletopia | Frankfurt | 1 | All Maps","host":"","port":0,"enabled":false,"region":"","cc":"","latitude":0,"longitude":0,"reserved":0,"last_update":"0001-01-01T00:00:00Z","protocol":17,"map":"cp_snakewater_final1","folder":"tf","game":"Team Fortress","app_id":440,"player_count":0,"max_players":24,"Bots":0,"server_type":"Dedicated","server_os":"Linux","password":true,"vac":true,"version":"7961495","steam_id":85568392924469989,"keywords":["cp","nocrits","nodmgspread","uncletopia"],"edicts":[634,2048],"game_id":440,"stv_port":27016,"stv_name":"Uncletopia | Frankfurt | 1 | All Maps | STV","players":null},{"server_id":0,"name_short":"","name":"Uncletopia | Frankfurt | 6 | All Maps","host":"","port":0,"enabled":false,"region":"","cc":"","latitude":0,"longitude":0,"reserved":0,"last_update":"0001-01-01T00:00:00Z","protocol":17,"map":"cp_steel","folder":"tf","game":"Team Fortress","app_id":440,"player_count":0,"max_players":24,"Bots":0,"server_type":"Dedicated","server_os":"Linux","password":true,"vac":true,"version":"7961495","steam_id":85568392924504278,"keywords":["cp","nocrits","nodmgspread","uncletopia"],"edicts":[837,2048],"game_id":440,"stv_port":27066,"stv_name":"Uncletopia | Frankfurt | 6 | All Maps | STV","players":null},{"server_id":0,"name_short":"","name":"Uncletopia | Chicago | 6 | All Maps","host":"","port":0,"enabled":false,"region":"","cc":"","latitude":0,"longitude":0,"reserved":0,"last_update":"0001-01-01T00:00:00Z","protocol":17,"map":"cp_dustbowl","folder":"tf","game":"Team Fortress","app_id":440,"player_count":24,"max_players":24,"Bots":0,"server_type":"Dedicated","server_os":"Linux","password":true,"vac":true,"version":"7961495","steam_id":85568392924866363,"keywords":["cp","nocrits","nodmgspread","uncletopia"],"edicts":[1010,2048],"game_id":440,"stv_port":27026,"stv_name":"Uncletopia | Chicago | 6 | All Maps | STV","players":[{"user_id":401,"name":"ok","steam_id":76561199247445914,"connected_time":1171000000000,"state":"active","ping":97},{"user_id":413,"name":"Green Mario","steam_id":76561198094325997,"connected_time":519000000000,"state":"active","ping":72},{"user_id":402,"name":"Avenging Spirit","steam_id":76561198119572121,"connected_time":1144000000000,"state":"active","ping":59},{"user_id":388,"name":"Arenaid","steam_id":76561198159312934,"connected_time":3246000000000,"state":"active","ping":103},{"user_id":396,"name":"Elliot","steam_id":76561198052843856,"connected_time":2491000000000,"state":"active","ping":69},{"user_id":394,"name":"Axel in Harlem","steam_id":76561198085304380,"connected_time":2550000000000,"state":"active","ping":35},{"user_id":393,"name":"SupJon","steam_id":76561198204403679,"connected_time":2571000000000,"state":"active","ping":79},{"user_id":340,"name":"larguu","steam_id":76561197994336210,"connected_time":8624000000000,"state":"active","ping":50},{"user_id":367,"name":"The Big Cat","steam_id":76561198115695203,"connected_time":4290000000000,"state":"active","ping":45},{"user_id":414,"name":"plutonium","steam_id":76561198319442494,"connected_time":43000000000,"state":"active","ping":102},{"user_id":403,"name":"Trademark","steam_id":76561198303253987,"connected_time":1142000000000,"state":"active","ping":82},{"user_id":412,"name":"RedElite","steam_id":76561198264704905,"connected_time":851000000000,"state":"active","ping":103},{"user_id":404,"name":"yeeye","steam_id":76561198094306054,"connected_time":1134000000000,"state":"active","ping":75},{"user_id":385,"name":"Miss Star","steam_id":76561199106587693,"connected_time":3790000000000,"state":"active","ping":62},{"user_id":341,"name":"Koffy","steam_id":76561198184386039,"connected_time":8617000000000,"state":"active","ping":136},{"user_id":392,"name":"Bl@z1ng","steam_id":76561198125550780,"connected_time":2617000000000,"state":"active","ping":64},{"user_id":406,"name":"Kysick","steam_id":76561198866985237,"connected_time":1097000000000,"state":"active","ping":106},{"user_id":407,"name":"SHADOW","steam_id":76561198207768148,"connected_time":1066000000000,"state":"active","ping":107},{"user_id":353,"name":"Yongle","steam_id":76561198068591156,"connected_time":6566000000000,"state":"active","ping":48},{"user_id":387,"name":"Ping","steam_id":76561199206514106,"connected_time":3312000000000,"state":"active","ping":53},{"user_id":409,"name":"Saucy Boy","steam_id":76561198178332031,"connected_time":1048000000000,"state":"active","ping":70},{"user_id":410,"name":"Passionate Map Researcher","steam_id":76561199490508357,"connected_time":1037000000000,"state":"active","ping":75},{"user_id":411,"name":"jakatak","steam_id":76561199226494930,"connected_time":1014000000000,"state":"active","ping":68},{"user_id":345,"name":"Titar Industries","steam_id":76561198143078476,"connected_time":8595000000000,"state":"active","ping":63}]},{"server_id":0,"name_short":"","name":"Uncletopia | Atlanta | 4 | Community","host":"","port":0,"enabled":false,"region":"","cc":"","latitude":0,"longitude":0,"reserved":0,"last_update":"0001-01-01T00:00:00Z","protocol":17,"map":"koth_product_final","folder":"tf","game":"Team Fortress","app_id":440,"player_count":0,"max_players":24,"Bots":0,"server_type":"Dedicated","server_os":"Linux","password":true,"vac":true,"version":"7961495","steam_id":85568392924515188,"keywords":["cp","nocrits","nodmgspread","uncletopia"],"edicts":[352,2048],"game_id":440,"stv_port":27046,"stv_name":"Uncletopia | Atlanta | 4 | Community | STV","players":null},{"server_id":0,"name_short":"","name":"Uncletopia | Dallas | 2 | All Maps","host":"","port":0,"enabled":false,"region":"","cc":"","latitude":0,"longitude":0,"reserved":0,"last_update":"0001-01-01T00:00:00Z","protocol":17,"map":"cp_5gorge","folder":"tf","game":"Team Fortress","app_id":440,"player_count":24,"max_players":24,"Bots":0,"server_type":"Dedicated","server_os":"Linux","password":true,"vac":true,"version":"7961495","steam_id":85568392924469988,"keywords":["cp","nocrits","nodmgspread","uncletopia"],"edicts":[801,2048],"game_id":440,"stv_port":27026,"stv_name":"Uncletopia | Dallas | 2 | All Maps | STV","players":[{"user_id":803,"name":"Name","steam_id":76561198256762225,"connected_time":474000000000,"state":"active","ping":94},{"user_id":786,"name":"Prinz","steam_id":76561198175476071,"connected_time":1381000000000,"state":"active","ping":85},{"user_id":796,"name":"MMMJoey","steam_id":76561198399036706,"connected_time":764000000000,"state":"active","ping":182},{"user_id":799,"name":"short bus enthusiast","steam_id":76561198069380992,"connected_time":669000000000,"state":"active","ping":58},{"user_id":804,"name":"werd","steam_id":76561198138981729,"connected_time":444000000000,"state":"active","ping":70},{"user_id":791,"name":"Bad Financial Decisions","steam_id":76561198100942212,"connected_time":1198000000000,"state":"active","ping":75},{"user_id":780,"name":"MODUS boberton","steam_id":76561198133102865,"connected_time":2371000000000,"state":"active","ping":58},{"user_id":805,"name":"Dog","steam_id":76561198127918800,"connected_time":428000000000,"state":"active","ping":59},{"user_id":797,"name":"Souleater192","steam_id":76561198039504245,"connected_time":762000000000,"state":"active","ping":78},{"user_id":781,"name":"ki","steam_id":76561198277979851,"connected_time":2341000000000,"state":"active","ping":83},{"user_id":535,"name":"SgT_Spam","steam_id":76561198275753768,"connected_time":25573000000000,"state":"active","ping":51},{"user_id":798,"name":"Fake21","steam_id":76561198282065071,"connected_time":741000000000,"state":"active","ping":50},{"user_id":760,"name":"fire","steam_id":76561198044354279,"connected_time":4030000000000,"state":"active","ping":74},{"user_id":807,"name":"pee_baby","steam_id":76561199076196646,"connected_time":418000000000,"state":"active","ping":79},{"user_id":806,"name":"Iron Argus","steam_id":76561198181088245,"connected_time":422000000000,"state":"active","ping":90},{"user_id":809,"name":"Strobby","steam_id":76561198083463201,"connected_time":334000000000,"state":"active","ping":68},{"user_id":811,"name":"spectralpuppy","steam_id":76561198131235045,"connected_time":277000000000,"state":"active","ping":58},{"user_id":812,"name":"Miami Strike","steam_id":76561199092712646,"connected_time":213000000000,"state":"active","ping":86},{"user_id":814,"name":"piss lord of shit mountain","steam_id":76561198163238434,"connected_time":95000000000,"state":"active","ping":82},{"user_id":765,"name":"DARLIIIIIIIIIIIIIING","steam_id":76561198055082693,"connected_time":3922000000000,"state":"active","ping":103},{"user_id":792,"name":"Keyboard Warrior","steam_id":76561197973093864,"connected_time":1169000000000,"state":"active","ping":62},{"user_id":770,"name":"sora","steam_id":76561198094256973,"connected_time":3475000000000,"state":"active","ping":90},{"user_id":793,"name":"micah","steam_id":76561197984579630,"connected_time":1166000000000,"state":"active","ping":84}]},{"server_id":0,"name_short":"","name":"Uncletopia | Frankfurt | 5 | All Maps","host":"","port":0,"enabled":false,"region":"","cc":"","latitude":0,"longitude":0,"reserved":0,"last_update":"0001-01-01T00:00:00Z","protocol":17,"map":"ctf_landfall","folder":"tf","game":"Team Fortress","app_id":440,"player_count":0,"max_players":24,"Bots":0,"server_type":"Dedicated","server_os":"Linux","password":true,"vac":true,"version":"7961495","steam_id":85568392924504277,"keywords":["ctf","nocrits","nodmgspread","uncletopia"],"edicts":[522,2048],"game_id":440,"stv_port":27056,"stv_name":"Uncletopia | Frankfurt | 5 | All Maps | STV","players":null},{"server_id":0,"name_short":"","name":"Uncletopia | Warsaw | 5 | Stopwatch","host":"","port":0,"enabled":false,"region":"","cc":"","latitude":0,"longitude":0,"reserved":0,"last_update":"0001-01-01T00:00:00Z","protocol":17,"map":"koth_clearcut_b15","folder":"tf","game":"Team Fortress","app_id":440,"player_count":0,"max_players":24,"Bots":0,"server_type":"Dedicated","server_os":"Linux","password":true,"vac":true,"version":"7961495","steam_id":85568392925397854,"keywords":["cp","nocrits","nodmgspread","uncletopia"],"edicts":[445,2048],"game_id":440,"stv_port":27056,"stv_name":"Uncletopia | Warsaw | 5 | Stopwatch | STV","players":null},{"server_id":0,"name_short":"","name":"Uncletopia | New York City | 1 | All Maps","host":"","port":0,"enabled":false,"region":"","cc":"","latitude":0,"longitude":0,"reserved":0,"last_update":"0001-01-01T00:00:00Z","protocol":17,"map":"cp_process_final","folder":"tf","game":"Team Fortress","app_id":440,"player_count":0,"max_players":24,"Bots":0,"server_type":"Dedicated","server_os":"Linux","password":true,"vac":true,"version":"7961495","steam_id":85568392924469993,"keywords":["cp","nocrits","nodmgspread","uncletopia"],"edicts":[537,2048],"game_id":440,"stv_port":27016,"stv_name":"Uncletopia | New York City | 1 | All Maps | STV","players":null},{"server_id":0,"name_short":"","name":"Uncletopia | Atlanta | 2 | All Maps","host":"","port":0,"enabled":false,"region":"","cc":"","latitude":0,"longitude":0,"reserved":0,"last_update":"0001-01-01T00:00:00Z","protocol":17,"map":"cp_altitude","folder":"tf","game":"Team Fortress","app_id":440,"player_count":23,"max_players":24,"Bots":0,"server_type":"Dedicated","server_os":"Linux","password":true,"vac":true,"version":"7961495","steam_id":85568392924469983,"keywords":["cp","nocrits","nodmgspread","uncletopia"],"edicts":[773,2048],"game_id":440,"stv_port":27026,"stv_name":"Uncletopia | Atlanta | 2 | All Maps | STV","players":[{"user_id":495,"name":"Reverse Vaccuum","steam_id":76561199184902367,"connected_time":6685000000000,"state":"active","ping":72},{"user_id":494,"name":"Mr. Rascal","steam_id":76561197984362278,"connected_time":6779000000000,"state":"active","ping":97},{"user_id":555,"name":"Ahab Ishmael Ali","steam_id":76561198967076418,"connected_time":2976000000000,"state":"active","ping":66},{"user_id":568,"name":"Dun Mass","steam_id":76561198074690651,"connected_time":1696000000000,"state":"active","ping":177},{"user_id":562,"name":"Daisy Le Nerd","steam_id":76561198149350087,"connected_time":2095000000000,"state":"active","ping":169},{"user_id":560,"name":"Lane","steam_id":76561197965828506,"connected_time":2270000000000,"state":"active","ping":60},{"user_id":563,"name":"Syndra's Futa Balls","steam_id":76561198058671296,"connected_time":2031000000000,"state":"active","ping":46},{"user_id":542,"name":"ryann","steam_id":76561198042996639,"connected_time":4257000000000,"state":"active","ping":80},{"user_id":557,"name":"DeckofDragons","steam_id":76561198057398213,"connected_time":2897000000000,"state":"active","ping":81},{"user_id":506,"name":"lu","steam_id":76561198080731872,"connected_time":6362000000000,"state":"active","ping":72},{"user_id":573,"name":"Albundy","steam_id":76561198075394127,"connected_time":407000000000,"state":"active","ping":81},{"user_id":504,"name":"Moduli","steam_id":76561198046327590,"connected_time":6417000000000,"state":"active","ping":88},{"user_id":546,"name":"Tay1Qr","steam_id":76561198082809935,"connected_time":3684000000000,"state":"active","ping":60},{"user_id":574,"name":"Bungus","steam_id":76561197984426574,"connected_time":155000000000,"state":"active","ping":97},{"user_id":543,"name":"Richard","steam_id":76561198044115685,"connected_time":4016000000000,"state":"active","ping":75},{"user_id":575,"name":"wrongthink","steam_id":76561198830293087,"connected_time":121000000000,"state":"active","ping":62},{"user_id":576,"name":"Fy","steam_id":76561199073450888,"connected_time":5000000000,"state":"spawning","ping":100},{"user_id":565,"name":"abelbergmans","steam_id":76561199063104853,"connected_time":1896000000000,"state":"active","ping":169},{"user_id":570,"name":"Hamlindigo Blue™","steam_id":76561198116337540,"connected_time":1096000000000,"state":"active","ping":90},{"user_id":558,"name":"Cheesestyk","steam_id":76561197996812068,"connected_time":2870000000000,"state":"active","ping":106},{"user_id":351,"name":"king of hearts","steam_id":76561197987258132,"connected_time":20574000000000,"state":"active","ping":95},{"user_id":567,"name":"drevott74","steam_id":76561199262592779,"connected_time":1761000000000,"state":"active","ping":131},{"user_id":528,"name":"TakeoutFromChina","steam_id":76561198145649960,"connected_time":5366000000000,"state":"active","ping":69}]},{"server_id":0,"name_short":"","name":"Uncletopia | Seattle | 1 | All Maps","host":"","port":0,"enabled":false,"region":"","cc":"","latitude":0,"longitude":0,"reserved":0,"last_update":"0001-01-01T00:00:00Z","protocol":17,"map":"koth_nucleus","folder":"tf","game":"Team Fortress","app_id":440,"player_count":24,"max_players":24,"Bots":0,"server_type":"Dedicated","server_os":"Linux","password":true,"vac":true,"version":"7961495","steam_id":85568392924469997,"keywords":["cp","nocrits","nodmgspread","uncletopia"],"edicts":[528,2048],"game_id":440,"stv_port":27016,"stv_name":"Uncletopia | Seattle | 1 | All Maps | STV","players":[{"user_id":724,"name":"FlexDaddy","steam_id":76561198039724086,"connected_time":5072000000000,"state":"active","ping":84},{"user_id":725,"name":"rat gets the cheese","steam_id":76561198031234032,"connected_time":5048000000000,"state":"active","ping":105},{"user_id":765,"name":"lavender","steam_id":76561199069518286,"connected_time":3314000000000,"state":"active","ping":67},{"user_id":722,"name":"Lord of the Locker Room","steam_id":76561199002906056,"connected_time":5279000000000,"state":"active","ping":46},{"user_id":774,"name":"Swee","steam_id":76561198998446307,"connected_time":1107000000000,"state":"active","ping":62},{"user_id":782,"name":"Brathic","steam_id":76561198966232163,"connected_time":405000000000,"state":"active","ping":80},{"user_id":759,"name":"Wavelengths","steam_id":76561197997621320,"connected_time":3767000000000,"state":"active","ping":76},{"user_id":775,"name":"HotHead","steam_id":76561198138468982,"connected_time":1107000000000,"state":"active","ping":46},{"user_id":776,"name":"trackpad gaming | f2p","steam_id":76561198840414371,"connected_time":1102000000000,"state":"active","ping":53},{"user_id":784,"name":"fragadelphia","steam_id":76561198066116363,"connected_time":7000000000,"state":"active","ping":151},{"user_id":755,"name":"Mii Guest C, From Wii Sports","steam_id":76561198197964803,"connected_time":3794000000000,"state":"active","ping":59},{"user_id":770,"name":"chimps and cough syrup","steam_id":76561198032625036,"connected_time":1918000000000,"state":"active","ping":52},{"user_id":720,"name":"soup","steam_id":76561198043209046,"connected_time":5565000000000,"state":"active","ping":75},{"user_id":773,"name":"Peppy","steam_id":76561198866629645,"connected_time":1775000000000,"state":"active","ping":60},{"user_id":712,"name":"Igrium","steam_id":76561198119549811,"connected_time":6063000000000,"state":"active","ping":72},{"user_id":768,"name":"Henchie! ✧(˘◡˘๑ )","steam_id":76561198047567464,"connected_time":2417000000000,"state":"active","ping":92},{"user_id":749,"name":"GibbsDLC","steam_id":76561198044004111,"connected_time":4088000000000,"state":"active","ping":41},{"user_id":766,"name":"Houdini Cache","steam_id":76561198045506970,"connected_time":2979000000000,"state":"active","ping":49},{"user_id":778,"name":"Someguy","steam_id":76561198025045154,"connected_time":1011000000000,"state":"active","ping":87},{"user_id":769,"name":"Arsonist Goose","steam_id":76561198147441830,"connected_time":1936000000000,"state":"active","ping":75},{"user_id":723,"name":"Lord Hater","steam_id":76561199158148782,"connected_time":5278000000000,"state":"active","ping":61},{"user_id":653,"name":"Nom Skirrett","steam_id":76561198014600788,"connected_time":9826000000000,"state":"active","ping":61},{"user_id":781,"name":"Grill Skills","steam_id":76561198053575147,"connected_time":725000000000,"state":"active","ping":63},{"user_id":783,"name":"Engineer Gaming Live","steam_id":76561198045914603,"connected_time":347000000000,"state":"active","ping":72}]},{"server_id":0,"name_short":"","name":"Uncletopia | São Paulo | 1 | All Maps","host":"","port":0,"enabled":false,"region":"","cc":"","latitude":0,"longitude":0,"reserved":0,"last_update":"0001-01-01T00:00:00Z","protocol":17,"map":"koth_viaduct","folder":"tf","game":"Team Fortress","app_id":440,"player_count":0,"max_players":24,"Bots":0,"server_type":"Dedicated","server_os":"Linux","password":true,"vac":true,"version":"7961495","steam_id":85568392924469996,"keywords":["cp","nocrits","nodmgspread","uncletopia"],"edicts":[217,2048],"game_id":440,"stv_port":27016,"stv_name":"Uncletopia | São Paulo | 1 | All Maps | STV","players":null},{"server_id":0,"name_short":"","name":"Uncletopia | Frankfurt | 3 | All Maps","host":"","port":0,"enabled":false,"region":"","cc":"","latitude":0,"longitude":0,"reserved":0,"last_update":"0001-01-01T00:00:00Z","protocol":17,"map":"plr_pipeline","folder":"tf","game":"Team Fortress","app_id":440,"player_count":0,"max_players":24,"Bots":0,"server_type":"Dedicated","server_os":"Linux","password":true,"vac":true,"version":"7961495","steam_id":85568392924504274,"keywords":["nocrits","nodmgspread","payload","uncletopia"],"edicts":[933,2048],"game_id":440,"stv_port":27036,"stv_name":"Uncletopia | Frankfurt | 3 | All Maps | STV","players":null},{"server_id":0,"name_short":"","name":"Uncletopia | Los Angeles | 4 | Stopwatch","host":"","port":0,"enabled":false,"region":"","cc":"","latitude":0,"longitude":0,"reserved":0,"last_update":"0001-01-01T00:00:00Z","protocol":17,"map":"pl_barnblitz_pro7","folder":"tf","game":"Team Fortress","app_id":440,"player_count":0,"max_players":24,"Bots":0,"server_type":"Dedicated","server_os":"Linux","password":true,"vac":true,"version":"7961495","steam_id":85568392924510199,"keywords":["nocrits","nodmgspread","payload","uncletopia"],"edicts":[743,2048],"game_id":440,"stv_port":27046,"stv_name":"Uncletopia | Los Angeles | 4 | Stopwatch | STV","players":null},{"server_id":0,"name_short":"","name":"Uncletopia | San Francisco | 4 | Community","host":"","port":0,"enabled":false,"region":"","cc":"","latitude":0,"longitude":0,"reserved":0,"last_update":"0001-01-01T00:00:00Z","protocol":17,"map":"rd_asteroid_redux_b1","folder":"tf","game":"Team Fortress","app_id":440,"player_count":0,"max_players":24,"Bots":0,"server_type":"Dedicated","server_os":"Linux","password":true,"vac":true,"version":"7961495","steam_id":85568392924742826,"keywords":["beta","nocrits","nodmgspread","rd","uncletopia"],"edicts":[932,2048],"game_id":440,"stv_port":27046,"stv_name":"Uncletopia | San Francisco | 4 | Community | STV","players":null},{"server_id":0,"name_short":"","name":"Uncletopia | London | 5 | All Maps","host":"","port":0,"enabled":false,"region":"","cc":"","latitude":0,"longitude":0,"reserved":0,"last_update":"0001-01-01T00:00:00Z","protocol":17,"map":"koth_suijin","folder":"tf","game":"Team Fortress","app_id":440,"player_count":0,"max_players":24,"Bots":0,"server_type":"Dedicated","server_os":"Linux","password":true,"vac":true,"version":"7961495","steam_id":85568392924742829,"keywords":["cp","nocrits","nodmgspread","uncletopia"],"edicts":[419,2048],"game_id":440,"stv_port":27056,"stv_name":"Uncletopia | London | 5 | All Maps | STV","players":null},{"server_id":0,"name_short":"","name":"Uncletopia | Frankfurt | 2 | All Maps","host":"","port":0,"enabled":false,"region":"","cc":"","latitude":0,"longitude":0,"reserved":0,"last_update":"0001-01-01T00:00:00Z","protocol":17,"map":"cp_mountainlab","folder":"tf","game":"Team Fortress","app_id":440,"player_count":0,"max_players":24,"Bots":0,"server_type":"Dedicated","server_os":"Linux","password":true,"vac":true,"version":"7961495","steam_id":85568392924469990,"keywords":["cp","nocrits","nodmgspread","uncletopia"],"edicts":[534,2048],"game_id":440,"stv_port":27026,"stv_name":"Uncletopia | Frankfurt | 2 | All Maps | STV","players":null},{"server_id":0,"name_short":"","name":"Uncletopia | Montréal | 1 | One Thousand Uncles","host":"","port":0,"enabled":false,"region":"","cc":"","latitude":0,"longitude":0,"reserved":0,"last_update":"0001-01-01T00:00:00Z","protocol":17,"map":"pl_goldrush","folder":"tf","game":"Team Fortress","app_id":440,"player_count":0,"max_players":32,"Bots":0,"server_type":"Dedicated","server_os":"Linux","password":true,"vac":true,"version":"7961495","steam_id":85568392924500087,"keywords":["alltalk","danepve","increased_maxplayers","norespawntime","payload","uncletopia"],"edicts":[1133,2048],"game_id":440,"stv_port":0,"stv_name":"","players":null},{"server_id":0,"name_short":"","name":"Uncletopia | Los Angeles | 2 | All Maps","host":"","port":0,"enabled":false,"region":"","cc":"","latitude":0,"longitude":0,"reserved":0,"last_update":"0001-01-01T00:00:00Z","protocol":17,"map":"koth_lazarus","folder":"tf","game":"Team Fortress","app_id":440,"player_count":0,"max_players":24,"Bots":0,"server_type":"Dedicated","server_os":"Linux","password":true,"vac":true,"version":"7961495","steam_id":85568392924469992,"keywords":["cp","nocrits","nodmgspread","uncletopia"],"edicts":[864,2048],"game_id":440,"stv_port":27026,"stv_name":"Uncletopia | Los Angeles | 2 | All Maps | STV","players":null},{"server_id":0,"name_short":"","name":"Uncletopia | Warsaw | 2 | One Thousand Uncles","host":"","port":0,"enabled":false,"region":"","cc":"","latitude":0,"longitude":0,"reserved":0,"last_update":"0001-01-01T00:00:00Z","protocol":17,"map":"pl_pier","folder":"tf","game":"Team Fortress","app_id":440,"player_count":0,"max_players":32,"Bots":0,"server_type":"Dedicated","server_os":"Linux","password":true,"vac":true,"version":"7961495","steam_id":85568392925397851,"keywords":["alltalk","danepve","increased_maxplayers","norespawntime","payload","uncletopia"],"edicts":[961,2048],"game_id":440,"stv_port":0,"stv_name":"","players":null},{"server_id":0,"name_short":"","name":"Uncletopia | Chicago | 4 | All Maps","host":"","port":0,"enabled":false,"region":"","cc":"","latitude":0,"longitude":0,"reserved":0,"last_update":"0001-01-01T00:00:00Z","protocol":17,"map":"pl_borneo","folder":"tf","game":"Team Fortress","app_id":440,"player_count":8,"max_players":24,"Bots":0,"server_type":"Dedicated","server_os":"Linux","password":true,"vac":true,"version":"7961495","steam_id":85568392924515193,"keywords":["nocrits","nodmgspread","payload","uncletopia"],"edicts":[814,2048],"game_id":440,"stv_port":27046,"stv_name":"Uncletopia | Chicago | 4 | All Maps | STV","players":[{"user_id":490,"name":"Draugluin","steam_id":76561199219965276,"connected_time":27000000000,"state":"active","ping":140},{"user_id":421,"name":"nataliekisser","steam_id":76561198248461754,"connected_time":5625000000000,"state":"active","ping":99},{"user_id":487,"name":"Yonaka","steam_id":76561198079658570,"connected_time":1119000000000,"state":"active","ping":81},{"user_id":480,"name":"Shrebbie","steam_id":76561198875230824,"connected_time":2565000000000,"state":"active","ping":59},{"user_id":420,"name":"-natalexei ♥","steam_id":76561198100477765,"connected_time":5640000000000,"state":"active","ping":87},{"user_id":416,"name":"xFactr","steam_id":76561198129007422,"connected_time":6191000000000,"state":"active","ping":59},{"user_id":470,"name":"BUOYKISSER","steam_id":76561198041017977,"connected_time":2974000000000,"state":"active","ping":60},{"user_id":364,"name":"Bond","steam_id":76561198089262776,"connected_time":8864000000000,"state":"active","ping":73}]},{"server_id":0,"name_short":"","name":"Uncletopia | Chicago | 3 | All Maps","host":"","port":0,"enabled":false,"region":"","cc":"","latitude":0,"longitude":0,"reserved":0,"last_update":"0001-01-01T00:00:00Z","protocol":17,"map":"pl_swiftwater_final1","folder":"tf","game":"Team Fortress","app_id":440,"player_count":24,"max_players":24,"Bots":0,"server_type":"Dedicated","server_os":"Linux","password":true,"vac":true,"version":"7961495","steam_id":85568392924515191,"keywords":["nocrits","nodmgspread","payload","uncletopia"],"edicts":[1180,2048],"game_id":440,"stv_port":27036,"stv_name":"Uncletopia | Chicago | 3 | All Maps | STV","players":[{"user_id":586,"name":"J O S H³²","steam_id":76561198122603779,"connected_time":4627000000000,"state":"active","ping":96},{"user_id":621,"name":"ifuruna","steam_id":76561199506882366,"connected_time":2431000000000,"state":"active","ping":136},{"user_id":616,"name":"TheBlue","steam_id":76561198363412851,"connected_time":2855000000000,"state":"active","ping":48},{"user_id":651,"name":"Potato","steam_id":76561198813327824,"connected_time":456000000000,"state":"active","ping":89},{"user_id":585,"name":"robot","steam_id":76561198018691308,"connected_time":4685000000000,"state":"active","ping":72},{"user_id":646,"name":"bengineer","steam_id":76561198171912174,"connected_time":935000000000,"state":"active","ping":100},{"user_id":650,"name":"Admiral Crumbs","steam_id":76561198108791583,"connected_time":817000000000,"state":"active","ping":73},{"user_id":633,"name":"Fudge_Cake","steam_id":76561198059218167,"connected_time":1726000000000,"state":"active","ping":59},{"user_id":612,"name":"Big Yoshi #savetf2","steam_id":76561198009916036,"connected_time":3206000000000,"state":"active","ping":78},{"user_id":594,"name":"Nostalgic","steam_id":76561198798931344,"connected_time":4107000000000,"state":"active","ping":85},{"user_id":636,"name":"Yoshimelon","steam_id":76561198253054325,"connected_time":1443000000000,"state":"active","ping":62},{"user_id":627,"name":"The Grim Heaper","steam_id":76561197987759101,"connected_time":2266000000000,"state":"active","ping":106},{"user_id":637,"name":"oiljacket","steam_id":76561199162111049,"connected_time":1439000000000,"state":"active","ping":115},{"user_id":588,"name":"metalfan666","steam_id":76561198386344068,"connected_time":4474000000000,"state":"active","ping":77},{"user_id":614,"name":"Hellraiser","steam_id":76561198159368915,"connected_time":3036000000000,"state":"active","ping":162},{"user_id":638,"name":"ellie","steam_id":76561198304600400,"connected_time":1417000000000,"state":"active","ping":53},{"user_id":652,"name":"marlow","steam_id":76561198094408360,"connected_time":313000000000,"state":"active","ping":75},{"user_id":645,"name":"bikerkid207","steam_id":76561198390782783,"connected_time":1146000000000,"state":"active","ping":69},{"user_id":647,"name":"☑Juanaco is dead","steam_id":76561198029895630,"connected_time":921000000000,"state":"active","ping":79},{"user_id":547,"name":"ihave80hp","steam_id":76561199251621911,"connected_time":7853000000000,"state":"active","ping":102},{"user_id":649,"name":"pie","steam_id":76561198012945016,"connected_time":882000000000,"state":"active","ping":55},{"user_id":603,"name":"Moonkey","steam_id":76561199013741389,"connected_time":3891000000000,"state":"active","ping":59},{"user_id":644,"name":"ÜberBurst inVinci","steam_id":76561198044470684,"connected_time":1200000000000,"state":"active","ping":61},{"user_id":643,"name":"nufyivuyda","steam_id":76561199499476489,"connected_time":1230000000000,"state":"active","ping":96}]},{"server_id":0,"name_short":"","name":"Uncletopia | London | 2 | All Maps","host":"","port":0,"enabled":false,"region":"","cc":"","latitude":0,"longitude":0,"reserved":0,"last_update":"0001-01-01T00:00:00Z","protocol":17,"map":"cp_mountainlab","folder":"tf","game":"Team Fortress","app_id":440,"player_count":0,"max_players":24,"Bots":0,"server_type":"Dedicated","server_os":"Linux","password":true,"vac":true,"version":"7961495","steam_id":85568392924470941,"keywords":["cp","nocrits","nodmgspread","uncletopia"],"edicts":[533,2048],"game_id":440,"stv_port":27026,"stv_name":"Uncletopia | London | 2 | All Maps | STV","players":null},{"server_id":0,"name_short":"","name":"Uncletopia | Warsaw | 6 | Community","host":"","port":0,"enabled":false,"region":"","cc":"","latitude":0,"longitude":0,"reserved":0,"last_update":"0001-01-01T00:00:00Z","protocol":17,"map":"pl_highwood_b19","folder":"tf","game":"Team Fortress","app_id":440,"player_count":0,"max_players":24,"Bots":0,"server_type":"Dedicated","server_os":"Linux","password":true,"vac":true,"version":"7961495","steam_id":85568392925397856,"keywords":["nocrits","nodmgspread","payload","uncletopia"],"edicts":[709,2048],"game_id":440,"stv_port":27066,"stv_name":"Uncletopia | Warsaw | 6 | Community | STV","players":null},{"server_id":0,"name_short":"","name":"Uncletopia | New York City | 3 | Stopwatch","host":"","port":0,"enabled":false,"region":"","cc":"","latitude":0,"longitude":0,"reserved":0,"last_update":"0001-01-01T00:00:00Z","protocol":17,"map":"koth_product_final","folder":"tf","game":"Team Fortress","app_id":440,"player_count":0,"max_players":24,"Bots":0,"server_type":"Dedicated","server_os":"Linux","password":true,"vac":true,"version":"7961495","steam_id":85568392924742820,"keywords":["cp","nocrits","nodmgspread","uncletopia"],"edicts":[352,2048],"game_id":440,"stv_port":27036,"stv_name":"Uncletopia | New York City | 3 | Stopwatch | STV","players":null},{"server_id":0,"name_short":"","name":"Uncletopia | Chicago | 5 | All Maps","host":"","port":0,"enabled":false,"region":"","cc":"","latitude":0,"longitude":0,"reserved":0,"last_update":"0001-01-01T00:00:00Z","protocol":17,"map":"pl_upward","folder":"tf","game":"Team Fortress","app_id":440,"player_count":6,"max_players":24,"Bots":0,"server_type":"Dedicated","server_os":"Linux","password":true,"vac":true,"version":"7961495","steam_id":85568392924866362,"keywords":["nocrits","nodmgspread","payload","uncletopia"],"edicts":[720,2048],"game_id":440,"stv_port":27016,"stv_name":"Uncletopia | Chicago | 5 | All Maps | STV","players":[{"user_id":51,"name":"Cyani","steam_id":76561199122123500,"connected_time":1039000000000,"state":"active","ping":52},{"user_id":55,"name":"(TPT) Ghost","steam_id":76561198123262873,"connected_time":17000000000,"state":"active","ping":93},{"user_id":44,"name":"The Pope","steam_id":76561198002422498,"connected_time":3754000000000,"state":"active","ping":91},{"user_id":47,"name":"Ядрён батон","steam_id":76561198978262040,"connected_time":2460000000000,"state":"active","ping":154},{"user_id":49,"name":"Caucasian Cockazoid","steam_id":76561198848362267,"connected_time":2019000000000,"state":"active","ping":55},{"user_id":52,"name":"Localrandomperson","steam_id":76561198370169088,"connected_time":1016000000000,"state":"active","ping":55}]},{"server_id":0,"name_short":"","name":"Uncletopia | Seattle | 3 | Stopwatch","host":"","port":0,"enabled":false,"region":"","cc":"","latitude":0,"longitude":0,"reserved":0,"last_update":"0001-01-01T00:00:00Z","protocol":17,"map":"koth_product_final","folder":"tf","game":"Team Fortress","app_id":440,"player_count":0,"max_players":24,"Bots":0,"server_type":"Dedicated","server_os":"Linux","password":true,"vac":true,"version":"7961495","steam_id":85568392924515217,"keywords":["cp","nocrits","nodmgspread","uncletopia"],"edicts":[354,2048],"game_id":440,"stv_port":27036,"stv_name":"Uncletopia | Seattle | 3 | Stopwatch | STV","players":null},{"server_id":0,"name_short":"","name":"Uncletopia | Los Angeles | 3 | All Maps","host":"","port":0,"enabled":false,"region":"","cc":"","latitude":0,"longitude":0,"reserved":0,"last_update":"0001-01-01T00:00:00Z","protocol":17,"map":"plr_hightower","folder":"tf","game":"Team Fortress","app_id":440,"player_count":23,"max_players":24,"Bots":0,"server_type":"Dedicated","server_os":"Linux","password":true,"vac":true,"version":"7961495","steam_id":85568392924510198,"keywords":["nocrits","nodmgspread","payload","uncletopia"],"edicts":[975,2048],"game_id":440,"stv_port":27036,"stv_name":"Uncletopia | Los Angeles | 3 | All Maps | STV","players":[{"user_id":260,"name":"Zozbieta","steam_id":76561198010336265,"connected_time":391000000000,"state":"active","ping":89},{"user_id":261,"name":"Femboy Slim","steam_id":76561198809707902,"connected_time":275000000000,"state":"active","ping":63},{"user_id":253,"name":"TüCold","steam_id":76561198111278197,"connected_time":895000000000,"state":"active","ping":59},{"user_id":254,"name":"heck","steam_id":76561198315694520,"connected_time":877000000000,"state":"active","ping":47},{"user_id":136,"name":"Anstorner","steam_id":76561198274026015,"connected_time":4801000000000,"state":"active","ping":39},{"user_id":257,"name":"HOG RIDER","steam_id":76561198298589502,"connected_time":698000000000,"state":"active","ping":46},{"user_id":262,"name":"reverie","steam_id":76561198168158637,"connected_time":270000000000,"state":"active","ping":62},{"user_id":243,"name":"HeroOfTime","steam_id":76561199096218001,"connected_time":1906000000000,"state":"active","ping":53},{"user_id":263,"name":"Stinkfly","steam_id":76561198043953895,"connected_time":167000000000,"state":"active","ping":49},{"user_id":256,"name":"Pixelated Pussy","steam_id":76561198002511088,"connected_time":739000000000,"state":"active","ping":62},{"user_id":211,"name":"The Color Cyan idk im blind","steam_id":76561198978548208,"connected_time":2914000000000,"state":"active","ping":61},{"user_id":264,"name":"krebex","steam_id":76561198004660630,"connected_time":126000000000,"state":"active","ping":78},{"user_id":267,"name":"Cbear1","steam_id":76561198113978508,"connected_time":55000000000,"state":"active","ping":70},{"user_id":104,"name":"Addii","steam_id":76561199088297605,"connected_time":7174000000000,"state":"active","ping":101},{"user_id":102,"name":"TacoMan4Life","steam_id":76561198832562728,"connected_time":7722000000000,"state":"active","ping":57},{"user_id":268,"name":"Pangwin","steam_id":76561199086245602,"connected_time":45000000000,"state":"active","ping":57},{"user_id":252,"name":"Borgor Boi","steam_id":76561199061388107,"connected_time":939000000000,"state":"active","ping":69},{"user_id":269,"name":"Mr.Rogers","steam_id":76561198043878683,"connected_time":32000000000,"state":"active","ping":92},{"user_id":270,"name":"Fireiy","steam_id":76561198013680427,"connected_time":29000000000,"state":"active","ping":72},{"user_id":95,"name":"Humble Learner","steam_id":76561198066091050,"connected_time":8222000000000,"state":"active","ping":136},{"user_id":207,"name":"Dova","steam_id":76561198079481047,"connected_time":3023000000000,"state":"active","ping":46},{"user_id":94,"name":"lol","steam_id":76561198026491738,"connected_time":8234000000000,"state":"active","ping":68},{"user_id":192,"name":"Schmupp","steam_id":76561198150928115,"connected_time":3294000000000,"state":"active","ping":48}]},{"server_id":0,"name_short":"","name":"Uncletopia | San Francisco | 1 | All Maps","host":"","port":0,"enabled":false,"region":"","cc":"","latitude":0,"longitude":0,"reserved":0,"last_update":"0001-01-01T00:00:00Z","protocol":17,"map":"cp_altitude","folder":"tf","game":"Team Fortress","app_id":440,"player_count":12,"max_players":24,"Bots":0,"server_type":"Dedicated","server_os":"Linux","password":true,"vac":true,"version":"7961495","steam_id":85568392924469999,"keywords":["cp","nocrits","nodmgspread","uncletopia"],"edicts":[645,2048],"game_id":440,"stv_port":27016,"stv_name":"Uncletopia | San Francisco | 1 | All Maps | STV","players":[{"user_id":122,"name":"SQbuilder","steam_id":76561198076473375,"connected_time":3089000000000,"state":"active","ping":48},{"user_id":153,"name":"✫P∀nck∈✫","steam_id":76561198050163618,"connected_time":253000000000,"state":"active","ping":52},{"user_id":140,"name":"Barney Calhoun (real)","steam_id":76561198834616608,"connected_time":1901000000000,"state":"active","ping":63},{"user_id":92,"name":"Irony is pretty cringy","steam_id":76561198120391460,"connected_time":4591000000000,"state":"active","ping":48},{"user_id":113,"name":"||Shroom||","steam_id":76561198279865229,"connected_time":3495000000000,"state":"active","ping":76},{"user_id":150,"name":"4-D Dream","steam_id":76561198072938403,"connected_time":733000000000,"state":"active","ping":77},{"user_id":57,"name":"Lambchop","steam_id":76561198043900363,"connected_time":6772000000000,"state":"active","ping":59},{"user_id":152,"name":"› We Are You.j2","steam_id":76561197995242200,"connected_time":497000000000,"state":"active","ping":51},{"user_id":151,"name":"SQU1DDY","steam_id":76561198027757551,"connected_time":602000000000,"state":"active","ping":95},{"user_id":131,"name":"𝒯𝒽𝒾𝓇𝓉𝓎 𝒩\ufffd\ufffd","steam_id":76561198111878431,"connected_time":2586000000000,"state":"active","ping":72},{"user_id":128,"name":"mikeke","steam_id":76561198138697514,"connected_time":2980000000000,"state":"active","ping":58},{"user_id":149,"name":"dodecadron","steam_id":76561198027397222,"connected_time":1210000000000,"state":"active","ping":79}]},{"server_id":0,"name_short":"","name":"Uncletopia | São Paulo | 2 | Community","host":"","port":0,"enabled":false,"region":"","cc":"","latitude":0,"longitude":0,"reserved":0,"last_update":"0001-01-01T00:00:00Z","protocol":17,"map":"pl_jinn_rc2","folder":"tf","game":"Team Fortress","app_id":440,"player_count":0,"max_players":24,"Bots":0,"server_type":"Dedicated","server_os":"Linux","password":true,"vac":true,"version":"7961495","steam_id":85568392924485349,"keywords":["nocrits","nodmgspread","payload","uncletopia"],"edicts":[768,2048],"game_id":440,"stv_port":27016,"stv_name":"Uncletopia | São Paulo | 2 | Community | STV","players":null},{"server_id":0,"name_short":"","name":"Uncletopia | Sydney | 1 | All Maps","host":"","port":0,"enabled":false,"region":"","cc":"","latitude":0,"longitude":0,"reserved":0,"last_update":"0001-01-01T00:00:00Z","protocol":17,"map":"pl_frontier_final","folder":"tf","game":"Team Fortress","app_id":440,"player_count":0,"max_players":24,"Bots":0,"server_type":"Dedicated","server_os":"Linux","password":true,"vac":true,"version":"7961495","steam_id":85568392924470001,"keywords":["nocrits","nodmgspread","payload","uncletopia"],"edicts":[744,2048],"game_id":440,"stv_port":27016,"stv_name":"Uncletopia | Sydney | 1 | All Maps | STV","players":null},{"server_id":0,"name_short":"","name":"Uncletopia | Frankfurt | 4 | All Maps","host":"","port":0,"enabled":false,"region":"","cc":"","latitude":0,"longitude":0,"reserved":0,"last_update":"0001-01-01T00:00:00Z","protocol":17,"map":"koth_lakeside_final","folder":"tf","game":"Team Fortress","app_id":440,"player_count":0,"max_players":24,"Bots":0,"server_type":"Dedicated","server_os":"Linux","password":true,"vac":true,"version":"7961495","steam_id":85568392924504275,"keywords":["cp","nocrits","nodmgspread","uncletopia"],"edicts":[301,2048],"game_id":440,"stv_port":27046,"stv_name":"Uncletopia | Frankfurt | 4 | All Maps | STV","players":null},{"server_id":0,"name_short":"","name":"Uncletopia | New York City | 2 | All Maps","host":"","port":0,"enabled":false,"region":"","cc":"","latitude":0,"longitude":0,"reserved":0,"last_update":"0001-01-01T00:00:00Z","protocol":17,"map":"pl_upward","folder":"tf","game":"Team Fortress","app_id":440,"player_count":9,"max_players":24,"Bots":0,"server_type":"Dedicated","server_os":"Linux","password":true,"vac":true,"version":"7961495","steam_id":85568392924469994,"keywords":["nocrits","nodmgspread","payload","uncletopia"],"edicts":[715,2048],"game_id":440,"stv_port":27026,"stv_name":"Uncletopia | New York City | 2 | All Maps | STV","players":[{"user_id":614,"name":"Lumi The ✧Lesbian✧","steam_id":76561198089978036,"connected_time":254000000000,"state":"active","ping":42},{"user_id":608,"name":"Brunch","steam_id":76561198045933938,"connected_time":853000000000,"state":"active","ping":46},{"user_id":599,"name":"󠀡󠀡","steam_id":76561198348035053,"connected_time":1467000000000,"state":"active","ping":112},{"user_id":609,"name":"RayTrain","steam_id":76561198874299515,"connected_time":709000000000,"state":"active","ping":213},{"user_id":602,"name":"Blade Racer","steam_id":76561198155896703,"connected_time":1382000000000,"state":"active","ping":62},{"user_id":612,"name":"Chalkaholic","steam_id":76561198880515038,"connected_time":510000000000,"state":"active","ping":122},{"user_id":613,"name":"Berb","steam_id":76561198193911899,"connected_time":464000000000,"state":"active","ping":80},{"user_id":615,"name":"Narvhalø","steam_id":76561198147495474,"connected_time":75000000000,"state":"active","ping":105},{"user_id":596,"name":"Slowdive w/ EATEOF","steam_id":76561198047856328,"connected_time":1646000000000,"state":"active","ping":122}]},{"server_id":0,"name_short":"","name":"Uncletopia | Dallas | 4 | Community","host":"","port":0,"enabled":false,"region":"","cc":"","latitude":0,"longitude":0,"reserved":0,"last_update":"0001-01-01T00:00:00Z","protocol":17,"map":"pl_emerge_rc2","folder":"tf","game":"Team Fortress","app_id":440,"player_count":0,"max_players":24,"Bots":0,"server_type":"Dedicated","server_os":"Linux","password":true,"vac":true,"version":"7961495","steam_id":85568392924515220,"keywords":["nocrits","nodmgspread","payload","uncletopia"],"edicts":[779,2048],"game_id":440,"stv_port":27046,"stv_name":"Uncletopia | Dallas | 4 | Community | STV","players":null},{"server_id":0,"name_short":"","name":"Uncletopia | London | 4 | All Maps","host":"","port":0,"enabled":false,"region":"","cc":"","latitude":0,"longitude":0,"reserved":0,"last_update":"0001-01-01T00:00:00Z","protocol":17,"map":"cp_dustbowl","folder":"tf","game":"Team Fortress","app_id":440,"player_count":0,"max_players":24,"Bots":0,"server_type":"Dedicated","server_os":"Linux","password":true,"vac":true,"version":"7961495","steam_id":85568392924510193,"keywords":["cp","nocrits","nodmgspread","uncletopia"],"edicts":[741,2048],"game_id":440,"stv_port":27046,"stv_name":"Uncletopia | London | 4 | All Maps | STV","players":null},{"server_id":0,"name_short":"","name":"Uncletopia | Frankfurt | 7 | Stopwatch","host":"","port":0,"enabled":false,"region":"","cc":"","latitude":0,"longitude":0,"reserved":0,"last_update":"0001-01-01T00:00:00Z","protocol":17,"map":"koth_highpass","folder":"tf","game":"Team Fortress","app_id":440,"player_count":0,"max_players":24,"Bots":0,"server_type":"Dedicated","server_os":"Linux","password":true,"vac":true,"version":"7961495","steam_id":85568392924742827,"keywords":["cp","nocrits","nodmgspread","uncletopia"],"edicts":[413,2048],"game_id":440,"stv_port":27076,"stv_name":"Uncletopia | Frankfurt | 7 | Stopwatch | STV","players":null},{"server_id":0,"name_short":"","name":"Uncletopia | Warsaw | 4 | All Maps","host":"","port":0,"enabled":false,"region":"","cc":"","latitude":0,"longitude":0,"reserved":0,"last_update":"0001-01-01T00:00:00Z","protocol":17,"map":"ctf_turbine","folder":"tf","game":"Team Fortress","app_id":440,"player_count":0,"max_players":24,"Bots":0,"server_type":"Dedicated","server_os":"Linux","password":true,"vac":true,"version":"7961495","steam_id":85568392925397853,"keywords":["ctf","nocrits","nodmgspread","uncletopia"],"edicts":[293,2048],"game_id":440,"stv_port":27046,"stv_name":"Uncletopia | Warsaw | 4 | All Maps | STV","players":null},{"server_id":0,"name_short":"","name":"Uncletopia | Warsaw | 1 | One Thousand Uncles","host":"","port":0,"enabled":false,"region":"","cc":"","latitude":0,"longitude":0,"reserved":0,"last_update":"0001-01-01T00:00:00Z","protocol":17,"map":"pl_pier","folder":"tf","game":"Team Fortress","app_id":440,"player_count":21,"max_players":32,"Bots":20,"server_type":"Dedicated","server_os":"Linux","password":true,"vac":true,"version":"7961495","steam_id":85568392925397850,"keywords":["alltalk","bots","danepve","increased_maxplayers","norespawntime","payload","uncletopia"],"edicts":[1321,2048],"game_id":440,"stv_port":0,"stv_name":"","players":[{"user_id":56,"name":"homoporn69jesus","steam_id":76561199473267237,"connected_time":746000000000,"state":"active","ping":64}]},{"server_id":0,"name_short":"","name":"Uncletopia | Atlanta | 1 | All Maps","host":"","port":0,"enabled":false,"region":"","cc":"","latitude":0,"longitude":0,"reserved":0,"last_update":"0001-01-01T00:00:00Z","protocol":17,"map":"koth_cascade","folder":"tf","game":"Team Fortress","app_id":440,"player_count":0,"max_players":24,"Bots":0,"server_type":"Dedicated","server_os":"Linux","password":true,"vac":true,"version":"7961495","steam_id":85568392924469982,"keywords":["cp","nocrits","nodmgspread","uncletopia"],"edicts":[544,2048],"game_id":440,"stv_port":27016,"stv_name":"Uncletopia | Atlanta | 1 | All Maps | STV","players":null},{"server_id":0,"name_short":"","name":"Uncletopia | Sydney | 5 | Stopwatch","host":"","port":0,"enabled":false,"region":"","cc":"","latitude":0,"longitude":0,"reserved":0,"last_update":"0001-01-01T00:00:00Z","protocol":17,"map":"koth_product_final","folder":"tf","game":"Team Fortress","app_id":440,"player_count":0,"max_players":24,"Bots":0,"server_type":"Dedicated","server_os":"Linux","password":true,"vac":true,"version":"7961495","steam_id":85568392925397959,"keywords":["cp","nocrits","nodmgspread","uncletopia"],"edicts":[355,2048],"game_id":440,"stv_port":27056,"stv_name":"Uncletopia | Sydney | 5 | Stopwatch | STV","players":null},{"server_id":0,"name_short":"","name":"Uncletopia | Hong Kong | 1 | All Maps","host":"","port":0,"enabled":false,"region":"","cc":"","latitude":0,"longitude":0,"reserved":0,"last_update":"0001-01-01T00:00:00Z","protocol":17,"map":"cp_steel","folder":"tf","game":"Team Fortress","app_id":440,"player_count":23,"max_players":24,"Bots":0,"server_type":"Dedicated","server_os":"Linux","password":true,"vac":true,"version":"7961495","steam_id":85568392924494504,"keywords":["cp","nocrits","nodmgspread","uncletopia"],"edicts":[1106,2048],"game_id":440,"stv_port":27016,"stv_name":"Uncletopia | Hong Kong | 1 | All Maps | STV","players":[{"user_id":16,"name":"MS PowerPoint","steam_id":76561198369523192,"connected_time":7703000000000,"state":"active","ping":69},{"user_id":82,"name":"Sover blw.tf","steam_id":76561198136347837,"connected_time":2125000000000,"state":"active","ping":77},{"user_id":97,"name":"MonoBendy","steam_id":76561198169234066,"connected_time":932000000000,"state":"active","ping":56},{"user_id":80,"name":"Feld","steam_id":76561199071610761,"connected_time":2648000000000,"state":"active","ping":114},{"user_id":109,"name":"villy","steam_id":76561198169263597,"connected_time":175000000000,"state":"active","ping":37},{"user_id":59,"name":"Crossed","steam_id":76561199131526926,"connected_time":3864000000000,"state":"active","ping":84},{"user_id":91,"name":"a musian","steam_id":76561198152588681,"connected_time":1545000000000,"state":"active","ping":86},{"user_id":77,"name":"v1.","steam_id":76561198037571054,"connected_time":2885000000000,"state":"active","ping":41},{"user_id":96,"name":"fieds","steam_id":76561199033459509,"connected_time":1112000000000,"state":"active","ping":112},{"user_id":39,"name":"beepis","steam_id":76561198965473654,"connected_time":4668000000000,"state":"active","ping":74},{"user_id":92,"name":"LeMIckey Hater","steam_id":76561199219484527,"connected_time":1381000000000,"state":"active","ping":131},{"user_id":93,"name":"Falfarey","steam_id":76561198185402494,"connected_time":1369000000000,"state":"active","ping":97},{"user_id":98,"name":"water tastes good","steam_id":76561199375947670,"connected_time":819000000000,"state":"active","ping":72},{"user_id":88,"name":"Telekhine","steam_id":76561198387120618,"connected_time":1757000000000,"state":"active","ping":62},{"user_id":99,"name":"E","steam_id":76561199173781370,"connected_time":657000000000,"state":"active","ping":98},{"user_id":104,"name":"doctor morbin' (official)","steam_id":76561199365241695,"connected_time":473000000000,"state":"active","ping":78},{"user_id":110,"name":"d6ze","steam_id":76561198318292720,"connected_time":75000000000,"state":"active","ping":139},{"user_id":102,"name":"XBOX","steam_id":76561198408850699,"connected_time":566000000000,"state":"active","ping":54},{"user_id":111,"name":"Lady D.","steam_id":76561199225360457,"connected_time":47000000000,"state":"active","ping":140},{"user_id":107,"name":"zomafreakapon","steam_id":76561198043789187,"connected_time":407000000000,"state":"active","ping":81},{"user_id":108,"name":"Aug","steam_id":76561199212711900,"connected_time":289000000000,"state":"active","ping":101},{"user_id":50,"name":"George","steam_id":76561198382658042,"connected_time":4311000000000,"state":"active","ping":78},{"user_id":112,"name":"daffy","steam_id":76561198356316337,"connected_time":41000000000,"state":"active","ping":97}]},{"server_id":0,"name_short":"","name":"Uncletopia | San Francisco | 2 | All Maps","host":"","port":0,"enabled":false,"region":"","cc":"","latitude":0,"longitude":0,"reserved":0,"last_update":"0001-01-01T00:00:00Z","protocol":17,"map":"cp_mountainlab","folder":"tf","game":"Team Fortress","app_id":440,"player_count":0,"max_players":24,"Bots":0,"server_type":"Dedicated","server_os":"Linux","password":true,"vac":true,"version":"7961495","steam_id":85568392924470000,"keywords":["cp","nocrits","nodmgspread","uncletopia"],"edicts":[534,2048],"game_id":440,"stv_port":27026,"stv_name":"Uncletopia | San Francisco | 2 | All Maps | STV","players":null},{"server_id":0,"name_short":"","name":"Uncletopia | London | 7 | Stopwatch","host":"","port":0,"enabled":false,"region":"","cc":"","latitude":0,"longitude":0,"reserved":0,"last_update":"0001-01-01T00:00:00Z","protocol":17,"map":"pl_swiftwater_final1","folder":"tf","game":"Team Fortress","app_id":440,"player_count":0,"max_players":24,"Bots":0,"server_type":"Dedicated","server_os":"Linux","password":true,"vac":true,"version":"7961495","steam_id":85568392924964314,"keywords":["nocrits","nodmgspread","payload","uncletopia"],"edicts":[902,2048],"game_id":440,"stv_port":27076,"stv_name":"Uncletopia | London | 7 | Stopwatch | STV","players":null},{"server_id":0,"name_short":"","name":"Uncletopia | Sydney | 2 | All Maps","host":"","port":0,"enabled":false,"region":"","cc":"","latitude":0,"longitude":0,"reserved":0,"last_update":"0001-01-01T00:00:00Z","protocol":17,"map":"koth_cascade","folder":"tf","game":"Team Fortress","app_id":440,"player_count":14,"max_players":24,"Bots":0,"server_type":"Dedicated","server_os":"Linux","password":true,"vac":true,"version":"7961495","steam_id":85568392924470002,"keywords":["cp","nocrits","nodmgspread","uncletopia"],"edicts":[696,2048],"game_id":440,"stv_port":27026,"stv_name":"Uncletopia | Sydney | 2 | All Maps | STV","players":[{"user_id":19,"name":"Bob","steam_id":76561198993654166,"connected_time":2448000000000,"state":"active","ping":68},{"user_id":20,"name":"good morning","steam_id":76561198895690844,"connected_time":2372000000000,"state":"active","ping":56},{"user_id":29,"name":"ZappinandZwoopin","steam_id":76561199202045028,"connected_time":954000000000,"state":"active","ping":76},{"user_id":22,"name":"Chemist Warehouse","steam_id":76561198105156291,"connected_time":1781000000000,"state":"active","ping":69},{"user_id":23,"name":"--{Lemon}--","steam_id":76561198029267274,"connected_time":1570000000000,"state":"active","ping":60},{"user_id":34,"name":"Tsolis","steam_id":76561198013950614,"connected_time":479000000000,"state":"active","ping":62},{"user_id":25,"name":"planet mountain dew","steam_id":76561199140213318,"connected_time":1494000000000,"state":"active","ping":43},{"user_id":30,"name":"Dawaj Polewaj!","steam_id":76561199090168813,"connected_time":838000000000,"state":"active","ping":45},{"user_id":35,"name":"m64gamer123","steam_id":76561199390315270,"connected_time":347000000000,"state":"active","ping":61},{"user_id":36,"name":"beagle","steam_id":76561197980848494,"connected_time":327000000000,"state":"active","ping":35},{"user_id":37,"name":"osborn","steam_id":76561198033663866,"connected_time":191000000000,"state":"active","ping":32},{"user_id":38,"name":"Turret","steam_id":76561198054728921,"connected_time":102000000000,"state":"active","ping":34},{"user_id":39,"name":"Chowdermonkey","steam_id":76561198990121068,"connected_time":52000000000,"state":"spawning","ping":71},{"user_id":40,"name":"Coatsman","steam_id":76561198042846208,"connected_time":28000000000,"state":"spawning","ping":52}]},{"server_id":0,"name_short":"","name":"Uncletopia | Montréal | 3 | One Thousand Uncles","host":"","port":0,"enabled":false,"region":"","cc":"","latitude":0,"longitude":0,"reserved":0,"last_update":"0001-01-01T00:00:00Z","protocol":17,"map":"cp_dustbowl","folder":"tf","game":"Team Fortress","app_id":440,"player_count":0,"max_players":32,"Bots":0,"server_type":"Dedicated","server_os":"Linux","password":true,"vac":true,"version":"7961495","steam_id":85568392924500089,"keywords":["alltalk","cp","danepve","increased_maxplayers","norespawntime","uncletopia"],"edicts":[736,2048],"game_id":440,"stv_port":0,"stv_name":"","players":null},{"server_id":0,"name_short":"","name":"Uncletopia | Montréal | 2 | One Thousand Uncles","host":"","port":0,"enabled":false,"region":"","cc":"","latitude":0,"longitude":0,"reserved":0,"last_update":"0001-01-01T00:00:00Z","protocol":17,"map":"pl_barnblitz","folder":"tf","game":"Team Fortress","app_id":440,"player_count":0,"max_players":32,"Bots":0,"server_type":"Dedicated","server_os":"Linux","password":true,"vac":true,"version":"7961495","steam_id":85568392924500088,"keywords":["alltalk","danepve","increased_maxplayers","norespawntime","payload","uncletopia"],"edicts":[803,2048],"game_id":440,"stv_port":0,"stv_name":"","players":null},{"server_id":0,"name_short":"","name":"Uncletopia | Chicago | 7 | Stopwatch","host":"","port":0,"enabled":false,"region":"","cc":"","latitude":0,"longitude":0,"reserved":0,"last_update":"0001-01-01T00:00:00Z","protocol":17,"map":"koth_lakeside_final","folder":"tf","game":"Team Fortress","app_id":440,"player_count":0,"max_players":24,"Bots":0,"server_type":"Dedicated","server_os":"Linux","password":true,"vac":true,"version":"7961495","steam_id":85568392924866364,"keywords":["cp","nocrits","nodmgspread","uncletopia"],"edicts":[304,2048],"game_id":440,"stv_port":27036,"stv_name":"Uncletopia | Chicago | 7 | Stopwatch | STV","players":null},{"server_id":0,"name_short":"","name":"Uncletopia | Chicago | 8 | Community","host":"","port":0,"enabled":false,"region":"","cc":"","latitude":0,"longitude":0,"reserved":0,"last_update":"0001-01-01T00:00:00Z","protocol":17,"map":"koth_bagel_rc6","folder":"tf","game":"Team Fortress","app_id":440,"player_count":0,"max_players":24,"Bots":0,"server_type":"Dedicated","server_os":"Linux","password":true,"vac":true,"version":"7961495","steam_id":85568392924866365,"keywords":["cp","nocrits","nodmgspread","uncletopia"],"edicts":[598,2048],"game_id":440,"stv_port":27046,"stv_name":"Uncletopia | Chicago | 8 | Community | STV","players":null},{"server_id":0,"name_short":"","name":"Uncletopia | London | 3 | All Maps","host":"","port":0,"enabled":false,"region":"","cc":"","latitude":0,"longitude":0,"reserved":0,"last_update":"0001-01-01T00:00:00Z","protocol":17,"map":"pl_barnblitz","folder":"tf","game":"Team Fortress","app_id":440,"player_count":6,"max_players":24,"Bots":0,"server_type":"Dedicated","server_os":"Linux","password":true,"vac":true,"version":"7961495","steam_id":85568392924510192,"keywords":["nocrits","nodmgspread","payload","uncletopia"],"edicts":[858,2048],"game_id":440,"stv_port":27036,"stv_name":"Uncletopia | London | 3 | All Maps | STV","players":[{"user_id":23,"name":"Mébh Óg MacTíre","steam_id":76561198346399624,"connected_time":78000000000,"state":"active","ping":75},{"user_id":4,"name":"CarbonPan","steam_id":76561198072169983,"connected_time":4577000000000,"state":"active","ping":102},{"user_id":16,"name":"germinator (f2p)","steam_id":76561199387893648,"connected_time":840000000000,"state":"active","ping":174},{"user_id":21,"name":"Cristiano Ronaldo","steam_id":76561199094423561,"connected_time":613000000000,"state":"active","ping":97},{"user_id":22,"name":"Rex Z'Beq","steam_id":76561199300590000,"connected_time":589000000000,"state":"active","ping":91},{"user_id":13,"name":"yuno appreciator","steam_id":76561198083286511,"connected_time":2916000000000,"state":"active","ping":37}]},{"server_id":0,"name_short":"","name":"Uncletopia | Sydney | 4 | All Maps","host":"","port":0,"enabled":false,"region":"","cc":"","latitude":0,"longitude":0,"reserved":0,"last_update":"0001-01-01T00:00:00Z","protocol":17,"map":"cp_standin_final","folder":"tf","game":"Team Fortress","app_id":440,"player_count":0,"max_players":24,"Bots":0,"server_type":"Dedicated","server_os":"Linux","password":true,"vac":true,"version":"7961495","steam_id":85568392925397958,"keywords":["cp","nocrits","nodmgspread","uncletopia"],"edicts":[426,2048],"game_id":440,"stv_port":27046,"stv_name":"Uncletopia | Sydney | 4 | All Maps | STV","players":null},{"server_id":0,"name_short":"","name":"Uncletopia | Los Angeles | 1 | All Maps","host":"","port":0,"enabled":false,"region":"","cc":"","latitude":0,"longitude":0,"reserved":0,"last_update":"0001-01-01T00:00:00Z","protocol":17,"map":"pl_frontier_final","folder":"tf","game":"Team Fortress","app_id":440,"player_count":23,"max_players":24,"Bots":0,"server_type":"Dedicated","server_os":"Linux","password":true,"vac":true,"version":"7961495","steam_id":85568392924469991,"keywords":["nocrits","nodmgspread","payload","uncletopia"],"edicts":[1002,2048],"game_id":440,"stv_port":27016,"stv_name":"Uncletopia | Los Angeles | 1 | All Maps | STV","players":[{"user_id":150,"name":"Petpac","steam_id":76561198326941396,"connected_time":2089000000000,"state":"active","ping":46},{"user_id":177,"name":"Ralph Kramden (Slim Charles)","steam_id":76561197981687895,"connected_time":398000000000,"state":"active","ping":55},{"user_id":168,"name":"TheChosenLucario","steam_id":76561198284112567,"connected_time":1356000000000,"state":"active","ping":72},{"user_id":172,"name":"rat","steam_id":76561198130412963,"connected_time":753000000000,"state":"active","ping":71},{"user_id":156,"name":"Rank 1 Weezer Fan","steam_id":76561198317838400,"connected_time":1702000000000,"state":"active","ping":85},{"user_id":178,"name":"Literal Vampire Potbelly Goblin","steam_id":76561197970527356,"connected_time":392000000000,"state":"active","ping":47},{"user_id":157,"name":"TinyGayGuitar","steam_id":76561198130737316,"connected_time":1667000000000,"state":"active","ping":87},{"user_id":173,"name":"cringy","steam_id":76561198323000455,"connected_time":669000000000,"state":"active","ping":51},{"user_id":104,"name":"Blackwing","steam_id":76561198225732032,"connected_time":6341000000000,"state":"active","ping":96},{"user_id":134,"name":"Shadovv","steam_id":76561198168693301,"connected_time":2738000000000,"state":"active","ping":91},{"user_id":115,"name":"Napa cabbage","steam_id":76561198103825541,"connected_time":5095000000000,"state":"active","ping":110},{"user_id":160,"name":"Aim Assist isn't that strong","steam_id":76561198261546184,"connected_time":1622000000000,"state":"active","ping":70},{"user_id":136,"name":"Filtershakes","steam_id":76561197990484413,"connected_time":2726000000000,"state":"active","ping":135},{"user_id":161,"name":"Chimp of the year","steam_id":76561198114676855,"connected_time":1583000000000,"state":"active","ping":64},{"user_id":128,"name":"Eden","steam_id":76561198081284664,"connected_time":2882000000000,"state":"active","ping":57},{"user_id":162,"name":"smallest orc","steam_id":76561198049223356,"connected_time":1572000000000,"state":"active","ping":60},{"user_id":125,"name":"HopeTheNeko","steam_id":76561199159285465,"connected_time":3317000000000,"state":"active","ping":49},{"user_id":152,"name":"Cloey","steam_id":76561199161591235,"connected_time":1881000000000,"state":"active","ping":83},{"user_id":108,"name":"Siix","steam_id":76561198144668063,"connected_time":6249000000000,"state":"active","ping":60},{"user_id":176,"name":"Floodlight","steam_id":76561198074195033,"connected_time":566000000000,"state":"active","ping":120},{"user_id":164,"name":"Explux545","steam_id":76561198263367747,"connected_time":1516000000000,"state":"active","ping":80},{"user_id":110,"name":"Scrux","steam_id":76561198129763115,"connected_time":5438000000000,"state":"active","ping":57},{"user_id":167,"name":"Guc master","steam_id":76561198155934570,"connected_time":1419000000000,"state":"active","ping":67},{"user_id":183,"name":"FortniteJimmy2008","steam_id":76561198821567852,"connected_time":172000000000,"state":"active","ping":49}]},{"server_id":0,"name_short":"","name":"Uncletopia | New York City | 4 | Community","host":"","port":0,"enabled":false,"region":"","cc":"","latitude":0,"longitude":0,"reserved":0,"last_update":"0001-01-01T00:00:00Z","protocol":17,"map":"cp_villa_b19","folder":"tf","game":"Team Fortress","app_id":440,"player_count":0,"max_players":24,"Bots":0,"server_type":"Dedicated","server_os":"Linux","password":true,"vac":true,"version":"7961495","steam_id":85568392924742821,"keywords":["cp","nocrits","nodmgspread","uncletopia"],"edicts":[441,2048],"game_id":440,"stv_port":27046,"stv_name":"Uncletopia | New York City | 4 | Community | STV","players":null},{"server_id":0,"name_short":"","name":"Uncletopia | Dallas | 3 | All Maps","host":"","port":0,"enabled":false,"region":"","cc":"","latitude":0,"longitude":0,"reserved":0,"last_update":"0001-01-01T00:00:00Z","protocol":17,"map":"koth_viaduct","folder":"tf","game":"Team Fortress","app_id":440,"player_count":0,"max_players":24,"Bots":0,"server_type":"Dedicated","server_os":"Linux","password":true,"vac":true,"version":"7961495","steam_id":85568392924515219,"keywords":["cp","nocrits","nodmgspread","uncletopia"],"edicts":[218,2048],"game_id":440,"stv_port":27036,"stv_name":"Uncletopia | Dallas | 3 | All Maps | STV","players":null},{"server_id":0,"name_short":"","name":"Uncletopia | London | 6 | All Maps","host":"","port":0,"enabled":false,"region":"","cc":"","latitude":0,"longitude":0,"reserved":0,"last_update":"0001-01-01T00:00:00Z","protocol":17,"map":"pl_frontier_final","folder":"tf","game":"Team Fortress","app_id":440,"player_count":0,"max_players":24,"Bots":0,"server_type":"Dedicated","server_os":"Linux","password":true,"vac":true,"version":"7961495","steam_id":85568392924742830,"keywords":["nocrits","nodmgspread","payload","uncletopia"],"edicts":[744,2048],"game_id":440,"stv_port":27066,"stv_name":"Uncletopia | London | 6 | All Maps | STV","players":null}]}