{"status":true,"message":"","result":[{"server_id":9,"name":"Uncletopia | Atlanta | 1 | All Maps","name_short":"atl-1","host":"atl-1.us.uncletopia.com","port":27015,"enabled":true,"region":"us-east","cc":"us","latitude":33.753746,"longitude":-84.38633,"reserved":0,"last_update":"0001-01-01T00:00:00Z","name_a2s":"Uncletopia | Atlanta | 1 | All Maps","protocol":17,"map":"pl_borneo","folder":"tf","game":"Team Fortress","app_id":440,"player_count":24,"max_players":24,"Bots":0,"server_type":"Dedicated","server_os":"Linux","password":true,"vac":true,"version":"7708610","steam_id":85568392924469982,"keywords":["nocrits","nodmgspread","payload","uncletopia"],"game_id":440,"stv_port":27016,"stv_name":"Uncletopia | Atlanta | 1 | All Maps | STV","players":[{"user_id":418,"name":"xyt0nix","steam_id":76561199437938235,"connected_time":720000000000,"state":"active","ping":48},{"user_id":374,"name":"stop","steam_id":76561198268686419,"connected_time":3942000000000,"state":"active","ping":73},{"user_id":405,"name":"The Animated Gamer","steam_id":76561198120639995,"connected_time":1782000000000,"state":"active","ping":85},{"user_id":282,"name":"mommy claus","steam_id":76561199230929836,"connected_time":9337000000000,"state":"active","ping":78},{"user_id":398,"name":"ATL1 | a very merry ma0re","steam_id":76561199231971506,"connected_time":2030000000000,"state":"active","ping":58},{"user_id":407,"name":"Crescent","steam_id":76561198095124633,"connected_time":1752000000000,"state":"active","ping":48},{"user_id":417,"name":"ATL1 | p4ka","steam_id":76561198315291317,"connected_time":809000000000,"state":"active","ping":74},{"user_id":371,"name":"Bunt","steam_id":76561198124477567,"connected_time":4597000000000,"state":"active","ping":42},{"user_id":345,"name":"ATL1 | Vee (very holly and joll","steam_id":76561198330432889,"connected_time":5882000000000,"state":"active","ping":61},{"user_id":337,"name":"{[F.H]} Hydroida","steam_id":76561197999797274,"connected_time":6705000000000,"state":"active","ping":75},{"user_id":415,"name":"kirbieroki","steam_id":76561198328553702,"connected_time":854000000000,"state":"active","ping":68},{"user_id":421,"name":"Onyx","steam_id":76561198275349640,"connected_time":324000000000,"state":"active","ping":131},{"user_id":419,"name":"christmas.jimmy.2014","steam_id":76561199177672325,"connected_time":713000000000,"state":"active","ping":44},{"user_id":409,"name":"i love nature","steam_id":76561198248636560,"connected_time":1486000000000,"state":"active","ping":69},{"user_id":395,"name":"borzier","steam_id":76561198069190432,"connected_time":2265000000000,"state":"active","ping":71},{"user_id":422,"name":"sys","steam_id":76561198300912581,"connected_time":324000000000,"state":"active","ping":62},{"user_id":391,"name":"ATL1 | ash","steam_id":76561198127890645,"connected_time":2430000000000,"state":"active","ping":67},{"user_id":367,"name":"ATL1 | J O V A","steam_id":76561198090333536,"connected_time":5004000000000,"state":"active","ping":73},{"user_id":411,"name":"Hi This Is Flume (Official)","steam_id":76561198397009880,"connected_time":1471000000000,"state":"active","ping":71},{"user_id":389,"name":"Angel","steam_id":76561198175654911,"connected_time":2898000000000,"state":"active","ping":91},{"user_id":376,"name":"ATL1 | Phestive Pango","steam_id":76561198069811545,"connected_time":3934000000000,"state":"active","ping":45},{"user_id":401,"name":"sansa musa","steam_id":76561198163723555,"connected_time":1865000000000,"state":"active","ping":74},{"user_id":403,"name":"ATL1 | Kramer","steam_id":76561198083595936,"connected_time":1799000000000,"state":"active","ping":84},{"user_id":416,"name":".Alex","steam_id":76561199036099287,"connected_time":854000000000,"state":"active","ping":56}]},{"server_id":400,"name":"Uncletopia | Atlanta | 3 | All Maps","name_short":"atl-3","host":"atl-1.us.uncletopia.com","port":27035,"enabled":true,"region":"us-east","cc":"us","latitude":33.753746,"longitude":-84.38633,"reserved":0,"last_update":"0001-01-01T00:00:00Z","name_a2s":"Uncletopia | Atlanta | 3 | All Maps","protocol":17,"map":"pl_pier","folder":"tf","game":"Team Fortress","app_id":440,"player_count":24,"max_players":24,"Bots":0,"server_type":"Dedicated","server_os":"Linux","password":true,"vac":true,"version":"7708610","steam_id":85568392924515187,"keywords":["nocrits","nodmgspread","payload","uncletopia"],"game_id":440,"stv_port":27036,"stv_name":"Uncletopia | Atlanta | 3 | All Maps | STV","players":[{"user_id":165,"name":"Lane","steam_id":76561197965828506,"connected_time":1860000000000,"state":"active","ping":46},{"user_id":187,"name":"GoatzAreFluffy","steam_id":76561198954843477,"connected_time":755000000000,"state":"active","ping":90},{"user_id":188,"name":"faxxy","steam_id":76561198079621240,"connected_time":725000000000,"state":"active","ping":96},{"user_id":185,"name":"Child Labor","steam_id":76561199091978264,"connected_time":792000000000,"state":"active","ping":80},{"user_id":200,"name":"Squid","steam_id":76561198197045587,"connected_time":430000000000,"state":"active","ping":106},{"user_id":190,"name":"Lil B (Based God)","steam_id":76561198058485742,"connected_time":694000000000,"state":"active","ping":42},{"user_id":166,"name":"Cactus‚Ñ¢ ‚ô•","steam_id":76561198036441270,"connected_time":1750000000000,"state":"active","ping":147},{"user_id":167,"name":"Uung","steam_id":76561198183956731,"connected_time":1748000000000,"state":"active","ping":47},{"user_id":191,"name":"DC19","steam_id":76561199161705225,"connected_time":670000000000,"state":"active","ping":120},{"user_id":196,"name":"Riboflavin","steam_id":76561198077328593,"connected_time":556000000000,"state":"active","ping":83},{"user_id":193,"name":"Sicko Mode (Chris Pratt Cover)","steam_id":76561198315786174,"connected_time":601000000000,"state":"active","ping":70},{"user_id":194,"name":"Radical Centrist","steam_id":76561198071883643,"connected_time":593000000000,"state":"active","ping":72},{"user_id":182,"name":"Oak","steam_id":76561198092135570,"connected_time":1149000000000,"state":"active","ping":60},{"user_id":195,"name":"Ensy","steam_id":76561197961493386,"connected_time":570000000000,"state":"active","ping":137},{"user_id":197,"name":"DIZ","steam_id":76561199065119525,"connected_time":522000000000,"state":"active","ping":83},{"user_id":208,"name":"yao","steam_id":76561199042145024,"connected_time":143000000000,"state":"active","ping":46},{"user_id":184,"name":"D-MROMA | Ham Mafia |","steam_id":76561198837664861,"connected_time":795000000000,"state":"active","ping":86},{"user_id":142,"name":"coolkid #sextf2","steam_id":76561198072600034,"connected_time":4005000000000,"state":"active","ping":163},{"user_id":204,"name":"Huntpk","steam_id":76561198340591674,"connected_time":355000000000,"state":"active","ping":75},{"user_id":28,"name":"Young-OG","steam_id":76561198058800479,"connected_time":9517000000000,"state":"active","ping":71},{"user_id":206,"name":"Risa","steam_id":76561198292546203,"connected_time":231000000000,"state":"active","ping":52},{"user_id":202,"name":"brappy","steam_id":76561198024958319,"connected_time":387000000000,"state":"active","ping":75},{"user_id":203,"name":"Momo_Seyfret","steam_id":76561199214247273,"connected_time":375000000000,"state":"active","ping":119},{"user_id":205,"name":"MjrMovnTARGET","steam_id":76561199125908849,"connected_time":351000000000,"state":"active","ping":73}]},{"server_id":401,"name":"Uncletopia | Atlanta | 4 | No Payload","name_short":"atl-4","host":"atl-1.us.uncletopia.com","port":27045,"enabled":true,"region":"us-east","cc":"us","latitude":33.753746,"longitude":-84.38633,"reserved":0,"last_update":"0001-01-01T00:00:00Z","name_a2s":"Uncletopia | Atlanta | 4 | No Payload","protocol":17,"map":"cp_snakewater_final1","folder":"tf","game":"Team Fortress","app_id":440,"player_count":0,"max_players":24,"Bots":0,"server_type":"Dedicated","server_os":"Linux","password":true,"vac":true,"version":"7708610","steam_id":85568392924515188,"keywords":["cp","nocrits","nodmgspread","uncletopia"],"game_id":440,"stv_port":27046,"stv_name":"Uncletopia | Atlanta | 4 | No Payload | STV","players":null},{"server_id":2,"name":"Uncletopia | Chicago | 1 | All Maps","name_short":"chi-1","host":"chi-1.us.uncletopia.com","port":27015,"enabled":true,"region":"us-central","cc":"us","latitude":41.881832,"longitude":-87.62318,"reserved":0,"last_update":"0001-01-01T00:00:00Z","name_a2s":"Uncletopia | Chicago | 1 | All Maps","protocol":17,"map":"pl_snowycoast","folder":"tf","game":"Team Fortress","app_id":440,"player_count":24,"max_players":24,"Bots":0,"server_type":"Dedicated","server_os":"Linux","password":true,"vac":true,"version":"7708610","steam_id":85568392924469984,"keywords":["nocrits","nodmgspread","payload","uncletopia"],"game_id":440,"stv_port":27016,"stv_name":"Uncletopia | Chicago | 1 | All Maps | STV","players":[{"user_id":528,"name":"Big Tobacco","steam_id":76561198130165656,"connected_time":2249000000000,"state":"active","ping":48},{"user_id":502,"name":"garf (garf)","steam_id":76561198088228311,"connected_time":4297000000000,"state":"active","ping":61},{"user_id":534,"name":"Vladikr1","steam_id":76561198401495362,"connected_time":1998000000000,"state":"active","ping":65},{"user_id":475,"name":"SuperJagops","steam_id":76561198034689716,"connected_time":6940000000000,"state":"active","ping":65},{"user_id":543,"name":"Skippies","steam_id":76561198131280715,"connected_time":924000000000,"state":"active","ping":70},{"user_id":441,"name":"GameGuru the Green Gryphon","steam_id":76561198118495354,"connected_time":10170000000000,"state":"active","ping":74},{"user_id":529,"name":"MeatShield 2000","steam_id":76561199375192850,"connected_time":2235000000000,"state":"active","ping":84},{"user_id":544,"name":"Flacco Throat GOAT","steam_id":76561198057374871,"connected_time":922000000000,"state":"active","ping":60},{"user_id":541,"name":"i'll have what you're having","steam_id":76561198035337657,"connected_time":978000000000,"state":"active","ping":66},{"user_id":542,"name":"ObiWonJacobi","steam_id":76561198041921071,"connected_time":963000000000,"state":"active","ping":72},{"user_id":536,"name":"TheFlyingTortis","steam_id":76561198071576016,"connected_time":1549000000000,"state":"active","ping":52},{"user_id":522,"name":"blob","steam_id":76561198122375328,"connected_time":2658000000000,"state":"active","ping":62},{"user_id":525,"name":"4d4","steam_id":76561198402360789,"connected_time":2401000000000,"state":"active","ping":59},{"user_id":468,"name":"CAdaverOusPRophet","steam_id":76561198045304110,"connected_time":7191000000000,"state":"active","ping":45},{"user_id":545,"name":"D.LeBlanc","steam_id":76561198119483989,"connected_time":847000000000,"state":"active","ping":85},{"user_id":539,"name":"Splinto","steam_id":76561198111260488,"connected_time":1506000000000,"state":"active","ping":48},{"user_id":477,"name":"harry","steam_id":76561198263271697,"connected_time":6566000000000,"state":"active","ping":42},{"user_id":532,"name":"Yukon Cornelius","steam_id":76561198261512781,"connected_time":2049000000000,"state":"active","ping":72},{"user_id":482,"name":"LevelZ3R0","steam_id":76561199239710681,"connected_time":6457000000000,"state":"active","ping":107},{"user_id":540,"name":"cosmik","steam_id":76561198071193180,"connected_time":1506000000000,"state":"active","ping":70},{"user_id":467,"name":"Ras","steam_id":76561198123546775,"connected_time":7203000000000,"state":"active","ping":65},{"user_id":517,"name":"kairOs.fk","steam_id":76561197972421260,"connected_time":3270000000000,"state":"active","ping":61},{"user_id":511,"name":"you are loved","steam_id":76561198108524571,"connected_time":3655000000000,"state":"active","ping":75},{"user_id":547,"name":"c00kie","steam_id":76561198418178297,"connected_time":512000000000,"state":"active","ping":45}]},{"server_id":106,"name":"Uncletopia | Chicago | 2 | All Maps","name_short":"chi-2","host":"chi-1.us.uncletopia.com","port":27025,"enabled":true,"region":"us-central","cc":"us","latitude":41.881832,"longitude":-87.62318,"reserved":0,"last_update":"0001-01-01T00:00:00Z","name_a2s":"Uncletopia | Chicago | 2 | All Maps","protocol":17,"map":"koth_cascade","folder":"tf","game":"Team Fortress","app_id":440,"player_count":23,"max_players":24,"Bots":0,"server_type":"Dedicated","server_os":"Linux","password":true,"vac":true,"version":"7708610","steam_id":85568392924469985,"keywords":["cp","nocrits","nodmgspread","uncletopia"],"game_id":440,"stv_port":27026,"stv_name":"Uncletopia | Chicago | 2 | All Maps | STV","players":[{"user_id":269,"name":"frid","steam_id":76561198005806915,"connected_time":1378000000000,"state":"active","ping":67},{"user_id":300,"name":"SeaBean","steam_id":76561198091944642,"connected_time":0,"state":"spawning","ping":0},{"user_id":276,"name":"get real","steam_id":76561199215821942,"connected_time":682000000000,"state":"active","ping":75},{"user_id":296,"name":"Cheer!","steam_id":76561199031085479,"connected_time":227000000000,"state":"active","ping":76},{"user_id":241,"name":"Architect","steam_id":76561198015242016,"connected_time":2909000000000,"state":"active","ping":40},{"user_id":278,"name":"thepokeyen","steam_id":76561198236847572,"connected_time":662000000000,"state":"active","ping":47},{"user_id":297,"name":"eryn üó∫","steam_id":76561198004433070,"connected_time":180000000000,"state":"active","ping":80},{"user_id":220,"name":"Merchants of Misery","steam_id":76561199188142396,"connected_time":4022000000000,"state":"active","ping":107},{"user_id":293,"name":"Chucklin","steam_id":76561198010823579,"connected_time":319000000000,"state":"active","ping":94},{"user_id":224,"name":"Dr. Game and Watch","steam_id":76561197999615565,"connected_time":3628000000000,"state":"active","ping":73},{"user_id":292,"name":"toastman","steam_id":76561198207073088,"connected_time":331000000000,"state":"active","ping":68},{"user_id":282,"name":"whatever","steam_id":76561197994759007,"connected_time":615000000000,"state":"active","ping":77},{"user_id":283,"name":"Brendan","steam_id":76561198041079914,"connected_time":609000000000,"state":"active","ping":65},{"user_id":285,"name":"Le","steam_id":76561198817754233,"connected_time":579000000000,"state":"active","ping":59},{"user_id":299,"name":"fence (the goat)","steam_id":76561198280331687,"connected_time":137000000000,"state":"active","ping":74},{"user_id":286,"name":"J O S H¬≥¬≤","steam_id":76561198122603779,"connected_time":551000000000,"state":"active","ping":94},{"user_id":262,"name":"JJc","steam_id":76561198021164742,"connected_time":1727000000000,"state":"active","ping":53},{"user_id":288,"name":"BeerPowder","steam_id":76561198058129400,"connected_time":484000000000,"state":"active","ping":65},{"user_id":268,"name":"spherewithahat","steam_id":76561199122192660,"connected_time":1475000000000,"state":"active","ping":71},{"user_id":289,"name":"randomperson88","steam_id":76561199228822173,"connected_time":484000000000,"state":"active","ping":66},{"user_id":291,"name":"Gary Budussy","steam_id":76561197969793969,"connected_time":417000000000,"state":"active","ping":55},{"user_id":266,"name":"SPEAKERS","steam_id":76561198138221795,"connected_time":1646000000000,"state":"active","ping":103},{"user_id":48,"name":"Clean Lines","steam_id":76561197960691518,"connected_time":14906000000000,"state":"active","ping":50}]},{"server_id":402,"name":"Uncletopia | Chicago | 3 | All Maps","name_short":"chi-3","host":"chi-1.us.uncletopia.com","port":27035,"enabled":true,"region":"us-central","cc":"us","latitude":41.881832,"longitude":-87.62318,"reserved":0,"last_update":"0001-01-01T00:00:00Z","name_a2s":"Uncletopia | Chicago | 3 | All Maps","protocol":17,"map":"pl_pier","folder":"tf","game":"Team Fortress","app_id":440,"player_count":24,"max_players":24,"Bots":0,"server_type":"Dedicated","server_os":"Linux","password":true,"vac":true,"version":"7708610","steam_id":85568392924515191,"keywords":["nocrits","nodmgspread","payload","uncletopia"],"game_id":440,"stv_port":27036,"stv_name":"Uncletopia | Chicago | 3 | All Maps | STV","players":[{"user_id":54,"name":"fan271","steam_id":76561198351919562,"connected_time":3635000000000,"state":"active","ping":68},{"user_id":72,"name":"Kira","steam_id":76561198021582061,"connected_time":2695000000000,"state":"active","ping":99},{"user_id":105,"name":"Soggy Zogg","steam_id":76561198836316052,"connected_time":317000000000,"state":"active","ping":96},{"user_id":96,"name":"Cam","steam_id":76561198139174433,"connected_time":1891000000000,"state":"active","ping":90},{"user_id":98,"name":"ZekeThePlumber","steam_id":76561197995016724,"connected_time":1677000000000,"state":"active","ping":70},{"user_id":59,"name":"lazymadlad","steam_id":76561199379651901,"connected_time":3010000000000,"state":"active","ping":110},{"user_id":60,"name":"Johnny Lawrence #JohnnyMaxxing","steam_id":76561199367141671,"connected_time":2991000000000,"state":"active","ping":61},{"user_id":107,"name":"(0_0) oops","steam_id":76561199212017700,"connected_time":237000000000,"state":"active","ping":60},{"user_id":61,"name":"Rugbmilk","steam_id":76561199389283507,"connected_time":2979000000000,"state":"active","ping":63},{"user_id":94,"name":"MR.Badatgames","steam_id":76561198820423721,"connected_time":2015000000000,"state":"active","ping":58},{"user_id":70,"name":"vinny6","steam_id":76561198386735728,"connected_time":2719000000000,"state":"active","ping":61},{"user_id":95,"name":"Daz","steam_id":76561198041431938,"connected_time":2013000000000,"state":"active","ping":75},{"user_id":97,"name":"GREG","steam_id":76561198073021168,"connected_time":1849000000000,"state":"active","ping":67},{"user_id":81,"name":"Roland Martin","steam_id":76561198271945534,"connected_time":2502000000000,"state":"active","ping":74},{"user_id":100,"name":"i \u003c3 poptarts #saveTF2","steam_id":76561199057354397,"connected_time":1231000000000,"state":"active","ping":72},{"user_id":106,"name":"muffinm565","steam_id":76561199135226250,"connected_time":312000000000,"state":"active","ping":96},{"user_id":71,"name":"paypur -rng","steam_id":76561198214370515,"connected_time":2714000000000,"state":"active","ping":54},{"user_id":99,"name":"Bread Baker","steam_id":76561198185335103,"connected_time":1359000000000,"state":"active","ping":48},{"user_id":108,"name":"ShitpostShaman","steam_id":76561198063533972,"connected_time":226000000000,"state":"active","ping":77},{"user_id":112,"name":"Polygunner","steam_id":76561199165741650,"connected_time":55000000000,"state":"active","ping":69},{"user_id":76,"name":"FoxySnxp","steam_id":76561199189748718,"connected_time":2623000000000,"state":"active","ping":64},{"user_id":101,"name":"dunnydunjo","steam_id":76561198069605283,"connected_time":717000000000,"state":"active","ping":105},{"user_id":110,"name":"medic enthusiast","steam_id":76561198323031964,"connected_time":215000000000,"state":"active","ping":81},{"user_id":111,"name":"hierodule","steam_id":76561198023229665,"connected_time":213000000000,"state":"active","ping":75}]},{"server_id":403,"name":"Uncletopia | Chicago | 4 | All Maps","name_short":"chi-4","host":"chi-1.us.uncletopia.com","port":27045,"enabled":true,"region":"us-central","cc":"us","latitude":41.881832,"longitude":-87.62318,"reserved":0,"last_update":"0001-01-01T00:00:00Z","name_a2s":"Uncletopia | Chicago | 4 | All Maps","protocol":17,"map":"pl_pier","folder":"tf","game":"Team Fortress","app_id":440,"player_count":24,"max_players":24,"Bots":0,"server_type":"Dedicated","server_os":"Linux","password":true,"vac":true,"version":"7708610","steam_id":85568392924515193,"keywords":["nocrits","nodmgspread","payload","uncletopia"],"game_id":440,"stv_port":27046,"stv_name":"Uncletopia | Chicago | 4 | All Maps | STV","players":[{"user_id":6,"name":"theduckgoesmoo","steam_id":76561198232695752,"connected_time":5730000000000,"state":"active","ping":66},{"user_id":7,"name":"Orange Juice","steam_id":76561198287860804,"connected_time":5726000000000,"state":"active","ping":72},{"user_id":8,"name":"Crimmas","steam_id":76561198129326627,"connected_time":5725000000000,"state":"active","ping":71},{"user_id":75,"name":"Dark Lord","steam_id":76561198044199150,"connected_time":821000000000,"state":"active","ping":87},{"user_id":34,"name":"Fill Up","steam_id":76561198113687330,"connected_time":5331000000000,"state":"active","ping":80},{"user_id":11,"name":"bat's melee team","steam_id":76561198846009923,"connected_time":5707000000000,"state":"active","ping":81},{"user_id":12,"name":"Cherry Juice","steam_id":76561198366570108,"connected_time":5707000000000,"state":"active","ping":57},{"user_id":13,"name":"Spy TF2","steam_id":76561198824209727,"connected_time":5698000000000,"state":"active","ping":178},{"user_id":36,"name":"SilverHairedFreak25","steam_id":76561198091941280,"connected_time":5020000000000,"state":"active","ping":79},{"user_id":73,"name":"Golddick Lewisson","steam_id":76561198054719949,"connected_time":955000000000,"state":"active","ping":132},{"user_id":76,"name":"demo main mocker","steam_id":76561199091084794,"connected_time":466000000000,"state":"active","ping":74},{"user_id":68,"name":"dodecadron","steam_id":76561198027397222,"connected_time":1943000000000,"state":"active","ping":119},{"user_id":55,"name":"PizzaGal","steam_id":76561199087942922,"connected_time":2901000000000,"state":"active","ping":82},{"user_id":59,"name":"hemispherectomy","steam_id":76561198119178364,"connected_time":2751000000000,"state":"active","ping":74},{"user_id":45,"name":"El Doktor","steam_id":76561198413013439,"connected_time":4254000000000,"state":"active","ping":84},{"user_id":50,"name":"Rad Tick","steam_id":76561198263873491,"connected_time":3803000000000,"state":"active","ping":42},{"user_id":48,"name":"Anya Forger's Peanuts","steam_id":76561198008577961,"connected_time":3841000000000,"state":"active","ping":73},{"user_id":74,"name":"Beanboi","steam_id":76561198977881677,"connected_time":894000000000,"state":"active","ping":69},{"user_id":32,"name":"let me cook (with rizz)","steam_id":76561198038901145,"connected_time":5365000000000,"state":"active","ping":68},{"user_id":29,"name":"Pugz","steam_id":76561198149362234,"connected_time":5460000000000,"state":"active","ping":51},{"user_id":70,"name":"Underachiever Mako","steam_id":76561198207943169,"connected_time":1552000000000,"state":"active","ping":61},{"user_id":64,"name":"ChaosBlast","steam_id":76561198071557391,"connected_time":2382000000000,"state":"active","ping":96},{"user_id":41,"name":"Korporal K. Reep","steam_id":76561199098222561,"connected_time":4609000000000,"state":"active","ping":128},{"user_id":69,"name":"EmeraldCola","steam_id":76561198066663687,"connected_time":1683000000000,"state":"active","ping":72}]},{"server_id":36,"name":"Uncletopia | Chicago | 5 | All Maps","name_short":"chi-5","host":"chi-2.us.uncletopia.com","port":27015,"enabled":true,"region":"us-central","cc":"us","latitude":41.881832,"longitude":-87.62318,"reserved":0,"last_update":"0001-01-01T00:00:00Z","name_a2s":"Uncletopia | Chicago | 5 | All Maps","protocol":17,"map":"cp_process_final","folder":"tf","game":"Team Fortress","app_id":440,"player_count":0,"max_players":24,"Bots":0,"server_type":"Dedicated","server_os":"Linux","password":true,"vac":true,"version":"7708610","steam_id":85568392924866362,"keywords":["cp","nocrits","nodmgspread","uncletopia"],"game_id":440,"stv_port":27016,"stv_name":"Uncletopia | Chicago | 5 | All Maps | STV","players":null},{"server_id":37,"name":"Uncletopia | Chicago | 6 | All Maps","name_short":"chi-6","host":"chi-2.us.uncletopia.com","port":27025,"enabled":true,"region":"us-central","cc":"us","latitude":41.881832,"longitude":-87.62318,"reserved":0,"last_update":"0001-01-01T00:00:00Z","name_a2s":"Uncletopia | Chicago | 6 | All Maps","protocol":17,"map":"koth_cascade","folder":"tf","game":"Team Fortress","app_id":440,"player_count":0,"max_players":24,"Bots":0,"server_type":"Dedicated","server_os":"Linux","password":true,"vac":true,"version":"7708610","steam_id":85568392924866363,"keywords":["cp","nocrits","nodmgspread","uncletopia"],"game_id":440,"stv_port":0,"stv_name":"","players":null},{"server_id":38,"name":"Uncletopia | Chicago | 7 | No Payload","name_short":"chi-7","host":"chi-2.us.uncletopia.com","port":27035,"enabled":true,"region":"us-central","cc":"us","latitude":41.881832,"longitude":-87.62318,"reserved":0,"last_update":"0001-01-01T00:00:00Z","name_a2s":"Uncletopia | Chicago | 7 | No Payload","protocol":17,"map":"koth_viaduct","folder":"tf","game":"Team Fortress","app_id":440,"player_count":0,"max_players":24,"Bots":0,"server_type":"Dedicated","server_os":"Linux","password":true,"vac":true,"version":"7708610","steam_id":85568392924866364,"keywords":["cp","nocrits","nodmgspread","uncletopia"],"game_id":440,"stv_port":0,"stv_name":"","players":null},{"server_id":39,"name":"Uncletopia | Chicago | 8 | Community","name_short":"chi-8","host":"chi-2.us.uncletopia.com","port":27045,"enabled":true,"region":"us-central","cc":"us","latitude":41.881832,"longitude":-87.62318,"reserved":0,"last_update":"0001-01-01T00:00:00Z","name_a2s":"Uncletopia | Chicago | 8 | Community","protocol":17,"map":"pl_pier","folder":"tf","game":"Team Fortress","app_id":440,"player_count":0,"max_players":24,"Bots":0,"server_type":"Dedicated","server_os":"Linux","password":true,"vac":true,"version":"7708610","steam_id":85568392924866365,"keywords":["nocrits","nodmgspread","payload","uncletopia"],"game_id":440,"stv_port":0,"stv_name":"","players":null},{"server_id":8,"name":"Uncletopia | Dallas | 1 | All Maps","name_short":"dal-1","host":"dal-1.us.uncletopia.com","port":27015,"enabled":true,"region":"us-central","cc":"us","latitude":32.779167,"longitude":-96.80889,"reserved":0,"last_update":"0001-01-01T00:00:00Z","name_a2s":"Uncletopia | Dallas | 1 | All Maps","protocol":17,"map":"pl_frontier_final","folder":"tf","game":"Team Fortress","app_id":440,"player_count":24,"max_players":24,"Bots":0,"server_type":"Dedicated","server_os":"Linux","password":true,"vac":true,"version":"7708610","steam_id":85568392924469986,"keywords":["nocrits","nodmgspread","payload","uncletopia"],"game_id":440,"stv_port":27016,"stv_name":"Uncletopia | Dallas | 1 | All Maps | STV","players":[{"user_id":412,"name":"An00bissmas","steam_id":76561198044084508,"connected_time":471000000000,"state":"active","ping":61},{"user_id":392,"name":"Zelumie","steam_id":76561198147335801,"connected_time":1935000000000,"state":"active","ping":74},{"user_id":386,"name":"Trollamoo","steam_id":76561198865767224,"connected_time":2259000000000,"state":"active","ping":69},{"user_id":408,"name":"dakota__","steam_id":76561198076596506,"connected_time":801000000000,"state":"active","ping":90},{"user_id":403,"name":"clumpofblankets","steam_id":76561199223085255,"connected_time":1476000000000,"state":"active","ping":117},{"user_id":411,"name":"Owl Pacino","steam_id":76561197979970666,"connected_time":643000000000,"state":"active","ping":74},{"user_id":344,"name":"Mr.Pan","steam_id":76561198069030613,"connected_time":5660000000000,"state":"active","ping":66},{"user_id":406,"name":"local","steam_id":76561198069537437,"connected_time":1023000000000,"state":"active","ping":84},{"user_id":350,"name":"cup","steam_id":76561198121245586,"connected_time":4473000000000,"state":"active","ping":82},{"user_id":415,"name":"gnome","steam_id":76561198262275475,"connected_time":116000000000,"state":"active","ping":103},{"user_id":394,"name":"SaucyMcFrosty","steam_id":76561198036218608,"connected_time":1913000000000,"state":"active","ping":72},{"user_id":390,"name":"pt","steam_id":76561198143023330,"connected_time":1949000000000,"state":"active","ping":73},{"user_id":397,"name":"General Scout","steam_id":76561198072395300,"connected_time":1883000000000,"state":"active","ping":74},{"user_id":407,"name":"Drakon","steam_id":76561198078210822,"connected_time":887000000000,"state":"active","ping":81},{"user_id":310,"name":"Nodspine","steam_id":76561198253579994,"connected_time":7637000000000,"state":"active","ping":131},{"user_id":398,"name":"Birdbern","steam_id":76561198122383177,"connected_time":1879000000000,"state":"active","ping":86},{"user_id":365,"name":"Eightyy  Fourr","steam_id":76561197960374225,"connected_time":3560000000000,"state":"active","ping":54},{"user_id":402,"name":"Tommy Provolone","steam_id":76561198170062377,"connected_time":1671000000000,"state":"active","ping":66},{"user_id":409,"name":"All 24 Pok√©mon movies at once","steam_id":76561198164738311,"connected_time":795000000000,"state":"active","ping":72},{"user_id":345,"name":"user","steam_id":76561198077272494,"connected_time":5567000000000,"state":"active","ping":71},{"user_id":416,"name":"MR HANKY","steam_id":76561198938434440,"connected_time":48000000000,"state":"active","ping":70},{"user_id":413,"name":"Laa-Laa","steam_id":76561198104943072,"connected_time":464000000000,"state":"active","ping":86},{"user_id":400,"name":"Bee_Pirate","steam_id":76561199000599111,"connected_time":1869000000000,"state":"active","ping":92},{"user_id":414,"name":"arma 3 mortar gunners","steam_id":76561199088864128,"connected_time":437000000000,"state":"active","ping":90}]},{"server_id":108,"name":"Uncletopia | Dallas | 2 | All Maps","name_short":"dal-2","host":"dal-1.us.uncletopia.com","port":27025,"enabled":true,"region":"us-central","cc":"us","latitude":32.779167,"longitude":-96.80889,"reserved":0,"last_update":"0001-01-01T00:00:00Z","name_a2s":"Uncletopia | Dallas | 2 | All Maps","protocol":17,"map":"koth_viaduct","folder":"tf","game":"Team Fortress","app_id":440,"player_count":0,"max_players":24,"Bots":0,"server_type":"Dedicated","server_os":"Linux","password":true,"vac":true,"version":"7708610","steam_id":85568392924469988,"keywords":["cp","nocrits","nodmgspread","uncletopia"],"game_id":440,"stv_port":27026,"stv_name":"Uncletopia | Dallas | 2 | All Maps | STV","players":null},{"server_id":5,"name":"Uncletopia | Frankfurt | 1 | All Maps","name_short":"frk-1","host":"frk-1.de.uncletopia.com","port":27015,"enabled":true,"region":"eu","cc":"de","latitude":50.110924,"longitude":8.682127,"reserved":0,"last_update":"0001-01-01T00:00:00Z","name_a2s":"Uncletopia | Frankfurt | 1 | All Maps","protocol":17,"map":"cp_mountainlab","folder":"tf","game":"Team Fortress","app_id":440,"player_count":0,"max_players":24,"Bots":0,"server_type":"Dedicated","server_os":"Linux","password":true,"vac":true,"version":"7708610","steam_id":85568392924469989,"keywords":["cp","nocrits","nodmgspread","uncletopia"],"game_id":440,"stv_port":27016,"stv_name":"Uncletopia | Frankfurt | 1 | All Maps | STV","players":null},{"server_id":110,"name":"Uncletopia | Frankfurt | 2 | All Maps","name_short":"frk-2","host":"frk-1.de.uncletopia.com","port":27025,"enabled":true,"region":"eu","cc":"de","latitude":50.110924,"longitude":8.682127,"reserved":0,"last_update":"0001-01-01T00:00:00Z","name_a2s":"Uncletopia | Frankfurt | 2 | All Maps","protocol":17,"map":"pl_frontier_final","folder":"tf","game":"Team Fortress","app_id":440,"player_count":24,"max_players":24,"Bots":0,"server_type":"Dedicated","server_os":"Linux","password":true,"vac":true,"version":"7708610","steam_id":85568392924469990,"keywords":["nocrits","nodmgspread","payload","uncletopia"],"game_id":440,"stv_port":27026,"stv_name":"Uncletopia | Frankfurt | 2 | All Maps | STV","players":[{"user_id":588,"name":"s0ki","steam_id":76561198295739091,"connected_time":2347000000000,"state":"active","ping":74},{"user_id":527,"name":"Volterion #SaveTf2","steam_id":76561198293088484,"connected_time":6334000000000,"state":"active","ping":68},{"user_id":564,"name":"feadras","steam_id":76561199098499873,"connected_time":3804000000000,"state":"active","ping":54},{"user_id":616,"name":"roughly 5-10 hours of","steam_id":76561198072892783,"connected_time":304000000000,"state":"active","ping":49},{"user_id":597,"name":"LuCroGi","steam_id":76561198057283891,"connected_time":1605000000000,"state":"active","ping":57},{"user_id":565,"name":"sleep","steam_id":76561198049652518,"connected_time":3773000000000,"state":"active","ping":68},{"user_id":582,"name":"Fresh","steam_id":76561198133796254,"connected_time":3102000000000,"state":"active","ping":60},{"user_id":566,"name":"badlander","steam_id":76561198010815737,"connected_time":3769000000000,"state":"active","ping":85},{"user_id":598,"name":"Mati [EST]","steam_id":76561197994743813,"connected_time":1336000000000,"state":"active","ping":91},{"user_id":570,"name":"MooNiaa","steam_id":76561198305535083,"connected_time":3598000000000,"state":"active","ping":73},{"user_id":587,"name":"krypton","steam_id":76561198066723324,"connected_time":2434000000000,"state":"active","ping":72},{"user_id":600,"name":"frosty","steam_id":76561198094560834,"connected_time":1252000000000,"state":"active","ping":75},{"user_id":611,"name":"antondi","steam_id":76561198123140065,"connected_time":894000000000,"state":"active","ping":57},{"user_id":617,"name":"Rad But Sad","steam_id":76561198066409088,"connected_time":281000000000,"state":"active","ping":66},{"user_id":603,"name":"Anti-Skat | MrLiland","steam_id":76561198121670002,"connected_time":1199000000000,"state":"active","ping":58},{"user_id":575,"name":"art","steam_id":76561198282458550,"connected_time":3474000000000,"state":"active","ping":69},{"user_id":613,"name":"–†–°–ó–û \"–ì—Ä–∞–¥\"","steam_id":76561198925647075,"connected_time":676000000000,"state":"active","ping":115},{"user_id":604,"name":"Sneaky boi","steam_id":76561199195985387,"connected_time":1181000000000,"state":"active","ping":82},{"user_id":618,"name":"smell_my_cheese","steam_id":76561198008517427,"connected_time":136000000000,"state":"active","ping":56},{"user_id":583,"name":"Chicanery","steam_id":76561198068213670,"connected_time":3068000000000,"state":"active","ping":48},{"user_id":528,"name":"Spoody #JustPassing","steam_id":76561198031523769,"connected_time":6074000000000,"state":"active","ping":45},{"user_id":612,"name":"tm`","steam_id":76561197993580412,"connected_time":869000000000,"state":"active","ping":59},{"user_id":606,"name":"Ansu Fati","steam_id":76561199093399286,"connected_time":1136000000000,"state":"active","ping":98},{"user_id":609,"name":"ambatukam!!!","steam_id":76561198197304886,"connected_time":976000000000,"state":"active","ping":149}]},{"server_id":308,"name":"Uncletopia | Frankfurt | 3 | All Maps","name_short":"frk-3","host":"frk-1.de.uncletopia.com","port":27035,"enabled":true,"region":"eu","cc":"de","latitude":50.110924,"longitude":8.682127,"reserved":0,"last_update":"0001-01-01T00:00:00Z","name_a2s":"Uncletopia | Frankfurt | 3 | All Maps","protocol":17,"map":"pl_thundermountain","folder":"tf","game":"Team Fortress","app_id":440,"player_count":24,"max_players":24,"Bots":0,"server_type":"Dedicated","server_os":"Linux","password":true,"vac":true,"version":"7708610","steam_id":85568392924504274,"keywords":["nocrits","nodmgspread","payload","uncletopia"],"game_id":440,"stv_port":27036,"stv_name":"Uncletopia | Frankfurt | 3 | All Maps | STV","players":[{"user_id":169,"name":"i eat sex","steam_id":76561198369335263,"connected_time":9135000000000,"state":"active","ping":49},{"user_id":270,"name":"the cockest cocktober cockinato","steam_id":76561198364309719,"connected_time":830000000000,"state":"active","ping":60},{"user_id":268,"name":"HERISSON","steam_id":76561199062194778,"connected_time":864000000000,"state":"active","ping":62},{"user_id":269,"name":"·¥Ñ Ä·¥èÍú±Íú±","steam_id":76561197993508562,"connected_time":838000000000,"state":"active","ping":58},{"user_id":261,"name":"|20BB)\u003eMach","steam_id":76561198952487564,"connected_time":2008000000000,"state":"active","ping":75},{"user_id":251,"name":"SVIFT Warped","steam_id":76561197989916494,"connected_time":2286000000000,"state":"active","ping":63},{"user_id":279,"name":"Vince","steam_id":76561199103000131,"connected_time":458000000000,"state":"active","ping":60},{"user_id":235,"name":"Kio-","steam_id":76561197988649366,"connected_time":3937000000000,"state":"active","ping":75},{"user_id":253,"name":"Charly","steam_id":76561197961895147,"connected_time":2278000000000,"state":"active","ping":49},{"user_id":245,"name":"Raeews","steam_id":76561198254646517,"connected_time":2707000000000,"state":"active","ping":45},{"user_id":262,"name":"Thylacine","steam_id":76561198158608309,"connected_time":1754000000000,"state":"active","ping":73},{"user_id":282,"name":"Azraath","steam_id":76561198250898812,"connected_time":274000000000,"state":"active","ping":76},{"user_id":252,"name":"dolo","steam_id":76561198206672297,"connected_time":2283000000000,"state":"active","ping":50},{"user_id":272,"name":"SmallPrice","steam_id":76561198293302332,"connected_time":752000000000,"state":"active","ping":75},{"user_id":255,"name":"bunny.","steam_id":76561198201985399,"connected_time":2255000000000,"state":"active","ping":82},{"user_id":221,"name":"freemantel30","steam_id":76561198065669800,"connected_time":4377000000000,"state":"active","ping":51},{"user_id":273,"name":"tone","steam_id":76561197975301462,"connected_time":745000000000,"state":"active","ping":89},{"user_id":281,"name":"Mar","steam_id":76561198127633424,"connected_time":336000000000,"state":"active","ping":79},{"user_id":257,"name":"wrath","steam_id":76561198102462417,"connected_time":2222000000000,"state":"active","ping":104},{"user_id":277,"name":"Zerfesh","steam_id":76561198117534358,"connected_time":516000000000,"state":"active","ping":98},{"user_id":171,"name":"Prine4","steam_id":76561198108906439,"connected_time":8610000000000,"state":"active","ping":63},{"user_id":280,"name":"BD[PL]","steam_id":76561198115995871,"connected_time":434000000000,"state":"active","ping":75},{"user_id":278,"name":"gsr blw.tf","steam_id":76561198441974031,"connected_time":513000000000,"state":"active","ping":70},{"user_id":263,"name":"jacob","steam_id":76561198070952593,"connected_time":1699000000000,"state":"active","ping":59}]},{"server_id":309,"name":"Uncletopia | Frankfurt | 4 | All Maps","name_short":"frk-4","host":"frk-1.de.uncletopia.com","port":27045,"enabled":true,"region":"eu","cc":"de","latitude":50.110924,"longitude":8.682127,"reserved":0,"last_update":"0001-01-01T00:00:00Z","name_a2s":"Uncletopia | Frankfurt | 4 | All Maps","protocol":17,"map":"koth_cascade","folder":"tf","game":"Team Fortress","app_id":440,"player_count":0,"max_players":24,"Bots":0,"server_type":"Dedicated","server_os":"Linux","password":true,"vac":true,"version":"7708610","steam_id":85568392924504275,"keywords":["cp","nocrits","nodmgspread","uncletopia"],"game_id":440,"stv_port":27046,"stv_name":"Uncletopia | Frankfurt | 4 | All Maps | STV","players":null},{"server_id":310,"name":"Uncletopia | Frankfurt | 5 | All Maps","name_short":"frk-5","host":"frk-1.de.uncletopia.com","port":27055,"enabled":true,"region":"eu","cc":"de","latitude":50.110924,"longitude":8.682127,"reserved":0,"last_update":"0001-01-01T00:00:00Z","name_a2s":"Uncletopia | Frankfurt | 5 | All Maps","protocol":17,"map":"pl_badwater","folder":"tf","game":"Team Fortress","app_id":440,"player_count":24,"max_players":24,"Bots":0,"server_type":"Dedicated","server_os":"Linux","password":true,"vac":true,"version":"7708610","steam_id":85568392924504277,"keywords":["nocrits","nodmgspread","payload","uncletopia"],"game_id":440,"stv_port":27056,"stv_name":"Uncletopia | Frankfurt | 5 | All Maps | STV","players":[{"user_id":140,"name":"Light601","steam_id":76561198134998492,"connected_time":575000000000,"state":"active","ping":87},{"user_id":147,"name":"Vershal Smershal","steam_id":76561198116223995,"connected_time":351000000000,"state":"active","ping":59},{"user_id":117,"name":"Meladoom2","steam_id":76561198086845387,"connected_time":1358000000000,"state":"active","ping":86},{"user_id":118,"name":"TerminalHash","steam_id":76561198215351445,"connected_time":1355000000000,"state":"active","ping":94},{"user_id":119,"name":"Sedoy","steam_id":76561198390666516,"connected_time":1355000000000,"state":"active","ping":91},{"user_id":36,"name":"–ß–µ–ª–æ–≤–µ–∫ —è–π—Ü–∞","steam_id":76561198277599844,"connected_time":5936000000000,"state":"active","ping":92},{"user_id":92,"name":"team fortress 2","steam_id":76561198029771708,"connected_time":3665000000000,"state":"active","ping":65},{"user_id":130,"name":"jingleboob","steam_id":76561198097507847,"connected_time":738000000000,"state":"active","ping":75},{"user_id":80,"name":"Mklavzovc","steam_id":76561198305794970,"connected_time":4433000000000,"state":"active","ping":72},{"user_id":131,"name":"Jingleboob's Elf","steam_id":76561198067204908,"connected_time":731000000000,"state":"active","ping":62},{"user_id":84,"name":"Cuthbert","steam_id":76561198204649481,"connected_time":4112000000000,"state":"active","ping":96},{"user_id":107,"name":"Pahlberg","steam_id":76561198208547929,"connected_time":2587000000000,"state":"active","ping":82},{"user_id":132,"name":"chrissymas","steam_id":76561198096547662,"connected_time":730000000000,"state":"active","ping":68},{"user_id":146,"name":"Splarvis","steam_id":76561198007792525,"connected_time":396000000000,"state":"active","ping":59},{"user_id":105,"name":"Milosz52","steam_id":76561199060940204,"connected_time":2661000000000,"state":"active","ping":80},{"user_id":89,"name":"‚ò≠Mr.Potato‚ò≠ #SaveTF2","steam_id":76561198186741717,"connected_time":4050000000000,"state":"active","ping":76},{"user_id":133,"name":"Benzo Fury","steam_id":76561198025259336,"connected_time":729000000000,"state":"active","ping":60},{"user_id":143,"name":"TidB","steam_id":76561198055342304,"connected_time":474000000000,"state":"active","ping":55},{"user_id":142,"name":"Greed","steam_id":76561198034264020,"connected_time":511000000000,"state":"active","ping":119},{"user_id":95,"name":"Bancsli (Help me pls)","steam_id":76561198144783422,"connected_time":3570000000000,"state":"active","ping":65},{"user_id":138,"name":"wickEd_","steam_id":76561198048068999,"connected_time":586000000000,"state":"active","ping":143},{"user_id":137,"name":"–ö–æ—Ç–ª–µ—Ç–∞ –ë–æ–≥–∞","steam_id":76561198014808352,"connected_time":592000000000,"state":"active","ping":79},{"user_id":114,"name":"Efmixos","steam_id":76561198393929835,"connected_time":2124000000000,"state":"active","ping":110},{"user_id":115,"name":"aph","steam_id":76561198057722639,"connected_time":2120000000000,"state":"active","ping":74}]},{"server_id":311,"name":"Uncletopia | Frankfurt | 6 | All Maps","name_short":"frk-6","host":"frk-1.de.uncletopia.com","port":27065,"enabled":true,"region":"eu","cc":"de","latitude":50.110924,"longitude":8.682127,"reserved":0,"last_update":"0001-01-01T00:00:00Z","name_a2s":"Uncletopia | Frankfurt | 6 | All Maps","protocol":17,"map":"pl_frontier_final","folder":"tf","game":"Team Fortress","app_id":440,"player_count":0,"max_players":24,"Bots":0,"server_type":"Dedicated","server_os":"Linux","password":true,"vac":true,"version":"7708610","steam_id":85568392924504278,"keywords":["nocrits","nodmgspread","payload","uncletopia"],"game_id":440,"stv_port":27066,"stv_name":"Uncletopia | Frankfurt | 6 | All Maps | STV","players":null},{"server_id":23,"name":"Uncletopia | Frankfurt | 7 | No Payload","name_short":"frk-7","host":"frk-1.de.uncletopia.com","port":27075,"enabled":true,"region":"eu","cc":"de","latitude":50.110924,"longitude":8.682127,"reserved":0,"last_update":"0001-01-01T00:00:00Z","name_a2s":"Uncletopia | Frankfurt | 7 | No Payload","protocol":17,"map":"koth_cascade","folder":"tf","game":"Team Fortress","app_id":440,"player_count":2,"max_players":24,"Bots":0,"server_type":"Dedicated","server_os":"Linux","password":true,"vac":true,"version":"7708610","steam_id":85568392924742827,"keywords":["cp","nocrits","nodmgspread","uncletopia"],"game_id":440,"stv_port":27076,"stv_name":"Uncletopia | Frankfurt | 7 | No Payload | STV","players":[{"user_id":492,"name":"titicost2200","steam_id":76561198826858059,"connected_time":236000000000,"state":"active","ping":92},{"user_id":490,"name":"Jotap√™","steam_id":76561198325543532,"connected_time":2597000000000,"state":"active","ping":85}]},{"server_id":24,"name":"Uncletopia | Frankfurt | 8 | Community","name_short":"frk-8","host":"frk-1.de.uncletopia.com","port":27085,"enabled":true,"region":"eu","cc":"de","latitude":50.110924,"longitude":8.682127,"reserved":0,"last_update":"0001-01-01T00:00:00Z","name_a2s":"Uncletopia | Frankfurt | 8 | Community","protocol":17,"map":"workshop/koth_ramjam_v2_b2.ugc2865676487","folder":"tf","game":"Team Fortress","app_id":440,"player_count":0,"max_players":24,"Bots":0,"server_type":"Dedicated","server_os":"Linux","password":true,"vac":true,"version":"7708610","steam_id":85568392924742828,"keywords":["cp","nocrits","nodmgspread","uncletopia"],"game_id":440,"stv_port":27086,"stv_name":"Uncletopia | Frankfurt | 8 | Community | STV","players":null},{"server_id":202,"name":"Uncletopia | Hong Kong | 1 | All Maps","name_short":"hgk-1","host":"hgk-1.hk.uncletopia.com","port":27015,"enabled":true,"region":"asia","cc":"hk","latitude":22.302711,"longitude":114.177216,"reserved":0,"last_update":"0001-01-01T00:00:00Z","name_a2s":"Uncletopia | Hong Kong | 1 | All Maps","protocol":17,"map":"pl_upward","folder":"tf","game":"Team Fortress","app_id":440,"player_count":0,"max_players":24,"Bots":0,"server_type":"Dedicated","server_os":"Linux","password":true,"vac":true,"version":"7708610","steam_id":85568392924494504,"keywords":["nocrits","nodmgspread","payload","uncletopia"],"game_id":440,"stv_port":0,"stv_name":"","players":null},{"server_id":1,"name":"Uncletopia | Los Angeles | 1 | All Maps","name_short":"lax-1","host":"lax-1.us.uncletopia.com","port":27015,"enabled":true,"region":"us-west","cc":"us","latitude":33.94279,"longitude":-118.41004,"reserved":0,"last_update":"0001-01-01T00:00:00Z","name_a2s":"Uncletopia | Los Angeles | 1 | All Maps","protocol":17,"map":"pl_snowycoast","folder":"tf","game":"Team Fortress","app_id":440,"player_count":0,"max_players":24,"Bots":0,"server_type":"Dedicated","server_os":"Linux","password":true,"vac":true,"version":"7708610","steam_id":85568392924469991,"keywords":["nocrits","nodmgspread","payload","uncletopia"],"game_id":440,"stv_port":27016,"stv_name":"Uncletopia | Los Angeles | 1 | All Maps | STV","players":null},{"server_id":112,"name":"Uncletopia | Los Angeles | 2 | All Maps","name_short":"lax-2","host":"lax-1.us.uncletopia.com","port":27025,"enabled":true,"region":"us-west","cc":"us","latitude":33.94279,"longitude":-118.41004,"reserved":0,"last_update":"0001-01-01T00:00:00Z","name_a2s":"Uncletopia | Los Angeles | 2 | All Maps","protocol":17,"map":"pl_upward","folder":"tf","game":"Team Fortress","app_id":440,"player_count":0,"max_players":24,"Bots":0,"server_type":"Dedicated","server_os":"Linux","password":true,"vac":true,"version":"7708610","steam_id":85568392924469992,"keywords":["nocrits","nodmgspread","payload","uncletopia"],"game_id":440,"stv_port":27026,"stv_name":"Uncletopia | Los Angeles | 2 | All Maps | STV","players":null},{"server_id":324,"name":"Uncletopia | Los Angeles | 3 | All Maps","name_short":"lax-3","host":"lax-1.us.uncletopia.com","port":27035,"enabled":true,"region":"us-west","cc":"us","latitude":33.94279,"longitude":-118.41004,"reserved":0,"last_update":"0001-01-01T00:00:00Z","name_a2s":"Uncletopia | Los Angeles | 3 | All Maps","protocol":17,"map":"koth_highpass","folder":"tf","game":"Team Fortress","app_id":440,"player_count":0,"max_players":24,"Bots":0,"server_type":"Dedicated","server_os":"Linux","password":true,"vac":true,"version":"7708610","steam_id":85568392924510198,"keywords":["cp","nocrits","nodmgspread","uncletopia"],"game_id":440,"stv_port":27036,"stv_name":"Uncletopia | Los Angeles | 3 | All Maps | STV","players":null},{"server_id":25,"name":"Uncletopia | Los Angeles | 4 | No Payload","name_short":"lax-4","host":"lax-1.us.uncletopia.com","port":27045,"enabled":true,"region":"us-west","cc":"us","latitude":33.94279,"longitude":-118.41004,"reserved":0,"last_update":"0001-01-01T00:00:00Z","name_a2s":"Uncletopia | Los Angeles | 4 | No Payload","protocol":17,"map":"cp_process_final","folder":"tf","game":"Team Fortress","app_id":440,"player_count":0,"max_players":24,"Bots":0,"server_type":"Dedicated","server_os":"Linux","password":true,"vac":true,"version":"7708610","steam_id":85568392924510199,"keywords":["cp","nocrits","nodmgspread","uncletopia"],"game_id":440,"stv_port":27046,"stv_name":"Uncletopia | Los Angeles | 4 | No Payload | STV","players":null},{"server_id":11,"name":"Uncletopia | London | 1 | All Maps","name_short":"lon-1","host":"lon-1.uk.uncletopia.com","port":27015,"enabled":true,"region":"eu","cc":"gb","latitude":51.509865,"longitude":-0.118092,"reserved":0,"last_update":"0001-01-01T00:00:00Z","name_a2s":"Uncletopia | London | 1 | All Maps","protocol":17,"map":"pl_barnblitz","folder":"tf","game":"Team Fortress","app_id":440,"player_count":10,"max_players":24,"Bots":0,"server_type":"Dedicated","server_os":"Linux","password":true,"vac":true,"version":"7708610","steam_id":85568392924367362,"keywords":["nocrits","nodmgspread","payload","uncletopia"],"game_id":440,"stv_port":27016,"stv_name":"Uncletopia | London | 1 | All Maps | STV","players":[{"user_id":343,"name":"light brandon","steam_id":76561198272804994,"connected_time":246000000000,"state":"active","ping":72},{"user_id":345,"name":"norespectforthedevil","steam_id":76561197998922218,"connected_time":60000000000,"state":"spawning","ping":163},{"user_id":346,"name":"FliggerFlitt","steam_id":76561198147711035,"connected_time":24000000000,"state":"active","ping":72},{"user_id":323,"name":"Oak","steam_id":76561198412507725,"connected_time":1891000000000,"state":"active","ping":108},{"user_id":344,"name":"nyanezt","steam_id":76561198253734265,"connected_time":204000000000,"state":"active","ping":103},{"user_id":326,"name":"Minth;","steam_id":76561198119036045,"connected_time":1825000000000,"state":"active","ping":57},{"user_id":304,"name":"festive jones","steam_id":76561198073975078,"connected_time":3895000000000,"state":"active","ping":43},{"user_id":332,"name":"ev1lboyo","steam_id":76561199199499453,"connected_time":1566000000000,"state":"active","ping":75},{"user_id":313,"name":"Mango","steam_id":76561198139555709,"connected_time":2551000000000,"state":"active","ping":55},{"user_id":309,"name":"Joseph Stalin LFT","steam_id":76561198033199746,"connected_time":2911000000000,"state":"active","ping":45}]},{"server_id":114,"name":"Uncletopia | London | 2 | All Maps","name_short":"lon-2","host":"lon-1.uk.uncletopia.com","port":27025,"enabled":true,"region":"eu","cc":"gb","latitude":51.509865,"longitude":-0.118092,"reserved":0,"last_update":"0001-01-01T00:00:00Z","name_a2s":"Uncletopia | London | 2 | All Maps","protocol":17,"map":"koth_lakeside_final","folder":"tf","game":"Team Fortress","app_id":440,"player_count":0,"max_players":24,"Bots":0,"server_type":"Dedicated","server_os":"Linux","password":true,"vac":true,"version":"7708610","steam_id":85568392924470941,"keywords":["cp","nocrits","nodmgspread","uncletopia"],"game_id":440,"stv_port":27026,"stv_name":"Uncletopia | London | 2 | All Maps | STV","players":null},{"server_id":320,"name":"Uncletopia | London | 3 | All Maps","name_short":"lon-3","host":"lon-1.uk.uncletopia.com","port":27035,"enabled":true,"region":"eu","cc":"gb","latitude":51.509865,"longitude":-0.118092,"reserved":0,"last_update":"0001-01-01T00:00:00Z","name_a2s":"Uncletopia | London | 3 | All Maps","protocol":17,"map":"pl_chilly","folder":"tf","game":"Team Fortress","app_id":440,"player_count":17,"max_players":24,"Bots":0,"server_type":"Dedicated","server_os":"Linux","password":true,"vac":true,"version":"7708610","steam_id":85568392924510192,"keywords":["nocrits","nodmgspread","payload","uncletopia"],"game_id":440,"stv_port":27036,"stv_name":"Uncletopia | London | 3 | All Maps | STV","players":[{"user_id":504,"name":"Cryo","steam_id":76561198324132940,"connected_time":907000000000,"state":"active","ping":55},{"user_id":513,"name":"Archangel","steam_id":76561197972456666,"connected_time":124000000000,"state":"active","ping":51},{"user_id":510,"name":"3xample","steam_id":76561198805049375,"connected_time":233000000000,"state":"active","ping":56},{"user_id":493,"name":"Darky","steam_id":76561198004733239,"connected_time":2217000000000,"state":"active","ping":45},{"user_id":511,"name":"Zen","steam_id":76561198116088905,"connected_time":163000000000,"state":"active","ping":49},{"user_id":512,"name":"Pan W","steam_id":76561198384111099,"connected_time":146000000000,"state":"active","ping":69},{"user_id":502,"name":"Bromoneto","steam_id":76561198876695014,"connected_time":1316000000000,"state":"active","ping":70},{"user_id":514,"name":"SilverSteel","steam_id":76561198153690579,"connected_time":60000000000,"state":"active","ping":47},{"user_id":477,"name":"Pandamonia","steam_id":76561198237125154,"connected_time":2736000000000,"state":"active","ping":136},{"user_id":495,"name":"dairy","steam_id":76561198117033273,"connected_time":2134000000000,"state":"active","ping":61},{"user_id":448,"name":"gremlin GOD","steam_id":76561198169972571,"connected_time":3952000000000,"state":"active","ping":55},{"user_id":507,"name":"Muppburg","steam_id":76561198031070682,"connected_time":728000000000,"state":"active","ping":62},{"user_id":459,"name":"SynthBox3","steam_id":76561199094075745,"connected_time":3434000000000,"state":"active","ping":91},{"user_id":503,"name":"SnoozyBoop","steam_id":76561198988182299,"connected_time":973000000000,"state":"active","ping":60},{"user_id":498,"name":"fniff1","steam_id":76561198867922801,"connected_time":1518000000000,"state":"active","ping":130},{"user_id":449,"name":"Pipper","steam_id":76561197970326616,"connected_time":3946000000000,"state":"active","ping":47},{"user_id":508,"name":"–¢—Ä—É–ø –í–æ–ª–æ–¥—è","steam_id":76561198035718457,"connected_time":654000000000,"state":"active","ping":90}]},{"server_id":321,"name":"Uncletopia | London | 4 | All Maps","name_short":"lon-4","host":"lon-1.uk.uncletopia.com","port":27045,"enabled":true,"region":"eu","cc":"gb","latitude":51.509865,"longitude":-0.118092,"reserved":0,"last_update":"0001-01-01T00:00:00Z","name_a2s":"Uncletopia | London | 4 | All Maps","protocol":17,"map":"pl_badwater","folder":"tf","game":"Team Fortress","app_id":440,"player_count":23,"max_players":24,"Bots":0,"server_type":"Dedicated","server_os":"Linux","password":true,"vac":true,"version":"7708610","steam_id":85568392924510193,"keywords":["nocrits","nodmgspread","payload","uncletopia"],"game_id":440,"stv_port":27046,"stv_name":"Uncletopia | London | 4 | All Maps | STV","players":[{"user_id":267,"name":"cat (they/them)","steam_id":76561198416657815,"connected_time":959000000000,"state":"active","ping":75},{"user_id":249,"name":"Uncle Lame","steam_id":76561198089003514,"connected_time":2247000000000,"state":"active","ping":54},{"user_id":256,"name":"Snowy 79","steam_id":76561198944639546,"connected_time":1463000000000,"state":"active","ping":134},{"user_id":233,"name":"Dr. Oetker","steam_id":76561198202668788,"connected_time":3358000000000,"state":"active","ping":71},{"user_id":263,"name":"‚Ä°|TheArcher|‚Ä°","steam_id":76561198061758225,"connected_time":1283000000000,"state":"active","ping":73},{"user_id":231,"name":"meriones","steam_id":76561198034234373,"connected_time":3651000000000,"state":"active","ping":44},{"user_id":258,"name":"r0la","steam_id":76561198128315340,"connected_time":1444000000000,"state":"active","ping":76},{"user_id":270,"name":"Mr Melon","steam_id":76561199065554626,"connected_time":47000000000,"state":"spawning","ping":184},{"user_id":196,"name":"Belithe","steam_id":76561198082612324,"connected_time":6489000000000,"state":"active","ping":55},{"user_id":236,"name":"Xariklhs Kolimpithras","steam_id":76561198165584544,"connected_time":3102000000000,"state":"active","ping":104},{"user_id":251,"name":"teddy","steam_id":76561198007436837,"connected_time":2156000000000,"state":"active","ping":33},{"user_id":250,"name":"rmz.ssj","steam_id":76561198329613930,"connected_time":2230000000000,"state":"active","ping":59},{"user_id":218,"name":"Michelin Starred Chilli Pete","steam_id":76561197996149548,"connected_time":4744000000000,"state":"active","ping":50},{"user_id":265,"name":"7ajokkc","steam_id":76561199443329778,"connected_time":1080000000000,"state":"active","ping":56},{"user_id":198,"name":"Midoriaga","steam_id":76561198010699090,"connected_time":6483000000000,"state":"active","ping":48},{"user_id":268,"name":"Ashley?!","steam_id":76561198056152479,"connected_time":951000000000,"state":"active","ping":30},{"user_id":262,"name":"Tayru","steam_id":76561198099575263,"connected_time":1339000000000,"state":"active","ping":88},{"user_id":269,"name":"Z'nacky09","steam_id":76561198041994406,"connected_time":730000000000,"state":"active","ping":52},{"user_id":221,"name":"high on kakao","steam_id":76561198215538312,"connected_time":4630000000000,"state":"active","ping":61},{"user_id":255,"name":"Steen","steam_id":76561198122992510,"connected_time":1965000000000,"state":"active","ping":44},{"user_id":261,"name":"OrangeBanana","steam_id":76561199230233875,"connected_time":1353000000000,"state":"active","ping":45},{"user_id":246,"name":"average ultiduo medic","steam_id":76561198103285012,"connected_time":2528000000000,"state":"active","ping":59},{"user_id":242,"name":"-rikeOo-","steam_id":76561198303995379,"connected_time":2759000000000,"state":"active","ping":73}]},{"server_id":21,"name":"Uncletopia | London | 5 | All Maps","name_short":"lon-5","host":"lon-1.uk.uncletopia.com","port":27055,"enabled":true,"region":"eu","cc":"gb","latitude":51.509865,"longitude":-0.118092,"reserved":0,"last_update":"0001-01-01T00:00:00Z","name_a2s":"Uncletopia | London | 5 | All Maps","protocol":17,"map":"pl_upward","folder":"tf","game":"Team Fortress","app_id":440,"player_count":24,"max_players":24,"Bots":0,"server_type":"Dedicated","server_os":"Linux","password":true,"vac":true,"version":"7708610","steam_id":85568392924742829,"keywords":["nocrits","nodmgspread","payload","uncletopia"],"game_id":440,"stv_port":27056,"stv_name":"Uncletopia | London | 5 | All Maps | STV","players":[{"user_id":513,"name":"BIZARRE","steam_id":76561198103508304,"connected_time":830000000000,"state":"active","ping":67},{"user_id":514,"name":"MJ44iq","steam_id":76561198105889790,"connected_time":794000000000,"state":"active","ping":146},{"user_id":488,"name":"STAY MAD HAHAHAHAHAH","steam_id":76561198802496677,"connected_time":3037000000000,"state":"active","ping":119},{"user_id":508,"name":"Silverowl","steam_id":76561198045773877,"connected_time":1467000000000,"state":"active","ping":55},{"user_id":517,"name":"Charizard Balls","steam_id":76561198315860207,"connected_time":629000000000,"state":"active","ping":167},{"user_id":518,"name":"Xayir","steam_id":76561198079566786,"connected_time":619000000000,"state":"active","ping":70},{"user_id":528,"name":"Transgender E-girl","steam_id":76561198168589809,"connected_time":44000000000,"state":"active","ping":46},{"user_id":418,"name":"player","steam_id":76561198054474684,"connected_time":8330000000000,"state":"active","ping":75},{"user_id":477,"name":"If I TopScoreMyTeamSucks","steam_id":76561198147668373,"connected_time":4032000000000,"state":"active","ping":66},{"user_id":501,"name":"nedilya","steam_id":76561198039692077,"connected_time":2177000000000,"state":"active","ping":60},{"user_id":521,"name":"Bart simpson","steam_id":76561198380666998,"connected_time":380000000000,"state":"active","ping":143},{"user_id":526,"name":"travis","steam_id":76561198138119811,"connected_time":159000000000,"state":"active","ping":43},{"user_id":527,"name":"Thors","steam_id":76561197968739075,"connected_time":140000000000,"state":"active","ping":40},{"user_id":520,"name":"Bob_Tostas","steam_id":76561198249006560,"connected_time":502000000000,"state":"active","ping":82},{"user_id":512,"name":"Silver Badger","steam_id":76561199259076726,"connected_time":968000000000,"state":"active","ping":153},{"user_id":483,"name":"combine","steam_id":76561198007909007,"connected_time":3567000000000,"state":"active","ping":60},{"user_id":522,"name":"Strada Stradoasa","steam_id":76561199113372626,"connected_time":353000000000,"state":"active","ping":103},{"user_id":523,"name":"f√©nix","steam_id":76561198083199151,"connected_time":259000000000,"state":"active","ping":57},{"user_id":478,"name":"TaiDni","steam_id":76561198087750392,"connected_time":4024000000000,"state":"active","ping":51},{"user_id":525,"name":"Poor Fucking Infantry","steam_id":76561198055978522,"connected_time":232000000000,"state":"active","ping":50},{"user_id":511,"name":"ArekanPL","steam_id":76561198306811916,"connected_time":1012000000000,"state":"active","ping":71},{"user_id":502,"name":"Dangerousbros","steam_id":76561198088952519,"connected_time":2158000000000,"state":"active","ping":38},{"user_id":503,"name":"calum92","steam_id":76561197992188760,"connected_time":2108000000000,"state":"active","ping":54},{"user_id":506,"name":"Insain Bolt!","steam_id":76561198025687726,"connected_time":1714000000000,"state":"active","ping":67}]},{"server_id":22,"name":"Uncletopia | London | 6 | All Maps","name_short":"lon-6","host":"lon-1.uk.uncletopia.com","port":27065,"enabled":true,"region":"eu","cc":"gb","latitude":51.509865,"longitude":-0.118092,"reserved":0,"last_update":"0001-01-01T00:00:00Z","name_a2s":"Uncletopia | London | 6 | All Maps","protocol":17,"map":"koth_highpass","folder":"tf","game":"Team Fortress","app_id":440,"player_count":0,"max_players":24,"Bots":0,"server_type":"Dedicated","server_os":"Linux","password":true,"vac":true,"version":"7708610","steam_id":85568392924742830,"keywords":["cp","nocrits","nodmgspread","uncletopia"],"game_id":440,"stv_port":27066,"stv_name":"Uncletopia | London | 6 | All Maps | STV","players":null},{"server_id":40,"name":"Uncletopia | London | 7 | No Payload","name_short":"lon-7","host":"lon-1.uk.uncletopia.com","port":27075,"enabled":true,"region":"eu","cc":"gb","latitude":51.509865,"longitude":-0.118092,"reserved":0,"last_update":"0001-01-01T00:00:00Z","name_a2s":"Uncletopia | London | 7 | No Payload","protocol":17,"map":"koth_brazil","folder":"tf","game":"Team Fortress","app_id":440,"player_count":0,"max_players":24,"Bots":0,"server_type":"Dedicated","server_os":"Linux","password":true,"vac":true,"version":"7708610","steam_id":85568392924964314,"keywords":["cp","nocrits","nodmgspread","uncletopia"],"game_id":440,"stv_port":27076,"stv_name":"Uncletopia | London | 7 | No Payload | STV","players":null},{"server_id":41,"name":"Uncletopia | London | 8 | Community","name_short":"lon-8","host":"lon-1.uk.uncletopia.com","port":27085,"enabled":true,"region":"eu","cc":"gb","latitude":51.509865,"longitude":-0.118092,"reserved":0,"last_update":"0001-01-01T00:00:00Z","name_a2s":"Uncletopia | London | 8 | Community","protocol":17,"map":"workshop/koth_product_final.ugc454272353","folder":"tf","game":"Team Fortress","app_id":440,"player_count":0,"max_players":24,"Bots":0,"server_type":"Dedicated","server_os":"Linux","password":true,"vac":true,"version":"7708610","steam_id":85568392924964315,"keywords":["cp","nocrits","nodmgspread","uncletopia"],"game_id":440,"stv_port":27086,"stv_name":"Uncletopia | London | 8 | Community | STV","players":null},{"server_id":300,"name":"Uncletopia | Montr√©al | 1 | All Maps","name_short":"mtl-1","host":"mtl-1.ca.uncletopia.com","port":27015,"enabled":true,"region":"us-east","cc":"ca","latitude":45.50889,"longitude":-73.56167,"reserved":0,"last_update":"0001-01-01T00:00:00Z","name_a2s":"Uncletopia | Montr√©al | 1 | All Maps","protocol":17,"map":"koth_cascade","folder":"tf","game":"Team Fortress","app_id":440,"player_count":1,"max_players":24,"Bots":0,"server_type":"Dedicated","server_os":"Linux","password":true,"vac":true,"version":"7708610","steam_id":85568392924500087,"keywords":["cp","nocrits","nodmgspread","uncletopia"],"game_id":440,"stv_port":27016,"stv_name":"Uncletopia | Montr√©al | 1 | All Maps | STV","players":[{"user_id":4,"name":"alonzobmelgar","steam_id":76561199258919309,"connected_time":10000000000,"state":"spawning","ping":48}]},{"server_id":301,"name":"Uncletopia | Montr√©al | 2 | All Maps","name_short":"mtl-2","host":"mtl-1.ca.uncletopia.com","port":27025,"enabled":true,"region":"us-east","cc":"ca","latitude":45.50889,"longitude":-73.56167,"reserved":0,"last_update":"0001-01-01T00:00:00Z","name_a2s":"Uncletopia | Montr√©al | 2 | All Maps","protocol":17,"map":"koth_viaduct","folder":"tf","game":"Team Fortress","app_id":440,"player_count":9,"max_players":24,"Bots":0,"server_type":"Dedicated","server_os":"Linux","password":true,"vac":true,"version":"7708610","steam_id":85568392924500088,"keywords":["cp","nocrits","nodmgspread","uncletopia"],"game_id":440,"stv_port":27026,"stv_name":"Uncletopia | Montr√©al | 2 | All Maps | STV","players":[{"user_id":17,"name":"venomew2","steam_id":76561198327081077,"connected_time":755000000000,"state":"active","ping":100},{"user_id":21,"name":"SnowBlind #saveTF2","steam_id":76561199227651753,"connected_time":283000000000,"state":"active","ping":59},{"user_id":14,"name":"Citizen Cyrus","steam_id":76561198158676927,"connected_time":1388000000000,"state":"active","ping":101},{"user_id":18,"name":"SpookiestScariestSkeletronPrime","steam_id":76561199089031371,"connected_time":738000000000,"state":"active","ping":64},{"user_id":19,"name":"Weirdo","steam_id":76561199150514223,"connected_time":696000000000,"state":"active","ping":113},{"user_id":15,"name":"Vapor","steam_id":76561198850475407,"connected_time":1300000000000,"state":"active","ping":50},{"user_id":10,"name":"MaceofSpades","steam_id":76561198027396009,"connected_time":2099000000000,"state":"active","ping":79},{"user_id":22,"name":"Epic Cleveland","steam_id":76561198079468469,"connected_time":135000000000,"state":"active","ping":55},{"user_id":23,"name":"Chuunimaru","steam_id":76561198052495935,"connected_time":52000000000,"state":"active","ping":42}]},{"server_id":302,"name":"Uncletopia | Montr√©al | 3 | All Maps","name_short":"mtl-3","host":"mtl-1.ca.uncletopia.com","port":27035,"enabled":true,"region":"us-east","cc":"ca","latitude":45.50889,"longitude":-73.56167,"reserved":0,"last_update":"0001-01-01T00:00:00Z","name_a2s":"Uncletopia | Montr√©al | 3 | All Maps","protocol":17,"map":"cp_sunshine","folder":"tf","game":"Team Fortress","app_id":440,"player_count":0,"max_players":24,"Bots":0,"server_type":"Dedicated","server_os":"Linux","password":true,"vac":true,"version":"7708610","steam_id":85568392924500089,"keywords":["cp","nocrits","nodmgspread","uncletopia"],"game_id":440,"stv_port":27036,"stv_name":"Uncletopia | Montr√©al | 3 | All Maps | STV","players":null},{"server_id":303,"name":"Uncletopia | Montr√©al | 4 | No Payload","name_short":"mtl-4","host":"mtl-1.ca.uncletopia.com","port":27045,"enabled":true,"region":"us-east","cc":"ca","latitude":45.50889,"longitude":-73.56167,"reserved":0,"last_update":"0001-01-01T00:00:00Z","name_a2s":"Uncletopia | Montr√©al | 4 | No Payload","protocol":17,"map":"pl_frontier_final","folder":"tf","game":"Team Fortress","app_id":440,"player_count":0,"max_players":24,"Bots":0,"server_type":"Dedicated","server_os":"Linux","password":true,"vac":true,"version":"7708610","steam_id":85568392924500090,"keywords":["nocrits","nodmgspread","payload","uncletopia"],"game_id":440,"stv_port":0,"stv_name":"","players":null},{"server_id":13,"name":"Uncletopia | New York City | 1 | All Maps","name_short":"nyc-1","host":"nyc-1.us.uncletopia.com","port":27015,"enabled":true,"region":"us-east","cc":"us","latitude":40.73061,"longitude":-73.93524,"reserved":0,"last_update":"0001-01-01T00:00:00Z","name_a2s":"Uncletopia | New York City | 1 | All Maps","protocol":17,"map":"pl_upward","folder":"tf","game":"Team Fortress","app_id":440,"player_count":24,"max_players":24,"Bots":0,"server_type":"Dedicated","server_os":"Linux","password":true,"vac":true,"version":"7708610","steam_id":85568392924469993,"keywords":["nocrits","nodmgspread","payload","uncletopia"],"game_id":440,"stv_port":27016,"stv_name":"Uncletopia | New York City | 1 | All Maps | STV","players":[{"user_id":297,"name":"DarkenedPolarity","steam_id":76561199073099596,"connected_time":2588000000000,"state":"active","ping":68},{"user_id":324,"name":"Quanelius","steam_id":76561198395560226,"connected_time":518000000000,"state":"active","ping":46},{"user_id":317,"name":"YourXmasGiftChubbyBlobSealPillo","steam_id":76561198041767882,"connected_time":974000000000,"state":"active","ping":48},{"user_id":299,"name":"catgirl","steam_id":76561198020736672,"connected_time":2566000000000,"state":"active","ping":59},{"user_id":306,"name":"yesno","steam_id":76561198067156972,"connected_time":2032000000000,"state":"active","ping":62},{"user_id":326,"name":"Kritzburgh","steam_id":76561198149466938,"connected_time":445000000000,"state":"active","ping":55},{"user_id":298,"name":"Papa Squat","steam_id":76561198045011208,"connected_time":2574000000000,"state":"active","ping":90},{"user_id":279,"name":"Brynkiwi","steam_id":76561198052177917,"connected_time":3192000000000,"state":"active","ping":112},{"user_id":303,"name":"TheGhostThatWas","steam_id":76561198055836483,"connected_time":2378000000000,"state":"active","ping":47},{"user_id":310,"name":"Jaeger Bombastic","steam_id":76561198129825533,"connected_time":1796000000000,"state":"active","ping":49},{"user_id":305,"name":"Pockets","steam_id":76561198001742296,"connected_time":2156000000000,"state":"active","ping":72},{"user_id":287,"name":"luvvstory (she/her)","steam_id":76561198333675595,"connected_time":3082000000000,"state":"active","ping":85},{"user_id":323,"name":"Deborp","steam_id":76561198118868430,"connected_time":799000000000,"state":"active","ping":89},{"user_id":318,"name":"Akiyama Yukari","steam_id":76561198123524867,"connected_time":946000000000,"state":"active","ping":73},{"user_id":215,"name":"Crow","steam_id":76561198055648496,"connected_time":7263000000000,"state":"active","ping":64},{"user_id":327,"name":"Undead","steam_id":76561198078125701,"connected_time":70000000000,"state":"active","ping":52},{"user_id":304,"name":"Spy achungus","steam_id":76561198135651070,"connected_time":2349000000000,"state":"active","ping":68},{"user_id":319,"name":"Shikikan Sudoku","steam_id":76561198413229000,"connected_time":932000000000,"state":"active","ping":109},{"user_id":320,"name":"pablo.gonzales.2007","steam_id":76561198955004070,"connected_time":905000000000,"state":"active","ping":78},{"user_id":308,"name":"The Foolish Samurai","steam_id":76561198094494945,"connected_time":1947000000000,"state":"active","ping":125},{"user_id":312,"name":"GOATC mahik","steam_id":76561198012270322,"connected_time":1506000000000,"state":"active","ping":52},{"user_id":321,"name":"Zippy","steam_id":76561198279229422,"connected_time":889000000000,"state":"active","ping":61},{"user_id":272,"name":"wes","steam_id":76561198273536400,"connected_time":3807000000000,"state":"active","ping":63},{"user_id":322,"name":"Rock Kickass","steam_id":76561198450510841,"connected_time":887000000000,"state":"active","ping":118}]},{"server_id":14,"name":"Uncletopia | New York City | 2 | All Maps","name_short":"nyc-2","host":"nyc-1.us.uncletopia.com","port":27025,"enabled":true,"region":"us-east","cc":"us","latitude":40.73061,"longitude":-73.93524,"reserved":0,"last_update":"0001-01-01T00:00:00Z","name_a2s":"Uncletopia | New York City | 2 | All Maps","protocol":17,"map":"pl_frontier_final","folder":"tf","game":"Team Fortress","app_id":440,"player_count":24,"max_players":24,"Bots":0,"server_type":"Dedicated","server_os":"Linux","password":true,"vac":true,"version":"7708610","steam_id":85568392924469994,"keywords":["nocrits","nodmgspread","payload","uncletopia"],"game_id":440,"stv_port":27026,"stv_name":"Uncletopia | New York City | 2 | All Maps | STV","players":[{"user_id":211,"name":"LalitoTV","steam_id":76561198334302951,"connected_time":3360000000000,"state":"active","ping":133},{"user_id":231,"name":"nhbiker","steam_id":76561198081277675,"connected_time":1207000000000,"state":"active","ping":46},{"user_id":217,"name":"Olive","steam_id":76561198003474783,"connected_time":3076000000000,"state":"active","ping":78},{"user_id":192,"name":"xenolith","steam_id":76561198041496496,"connected_time":4388000000000,"state":"active","ping":52},{"user_id":219,"name":"Mythic","steam_id":76561198028616665,"connected_time":2605000000000,"state":"active","ping":47},{"user_id":245,"name":"You Don't Nomi.","steam_id":76561197969137836,"connected_time":453000000000,"state":"active","ping":49},{"user_id":183,"name":"Nic0","steam_id":76561198305690218,"connected_time":5209000000000,"state":"active","ping":59},{"user_id":243,"name":"sea bass","steam_id":76561199060403884,"connected_time":555000000000,"state":"active","ping":87},{"user_id":233,"name":"Wilhelmktx","steam_id":76561198158102295,"connected_time":1201000000000,"state":"active","ping":69},{"user_id":225,"name":"Ursus Ludius","steam_id":76561198025470722,"connected_time":1987000000000,"state":"active","ping":52},{"user_id":246,"name":"what","steam_id":76561198082336619,"connected_time":353000000000,"state":"active","ping":51},{"user_id":242,"name":"ChefBoiHardD","steam_id":76561198139949783,"connected_time":928000000000,"state":"active","ping":63},{"user_id":244,"name":"Samoth_Five","steam_id":76561199009152688,"connected_time":507000000000,"state":"active","ping":40},{"user_id":230,"name":"Dehydrated lft nc","steam_id":76561198970587989,"connected_time":1496000000000,"state":"active","ping":153},{"user_id":236,"name":"neonathon","steam_id":76561198057544762,"connected_time":1092000000000,"state":"active","ping":46},{"user_id":201,"name":"Christoph Waltz eating a burger","steam_id":76561199215811448,"connected_time":4078000000000,"state":"active","ping":61},{"user_id":216,"name":"Justario","steam_id":76561198016095410,"connected_time":3257000000000,"state":"active","ping":56},{"user_id":182,"name":"ExtraSoap","steam_id":76561198008712409,"connected_time":5364000000000,"state":"active","ping":59},{"user_id":247,"name":"idk","steam_id":76561199121113216,"connected_time":338000000000,"state":"active","ping":53},{"user_id":196,"name":"Red","steam_id":76561197998285162,"connected_time":4347000000000,"state":"active","ping":87},{"user_id":202,"name":"in trouble? call a crackhead","steam_id":76561198072657891,"connected_time":4059000000000,"state":"active","ping":31},{"user_id":248,"name":"Stoopnagle","steam_id":76561198011942560,"connected_time":312000000000,"state":"active","ping":112},{"user_id":223,"name":"Penis but it rhymes with Venice","steam_id":76561197986420836,"connected_time":2199000000000,"state":"active","ping":57},{"user_id":240,"name":"sgt shithead","steam_id":76561199074079929,"connected_time":1039000000000,"state":"active","ping":109}]},{"server_id":15,"name":"Uncletopia | New York City | 3 | All Maps","name_short":"nyc-3","host":"nyc-1.us.uncletopia.com","port":27035,"enabled":true,"region":"us-east","cc":"us","latitude":40.73061,"longitude":-73.93524,"reserved":0,"last_update":"0001-01-01T00:00:00Z","name_a2s":"Uncletopia | New York City | 3 | All Maps","protocol":17,"map":"koth_highpass","folder":"tf","game":"Team Fortress","app_id":440,"player_count":0,"max_players":24,"Bots":0,"server_type":"Dedicated","server_os":"Linux","password":true,"vac":true,"version":"7708610","steam_id":85568392924742820,"keywords":["cp","nocrits","nodmgspread","uncletopia"],"game_id":440,"stv_port":27036,"stv_name":"Uncletopia | New York City | 3 | All Maps | STV","players":null},{"server_id":16,"name":"Uncletopia | New York City | 4 | Community","name_short":"nyc-4","host":"nyc-1.us.uncletopia.com","port":27045,"enabled":true,"region":"us-east","cc":"us","latitude":40.73061,"longitude":-73.93524,"reserved":0,"last_update":"0001-01-01T00:00:00Z","name_a2s":"Uncletopia | New York City | 4 | Community","protocol":17,"map":"workshop/koth_bagel_rc5.ugc2514036946","folder":"tf","game":"Team Fortress","app_id":440,"player_count":0,"max_players":24,"Bots":0,"server_type":"Dedicated","server_os":"Linux","password":true,"vac":true,"version":"7708610","steam_id":85568392924742821,"keywords":["cp","nocrits","nodmgspread","uncletopia"],"game_id":440,"stv_port":27046,"stv_name":"Uncletopia | New York City | 4 | Community | STV","players":null},{"server_id":142,"name":"Uncletopia | S√£o Paulo | 1 | All Maps","name_short":"sao-1","host":"sao-1.br.uncletopia.com","port":27015,"enabled":true,"region":"sa","cc":"br","latitude":-23.533773,"longitude":-46.62529,"reserved":0,"last_update":"0001-01-01T00:00:00Z","name_a2s":"Uncletopia | S√£o Paulo | 1 | All Maps","protocol":17,"map":"pl_borneo","folder":"tf","game":"Team Fortress","app_id":440,"player_count":24,"max_players":24,"Bots":0,"server_type":"Dedicated","server_os":"Linux","password":true,"vac":true,"version":"7708610","steam_id":85568392924469996,"keywords":["nocrits","nodmgspread","payload","uncletopia"],"game_id":440,"stv_port":27016,"stv_name":"Uncletopia | S√£o Paulo | 1 | All Maps | STV","players":[{"user_id":311,"name":"elite level gamer","steam_id":76561199165054714,"connected_time":943000000000,"state":"active","ping":50},{"user_id":300,"name":"Pathetic","steam_id":76561198051056987,"connected_time":1469000000000,"state":"active","ping":61},{"user_id":229,"name":"niruma","steam_id":76561198067799345,"connected_time":7567000000000,"state":"active","ping":41},{"user_id":308,"name":"delta","steam_id":76561198288966901,"connected_time":949000000000,"state":"active","ping":48},{"user_id":293,"name":"Derretimento Geral 2017","steam_id":76561198194300069,"connected_time":2487000000000,"state":"active","ping":43},{"user_id":313,"name":"ayumi","steam_id":76561197977365746,"connected_time":930000000000,"state":"active","ping":46},{"user_id":320,"name":"C.","steam_id":76561198067026112,"connected_time":868000000000,"state":"active","ping":42},{"user_id":325,"name":"Au Revoir","steam_id":76561198176626650,"connected_time":137000000000,"state":"active","ping":45},{"user_id":315,"name":"Mr.VECTOR‚Ñ¢","steam_id":76561198090641242,"connected_time":916000000000,"state":"active","ping":81},{"user_id":316,"name":"rafxv","steam_id":76561198083321227,"connected_time":912000000000,"state":"active","ping":73},{"user_id":280,"name":"jao","steam_id":76561198408082822,"connected_time":3553000000000,"state":"active","ping":53},{"user_id":326,"name":"matheus_lanches","steam_id":76561199359501901,"connected_time":15000000000,"state":"spawning","ping":68},{"user_id":309,"name":".fnord","steam_id":76561198119754613,"connected_time":949000000000,"state":"active","ping":48},{"user_id":306,"name":"Sanches","steam_id":76561198006932156,"connected_time":962000000000,"state":"active","ping":89},{"user_id":327,"name":"Gustavocoste","steam_id":76561198233692404,"connected_time":7000000000,"state":"active","ping":112},{"user_id":273,"name":"ksk.","steam_id":76561198122863358,"connected_time":4422000000000,"state":"active","ping":66},{"user_id":307,"name":"jr_rusty","steam_id":76561198313937899,"connected_time":961000000000,"state":"active","ping":49},{"user_id":290,"name":"CJAIME01345","steam_id":76561199091599141,"connected_time":2982000000000,"state":"active","ping":90},{"user_id":251,"name":"Architect","steam_id":76561198895061602,"connected_time":5647000000000,"state":"active","ping":111},{"user_id":302,"name":"Presidente Cinzas","steam_id":76561198025747425,"connected_time":1207000000000,"state":"active","ping":43},{"user_id":324,"name":"sassono","steam_id":76561198056789823,"connected_time":265000000000,"state":"active","ping":48},{"user_id":323,"name":"ShinGojira[BR]","steam_id":76561199199037141,"connected_time":682000000000,"state":"active","ping":96},{"user_id":263,"name":"[LOBACZAO] detona","steam_id":76561198075848473,"connected_time":5149000000000,"state":"active","ping":46},{"user_id":296,"name":"ebd_Failnaught","steam_id":76561198108041555,"connected_time":1884000000000,"state":"active","ping":56}]},{"server_id":143,"name":"Uncletopia | S√£o Paulo | 2 | All Maps","name_short":"sao-2","host":"sao-2.br.uncletopia.com","port":27015,"enabled":true,"region":"sa","cc":"br","latitude":-23.533773,"longitude":-46.62529,"reserved":0,"last_update":"0001-01-01T00:00:00Z","name_a2s":"Uncletopia | S√£o Paulo | 2 | All Maps","protocol":17,"map":"koth_viaduct","folder":"tf","game":"Team Fortress","app_id":440,"player_count":3,"max_players":24,"Bots":0,"server_type":"Dedicated","server_os":"Linux","password":true,"vac":true,"version":"7708610","steam_id":85568392924485349,"keywords":["cp","nocrits","nodmgspread","uncletopia"],"game_id":440,"stv_port":27016,"stv_name":"Uncletopia | S√£o Paulo | 2 | All Maps | STV","players":[{"user_id":27,"name":"Charles Pik√£o","steam_id":76561198194497583,"connected_time":1261000000000,"state":"active","ping":45},{"user_id":28,"name":"lost-knight (tf2easy.com)","steam_id":76561199218424604,"connected_time":1256000000000,"state":"active","ping":39},{"user_id":30,"name":"Helpful Hobo","steam_id":76561198250872082,"connected_time":76000000000,"state":"active","ping":260}]},{"server_id":7,"name":"Uncletopia | Seattle | 1 | All Maps","name_short":"sea-1","host":"sea-1.us.uncletopia.com","port":27015,"enabled":true,"region":"us-west","cc":"us","latitude":47.608013,"longitude":-122.33517,"reserved":0,"last_update":"0001-01-01T00:00:00Z","name_a2s":"Uncletopia | Seattle | 1 | All Maps","protocol":17,"map":"cp_process_final","folder":"tf","game":"Team Fortress","app_id":440,"player_count":24,"max_players":24,"Bots":0,"server_type":"Dedicated","server_os":"Linux","password":true,"vac":true,"version":"7708610","steam_id":85568392924469997,"keywords":["cp","nocrits","nodmgspread","uncletopia"],"game_id":440,"stv_port":27016,"stv_name":"Uncletopia | Seattle | 1 | All Maps | STV","players":[{"user_id":154,"name":"oo","steam_id":76561198119626492,"connected_time":1145000000000,"state":"active","ping":82},{"user_id":74,"name":"Shooon","steam_id":76561198006107947,"connected_time":8529000000000,"state":"active","ping":68},{"user_id":162,"name":"Joy in A Box","steam_id":76561198156820753,"connected_time":281000000000,"state":"active","ping":177},{"user_id":136,"name":"ZEKKER","steam_id":76561197967968980,"connected_time":2429000000000,"state":"active","ping":48},{"user_id":169,"name":"Loggybears#4651","steam_id":76561198366828434,"connected_time":165000000000,"state":"active","ping":91},{"user_id":62,"name":"Snale","steam_id":76561198039517965,"connected_time":9414000000000,"state":"active","ping":63},{"user_id":158,"name":"eraser cat","steam_id":76561199045570463,"connected_time":804000000000,"state":"active","ping":42},{"user_id":156,"name":"triforcemack","steam_id":76561198055812400,"connected_time":1113000000000,"state":"active","ping":91},{"user_id":160,"name":"Vojdo","steam_id":76561198064781517,"connected_time":479000000000,"state":"active","ping":82},{"user_id":159,"name":"Morflez","steam_id":76561198338880051,"connected_time":713000000000,"state":"active","ping":88},{"user_id":142,"name":"‚ù§madeleine‚ù§","steam_id":76561198110142386,"connected_time":2381000000000,"state":"active","ping":63},{"user_id":149,"name":"dust","steam_id":76561198045218909,"connected_time":1699000000000,"state":"active","ping":44},{"user_id":161,"name":"Spunk Mikunkel","steam_id":76561198116765135,"connected_time":458000000000,"state":"active","ping":58},{"user_id":164,"name":"lavender","steam_id":76561199069518286,"connected_time":260000000000,"state":"active","ping":79},{"user_id":100,"name":"Medic","steam_id":76561198067869016,"connected_time":6262000000000,"state":"active","ping":76},{"user_id":172,"name":"a crazy hobo","steam_id":76561198289650060,"connected_time":38000000000,"state":"active","ping":82},{"user_id":88,"name":"Frongus","steam_id":76561197979056451,"connected_time":7148000000000,"state":"active","ping":52},{"user_id":165,"name":"Mamagu","steam_id":76561198976530881,"connected_time":235000000000,"state":"active","ping":68},{"user_id":81,"name":"Pumpkin","steam_id":76561198352375954,"connected_time":7193000000000,"state":"active","ping":50},{"user_id":153,"name":"Noire","steam_id":76561198077601563,"connected_time":1169000000000,"state":"active","ping":57},{"user_id":173,"name":"Ogre Tele Co","steam_id":76561198041909269,"connected_time":22000000000,"state":"spawning","ping":91},{"user_id":167,"name":"MantisTobboggan","steam_id":76561197969447887,"connected_time":202000000000,"state":"active","ping":66},{"user_id":148,"name":"Sith of Darkness","steam_id":76561198106636597,"connected_time":2011000000000,"state":"active","ping":90},{"user_id":129,"name":"Dunkle","steam_id":76561198041903573,"connected_time":3652000000000,"state":"active","ping":46}]},{"server_id":119,"name":"Uncletopia | Seattle | 2 | All Maps","name_short":"sea-2","host":"sea-1.us.uncletopia.com","port":27025,"enabled":true,"region":"us-west","cc":"us","latitude":47.608013,"longitude":-122.33517,"reserved":0,"last_update":"0001-01-01T00:00:00Z","name_a2s":"Uncletopia | Seattle | 2 | All Maps","protocol":17,"map":"pl_snowycoast","folder":"tf","game":"Team Fortress","app_id":440,"player_count":15,"max_players":24,"Bots":0,"server_type":"Dedicated","server_os":"Linux","password":true,"vac":true,"version":"7708610","steam_id":85568392924469998,"keywords":["nocrits","nodmgspread","payload","uncletopia"],"game_id":440,"stv_port":27026,"stv_name":"Uncletopia | Seattle | 2 | All Maps | STV","players":[{"user_id":87,"name":"Van","steam_id":76561198073518712,"connected_time":1543000000000,"state":"active","ping":119},{"user_id":83,"name":"Rude Dog","steam_id":76561197980385816,"connected_time":1895000000000,"state":"active","ping":43},{"user_id":114,"name":"nachopugz","steam_id":76561199120480873,"connected_time":56000000000,"state":"active","ping":104},{"user_id":98,"name":"House","steam_id":76561198308405663,"connected_time":1270000000000,"state":"active","ping":53},{"user_id":109,"name":"Cockfight","steam_id":76561198160277649,"connected_time":415000000000,"state":"active","ping":71},{"user_id":96,"name":"[Bandit]","steam_id":76561197986919852,"connected_time":1321000000000,"state":"active","ping":51},{"user_id":74,"name":"Saint Laurent Don","steam_id":76561198116820706,"connected_time":3003000000000,"state":"active","ping":61},{"user_id":42,"name":"ansoonii","steam_id":76561198092494136,"connected_time":4140000000000,"state":"active","ping":90},{"user_id":111,"name":"\u003c3","steam_id":76561198347876990,"connected_time":361000000000,"state":"active","ping":60},{"user_id":70,"name":"Smart Guy","steam_id":76561199027006151,"connected_time":3272000000000,"state":"active","ping":69},{"user_id":94,"name":"aim canyon","steam_id":76561198075619480,"connected_time":1485000000000,"state":"active","ping":78},{"user_id":101,"name":"Tom Skirrett","steam_id":76561198014600788,"connected_time":1103000000000,"state":"active","ping":60},{"user_id":113,"name":"deer girl","steam_id":76561198337705174,"connected_time":108000000000,"state":"active","ping":76},{"user_id":106,"name":"The Machina Menace","steam_id":76561198112635823,"connected_time":765000000000,"state":"active","ping":58},{"user_id":112,"name":"KellyKapoor","steam_id":76561198040828123,"connected_time":324000000000,"state":"active","ping":55}]},{"server_id":17,"name":"Uncletopia | San Francisco | 1 | All Maps","name_short":"sfo-1","host":"sfo-1.us.uncletopia.com","port":27015,"enabled":true,"region":"us-west","cc":"us","latitude":37.77397,"longitude":-122.4313,"reserved":0,"last_update":"0001-01-01T00:00:00Z","name_a2s":"Uncletopia | San Francisco | 1 | All Maps","protocol":17,"map":"koth_viaduct","folder":"tf","game":"Team Fortress","app_id":440,"player_count":0,"max_players":24,"Bots":0,"server_type":"Dedicated","server_os":"Linux","password":true,"vac":true,"version":"7708610","steam_id":85568392924469999,"keywords":["cp","nocrits","nodmgspread","uncletopia"],"game_id":440,"stv_port":27016,"stv_name":"Uncletopia | San Francisco | 1 | All Maps | STV","players":null},{"server_id":18,"name":"Uncletopia | San Francisco | 2 | All Maps","name_short":"sfo-2","host":"sfo-1.us.uncletopia.com","port":27025,"enabled":true,"region":"us-west","cc":"us","latitude":37.77397,"longitude":-122.4313,"reserved":0,"last_update":"0001-01-01T00:00:00Z","name_a2s":"Uncletopia | San Francisco | 2 | All Maps","protocol":17,"map":"koth_cascade","folder":"tf","game":"Team Fortress","app_id":440,"player_count":0,"max_players":24,"Bots":0,"server_type":"Dedicated","server_os":"Linux","password":true,"vac":true,"version":"7708610","steam_id":85568392924470000,"keywords":["cp","nocrits","nodmgspread","uncletopia"],"game_id":440,"stv_port":0,"stv_name":"","players":null},{"server_id":19,"name":"Uncletopia | San Francisco | 3 | No Payload","name_short":"sfo-3","host":"sfo-1.us.uncletopia.com","port":27035,"enabled":true,"region":"us-west","cc":"us","latitude":37.77397,"longitude":-122.4313,"reserved":0,"last_update":"0001-01-01T00:00:00Z","name_a2s":"Uncletopia | San Francisco | 3 | No Payload","protocol":17,"map":"cp_dustbowl","folder":"tf","game":"Team Fortress","app_id":440,"player_count":0,"max_players":24,"Bots":0,"server_type":"Dedicated","server_os":"Linux","password":true,"vac":true,"version":"7708610","steam_id":85568392924742824,"keywords":["cp","nocrits","nodmgspread","uncletopia"],"game_id":440,"stv_port":27036,"stv_name":"Uncletopia | San Francisco | 3 | No Payload | STV","players":null},{"server_id":20,"name":"Uncletopia | San Francisco | 4 | Community","name_short":"sfo-4","host":"sfo-1.us.uncletopia.com","port":27045,"enabled":true,"region":"us-west","cc":"us","latitude":37.77397,"longitude":-122.4313,"reserved":0,"last_update":"0001-01-01T00:00:00Z","name_a2s":"Uncletopia | San Francisco | 4 | Community","protocol":17,"map":"workshop/koth_synthetic_rc6a.ugc1549817316","folder":"tf","game":"Team Fortress","app_id":440,"player_count":0,"max_players":24,"Bots":0,"server_type":"Dedicated","server_os":"Linux","password":true,"vac":true,"version":"7708610","steam_id":85568392924742826,"keywords":["cp","nocrits","nodmgspread","uncletopia"],"game_id":440,"stv_port":27046,"stv_name":"Uncletopia | San Francisco | 4 | Community | STV","players":null},{"server_id":141,"name":"Uncletopia | Sydney | 1 | All Maps","name_short":"syd-1","host":"syd-1.au.uncletopia.com","port":27015,"enabled":true,"region":"au","cc":"au","latitude":-33.865143,"longitude":151.2099,"reserved":0,"last_update":"0001-01-01T00:00:00Z","name_a2s":"Uncletopia | Sydney | 1 | All Maps","protocol":17,"map":"pl_borneo","folder":"tf","game":"Team Fortress","app_id":440,"player_count":22,"max_players":24,"Bots":0,"server_type":"Dedicated","server_os":"Linux","password":true,"vac":true,"version":"7708610","steam_id":85568392924470001,"keywords":["nocrits","nodmgspread","payload","uncletopia"],"game_id":440,"stv_port":27016,"stv_name":"Uncletopia | Sydney | 1 | All Maps | STV","players":[{"user_id":75,"name":"speed bomb","steam_id":76561198277363788,"connected_time":4424000000000,"state":"active","ping":77},{"user_id":143,"name":"miracle","steam_id":76561199010236190,"connected_time":57000000000,"state":"active","ping":31},{"user_id":96,"name":"deadmoi27","steam_id":76561198157061007,"connected_time":3168000000000,"state":"active","ping":61},{"user_id":109,"name":"Ongo_Gablogian","steam_id":76561199102787219,"connected_time":2233000000000,"state":"active","ping":66},{"user_id":121,"name":"POMsONs PLEAsE-I need them","steam_id":76561199230621703,"connected_time":1586000000000,"state":"active","ping":74},{"user_id":37,"name":"ttv/ca7x3","steam_id":76561198181194862,"connected_time":7476000000000,"state":"active","ping":65},{"user_id":119,"name":"nojnosbod11","steam_id":76561199176012151,"connected_time":1809000000000,"state":"active","ping":62},{"user_id":105,"name":"Morgenstern","steam_id":76561198253080474,"connected_time":2419000000000,"state":"active","ping":55},{"user_id":106,"name":"Ashes","steam_id":76561198105820742,"connected_time":2355000000000,"state":"active","ping":66},{"user_id":128,"name":"Cocopowder","steam_id":76561198927912704,"connected_time":988000000000,"state":"active","ping":63},{"user_id":140,"name":"cbpop","steam_id":76561198992538857,"connected_time":173000000000,"state":"active","ping":60},{"user_id":112,"name":"Qwerty","steam_id":76561199157092367,"connected_time":2105000000000,"state":"active","ping":74},{"user_id":137,"name":"rastaFROG730","steam_id":76561198058812647,"connected_time":508000000000,"state":"active","ping":43},{"user_id":66,"name":"Pickled Cow","steam_id":76561198292517991,"connected_time":4969000000000,"state":"active","ping":45},{"user_id":138,"name":"Azzy","steam_id":76561198096245286,"connected_time":286000000000,"state":"active","ping":55},{"user_id":70,"name":"Eddie","steam_id":76561198081031350,"connected_time":4514000000000,"state":"active","ping":52},{"user_id":130,"name":"zen","steam_id":76561198302670452,"connected_time":959000000000,"state":"active","ping":59},{"user_id":129,"name":"zise","steam_id":76561198079210881,"connected_time":976000000000,"state":"active","ping":55},{"user_id":131,"name":"A Burnt Cheeseburger","steam_id":76561198044178223,"connected_time":918000000000,"state":"active","ping":72},{"user_id":134,"name":"Blueberry Rat","steam_id":76561198149219455,"connected_time":875000000000,"state":"active","ping":49},{"user_id":133,"name":"CeartV","steam_id":76561198180645323,"connected_time":884000000000,"state":"active","ping":67},{"user_id":135,"name":"whiteshaq","steam_id":76561198131988811,"connected_time":875000000000,"state":"active","ping":74}]},{"server_id":123,"name":"Uncletopia | Sydney | 2 | All Maps","name_short":"syd-2","host":"syd-1.au.uncletopia.com","port":27025,"enabled":true,"region":"au","cc":"au","latitude":-33.865143,"longitude":151.2099,"reserved":0,"last_update":"0001-01-01T00:00:00Z","name_a2s":"Uncletopia | Sydney | 2 | All Maps","protocol":17,"map":"pl_snowycoast","folder":"tf","game":"Team Fortress","app_id":440,"player_count":0,"max_players":24,"Bots":0,"server_type":"Dedicated","server_os":"Linux","password":true,"vac":true,"version":"7708610","steam_id":85568392924470002,"keywords":["nocrits","nodmgspread","payload","uncletopia"],"game_id":440,"stv_port":0,"stv_name":"","players":null},{"server_id":395,"name":"Uncletopia | Sydney | 3 | All Maps","name_short":"syd-3","host":"syd-1.au.uncletopia.com","port":27035,"enabled":true,"region":"au","cc":"au","latitude":-33.865143,"longitude":151.2099,"reserved":0,"last_update":"0001-01-01T00:00:00Z","name_a2s":"Uncletopia | Sydney | 3 | All Maps","protocol":17,"map":"koth_viaduct","folder":"tf","game":"Team Fortress","app_id":440,"player_count":0,"max_players":24,"Bots":0,"server_type":"Dedicated","server_os":"Linux","password":true,"vac":true,"version":"7708610","steam_id":85568392925194467,"keywords":["cp","nocrits","nodmgspread","uncletopia"],"game_id":440,"stv_port":27036,"stv_name":"Uncletopia | Sydney | 3 | All Maps | STV","players":null},{"server_id":396,"name":"Uncletopia | Sydney | 4 | All Maps","name_short":"syd-4","host":"syd-1.au.uncletopia.com","port":27045,"enabled":true,"region":"au","cc":"au","latitude":-33.865143,"longitude":151.2099,"reserved":0,"last_update":"0001-01-01T00:00:00Z","name_a2s":"Uncletopia | Sydney | 4 | All Maps","protocol":17,"map":"koth_lakeside_final","folder":"tf","game":"Team Fortress","app_id":440,"player_count":0,"max_players":24,"Bots":0,"server_type":"Dedicated","server_os":"Linux","password":true,"vac":true,"version":"7708610","steam_id":85568392925397958,"keywords":["cp","nocrits","nodmgspread","uncletopia"],"game_id":440,"stv_port":0,"stv_name":"","players":null},{"server_id":58,"name":"Uncletopia | Sydney | 5 | No Payload","name_short":"syd-5","host":"syd-1.au.uncletopia.com","port":27055,"enabled":true,"region":"au","cc":"au","latitude":-33.865143,"longitude":151.2099,"reserved":0,"last_update":"0001-01-01T00:00:00Z","name_a2s":"Uncletopia | Sydney | 5 | No Payload","protocol":17,"map":"koth_cascade","folder":"tf","game":"Team Fortress","app_id":440,"player_count":0,"max_players":24,"Bots":0,"server_type":"Dedicated","server_os":"Linux","password":true,"vac":true,"version":"7708610","steam_id":85568392925397959,"keywords":["cp","nocrits","nodmgspread","uncletopia"],"game_id":440,"stv_port":0,"stv_name":"","players":null},{"server_id":59,"name":"Uncletopia | Sydney | 6 | Community","name_short":"syd-6","host":"syd-1.au.uncletopia.com","port":27065,"enabled":true,"region":"au","cc":"au","latitude":-33.865143,"longitude":151.2099,"reserved":0,"last_update":"0001-01-01T00:00:00Z","name_a2s":"Uncletopia | Sydney | 6 | Community","protocol":17,"map":"pl_borneo","folder":"tf","game":"Team Fortress","app_id":440,"player_count":0,"max_players":24,"Bots":0,"server_type":"Dedicated","server_os":"Linux","password":true,"vac":true,"version":"7708610","steam_id":85568392925397960,"keywords":["nocrits","nodmgspread","payload","uncletopia"],"game_id":440,"stv_port":0,"stv_name":"","players":null},{"server_id":49,"name":"Uncletopia | Warsaw | 1 | All Maps","name_short":"waw-1","host":"waw-1.pl.uncletopia.com","port":27015,"enabled":true,"region":"eu","cc":"pl","latitude":52.2297,"longitude":21.017532,"reserved":0,"last_update":"0001-01-01T00:00:00Z","name_a2s":"Uncletopia | Warsaw | 1 | All Maps","protocol":17,"map":"cp_altitude","folder":"tf","game":"Team Fortress","app_id":440,"player_count":0,"max_players":24,"Bots":0,"server_type":"Dedicated","server_os":"Linux","password":true,"vac":true,"version":"7708610","steam_id":85568392925397850,"keywords":["cp","nocrits","nodmgspread","uncletopia"],"game_id":440,"stv_port":27016,"stv_name":"Uncletopia | Warsaw | 1 | All Maps | STV","players":null},{"server_id":50,"name":"Uncletopia | Warsaw | 2 | All Maps","name_short":"waw-2","host":"waw-1.pl.uncletopia.com","port":27025,"enabled":true,"region":"eu","cc":"pl","latitude":52.2297,"longitude":21.017532,"reserved":0,"last_update":"0001-01-01T00:00:00Z","name_a2s":"Uncletopia | Warsaw | 2 | All Maps","protocol":17,"map":"koth_lakeside_final","folder":"tf","game":"Team Fortress","app_id":440,"player_count":0,"max_players":24,"Bots":0,"server_type":"Dedicated","server_os":"Linux","password":true,"vac":true,"version":"7708610","steam_id":85568392925397851,"keywords":["cp","nocrits","nodmgspread","uncletopia"],"game_id":440,"stv_port":27026,"stv_name":"Uncletopia | Warsaw | 2 | All Maps | STV","players":null},{"server_id":51,"name":"Uncletopia | Warsaw | 3 | All Maps","name_short":"waw-3","host":"waw-1.pl.uncletopia.com","port":27035,"enabled":true,"region":"eu","cc":"pl","latitude":52.2297,"longitude":21.017532,"reserved":0,"last_update":"0001-01-01T00:00:00Z","name_a2s":"Uncletopia | Warsaw | 3 | All Maps","protocol":17,"map":"koth_highpass","folder":"tf","game":"Team Fortress","app_id":440,"player_count":0,"max_players":24,"Bots":0,"server_type":"Dedicated","server_os":"Linux","password":true,"vac":true,"version":"7708610","steam_id":85568392925397852,"keywords":["cp","nocrits","nodmgspread","uncletopia"],"game_id":440,"stv_port":27036,"stv_name":"Uncletopia | Warsaw | 3 | All Maps | STV","players":null},{"server_id":52,"name":"Uncletopia | Warsaw | 4 | All Maps","name_short":"waw-4","host":"waw-1.pl.uncletopia.com","port":27045,"enabled":true,"region":"eu","cc":"pl","latitude":52.2297,"longitude":21.017532,"reserved":0,"last_update":"0001-01-01T00:00:00Z","name_a2s":"Uncletopia | Warsaw | 4 | All Maps","protocol":17,"map":"cp_process_final","folder":"tf","game":"Team Fortress","app_id":440,"player_count":0,"max_players":24,"Bots":0,"server_type":"Dedicated","server_os":"Linux","password":true,"vac":true,"version":"7708610","steam_id":85568392925397853,"keywords":["cp","nocrits","nodmgspread","uncletopia"],"game_id":440,"stv_port":27046,"stv_name":"Uncletopia | Warsaw | 4 | All Maps | STV","players":null},{"server_id":53,"name":"Uncletopia | Warsaw | 5 | No Payload","name_short":"waw-5","host":"waw-1.pl.uncletopia.com","port":27055,"enabled":true,"region":"eu","cc":"pl","latitude":52.2297,"longitude":21.017532,"reserved":0,"last_update":"0001-01-01T00:00:00Z","name_a2s":"Uncletopia | Warsaw | 5 | No Payload","protocol":17,"map":"plr_pipeline","folder":"tf","game":"Team Fortress","app_id":440,"player_count":0,"max_players":24,"Bots":0,"server_type":"Dedicated","server_os":"Linux","password":true,"vac":true,"version":"7708610","steam_id":85568392925397854,"keywords":["nocrits","nodmgspread","payload","uncletopia"],"game_id":440,"stv_port":27056,"stv_name":"Uncletopia | Warsaw | 5 | No Payload | STV","players":null},{"server_id":54,"name":"Uncletopia | Warsaw | 6 | Community","name_short":"waw-6","host":"waw-1.pl.uncletopia.com","port":27065,"enabled":true,"region":"eu","cc":"pl","latitude":52.2297,"longitude":21.017532,"reserved":0,"last_update":"0001-01-01T00:00:00Z","name_a2s":"Uncletopia | Warsaw | 6 | Community","protocol":17,"map":"koth_highpass","folder":"tf","game":"Team Fortress","app_id":440,"player_count":0,"max_players":24,"Bots":0,"server_type":"Dedicated","server_os":"Linux","password":true,"vac":true,"version":"7708610","steam_id":85568392925397856,"keywords":["cp","nocrits","nodmgspread","uncletopia"],"game_id":440,"stv_port":0,"stv_name":"","players":null}]}