{"status":true,"message":"","result":[{"server_id":9,"name":"Uncletopia | Atlanta | 1 | All Maps","name_short":"atl-1","host":"atl-1.us.uncletopia.com","port":27015,"enabled":true,"region":"us-east","cc":"us","latitude":33.753746,"longitude":-84.38633,"reserved":0,"last_update":"0001-01-01T00:00:00Z","name_a2s":"Uncletopia | Atlanta | 1 | All Maps","protocol":17,"map":"cp_process_final","folder":"tf","game":"Team Fortress","app_id":440,"player_count":24,"max_players":24,"Bots":0,"server_type":"Dedicated","server_os":"Linux","password":true,"vac":true,"version":"7961495","steam_id":85568392924469982,"keywords":["cp","nocrits","nodmgspread","uncletopia"],"game_id":440,"stv_port":27016,"stv_name":"Uncletopia | Atlanta | 1 | All Maps | STV","players":[{"user_id":179,"name":"i play random (no audio)","steam_id":76561199468748840,"connected_time":805000000000,"state":"active","ping":69},{"user_id":163,"name":"ATL1 | on my hunting trip","steam_id":76561198315341646,"connected_time":2459000000000,"state":"active","ping":73},{"user_id":89,"name":"Ashes!","steam_id":76561197998475441,"connected_time":9841000000000,"state":"active","ping":73},{"user_id":82,"name":"lynt","steam_id":76561198988333976,"connected_time":10747000000000,"state":"active","ping":44},{"user_id":145,"name":"Avo","steam_id":76561197993340494,"connected_time":3654000000000,"state":"active","ping":57},{"user_id":117,"name":"lil hog","steam_id":76561199230929836,"connected_time":7532000000000,"state":"active","ping":89},{"user_id":136,"name":"Black Bear.","steam_id":76561198806203328,"connected_time":5026000000000,"state":"active","ping":116},{"user_id":175,"name":"Decolour","steam_id":76561199045608372,"connected_time":1497000000000,"state":"active","ping":88},{"user_id":164,"name":"FYI, i am a","steam_id":76561198814096380,"connected_time":2404000000000,"state":"active","ping":83},{"user_id":173,"name":"sansa musa","steam_id":76561198163723555,"connected_time":2004000000000,"state":"active","ping":103},{"user_id":177,"name":"Dreszerg","steam_id":76561198838757422,"connected_time":1173000000000,"state":"active","ping":85},{"user_id":183,"name":"lu","steam_id":76561198080731872,"connected_time":44000000000,"state":"active","ping":76},{"user_id":176,"name":"Shame","steam_id":76561198100490994,"connected_time":1471000000000,"state":"active","ping":60},{"user_id":181,"name":"Poo","steam_id":76561198265144507,"connected_time":69000000000,"state":"active","ping":79},{"user_id":178,"name":"BlueSteele","steam_id":76561198080235316,"connected_time":1065000000000,"state":"active","ping":111},{"user_id":140,"name":"ATL1 | to4st","steam_id":76561198981009008,"connected_time":4181000000000,"state":"active","ping":75},{"user_id":160,"name":"BeastRyder","steam_id":76561198330281584,"connected_time":2692000000000,"state":"active","ping":84},{"user_id":182,"name":"vid_","steam_id":76561198065159053,"connected_time":56000000000,"state":"active","ping":46},{"user_id":116,"name":"Dr.Zarann","steam_id":76561198163952958,"connected_time":7581000000000,"state":"active","ping":68},{"user_id":155,"name":"1HandsomeLAD","steam_id":76561198807047496,"connected_time":3029000000000,"state":"active","ping":82},{"user_id":169,"name":"chexo4","steam_id":76561198150532531,"connected_time":2229000000000,"state":"active","ping":52},{"user_id":180,"name":"bkiller","steam_id":76561198029265697,"connected_time":250000000000,"state":"active","ping":60},{"user_id":154,"name":"a real fish","steam_id":76561198845824198,"connected_time":3414000000000,"state":"active","ping":68},{"user_id":162,"name":"freaky man","steam_id":76561198109742474,"connected_time":2524000000000,"state":"active","ping":48}]},{"server_id":104,"name":"Uncletopia | Atlanta | 2 | All Maps","name_short":"atl-2","host":"atl-1.us.uncletopia.com","port":27025,"enabled":true,"region":"us-east","cc":"us","latitude":33.753746,"longitude":-84.38633,"reserved":0,"last_update":"0001-01-01T00:00:00Z","name_a2s":"Uncletopia | Atlanta | 2 | All Maps","protocol":17,"map":"pl_barnblitz","folder":"tf","game":"Team Fortress","app_id":440,"player_count":24,"max_players":24,"Bots":0,"server_type":"Dedicated","server_os":"Linux","password":true,"vac":true,"version":"7961495","steam_id":85568392924469983,"keywords":["nocrits","nodmgspread","payload","uncletopia"],"game_id":440,"stv_port":27026,"stv_name":"Uncletopia | Atlanta | 2 | All Maps | STV","players":[{"user_id":157,"name":"spaghetti","steam_id":76561198069600113,"connected_time":4305000000000,"state":"active","ping":47},{"user_id":244,"name":"Arthur SSJ2","steam_id":76561198043678479,"connected_time":722000000000,"state":"active","ping":75},{"user_id":241,"name":"Oopsie Daisy ❋","steam_id":76561198042144492,"connected_time":1983000000000,"state":"active","ping":58},{"user_id":247,"name":"newgrounds1004","steam_id":76561199471951160,"connected_time":702000000000,"state":"active","ping":72},{"user_id":93,"name":"Bubu!","steam_id":76561198188722751,"connected_time":6281000000000,"state":"active","ping":102},{"user_id":232,"name":"Mom I frew up","steam_id":76561198070224393,"connected_time":2501000000000,"state":"active","ping":60},{"user_id":245,"name":"Flint","steam_id":76561198148412420,"connected_time":720000000000,"state":"active","ping":59},{"user_id":243,"name":"FenderBender","steam_id":76561198106379456,"connected_time":1198000000000,"state":"active","ping":102},{"user_id":253,"name":"Zoawsome","steam_id":76561198018758753,"connected_time":101000000000,"state":"active","ping":70},{"user_id":79,"name":"hayes","steam_id":76561198057101042,"connected_time":6944000000000,"state":"active","ping":77},{"user_id":168,"name":"Shirt","steam_id":76561198082386564,"connected_time":4039000000000,"state":"active","ping":64},{"user_id":255,"name":"CrabFeet","steam_id":76561198948602340,"connected_time":23000000000,"state":"active","ping":79},{"user_id":240,"name":"Brown_Dream","steam_id":76561198975766145,"connected_time":2137000000000,"state":"active","ping":81},{"user_id":249,"name":"PowderLinux","steam_id":76561198876653083,"connected_time":684000000000,"state":"active","ping":65},{"user_id":250,"name":"flm","steam_id":76561198144052860,"connected_time":681000000000,"state":"active","ping":95},{"user_id":230,"name":"Your Loyal Familiar","steam_id":76561198106476075,"connected_time":2669000000000,"state":"active","ping":61},{"user_id":40,"name":"trianamarco780","steam_id":76561199084319677,"connected_time":9241000000000,"state":"active","ping":109},{"user_id":170,"name":"Hoob.egfug","steam_id":76561197980557818,"connected_time":3984000000000,"state":"active","ping":71},{"user_id":67,"name":"Artixes","steam_id":76561198379574232,"connected_time":7937000000000,"state":"active","ping":44},{"user_id":177,"name":"gerf.","steam_id":76561198811706201,"connected_time":3751000000000,"state":"active","ping":46},{"user_id":178,"name":"Rappy \u003c3","steam_id":76561198105613110,"connected_time":3748000000000,"state":"active","ping":75},{"user_id":251,"name":"smetc","steam_id":76561198240696986,"connected_time":655000000000,"state":"active","ping":84},{"user_id":192,"name":"Duke Skywalker","steam_id":76561199231296521,"connected_time":3377000000000,"state":"active","ping":73},{"user_id":228,"name":"MARIOPARTYDSFAN","steam_id":76561198872122117,"connected_time":2721000000000,"state":"active","ping":57}]},{"server_id":400,"name":"Uncletopia | Atlanta | 3 | Stopwatch","name_short":"atl-3","host":"atl-1.us.uncletopia.com","port":27035,"enabled":true,"region":"us-east","cc":"us","latitude":33.753746,"longitude":-84.38633,"reserved":0,"last_update":"0001-01-01T00:00:00Z","name_a2s":"Uncletopia | Atlanta | 3 | Stopwatch","protocol":17,"map":"cp_sunshine","folder":"tf","game":"Team Fortress","app_id":440,"player_count":1,"max_players":24,"Bots":0,"server_type":"Dedicated","server_os":"Linux","password":true,"vac":true,"version":"7961495","steam_id":85568392924515187,"keywords":["cp","nocrits","nodmgspread","uncletopia"],"game_id":440,"stv_port":27036,"stv_name":"Uncletopia | Atlanta | 3 | Stopwatch | STV","players":[{"user_id":10,"name":"Sup m8","steam_id":76561198081659121,"connected_time":124000000000,"state":"active","ping":45}]},{"server_id":401,"name":"Uncletopia | Atlanta | 4 | Community","name_short":"atl-4","host":"atl-1.us.uncletopia.com","port":27045,"enabled":true,"region":"us-east","cc":"us","latitude":33.753746,"longitude":-84.38633,"reserved":0,"last_update":"0001-01-01T00:00:00Z","name_a2s":"Uncletopia | Atlanta | 4 | Community","protocol":17,"map":"workshop/koth_bagel_rc6.ugc2514036946","folder":"tf","game":"Team Fortress","app_id":440,"player_count":7,"max_players":24,"Bots":0,"server_type":"Dedicated","server_os":"Linux","password":true,"vac":true,"version":"7961495","steam_id":85568392924515188,"keywords":["cp","nocrits","nodmgspread","uncletopia"],"game_id":440,"stv_port":27046,"stv_name":"Uncletopia | Atlanta | 4 | Community | STV","players":[{"user_id":27,"name":"Liammeep","steam_id":76561198410713340,"connected_time":11000000000,"state":"spawning","ping":93},{"user_id":19,"name":"team fortress","steam_id":76561198801207748,"connected_time":534000000000,"state":"active","ping":45},{"user_id":22,"name":"Space Core","steam_id":76561199061965517,"connected_time":228000000000,"state":"active","ping":67},{"user_id":21,"name":"Pfc. BRUH [10th MD]","steam_id":76561198870051584,"connected_time":304000000000,"state":"active","ping":71},{"user_id":26,"name":"catrinaisahuman","steam_id":76561198281355729,"connected_time":102000000000,"state":"active","ping":75},{"user_id":24,"name":"Dr,Dan64","steam_id":76561199013363718,"connected_time":177000000000,"state":"active","ping":77},{"user_id":25,"name":"Feared Gamer","steam_id":76561198350127514,"connected_time":157000000000,"state":"active","ping":58}]},{"server_id":2,"name":"Uncletopia | Chicago | 1 | All Maps","name_short":"chi-1","host":"chi-1.us.uncletopia.com","port":27015,"enabled":true,"region":"us-central","cc":"us","latitude":41.881832,"longitude":-87.62318,"reserved":0,"last_update":"0001-01-01T00:00:00Z","name_a2s":"Uncletopia | Chicago | 1 | All Maps","protocol":17,"map":"pl_swiftwater_final1","folder":"tf","game":"Team Fortress","app_id":440,"player_count":24,"max_players":24,"Bots":0,"server_type":"Dedicated","server_os":"Linux","password":true,"vac":true,"version":"7961495","steam_id":85568392924469984,"keywords":["nocrits","nodmgspread","payload","uncletopia"],"game_id":440,"stv_port":27016,"stv_name":"Uncletopia | Chicago | 1 | All Maps | STV","players":[{"user_id":240,"name":"fresco","steam_id":76561199101199477,"connected_time":114000000000,"state":"active","ping":55},{"user_id":225,"name":"Asanez3","steam_id":76561198037381436,"connected_time":1088000000000,"state":"active","ping":78},{"user_id":198,"name":"¡No te entiendo inglés!","steam_id":76561198298364415,"connected_time":2557000000000,"state":"active","ping":122},{"user_id":236,"name":"winning","steam_id":76561198003206947,"connected_time":615000000000,"state":"active","ping":66},{"user_id":201,"name":"Deluxe_Taco34","steam_id":76561199037653437,"connected_time":2429000000000,"state":"active","ping":104},{"user_id":226,"name":"pHsHy","steam_id":76561198013195018,"connected_time":1085000000000,"state":"active","ping":76},{"user_id":227,"name":"Emberdened","steam_id":76561199163688421,"connected_time":1085000000000,"state":"active","ping":97},{"user_id":237,"name":"Terry Crews from Brooklyn 99","steam_id":76561198357806819,"connected_time":562000000000,"state":"active","ping":76},{"user_id":215,"name":"Ritartit","steam_id":76561198257109863,"connected_time":1676000000000,"state":"active","ping":62},{"user_id":171,"name":"Poop Deck Joe","steam_id":76561198271397568,"connected_time":4124000000000,"state":"active","ping":88},{"user_id":217,"name":"Wagemage","steam_id":76561198013625580,"connected_time":1407000000000,"state":"active","ping":63},{"user_id":223,"name":"Squid's","steam_id":76561198826820952,"connected_time":1100000000000,"state":"active","ping":66},{"user_id":143,"name":"poopybutt420","steam_id":76561199000805315,"connected_time":6398000000000,"state":"active","ping":92},{"user_id":211,"name":"Dr_Cecil","steam_id":76561198873862113,"connected_time":1887000000000,"state":"active","ping":106},{"user_id":188,"name":"man shut the fuck up","steam_id":76561198142756572,"connected_time":3227000000000,"state":"active","ping":60},{"user_id":235,"name":"Kirat","steam_id":76561198060071234,"connected_time":802000000000,"state":"active","ping":62},{"user_id":210,"name":"robe","steam_id":76561198238166694,"connected_time":1922000000000,"state":"active","ping":56},{"user_id":238,"name":"Brumpo Tungus","steam_id":76561198054669779,"connected_time":467000000000,"state":"active","ping":58},{"user_id":228,"name":"SKETCHPUNK","steam_id":76561198092249249,"connected_time":1082000000000,"state":"active","ping":53},{"user_id":229,"name":"Eugene Hinkle","steam_id":76561198442729982,"connected_time":1076000000000,"state":"active","ping":75},{"user_id":161,"name":"krueger","steam_id":76561198268654031,"connected_time":4862000000000,"state":"active","ping":51},{"user_id":209,"name":"BradB.","steam_id":76561199163905036,"connected_time":2004000000000,"state":"active","ping":78},{"user_id":230,"name":"vandeer","steam_id":76561198120124007,"connected_time":1065000000000,"state":"active","ping":121},{"user_id":239,"name":"Novu","steam_id":76561198886997024,"connected_time":456000000000,"state":"active","ping":86}]},{"server_id":106,"name":"Uncletopia | Chicago | 2 | All Maps","name_short":"chi-2","host":"chi-1.us.uncletopia.com","port":27025,"enabled":true,"region":"us-central","cc":"us","latitude":41.881832,"longitude":-87.62318,"reserved":0,"last_update":"0001-01-01T00:00:00Z","name_a2s":"Uncletopia | Chicago | 2 | All Maps","protocol":17,"map":"tc_hydro","folder":"tf","game":"Team Fortress","app_id":440,"player_count":24,"max_players":24,"Bots":0,"server_type":"Dedicated","server_os":"Linux","password":true,"vac":true,"version":"7961495","steam_id":85568392924469985,"keywords":["cp","misc","nocrits","nodmgspread","tc","uncletopia"],"game_id":440,"stv_port":27026,"stv_name":"Uncletopia | Chicago | 2 | All Maps | STV","players":[{"user_id":295,"name":"MedRed™ #IATAH","steam_id":76561198002962970,"connected_time":4239000000000,"state":"active","ping":103},{"user_id":320,"name":"Chirunomo","steam_id":76561197963956138,"connected_time":1605000000000,"state":"active","ping":113},{"user_id":333,"name":"DDayFilms","steam_id":76561198352986491,"connected_time":121000000000,"state":"active","ping":93},{"user_id":322,"name":"giant_dork","steam_id":76561199105606956,"connected_time":1586000000000,"state":"active","ping":68},{"user_id":314,"name":"Dokkibai","steam_id":76561198355935693,"connected_time":2240000000000,"state":"active","ping":45},{"user_id":309,"name":"yELLow","steam_id":76561198178488195,"connected_time":2640000000000,"state":"active","ping":63},{"user_id":335,"name":"peachy","steam_id":76561199148597957,"connected_time":5000000000,"state":"spawning","ping":75},{"user_id":265,"name":"Buckler","steam_id":76561197969421355,"connected_time":5971000000000,"state":"active","ping":75},{"user_id":303,"name":"Lia_Rein","steam_id":76561198151569597,"connected_time":3737000000000,"state":"active","ping":143},{"user_id":74,"name":"Sonic Mania 2 [100 Real Leaked","steam_id":76561198062764039,"connected_time":24775000000000,"state":"active","ping":164},{"user_id":325,"name":"Zoot","steam_id":76561198121944243,"connected_time":809000000000,"state":"active","ping":48},{"user_id":307,"name":"Architect","steam_id":76561198015242016,"connected_time":3031000000000,"state":"active","ping":45},{"user_id":332,"name":"Zhukov","steam_id":76561199006602717,"connected_time":170000000000,"state":"active","ping":87},{"user_id":271,"name":"Laventhey","steam_id":76561198977523626,"connected_time":5303000000000,"state":"active","ping":69},{"user_id":327,"name":"Jack","steam_id":76561198079575891,"connected_time":387000000000,"state":"active","ping":143},{"user_id":294,"name":"Clean Lines","steam_id":76561197960691518,"connected_time":4248000000000,"state":"active","ping":45},{"user_id":268,"name":"Icybullets","steam_id":76561198950782310,"connected_time":5624000000000,"state":"active","ping":70},{"user_id":318,"name":"Shockwhale","steam_id":76561198019445127,"connected_time":1746000000000,"state":"active","ping":62},{"user_id":259,"name":"hej","steam_id":76561197996366940,"connected_time":6419000000000,"state":"active","ping":60},{"user_id":313,"name":"NeoN","steam_id":76561198117608366,"connected_time":2336000000000,"state":"active","ping":52},{"user_id":334,"name":"Mavrick","steam_id":76561198039678150,"connected_time":26000000000,"state":"spawning","ping":45},{"user_id":324,"name":"Quartzalcoatl","steam_id":76561198044944584,"connected_time":1565000000000,"state":"active","ping":88},{"user_id":289,"name":"Chicago Shoplifter","steam_id":76561197986530028,"connected_time":4308000000000,"state":"active","ping":94},{"user_id":330,"name":"grayflingsnap098","steam_id":76561199142779872,"connected_time":200000000000,"state":"active","ping":60}]},{"server_id":402,"name":"Uncletopia | Chicago | 3 | All Maps","name_short":"chi-3","host":"chi-1.us.uncletopia.com","port":27035,"enabled":true,"region":"us-central","cc":"us","latitude":41.881832,"longitude":-87.62318,"reserved":0,"last_update":"0001-01-01T00:00:00Z","name_a2s":"Uncletopia | Chicago | 3 | All Maps","protocol":17,"map":"pl_barnblitz","folder":"tf","game":"Team Fortress","app_id":440,"player_count":24,"max_players":24,"Bots":0,"server_type":"Dedicated","server_os":"Linux","password":true,"vac":true,"version":"7961495","steam_id":85568392924515191,"keywords":["nocrits","nodmgspread","payload","uncletopia"],"game_id":440,"stv_port":27036,"stv_name":"Uncletopia | Chicago | 3 | All Maps | STV","players":[{"user_id":321,"name":"Hazeyboi","steam_id":76561198130687838,"connected_time":1813000000000,"state":"active","ping":45},{"user_id":322,"name":"garypiss","steam_id":76561198066790131,"connected_time":1807000000000,"state":"active","ping":69},{"user_id":286,"name":"rickyrickyricky","steam_id":76561198041765918,"connected_time":5720000000000,"state":"active","ping":78},{"user_id":344,"name":"tobrehto","steam_id":76561198097544038,"connected_time":110000000000,"state":"active","ping":94},{"user_id":339,"name":"https://popnmusic.fandom.com","steam_id":76561198061497429,"connected_time":507000000000,"state":"active","ping":70},{"user_id":324,"name":"Mer","steam_id":76561198192171041,"connected_time":1800000000000,"state":"active","ping":148},{"user_id":294,"name":"sock_vendor","steam_id":76561198059103865,"connected_time":4260000000000,"state":"active","ping":73},{"user_id":297,"name":"=Silver=","steam_id":76561198292307127,"connected_time":4057000000000,"state":"active","ping":96},{"user_id":325,"name":"Kick Down Door 6:00AM TUCK☃RO","steam_id":76561197976146738,"connected_time":1797000000000,"state":"active","ping":83},{"user_id":345,"name":"swagaholic","steam_id":76561199014715203,"connected_time":98000000000,"state":"active","ping":113},{"user_id":336,"name":"Psychosis","steam_id":76561198078659070,"connected_time":674000000000,"state":"active","ping":69},{"user_id":299,"name":"GuyGoom","steam_id":76561198254522178,"connected_time":4011000000000,"state":"active","ping":60},{"user_id":311,"name":"Robo Boss","steam_id":76561199067098696,"connected_time":3183000000000,"state":"active","ping":83},{"user_id":315,"name":"Firedust19","steam_id":76561198153238631,"connected_time":2461000000000,"state":"active","ping":113},{"user_id":333,"name":"JetZ","steam_id":76561199122488957,"connected_time":1243000000000,"state":"active","ping":71},{"user_id":308,"name":"the.land.of.avalon","steam_id":76561198245431668,"connected_time":3485000000000,"state":"active","ping":54},{"user_id":341,"name":"U ω U","steam_id":76561198118802562,"connected_time":322000000000,"state":"active","ping":115},{"user_id":327,"name":"cotton","steam_id":76561198018652890,"connected_time":1790000000000,"state":"active","ping":68},{"user_id":334,"name":"yomommasabitch","steam_id":76561198323217150,"connected_time":1073000000000,"state":"active","ping":61},{"user_id":337,"name":"ѕυ【ʕ•ᴥ•ʔ】","steam_id":76561198071233302,"connected_time":608000000000,"state":"active","ping":97},{"user_id":335,"name":"The Roto Grip Exotic Gem","steam_id":76561197961141994,"connected_time":840000000000,"state":"active","ping":84},{"user_id":316,"name":"tony","steam_id":76561199085242309,"connected_time":2431000000000,"state":"active","ping":102},{"user_id":340,"name":"Workplace Daydreamer","steam_id":76561199230019748,"connected_time":499000000000,"state":"active","ping":86},{"user_id":330,"name":"Hallowedspoon","steam_id":76561199141350399,"connected_time":1744000000000,"state":"active","ping":81}]},{"server_id":403,"name":"Uncletopia | Chicago | 4 | All Maps","name_short":"chi-4","host":"chi-1.us.uncletopia.com","port":27045,"enabled":true,"region":"us-central","cc":"us","latitude":41.881832,"longitude":-87.62318,"reserved":0,"last_update":"0001-01-01T00:00:00Z","name_a2s":"Uncletopia | Chicago | 4 | All Maps","protocol":17,"map":"cp_process_final","folder":"tf","game":"Team Fortress","app_id":440,"player_count":24,"max_players":24,"Bots":0,"server_type":"Dedicated","server_os":"Linux","password":true,"vac":true,"version":"7961495","steam_id":85568392924515193,"keywords":["cp","nocrits","nodmgspread","uncletopia"],"game_id":440,"stv_port":27046,"stv_name":"Uncletopia | Chicago | 4 | All Maps | STV","players":[{"user_id":213,"name":"Moebius Bois","steam_id":76561198068071397,"connected_time":198000000000,"state":"active","ping":50},{"user_id":205,"name":"PileofPolygons","steam_id":76561199321343460,"connected_time":440000000000,"state":"active","ping":69},{"user_id":201,"name":"majima construction employee","steam_id":76561198441246401,"connected_time":943000000000,"state":"active","ping":55},{"user_id":176,"name":"Shoeshocker","steam_id":76561198174302467,"connected_time":2645000000000,"state":"active","ping":66},{"user_id":198,"name":"GoodleShoes/ttv","steam_id":76561198030993521,"connected_time":1321000000000,"state":"active","ping":68},{"user_id":206,"name":"Cam","steam_id":76561198139174433,"connected_time":416000000000,"state":"active","ping":89},{"user_id":202,"name":"jxh300","steam_id":76561199196579894,"connected_time":570000000000,"state":"active","ping":70},{"user_id":190,"name":"just call me joe","steam_id":76561198043911582,"connected_time":1988000000000,"state":"active","ping":60},{"user_id":207,"name":"✨✨ BOILING PIZZA ✨✨","steam_id":76561198354108114,"connected_time":413000000000,"state":"active","ping":85},{"user_id":161,"name":"DualiTea","steam_id":76561198081733870,"connected_time":4031000000000,"state":"active","ping":46},{"user_id":112,"name":"The World's Softest Sandwich","steam_id":76561198015577707,"connected_time":8552000000000,"state":"active","ping":80},{"user_id":172,"name":"rei ayanami plush (real)","steam_id":76561198401646789,"connected_time":3004000000000,"state":"active","ping":86},{"user_id":209,"name":"superbad","steam_id":76561198065913973,"connected_time":358000000000,"state":"active","ping":105},{"user_id":120,"name":"Homocide","steam_id":76561199500265332,"connected_time":7135000000000,"state":"active","ping":66},{"user_id":192,"name":"TrOgDoR o==[]:::::::::::\u003e ^.=.^","steam_id":76561198041079607,"connected_time":1958000000000,"state":"active","ping":45},{"user_id":210,"name":"Andrew","steam_id":76561198070615190,"connected_time":330000000000,"state":"active","ping":60},{"user_id":155,"name":"jimmyfnaf172198yay","steam_id":76561198311446636,"connected_time":4556000000000,"state":"active","ping":60},{"user_id":211,"name":"Sunflower","steam_id":76561198081223793,"connected_time":318000000000,"state":"active","ping":55},{"user_id":197,"name":"uzr","steam_id":76561198799343084,"connected_time":1357000000000,"state":"active","ping":105},{"user_id":188,"name":"sadako","steam_id":76561198170642407,"connected_time":2066000000000,"state":"active","ping":75},{"user_id":212,"name":"shoutyman","steam_id":76561198055456198,"connected_time":310000000000,"state":"active","ping":76},{"user_id":144,"name":"beta central","steam_id":76561198301876831,"connected_time":5714000000000,"state":"active","ping":57},{"user_id":110,"name":"Fresh Lychee","steam_id":76561198045399559,"connected_time":8789000000000,"state":"active","ping":59},{"user_id":196,"name":"DiamondEpsilon","steam_id":76561198203883311,"connected_time":1706000000000,"state":"active","ping":90}]},{"server_id":36,"name":"Uncletopia | Chicago | 5 | All Maps","name_short":"chi-5","host":"chi-2.us.uncletopia.com","port":27015,"enabled":true,"region":"us-central","cc":"us","latitude":41.881832,"longitude":-87.62318,"reserved":0,"last_update":"0001-01-01T00:00:00Z","name_a2s":"Uncletopia | Chicago | 5 | All Maps","protocol":17,"map":"pl_badwater","folder":"tf","game":"Team Fortress","app_id":440,"player_count":24,"max_players":24,"Bots":0,"server_type":"Dedicated","server_os":"Linux","password":true,"vac":true,"version":"7961495","steam_id":85568392924866362,"keywords":["nocrits","nodmgspread","payload","uncletopia"],"game_id":440,"stv_port":27016,"stv_name":"Uncletopia | Chicago | 5 | All Maps | STV","players":[{"user_id":20,"name":"Mr.President","steam_id":76561198971144834,"connected_time":2811000000000,"state":"active","ping":70},{"user_id":21,"name":"SpaceLeezerd","steam_id":76561198171026678,"connected_time":2714000000000,"state":"active","ping":52},{"user_id":22,"name":"Big Bill Haywood","steam_id":76561198142290733,"connected_time":2682000000000,"state":"active","ping":81},{"user_id":41,"name":"101_the_Robot","steam_id":76561198331039848,"connected_time":2156000000000,"state":"active","ping":159},{"user_id":54,"name":"Breakaway","steam_id":76561198089308523,"connected_time":1518000000000,"state":"active","ping":88},{"user_id":55,"name":"good boy","steam_id":76561198012590103,"connected_time":1312000000000,"state":"active","ping":61},{"user_id":42,"name":"gideon nav my beloved","steam_id":76561198259092181,"connected_time":2140000000000,"state":"active","ping":61},{"user_id":29,"name":"Squiddy_odd","steam_id":76561198849240604,"connected_time":2413000000000,"state":"active","ping":77},{"user_id":31,"name":"JGatsby","steam_id":76561198023307584,"connected_time":2366000000000,"state":"active","ping":56},{"user_id":32,"name":"󠁳 ⁧fortnite56k","steam_id":76561198404564240,"connected_time":2359000000000,"state":"active","ping":71},{"user_id":33,"name":"bingus :3","steam_id":76561199198633203,"connected_time":2355000000000,"state":"active","ping":101},{"user_id":34,"name":"SneakyJayMLP","steam_id":76561198969565685,"connected_time":2354000000000,"state":"active","ping":73},{"user_id":35,"name":"Xrath","steam_id":76561198220741860,"connected_time":2354000000000,"state":"active","ping":67},{"user_id":36,"name":"bonk man","steam_id":76561198386542309,"connected_time":2347000000000,"state":"active","ping":95},{"user_id":37,"name":"Kduck","steam_id":76561198092171095,"connected_time":2337000000000,"state":"active","ping":68},{"user_id":59,"name":"Nicopico","steam_id":76561198080371321,"connected_time":843000000000,"state":"active","ping":59},{"user_id":58,"name":"sea pig","steam_id":76561198068257774,"connected_time":869000000000,"state":"active","ping":95},{"user_id":60,"name":"IAmAProfesonal","steam_id":76561199171858953,"connected_time":353000000000,"state":"active","ping":57},{"user_id":64,"name":"kiwiichie ₍ᐢᐢ₎","steam_id":76561198315449521,"connected_time":61000000000,"state":"active","ping":113},{"user_id":46,"name":"el wiwi","steam_id":76561198857304367,"connected_time":2039000000000,"state":"active","ping":80},{"user_id":47,"name":"bdkaine1","steam_id":76561198133545467,"connected_time":2001000000000,"state":"active","ping":63},{"user_id":61,"name":"A_Malebolgia","steam_id":76561198097722818,"connected_time":352000000000,"state":"active","ping":95},{"user_id":65,"name":"St4pps","steam_id":76561198449842958,"connected_time":37000000000,"state":"active","ping":68},{"user_id":63,"name":"Carson","steam_id":76561198076771071,"connected_time":236000000000,"state":"active","ping":54}]},{"server_id":37,"name":"Uncletopia | Chicago | 6 | All Maps","name_short":"chi-6","host":"chi-2.us.uncletopia.com","port":27025,"enabled":true,"region":"us-central","cc":"us","latitude":41.881832,"longitude":-87.62318,"reserved":0,"last_update":"0001-01-01T00:00:00Z","name_a2s":"Uncletopia | Chicago | 6 | All Maps","protocol":17,"map":"koth_harvest_final","folder":"tf","game":"Team Fortress","app_id":440,"player_count":23,"max_players":24,"Bots":0,"server_type":"Dedicated","server_os":"Linux","password":true,"vac":true,"version":"7961495","steam_id":85568392924866363,"keywords":["cp","nocrits","nodmgspread","uncletopia"],"game_id":440,"stv_port":27026,"stv_name":"Uncletopia | Chicago | 6 | All Maps | STV","players":[{"user_id":289,"name":"Nestor","steam_id":76561198070782619,"connected_time":825000000000,"state":"active","ping":65},{"user_id":252,"name":"Octto","steam_id":76561198070124921,"connected_time":4524000000000,"state":"active","ping":64},{"user_id":299,"name":"DiegoVal12","steam_id":76561198408509079,"connected_time":44000000000,"state":"active","ping":114},{"user_id":275,"name":"Acro","steam_id":76561198092451804,"connected_time":1684000000000,"state":"active","ping":70},{"user_id":262,"name":"Monterfart","steam_id":76561198125034271,"connected_time":3359000000000,"state":"active","ping":72},{"user_id":290,"name":"canakblasteran","steam_id":76561199472518822,"connected_time":816000000000,"state":"active","ping":104},{"user_id":291,"name":"misterspud","steam_id":76561198195306218,"connected_time":793000000000,"state":"active","ping":55},{"user_id":244,"name":"the zoo","steam_id":76561198013732450,"connected_time":4963000000000,"state":"active","ping":48},{"user_id":256,"name":"jan kili","steam_id":76561198289894834,"connected_time":3762000000000,"state":"active","ping":68},{"user_id":274,"name":"barefoot fruitscato","steam_id":76561198094225038,"connected_time":1857000000000,"state":"active","ping":53},{"user_id":287,"name":"msay","steam_id":76561198170888029,"connected_time":860000000000,"state":"active","ping":102},{"user_id":239,"name":"KILO","steam_id":76561199023056716,"connected_time":5365000000000,"state":"active","ping":81},{"user_id":297,"name":"Axis","steam_id":76561197969568037,"connected_time":215000000000,"state":"active","ping":76},{"user_id":292,"name":"darkelaine227","steam_id":76561198097330521,"connected_time":784000000000,"state":"active","ping":155},{"user_id":254,"name":"S1r Gibby","steam_id":76561198107152354,"connected_time":4128000000000,"state":"active","ping":52},{"user_id":232,"name":"Peepster","steam_id":76561198297854733,"connected_time":5983000000000,"state":"active","ping":72},{"user_id":293,"name":"Anarchist","steam_id":76561198357953488,"connected_time":609000000000,"state":"active","ping":65},{"user_id":233,"name":"DaMultiversalist","steam_id":76561198239552412,"connected_time":5938000000000,"state":"active","ping":71},{"user_id":237,"name":"ed cook","steam_id":76561198043987486,"connected_time":5405000000000,"state":"active","ping":65},{"user_id":300,"name":"wool","steam_id":76561198332704108,"connected_time":11000000000,"state":"active","ping":71},{"user_id":268,"name":"jolo","steam_id":76561198042831480,"connected_time":2319000000000,"state":"active","ping":64},{"user_id":258,"name":"canerom","steam_id":76561199037536878,"connected_time":3737000000000,"state":"active","ping":87},{"user_id":190,"name":"Claybae","steam_id":76561198064290179,"connected_time":8201000000000,"state":"active","ping":83}]},{"server_id":38,"name":"Uncletopia | Chicago | 7 | Stopwatch","name_short":"chi-7","host":"chi-2.us.uncletopia.com","port":27035,"enabled":true,"region":"us-central","cc":"us","latitude":41.881832,"longitude":-87.62318,"reserved":0,"last_update":"0001-01-01T00:00:00Z","name_a2s":"Uncletopia | Chicago | 7 | Stopwatch","protocol":17,"map":"workshop/koth_product_final.ugc454272353","folder":"tf","game":"Team Fortress","app_id":440,"player_count":0,"max_players":24,"Bots":0,"server_type":"Dedicated","server_os":"Linux","password":true,"vac":true,"version":"7961495","steam_id":85568392924866364,"keywords":["cp","nocrits","nodmgspread","uncletopia"],"game_id":440,"stv_port":27036,"stv_name":"Uncletopia | Chicago | 7 | Stopwatch | STV","players":null},{"server_id":39,"name":"Uncletopia | Chicago | 8 | Community","name_short":"chi-8","host":"chi-2.us.uncletopia.com","port":27045,"enabled":true,"region":"us-central","cc":"us","latitude":41.881832,"longitude":-87.62318,"reserved":0,"last_update":"0001-01-01T00:00:00Z","name_a2s":"Uncletopia | Chicago | 8 | Community","protocol":17,"map":"workshop/koth_product_final.ugc454272353","folder":"tf","game":"Team Fortress","app_id":440,"player_count":0,"max_players":24,"Bots":0,"server_type":"Dedicated","server_os":"Linux","password":true,"vac":true,"version":"7961495","steam_id":85568392924866365,"keywords":["cp","nocrits","nodmgspread","uncletopia"],"game_id":440,"stv_port":27046,"stv_name":"Uncletopia | Chicago | 8 | Community | STV","players":null},{"server_id":8,"name":"Uncletopia | Dallas | 1 | All Maps","name_short":"dal-1","host":"dal-1.us.uncletopia.com","port":27015,"enabled":true,"region":"us-central","cc":"us","latitude":32.779167,"longitude":-96.80889,"reserved":0,"last_update":"0001-01-01T00:00:00Z","name_a2s":"Uncletopia | Dallas | 1 | All Maps","protocol":17,"map":"cp_snakewater_final1","folder":"tf","game":"Team Fortress","app_id":440,"player_count":24,"max_players":24,"Bots":0,"server_type":"Dedicated","server_os":"Linux","password":true,"vac":true,"version":"7961495","steam_id":85568392924469986,"keywords":["cp","nocrits","nodmgspread","uncletopia"],"game_id":440,"stv_port":27016,"stv_name":"Uncletopia | Dallas | 1 | All Maps | STV","players":[{"user_id":155,"name":"JayTheNoob247_","steam_id":76561199348803437,"connected_time":5540000000000,"state":"active","ping":95},{"user_id":220,"name":"big drink","steam_id":76561198882758067,"connected_time":541000000000,"state":"active","ping":66},{"user_id":224,"name":"z_blues","steam_id":76561198303296267,"connected_time":152000000000,"state":"active","ping":86},{"user_id":191,"name":"hounschellxd","steam_id":76561198165243870,"connected_time":3693000000000,"state":"active","ping":48},{"user_id":192,"name":"Glizzy Gladiator","steam_id":76561198255306298,"connected_time":3481000000000,"state":"active","ping":61},{"user_id":212,"name":"neet","steam_id":76561197968115168,"connected_time":807000000000,"state":"active","ping":74},{"user_id":222,"name":"UnforeseenCabbages","steam_id":76561198079386608,"connected_time":279000000000,"state":"active","ping":74},{"user_id":213,"name":"techdeck","steam_id":76561199022751661,"connected_time":779000000000,"state":"active","ping":65},{"user_id":217,"name":"Deltaco","steam_id":76561198094572694,"connected_time":725000000000,"state":"active","ping":122},{"user_id":223,"name":"Granola","steam_id":76561198312513800,"connected_time":276000000000,"state":"active","ping":68},{"user_id":178,"name":"Final Boss","steam_id":76561198006081383,"connected_time":4547000000000,"state":"active","ping":87},{"user_id":198,"name":"Dragus","steam_id":76561198032967285,"connected_time":3103000000000,"state":"active","ping":69},{"user_id":221,"name":"Caught w/ various knickknacks","steam_id":76561198364706359,"connected_time":437000000000,"state":"active","ping":99},{"user_id":218,"name":"Sweet Tooth","steam_id":76561198830158092,"connected_time":683000000000,"state":"active","ping":84},{"user_id":216,"name":"Hayden Jacobs","steam_id":76561198082200738,"connected_time":765000000000,"state":"active","ping":91},{"user_id":62,"name":"Rennsellaer","steam_id":76561198096207580,"connected_time":14435000000000,"state":"active","ping":81},{"user_id":186,"name":"aviarAzul","steam_id":76561198802088064,"connected_time":3898000000000,"state":"active","ping":87},{"user_id":210,"name":"bear","steam_id":76561198313696546,"connected_time":1373000000000,"state":"active","ping":95},{"user_id":188,"name":"CampinCarl","steam_id":76561197997373624,"connected_time":3880000000000,"state":"active","ping":81},{"user_id":219,"name":"frog gaming","steam_id":76561198323926258,"connected_time":642000000000,"state":"active","ping":53},{"user_id":201,"name":"\u003e:J","steam_id":76561198353456379,"connected_time":3077000000000,"state":"active","ping":62},{"user_id":189,"name":"Captain Demytri","steam_id":76561198097998607,"connected_time":3868000000000,"state":"active","ping":76},{"user_id":194,"name":"Valenhart","steam_id":76561198354036240,"connected_time":3431000000000,"state":"active","ping":96},{"user_id":195,"name":"Lain","steam_id":76561198029303534,"connected_time":3180000000000,"state":"active","ping":60}]},{"server_id":108,"name":"Uncletopia | Dallas | 2 | All Maps","name_short":"dal-2","host":"dal-1.us.uncletopia.com","port":27025,"enabled":true,"region":"us-central","cc":"us","latitude":32.779167,"longitude":-96.80889,"reserved":0,"last_update":"0001-01-01T00:00:00Z","name_a2s":"Uncletopia | Dallas | 2 | All Maps","protocol":17,"map":"pl_borneo","folder":"tf","game":"Team Fortress","app_id":440,"player_count":24,"max_players":24,"Bots":0,"server_type":"Dedicated","server_os":"Linux","password":true,"vac":true,"version":"7961495","steam_id":85568392924469988,"keywords":["nocrits","nodmgspread","payload","uncletopia"],"game_id":440,"stv_port":27026,"stv_name":"Uncletopia | Dallas | 2 | All Maps | STV","players":[{"user_id":240,"name":"Snoopy","steam_id":76561198273735974,"connected_time":1965000000000,"state":"active","ping":71},{"user_id":259,"name":"surf","steam_id":76561198136838719,"connected_time":1003000000000,"state":"active","ping":61},{"user_id":231,"name":"Alkimia","steam_id":76561198385763137,"connected_time":2519000000000,"state":"active","ping":132},{"user_id":263,"name":"terminal depression","steam_id":76561198010171636,"connected_time":191000000000,"state":"active","ping":72},{"user_id":252,"name":"GROOMER KILLER","steam_id":76561198059500571,"connected_time":1100000000000,"state":"active","ping":61},{"user_id":230,"name":"a rabbit with a keyboard","steam_id":76561198129051488,"connected_time":2592000000000,"state":"active","ping":76},{"user_id":257,"name":"gooch_masta","steam_id":76561198151578423,"connected_time":1056000000000,"state":"active","ping":86},{"user_id":197,"name":"Kdash","steam_id":76561198043829155,"connected_time":3920000000000,"state":"active","ping":59},{"user_id":251,"name":"Quick-Fix","steam_id":76561198295501978,"connected_time":1175000000000,"state":"active","ping":60},{"user_id":183,"name":"Can You Feel It Mr.Krabs","steam_id":76561198128302414,"connected_time":4389000000000,"state":"active","ping":70},{"user_id":264,"name":"King Baldski","steam_id":76561198359568400,"connected_time":158000000000,"state":"active","ping":142},{"user_id":254,"name":"Gerard","steam_id":76561198053456194,"connected_time":1088000000000,"state":"active","ping":60},{"user_id":261,"name":"El Bondin","steam_id":76561198820792434,"connected_time":675000000000,"state":"active","ping":98},{"user_id":255,"name":"Queuetimeevent","steam_id":76561198079438423,"connected_time":1082000000000,"state":"active","ping":60},{"user_id":213,"name":"bunny","steam_id":76561198194067598,"connected_time":3512000000000,"state":"active","ping":82},{"user_id":227,"name":"The Sydney Sleeper Itself","steam_id":76561198180251763,"connected_time":2650000000000,"state":"active","ping":63},{"user_id":256,"name":"Aino","steam_id":76561198053662930,"connected_time":1069000000000,"state":"active","ping":113},{"user_id":258,"name":"Rat Smacker","steam_id":76561199090197628,"connected_time":1051000000000,"state":"active","ping":70},{"user_id":246,"name":"Open Mailbox","steam_id":76561198051933580,"connected_time":1516000000000,"state":"active","ping":110},{"user_id":244,"name":"lego star wars on the psp","steam_id":76561198148014773,"connected_time":1687000000000,"state":"active","ping":100},{"user_id":262,"name":"mata","steam_id":76561198083884120,"connected_time":634000000000,"state":"active","ping":72},{"user_id":228,"name":"Hero Smasher","steam_id":76561198150681669,"connected_time":2648000000000,"state":"active","ping":95},{"user_id":260,"name":"jumpingjacks","steam_id":76561197964839440,"connected_time":881000000000,"state":"active","ping":81},{"user_id":120,"name":"Birby","steam_id":76561198884009768,"connected_time":5164000000000,"state":"active","ping":104}]},{"server_id":404,"name":"Uncletopia | Dallas | 3 | All Maps","name_short":"dal-3","host":"dal-1.us.uncletopia.com","port":27035,"enabled":true,"region":"us-central","cc":"us","latitude":32.779167,"longitude":-96.80889,"reserved":0,"last_update":"0001-01-01T00:00:00Z","name_a2s":"Uncletopia | Dallas | 3 | All Maps","protocol":17,"map":"cp_sunshine","folder":"tf","game":"Team Fortress","app_id":440,"player_count":24,"max_players":24,"Bots":0,"server_type":"Dedicated","server_os":"Linux","password":true,"vac":true,"version":"7961495","steam_id":85568392924515219,"keywords":["cp","nocrits","nodmgspread","uncletopia"],"game_id":440,"stv_port":27036,"stv_name":"Uncletopia | Dallas | 3 | All Maps | STV","players":[{"user_id":73,"name":"CamWtheDestroyer","steam_id":76561198950777742,"connected_time":1634000000000,"state":"active","ping":145},{"user_id":77,"name":"for the king","steam_id":76561197973488858,"connected_time":1554000000000,"state":"active","ping":75},{"user_id":92,"name":"⭐ aloha! :3 ⭐","steam_id":76561198148517055,"connected_time":116000000000,"state":"active","ping":119},{"user_id":88,"name":"a bucket of chicken","steam_id":76561198023710042,"connected_time":498000000000,"state":"active","ping":60},{"user_id":12,"name":"Jobius","steam_id":76561198145561348,"connected_time":5132000000000,"state":"active","ping":75},{"user_id":37,"name":"The Family Business","steam_id":76561198107249245,"connected_time":4103000000000,"state":"active","ping":68},{"user_id":85,"name":"Pnobio","steam_id":76561197998863667,"connected_time":922000000000,"state":"active","ping":136},{"user_id":91,"name":"Magnet Dood","steam_id":76561198364178746,"connected_time":172000000000,"state":"active","ping":79},{"user_id":78,"name":"Joe the Hooligan","steam_id":76561198814429079,"connected_time":1537000000000,"state":"active","ping":63},{"user_id":49,"name":"checkswing","steam_id":76561198999816132,"connected_time":3157000000000,"state":"active","ping":104},{"user_id":19,"name":"Drained","steam_id":76561198081974528,"connected_time":4541000000000,"state":"active","ping":65},{"user_id":42,"name":"Al Cabone","steam_id":76561198956823243,"connected_time":3427000000000,"state":"active","ping":62},{"user_id":71,"name":"GenericName","steam_id":76561198104074968,"connected_time":1719000000000,"state":"active","ping":72},{"user_id":79,"name":"Jovo","steam_id":76561197993265970,"connected_time":1530000000000,"state":"active","ping":98},{"user_id":65,"name":"mkl","steam_id":76561197986401685,"connected_time":2037000000000,"state":"active","ping":58},{"user_id":90,"name":"Green Bastard","steam_id":76561198033885983,"connected_time":210000000000,"state":"active","ping":75},{"user_id":83,"name":"motherofdragons96","steam_id":76561198864779097,"connected_time":1213000000000,"state":"active","ping":86},{"user_id":39,"name":"Whompert","steam_id":76561198042939624,"connected_time":3878000000000,"state":"active","ping":96},{"user_id":82,"name":"bobbymcbobington","steam_id":76561199089411172,"connected_time":1222000000000,"state":"active","ping":120},{"user_id":54,"name":"otw way to mars off the bars","steam_id":76561199085974120,"connected_time":2826000000000,"state":"active","ping":88},{"user_id":38,"name":"b0urbaki7","steam_id":76561198141342345,"connected_time":3979000000000,"state":"active","ping":92},{"user_id":84,"name":"Chromatic Bliss","steam_id":76561198252604816,"connected_time":1024000000000,"state":"active","ping":100},{"user_id":87,"name":"Cool_Turp","steam_id":76561198372130308,"connected_time":628000000000,"state":"active","ping":57},{"user_id":76,"name":"terrapieseven","steam_id":76561198072062415,"connected_time":1623000000000,"state":"active","ping":100}]},{"server_id":405,"name":"Uncletopia | Dallas | 4 | Community","name_short":"dal-4","host":"dal-1.us.uncletopia.com","port":27045,"enabled":true,"region":"us-central","cc":"us","latitude":32.779167,"longitude":-96.80889,"reserved":0,"last_update":"0001-01-01T00:00:00Z","name_a2s":"Uncletopia | Dallas | 4 | Community","protocol":17,"map":"pl_pier","folder":"tf","game":"Team Fortress","app_id":440,"player_count":0,"max_players":24,"Bots":0,"server_type":"Dedicated","server_os":"Linux","password":true,"vac":true,"version":"7961495","steam_id":85568392924515220,"keywords":["nocrits","nodmgspread","payload","uncletopia"],"game_id":440,"stv_port":27046,"stv_name":"Uncletopia | Dallas | 4 | Community | STV","players":null},{"server_id":5,"name":"Uncletopia | Frankfurt | 1 | All Maps","name_short":"frk-1","host":"frk-1.de.uncletopia.com","port":27015,"enabled":true,"region":"eu","cc":"de","latitude":50.110924,"longitude":8.682127,"reserved":0,"last_update":"0001-01-01T00:00:00Z","name_a2s":"Uncletopia | Frankfurt | 1 | All Maps","protocol":17,"map":"pl_upward","folder":"tf","game":"Team Fortress","app_id":440,"player_count":23,"max_players":24,"Bots":0,"server_type":"Dedicated","server_os":"Linux","password":true,"vac":true,"version":"7961495","steam_id":85568392924469989,"keywords":["nocrits","nodmgspread","payload","uncletopia"],"game_id":440,"stv_port":27016,"stv_name":"Uncletopia | Frankfurt | 1 | All Maps | STV","players":[{"user_id":476,"name":"dumbai","steam_id":76561199098418729,"connected_time":1027000000000,"state":"active","ping":104},{"user_id":483,"name":"♂ MGE ♂ PUPSIK ♂","steam_id":76561198308302932,"connected_time":782000000000,"state":"active","ping":89},{"user_id":471,"name":"sp00ky","steam_id":76561199181412601,"connected_time":1434000000000,"state":"active","ping":171},{"user_id":472,"name":"dash.","steam_id":76561198084796149,"connected_time":1416000000000,"state":"active","ping":51},{"user_id":482,"name":"Arsonist","steam_id":76561199087953833,"connected_time":824000000000,"state":"active","ping":117},{"user_id":467,"name":"Nonok","steam_id":76561199480685498,"connected_time":1564000000000,"state":"active","ping":62},{"user_id":475,"name":"Fran","steam_id":76561199070516960,"connected_time":1232000000000,"state":"active","ping":63},{"user_id":492,"name":"STORM↯","steam_id":76561198002220409,"connected_time":56000000000,"state":"active","ping":88},{"user_id":486,"name":"LeGerooo","steam_id":76561199110422160,"connected_time":377000000000,"state":"active","ping":92},{"user_id":487,"name":"viddy","steam_id":76561198004383856,"connected_time":374000000000,"state":"active","ping":84},{"user_id":450,"name":"domek","steam_id":76561198048447632,"connected_time":2970000000000,"state":"active","ping":62},{"user_id":477,"name":"Caliban","steam_id":76561197999696839,"connected_time":1025000000000,"state":"active","ping":101},{"user_id":479,"name":"fischman","steam_id":76561199064142670,"connected_time":998000000000,"state":"active","ping":58},{"user_id":435,"name":"NO end to POOTIS","steam_id":76561198144879361,"connected_time":3898000000000,"state":"active","ping":129},{"user_id":436,"name":"Dmitry Kerman","steam_id":76561198300020540,"connected_time":3837000000000,"state":"active","ping":101},{"user_id":463,"name":"Dewritos Nacho Red","steam_id":76561198048324872,"connected_time":2017000000000,"state":"active","ping":58},{"user_id":481,"name":"Syll","steam_id":76561198040736202,"connected_time":844000000000,"state":"active","ping":85},{"user_id":484,"name":"Lux","steam_id":76561198060417740,"connected_time":617000000000,"state":"active","ping":57},{"user_id":480,"name":"ALARM","steam_id":76561198120686521,"connected_time":988000000000,"state":"active","ping":51},{"user_id":422,"name":"coffee","steam_id":76561198382387303,"connected_time":4448000000000,"state":"active","ping":84},{"user_id":491,"name":"kaiji_saleh","steam_id":76561199274325425,"connected_time":126000000000,"state":"active","ping":223},{"user_id":453,"name":"skippy","steam_id":76561198171958773,"connected_time":2661000000000,"state":"active","ping":67},{"user_id":489,"name":"f0x","steam_id":76561198072921704,"connected_time":355000000000,"state":"active","ping":58}]},{"server_id":110,"name":"Uncletopia | Frankfurt | 2 | All Maps","name_short":"frk-2","host":"frk-1.de.uncletopia.com","port":27025,"enabled":true,"region":"eu","cc":"de","latitude":50.110924,"longitude":8.682127,"reserved":0,"last_update":"0001-01-01T00:00:00Z","name_a2s":"Uncletopia | Frankfurt | 2 | All Maps","protocol":17,"map":"cp_dustbowl","folder":"tf","game":"Team Fortress","app_id":440,"player_count":21,"max_players":24,"Bots":0,"server_type":"Dedicated","server_os":"Linux","password":true,"vac":true,"version":"7961495","steam_id":85568392924469990,"keywords":["cp","nocrits","nodmgspread","uncletopia"],"game_id":440,"stv_port":27026,"stv_name":"Uncletopia | Frankfurt | 2 | All Maps | STV","players":[{"user_id":316,"name":"Wardruna96","steam_id":76561199057083828,"connected_time":8132000000000,"state":"active","ping":68},{"user_id":400,"name":"Testicular torsion","steam_id":76561198119547399,"connected_time":843000000000,"state":"active","ping":68},{"user_id":401,"name":"Blu","steam_id":76561198194054443,"connected_time":660000000000,"state":"active","ping":50},{"user_id":324,"name":"Tactical Kerbal","steam_id":76561198212970205,"connected_time":7311000000000,"state":"active","ping":65},{"user_id":379,"name":"kastanomata","steam_id":76561198271832763,"connected_time":2341000000000,"state":"active","ping":66},{"user_id":387,"name":"videogaming","steam_id":76561198251927912,"connected_time":1815000000000,"state":"active","ping":76},{"user_id":389,"name":"Matbanan","steam_id":76561198228537672,"connected_time":1391000000000,"state":"active","ping":83},{"user_id":391,"name":"scoutcasper","steam_id":76561199019266022,"connected_time":1345000000000,"state":"active","ping":50},{"user_id":367,"name":"grigobno","steam_id":76561198037018719,"connected_time":3239000000000,"state":"active","ping":104},{"user_id":396,"name":"Master Of Noob","steam_id":76561198217926783,"connected_time":1054000000000,"state":"active","ping":65},{"user_id":398,"name":"Fabian","steam_id":76561199071627976,"connected_time":953000000000,"state":"active","ping":61},{"user_id":369,"name":"CheesingBond","steam_id":76561198034939270,"connected_time":3231000000000,"state":"active","ping":101},{"user_id":380,"name":"hipster_doofus","steam_id":76561197970902697,"connected_time":2278000000000,"state":"active","ping":69},{"user_id":377,"name":"1914","steam_id":76561198257383813,"connected_time":2697000000000,"state":"active","ping":40},{"user_id":402,"name":"desmo_","steam_id":76561198023528339,"connected_time":659000000000,"state":"active","ping":65},{"user_id":394,"name":"SʟɪᴘEɴOʀ","steam_id":76561197967931911,"connected_time":1271000000000,"state":"active","ping":107},{"user_id":404,"name":"Apox","steam_id":76561198008005377,"connected_time":282000000000,"state":"active","ping":44},{"user_id":403,"name":"Finem Belli","steam_id":76561198227177976,"connected_time":293000000000,"state":"active","ping":45},{"user_id":267,"name":"CzechMate #SaveTF2","steam_id":76561198012687703,"connected_time":10753000000000,"state":"active","ping":45},{"user_id":357,"name":"YARrICk.«+»","steam_id":76561197990126485,"connected_time":4840000000000,"state":"active","ping":64},{"user_id":363,"name":"mediocre-sniper","steam_id":76561198010428082,"connected_time":3422000000000,"state":"active","ping":68}]},{"server_id":308,"name":"Uncletopia | Frankfurt | 3 | All Maps","name_short":"frk-3","host":"frk-1.de.uncletopia.com","port":27035,"enabled":true,"region":"eu","cc":"de","latitude":50.110924,"longitude":8.682127,"reserved":0,"last_update":"0001-01-01T00:00:00Z","name_a2s":"Uncletopia | Frankfurt | 3 | All Maps","protocol":17,"map":"pl_borneo","folder":"tf","game":"Team Fortress","app_id":440,"player_count":24,"max_players":24,"Bots":0,"server_type":"Dedicated","server_os":"Linux","password":true,"vac":true,"version":"7961495","steam_id":85568392924504274,"keywords":["nocrits","nodmgspread","payload","uncletopia"],"game_id":440,"stv_port":27036,"stv_name":"Uncletopia | Frankfurt | 3 | All Maps | STV","players":[{"user_id":413,"name":"Archive","steam_id":76561198071255385,"connected_time":941000000000,"state":"active","ping":82},{"user_id":433,"name":"ethanol inhaling specialist","steam_id":76561198090152271,"connected_time":366000000000,"state":"active","ping":70},{"user_id":434,"name":"Ocrim_R","steam_id":76561198050479516,"connected_time":350000000000,"state":"active","ping":50},{"user_id":435,"name":"milikicz","steam_id":76561198050626103,"connected_time":347000000000,"state":"active","ping":59},{"user_id":431,"name":"jt7","steam_id":76561198073655162,"connected_time":429000000000,"state":"active","ping":68},{"user_id":436,"name":"ScaryTree","steam_id":76561199384362833,"connected_time":325000000000,"state":"active","ping":59},{"user_id":429,"name":"Imperial City Guard","steam_id":76561198083355845,"connected_time":491000000000,"state":"active","ping":59},{"user_id":437,"name":"deflox","steam_id":76561198087450635,"connected_time":324000000000,"state":"active","ping":45},{"user_id":438,"name":"digilith","steam_id":76561199106966802,"connected_time":323000000000,"state":"active","ping":108},{"user_id":403,"name":"Riky95","steam_id":76561198095289436,"connected_time":1431000000000,"state":"active","ping":45},{"user_id":368,"name":"AndrewToasterr #SaveTF2","steam_id":76561198107159512,"connected_time":4055000000000,"state":"active","ping":53},{"user_id":444,"name":"ILoveMyMom420Blaze","steam_id":76561198981016492,"connected_time":257000000000,"state":"active","ping":60},{"user_id":445,"name":"pootis sentry","steam_id":76561199225363633,"connected_time":227000000000,"state":"active","ping":114},{"user_id":328,"name":"The Daniella","steam_id":76561198023075547,"connected_time":7085000000000,"state":"active","ping":66},{"user_id":446,"name":"epictrumpet","steam_id":76561198120873433,"connected_time":221000000000,"state":"active","ping":72},{"user_id":399,"name":"Nox Equites","steam_id":76561198115438449,"connected_time":2108000000000,"state":"active","ping":99},{"user_id":440,"name":"donatofina","steam_id":76561198353497885,"connected_time":303000000000,"state":"active","ping":85},{"user_id":400,"name":"Fired","steam_id":76561198054511813,"connected_time":1655000000000,"state":"active","ping":81},{"user_id":407,"name":"Bobo","steam_id":76561198052308399,"connected_time":1348000000000,"state":"active","ping":55},{"user_id":375,"name":"mr.resetti","steam_id":76561198974520642,"connected_time":3385000000000,"state":"active","ping":65},{"user_id":441,"name":"gr3821","steam_id":76561198091531010,"connected_time":297000000000,"state":"active","ping":58},{"user_id":364,"name":"flutterravie","steam_id":76561198020935990,"connected_time":4161000000000,"state":"active","ping":121},{"user_id":442,"name":"mex :3","steam_id":76561198091083324,"connected_time":297000000000,"state":"active","ping":68},{"user_id":443,"name":"Metalizer","steam_id":76561198099595082,"connected_time":296000000000,"state":"active","ping":76}]},{"server_id":309,"name":"Uncletopia | Frankfurt | 4 | All Maps","name_short":"frk-4","host":"frk-1.de.uncletopia.com","port":27045,"enabled":true,"region":"eu","cc":"de","latitude":50.110924,"longitude":8.682127,"reserved":0,"last_update":"0001-01-01T00:00:00Z","name_a2s":"Uncletopia | Frankfurt | 4 | All Maps","protocol":17,"map":"pl_upward","folder":"tf","game":"Team Fortress","app_id":440,"player_count":24,"max_players":24,"Bots":0,"server_type":"Dedicated","server_os":"Linux","password":true,"vac":true,"version":"7961495","steam_id":85568392924504275,"keywords":["nocrits","nodmgspread","payload","uncletopia"],"game_id":440,"stv_port":27046,"stv_name":"Uncletopia | Frankfurt | 4 | All Maps | STV","players":[{"user_id":579,"name":"After8","steam_id":76561198090750865,"connected_time":11000000000,"state":"active","ping":54},{"user_id":514,"name":"Egor Pomidor","steam_id":76561199175688390,"connected_time":4591000000000,"state":"active","ping":76},{"user_id":498,"name":"willus212","steam_id":76561199182615246,"connected_time":5492000000000,"state":"active","ping":106},{"user_id":536,"name":"realguy","steam_id":76561198821743257,"connected_time":3486000000000,"state":"active","ping":85},{"user_id":562,"name":"Splattted","steam_id":76561199327476294,"connected_time":1911000000000,"state":"active","ping":82},{"user_id":507,"name":"robbie","steam_id":76561198798195287,"connected_time":5039000000000,"state":"active","ping":60},{"user_id":546,"name":"General Petrov","steam_id":76561198027204104,"connected_time":2757000000000,"state":"active","ping":85},{"user_id":545,"name":"idenburg","steam_id":76561198063574956,"connected_time":2916000000000,"state":"active","ping":67},{"user_id":566,"name":"im a girl","steam_id":76561198101995942,"connected_time":1732000000000,"state":"active","ping":72},{"user_id":540,"name":"Delta","steam_id":76561198268912848,"connected_time":3412000000000,"state":"active","ping":76},{"user_id":574,"name":"Buford D. Luffy","steam_id":76561198129828715,"connected_time":861000000000,"state":"active","ping":60},{"user_id":577,"name":"Dīng.Zhèn1996","steam_id":76561198152681460,"connected_time":192000000000,"state":"active","ping":69},{"user_id":511,"name":"Kili","steam_id":76561198138456346,"connected_time":4786000000000,"state":"active","ping":55},{"user_id":565,"name":"Towercat","steam_id":76561198013141793,"connected_time":1762000000000,"state":"active","ping":73},{"user_id":578,"name":"Thin Diesel","steam_id":76561198364121077,"connected_time":129000000000,"state":"active","ping":85},{"user_id":487,"name":"Finnish Farmer","steam_id":76561198205366043,"connected_time":6214000000000,"state":"active","ping":77},{"user_id":568,"name":"Gamlader","steam_id":76561198306177608,"connected_time":1439000000000,"state":"active","ping":70},{"user_id":570,"name":"TheMilOne","steam_id":76561198058910512,"connected_time":1320000000000,"state":"active","ping":68},{"user_id":571,"name":"PhilipptheVI","steam_id":76561198037505721,"connected_time":1309000000000,"state":"active","ping":59},{"user_id":549,"name":"BabyYodaIsMySoda","steam_id":76561198321846861,"connected_time":2563000000000,"state":"active","ping":85},{"user_id":534,"name":"Scobra","steam_id":76561198000734400,"connected_time":3550000000000,"state":"active","ping":121},{"user_id":512,"name":"MIGHTY PISS","steam_id":76561198226378616,"connected_time":4784000000000,"state":"active","ping":81},{"user_id":572,"name":"Pudlich","steam_id":76561198300089671,"connected_time":1300000000000,"state":"active","ping":70},{"user_id":576,"name":"Dangerous Andrew","steam_id":76561198067218981,"connected_time":388000000000,"state":"active","ping":90}]},{"server_id":310,"name":"Uncletopia | Frankfurt | 5 | All Maps","name_short":"frk-5","host":"frk-1.de.uncletopia.com","port":27055,"enabled":true,"region":"eu","cc":"de","latitude":50.110924,"longitude":8.682127,"reserved":0,"last_update":"0001-01-01T00:00:00Z","name_a2s":"Uncletopia | Frankfurt | 5 | All Maps","protocol":17,"map":"pl_frontier_final","folder":"tf","game":"Team Fortress","app_id":440,"player_count":24,"max_players":24,"Bots":0,"server_type":"Dedicated","server_os":"Linux","password":true,"vac":true,"version":"7961495","steam_id":85568392924504277,"keywords":["nocrits","nodmgspread","payload","uncletopia"],"game_id":440,"stv_port":27056,"stv_name":"Uncletopia | Frankfurt | 5 | All Maps | STV","players":[{"user_id":457,"name":"maly's dog","steam_id":76561198261505536,"connected_time":444000000000,"state":"active","ping":61},{"user_id":458,"name":"one of a kind malewife","steam_id":76561198411069806,"connected_time":443000000000,"state":"active","ping":65},{"user_id":453,"name":"Alyx","steam_id":76561198064654326,"connected_time":968000000000,"state":"active","ping":71},{"user_id":417,"name":"Tony","steam_id":76561198128993838,"connected_time":3874000000000,"state":"active","ping":60},{"user_id":387,"name":"XPullaHiiri","steam_id":76561198031652375,"connected_time":5688000000000,"state":"active","ping":85},{"user_id":404,"name":"swashbuckler_helicopter1997","steam_id":76561198343328308,"connected_time":4732000000000,"state":"active","ping":65},{"user_id":440,"name":"G4merSz3mcsi (▰˘◡˘▰)","steam_id":76561199055233794,"connected_time":1586000000000,"state":"active","ping":77},{"user_id":434,"name":"Rimx","steam_id":76561198053034840,"connected_time":2667000000000,"state":"active","ping":91},{"user_id":407,"name":"eva","steam_id":76561198054474684,"connected_time":4328000000000,"state":"active","ping":69},{"user_id":463,"name":"kikithenorthwind","steam_id":76561199013581278,"connected_time":194000000000,"state":"active","ping":83},{"user_id":426,"name":"Nanope","steam_id":76561198040056071,"connected_time":3131000000000,"state":"active","ping":62},{"user_id":455,"name":"Lanz","steam_id":76561198126356394,"connected_time":793000000000,"state":"active","ping":54},{"user_id":452,"name":"Tugazu","steam_id":76561198144223649,"connected_time":1051000000000,"state":"active","ping":60},{"user_id":450,"name":"Tea","steam_id":76561198799243030,"connected_time":1117000000000,"state":"active","ping":76},{"user_id":414,"name":"Isak","steam_id":76561198085959762,"connected_time":3957000000000,"state":"active","ping":72},{"user_id":459,"name":"Boki","steam_id":76561198044553351,"connected_time":414000000000,"state":"active","ping":75},{"user_id":435,"name":"grassesmode.exe","steam_id":76561198090167960,"connected_time":2413000000000,"state":"active","ping":96},{"user_id":397,"name":"H.J.","steam_id":76561197991313578,"connected_time":5424000000000,"state":"active","ping":82},{"user_id":438,"name":"Toasty5050","steam_id":76561198073540881,"connected_time":2062000000000,"state":"active","ping":45},{"user_id":462,"name":"Baba Sraka","steam_id":76561198128292318,"connected_time":273000000000,"state":"active","ping":155},{"user_id":461,"name":":|","steam_id":76561198145232617,"connected_time":376000000000,"state":"active","ping":53},{"user_id":433,"name":"korea","steam_id":76561198120520111,"connected_time":2842000000000,"state":"active","ping":52},{"user_id":411,"name":"Trollstoy","steam_id":76561198072017175,"connected_time":4290000000000,"state":"active","ping":61},{"user_id":451,"name":"energiske erik","steam_id":76561198044616068,"connected_time":1114000000000,"state":"active","ping":95}]},{"server_id":311,"name":"Uncletopia | Frankfurt | 6 | All Maps","name_short":"frk-6","host":"frk-1.de.uncletopia.com","port":27065,"enabled":true,"region":"eu","cc":"de","latitude":50.110924,"longitude":8.682127,"reserved":0,"last_update":"0001-01-01T00:00:00Z","name_a2s":"Uncletopia | Frankfurt | 6 | All Maps","protocol":17,"map":"cp_sunshine","folder":"tf","game":"Team Fortress","app_id":440,"player_count":18,"max_players":24,"Bots":0,"server_type":"Dedicated","server_os":"Linux","password":true,"vac":true,"version":"7961495","steam_id":85568392924504278,"keywords":["cp","nocrits","nodmgspread","uncletopia"],"game_id":440,"stv_port":27066,"stv_name":"Uncletopia | Frankfurt | 6 | All Maps | STV","players":[{"user_id":731,"name":"WHO WAS IN PARIS?","steam_id":76561198071502515,"connected_time":43000000000,"state":"active","ping":60},{"user_id":702,"name":"Da bodi do","steam_id":76561198131055184,"connected_time":1057000000000,"state":"active","ping":52},{"user_id":727,"name":"zek","steam_id":76561198862763731,"connected_time":220000000000,"state":"active","ping":59},{"user_id":722,"name":"weaj","steam_id":76561198053628243,"connected_time":475000000000,"state":"active","ping":55},{"user_id":728,"name":"Evan","steam_id":76561198148414245,"connected_time":219000000000,"state":"active","ping":82},{"user_id":719,"name":"tommy","steam_id":76561198100267804,"connected_time":601000000000,"state":"active","ping":66},{"user_id":693,"name":"snowii","steam_id":76561198836246326,"connected_time":1222000000000,"state":"active","ping":68},{"user_id":729,"name":"Geff","steam_id":76561198120833245,"connected_time":161000000000,"state":"active","ping":85},{"user_id":730,"name":"Femto","steam_id":76561198044307112,"connected_time":155000000000,"state":"active","ping":68},{"user_id":631,"name":"Snowy","steam_id":76561198169992461,"connected_time":2608000000000,"state":"active","ping":66},{"user_id":723,"name":"R4yzan","steam_id":76561198085146731,"connected_time":394000000000,"state":"active","ping":60},{"user_id":690,"name":"goz","steam_id":76561198155229347,"connected_time":1276000000000,"state":"active","ping":45},{"user_id":707,"name":"Bobirulez","steam_id":76561198009125458,"connected_time":974000000000,"state":"active","ping":75},{"user_id":615,"name":"Rock..","steam_id":76561198004641963,"connected_time":4022000000000,"state":"active","ping":87},{"user_id":724,"name":"rob","steam_id":76561198122211848,"connected_time":275000000000,"state":"active","ping":88},{"user_id":720,"name":"Weegee","steam_id":76561198150308523,"connected_time":582000000000,"state":"active","ping":69},{"user_id":660,"name":"Remlap","steam_id":76561198097398971,"connected_time":1865000000000,"state":"active","ping":67},{"user_id":673,"name":"DEFENDOR62","steam_id":76561199386703896,"connected_time":1566000000000,"state":"active","ping":65}]},{"server_id":23,"name":"Uncletopia | Frankfurt | 7 | Stopwatch","name_short":"frk-7","host":"frk-1.de.uncletopia.com","port":27075,"enabled":true,"region":"eu","cc":"de","latitude":50.110924,"longitude":8.682127,"reserved":0,"last_update":"0001-01-01T00:00:00Z","name_a2s":"Uncletopia | Frankfurt | 7 | Stopwatch","protocol":17,"map":"workshop/koth_bagel_rc6.ugc2514036946","folder":"tf","game":"Team Fortress","app_id":440,"player_count":0,"max_players":24,"Bots":0,"server_type":"Dedicated","server_os":"Linux","password":true,"vac":true,"version":"7961495","steam_id":85568392924742827,"keywords":["cp","nocrits","nodmgspread","uncletopia"],"game_id":440,"stv_port":27076,"stv_name":"Uncletopia | Frankfurt | 7 | Stopwatch | STV","players":null},{"server_id":24,"name":"Uncletopia | Frankfurt | 8 | Community","name_short":"frk-8","host":"frk-1.de.uncletopia.com","port":27085,"enabled":true,"region":"eu","cc":"de","latitude":50.110924,"longitude":8.682127,"reserved":0,"last_update":"0001-01-01T00:00:00Z","name_a2s":"Uncletopia | Frankfurt | 8 | Community","protocol":17,"map":"workshop/koth_product_final.ugc454272353","folder":"tf","game":"Team Fortress","app_id":440,"player_count":7,"max_players":24,"Bots":0,"server_type":"Dedicated","server_os":"Linux","password":true,"vac":true,"version":"7961495","steam_id":85568392924742828,"keywords":["cp","nocrits","nodmgspread","uncletopia"],"game_id":440,"stv_port":27086,"stv_name":"Uncletopia | Frankfurt | 8 | Community | STV","players":[{"user_id":49,"name":"garr","steam_id":76561197983869811,"connected_time":30000000000,"state":"active","ping":51},{"user_id":45,"name":"Buterbrod","steam_id":76561198829880730,"connected_time":643000000000,"state":"active","ping":105},{"user_id":43,"name":"I-I","steam_id":76561198267969436,"connected_time":839000000000,"state":"active","ping":64},{"user_id":50,"name":"Apollo","steam_id":76561198866054007,"connected_time":1000000000,"state":"spawning","ping":47},{"user_id":38,"name":"F","steam_id":76561199149462792,"connected_time":1027000000000,"state":"active","ping":68},{"user_id":42,"name":"Ralistix","steam_id":76561198051654135,"connected_time":888000000000,"state":"active","ping":85},{"user_id":40,"name":"Sn1Ch","steam_id":76561198073076943,"connected_time":901000000000,"state":"active","ping":76}]},{"server_id":202,"name":"Uncletopia | Hong Kong | 1 | All Maps","name_short":"hgk-1","host":"hgk-1.hk.uncletopia.com","port":27015,"enabled":true,"region":"asia","cc":"hk","latitude":22.302711,"longitude":114.177216,"reserved":0,"last_update":"0001-01-01T00:00:00Z","name_a2s":"Uncletopia | Hong Kong | 1 | All Maps","protocol":17,"map":"cp_sunshine","folder":"tf","game":"Team Fortress","app_id":440,"player_count":0,"max_players":24,"Bots":0,"server_type":"Dedicated","server_os":"Linux","password":true,"vac":true,"version":"7961495","steam_id":85568392924494504,"keywords":["cp","nocrits","nodmgspread","uncletopia"],"game_id":440,"stv_port":27016,"stv_name":"Uncletopia | Hong Kong | 1 | All Maps | STV","players":null},{"server_id":1,"name":"Uncletopia | Los Angeles | 1 | All Maps","name_short":"lax-1","host":"lax-1.us.uncletopia.com","port":27015,"enabled":true,"region":"us-west","cc":"us","latitude":33.94279,"longitude":-118.41004,"reserved":0,"last_update":"0001-01-01T00:00:00Z","name_a2s":"Uncletopia | Los Angeles | 1 | All Maps","protocol":17,"map":"pl_pier","folder":"tf","game":"Team Fortress","app_id":440,"player_count":22,"max_players":24,"Bots":0,"server_type":"Dedicated","server_os":"Linux","password":true,"vac":true,"version":"7961495","steam_id":85568392924469991,"keywords":["nocrits","nodmgspread","payload","uncletopia"],"game_id":440,"stv_port":27016,"stv_name":"Uncletopia | Los Angeles | 1 | All Maps | STV","players":[{"user_id":152,"name":"Abu Shoosh","steam_id":76561198094990358,"connected_time":18000000000,"state":"spawning","ping":154},{"user_id":149,"name":"cielael","steam_id":76561198043971956,"connected_time":273000000000,"state":"active","ping":48},{"user_id":142,"name":"can of Heinz Beans","steam_id":76561198806423231,"connected_time":1417000000000,"state":"active","ping":88},{"user_id":129,"name":"Igrium","steam_id":76561198119549811,"connected_time":1993000000000,"state":"active","ping":101},{"user_id":135,"name":"Dracodemus","steam_id":76561198079518597,"connected_time":1926000000000,"state":"active","ping":103},{"user_id":126,"name":"BasedGod","steam_id":76561198061177973,"connected_time":2016000000000,"state":"active","ping":54},{"user_id":68,"name":"Useless","steam_id":76561198116079299,"connected_time":6643000000000,"state":"active","ping":98},{"user_id":148,"name":"Landlord","steam_id":76561198987913057,"connected_time":434000000000,"state":"active","ping":78},{"user_id":153,"name":"video games","steam_id":76561198334059206,"connected_time":14000000000,"state":"active","ping":109},{"user_id":151,"name":"supcupman","steam_id":76561198051513866,"connected_time":30000000000,"state":"active","ping":73},{"user_id":102,"name":"noceof","steam_id":76561198043656816,"connected_time":3967000000000,"state":"active","ping":175},{"user_id":140,"name":"Silverman_Cam","steam_id":76561198936168937,"connected_time":1632000000000,"state":"active","ping":57},{"user_id":138,"name":"Sleuth","steam_id":76561198418288939,"connected_time":1746000000000,"state":"spawning","ping":52},{"user_id":110,"name":"Pork Belly","steam_id":76561198053003142,"connected_time":3502000000000,"state":"active","ping":61},{"user_id":146,"name":"crimson","steam_id":76561198018725934,"connected_time":1012000000000,"state":"active","ping":47},{"user_id":124,"name":"ShamroknRoll","steam_id":76561198984165109,"connected_time":2388000000000,"state":"active","ping":58},{"user_id":150,"name":"M.I.R.A.I.Drive","steam_id":76561198098018436,"connected_time":45000000000,"state":"active","ping":74},{"user_id":121,"name":"oog","steam_id":76561199089730744,"connected_time":2703000000000,"state":"active","ping":58},{"user_id":141,"name":"cajun thotsauce","steam_id":76561198101636066,"connected_time":1622000000000,"state":"active","ping":53},{"user_id":147,"name":"Canuck","steam_id":76561197999152255,"connected_time":1012000000000,"state":"spawning","ping":258},{"user_id":145,"name":"HeroOfTime","steam_id":76561199096218001,"connected_time":1127000000000,"state":"active","ping":52},{"user_id":120,"name":"Max Headass","steam_id":76561198964210411,"connected_time":2917000000000,"state":"active","ping":36}]},{"server_id":112,"name":"Uncletopia | Los Angeles | 2 | All Maps","name_short":"lax-2","host":"lax-1.us.uncletopia.com","port":27025,"enabled":true,"region":"us-west","cc":"us","latitude":33.94279,"longitude":-118.41004,"reserved":0,"last_update":"0001-01-01T00:00:00Z","name_a2s":"Uncletopia | Los Angeles | 2 | All Maps","protocol":17,"map":"koth_highpass","folder":"tf","game":"Team Fortress","app_id":440,"player_count":0,"max_players":24,"Bots":0,"server_type":"Dedicated","server_os":"Linux","password":true,"vac":true,"version":"7961495","steam_id":85568392924469992,"keywords":["cp","nocrits","nodmgspread","uncletopia"],"game_id":440,"stv_port":27026,"stv_name":"Uncletopia | Los Angeles | 2 | All Maps | STV","players":null},{"server_id":324,"name":"Uncletopia | Los Angeles | 3 | All Maps","name_short":"lax-3","host":"lax-1.us.uncletopia.com","port":27035,"enabled":true,"region":"us-west","cc":"us","latitude":33.94279,"longitude":-118.41004,"reserved":0,"last_update":"0001-01-01T00:00:00Z","name_a2s":"Uncletopia | Los Angeles | 3 | All Maps","protocol":17,"map":"pl_badwater","folder":"tf","game":"Team Fortress","app_id":440,"player_count":0,"max_players":24,"Bots":0,"server_type":"Dedicated","server_os":"Linux","password":true,"vac":true,"version":"7961495","steam_id":85568392924510198,"keywords":["nocrits","nodmgspread","payload","uncletopia"],"game_id":440,"stv_port":27036,"stv_name":"Uncletopia | Los Angeles | 3 | All Maps | STV","players":null},{"server_id":25,"name":"Uncletopia | Los Angeles | 4 | Stopwatch","name_short":"lax-4","host":"lax-1.us.uncletopia.com","port":27045,"enabled":true,"region":"us-west","cc":"us","latitude":33.94279,"longitude":-118.41004,"reserved":0,"last_update":"0001-01-01T00:00:00Z","name_a2s":"Uncletopia | Los Angeles | 4 | Stopwatch","protocol":17,"map":"pl_barnblitz","folder":"tf","game":"Team Fortress","app_id":440,"player_count":0,"max_players":24,"Bots":0,"server_type":"Dedicated","server_os":"Linux","password":true,"vac":true,"version":"7961495","steam_id":85568392924510199,"keywords":["nocrits","nodmgspread","payload","uncletopia"],"game_id":440,"stv_port":27046,"stv_name":"Uncletopia | Los Angeles | 4 | Stopwatch | STV","players":null},{"server_id":11,"name":"Uncletopia | London | 1 | All Maps","name_short":"lon-1","host":"lon-1.uk.uncletopia.com","port":27015,"enabled":true,"region":"eu","cc":"gb","latitude":51.509865,"longitude":-0.118092,"reserved":0,"last_update":"0001-01-01T00:00:00Z","name_a2s":"Uncletopia | London | 1 | All Maps","protocol":17,"map":"cp_steel","folder":"tf","game":"Team Fortress","app_id":440,"player_count":24,"max_players":24,"Bots":0,"server_type":"Dedicated","server_os":"Linux","password":true,"vac":true,"version":"7961495","steam_id":85568392924367362,"keywords":["cp","nocrits","nodmgspread","uncletopia"],"game_id":440,"stv_port":27016,"stv_name":"Uncletopia | London | 1 | All Maps | STV","players":[{"user_id":635,"name":"bowchika wowa #SlavaUkraine","steam_id":76561198159564550,"connected_time":799000000000,"state":"active","ping":75},{"user_id":639,"name":"AKA_Sloth","steam_id":76561198031264376,"connected_time":785000000000,"state":"active","ping":73},{"user_id":593,"name":"Janneke Maan","steam_id":76561198069290924,"connected_time":6112000000000,"state":"active","ping":57},{"user_id":628,"name":"jimmy bob","steam_id":76561198319583692,"connected_time":1634000000000,"state":"active","ping":61},{"user_id":588,"name":"rigel_","steam_id":76561198148640847,"connected_time":6317000000000,"state":"active","ping":78},{"user_id":653,"name":"The Engineer","steam_id":76561199437330739,"connected_time":79000000000,"state":"active","ping":59},{"user_id":652,"name":"I like apple","steam_id":76561198108115790,"connected_time":82000000000,"state":"active","ping":49},{"user_id":609,"name":"SpacePig","steam_id":76561198044662873,"connected_time":3155000000000,"state":"active","ping":100},{"user_id":651,"name":"oskaroku00","steam_id":76561199025360128,"connected_time":116000000000,"state":"active","ping":67},{"user_id":633,"name":"{UA} tom shelbey","steam_id":76561198080912087,"connected_time":810000000000,"state":"active","ping":74},{"user_id":654,"name":"A Vegan","steam_id":76561198208606452,"connected_time":53000000000,"state":"active","ping":102},{"user_id":648,"name":"Plep","steam_id":76561198840259819,"connected_time":464000000000,"state":"active","ping":60},{"user_id":642,"name":"brotalium","steam_id":76561198055439054,"connected_time":726000000000,"state":"active","ping":130},{"user_id":655,"name":"Collie","steam_id":76561198149072785,"connected_time":43000000000,"state":"spawning","ping":56},{"user_id":569,"name":"shooer!","steam_id":76561198110531281,"connected_time":7666000000000,"state":"active","ping":69},{"user_id":656,"name":"Aaron","steam_id":76561197990046953,"connected_time":2000000000,"state":"spawning","ping":51},{"user_id":598,"name":"DaVitsChi","steam_id":76561199035895096,"connected_time":4908000000000,"state":"active","ping":82},{"user_id":641,"name":"Pomson Gaming","steam_id":76561199200442395,"connected_time":774000000000,"state":"active","ping":78},{"user_id":558,"name":"Anri Okita's Massive Milkers","steam_id":76561199186352720,"connected_time":8004000000000,"state":"active","ping":66},{"user_id":636,"name":"Swip3r","steam_id":76561198039789772,"connected_time":796000000000,"state":"active","ping":39},{"user_id":631,"name":"KnugenIV","steam_id":76561198127091993,"connected_time":851000000000,"state":"active","ping":58},{"user_id":643,"name":"kanasta","steam_id":76561198206177349,"connected_time":660000000000,"state":"active","ping":70},{"user_id":650,"name":"James","steam_id":76561198168882012,"connected_time":152000000000,"state":"active","ping":55},{"user_id":637,"name":"the coom slayer (2016)","steam_id":76561198890193313,"connected_time":796000000000,"state":"active","ping":60}]},{"server_id":114,"name":"Uncletopia | London | 2 | All Maps","name_short":"lon-2","host":"lon-1.uk.uncletopia.com","port":27025,"enabled":true,"region":"eu","cc":"gb","latitude":51.509865,"longitude":-0.118092,"reserved":0,"last_update":"0001-01-01T00:00:00Z","name_a2s":"Uncletopia | London | 2 | All Maps","protocol":17,"map":"cp_mountainlab","folder":"tf","game":"Team Fortress","app_id":440,"player_count":24,"max_players":24,"Bots":0,"server_type":"Dedicated","server_os":"Linux","password":true,"vac":true,"version":"7961495","steam_id":85568392924470941,"keywords":["cp","nocrits","nodmgspread","uncletopia"],"game_id":440,"stv_port":27026,"stv_name":"Uncletopia | London | 2 | All Maps | STV","players":[{"user_id":534,"name":"pomson gaming (real)","steam_id":76561198411292601,"connected_time":910000000000,"state":"active","ping":129},{"user_id":601,"name":"Kiri pour le ftour","steam_id":76561198203256418,"connected_time":53000000000,"state":"active","ping":63},{"user_id":573,"name":"tomboys in skirts","steam_id":76561199017293122,"connected_time":441000000000,"state":"active","ping":71},{"user_id":558,"name":"raebbitos","steam_id":76561198167580006,"connected_time":674000000000,"state":"active","ping":57},{"user_id":597,"name":"jonathan porkstar","steam_id":76561198067055238,"connected_time":180000000000,"state":"active","ping":67},{"user_id":511,"name":"siriusplay116","steam_id":76561199403847433,"connected_time":1435000000000,"state":"active","ping":55},{"user_id":481,"name":"Barry Bee Benson","steam_id":76561198115199225,"connected_time":4126000000000,"state":"active","ping":59},{"user_id":554,"name":"Bludbucket","steam_id":76561198156224952,"connected_time":707000000000,"state":"active","ping":45},{"user_id":505,"name":"Palm Trees","steam_id":76561198111462976,"connected_time":1576000000000,"state":"active","ping":56},{"user_id":472,"name":"Joetron","steam_id":76561198267907985,"connected_time":4958000000000,"state":"active","ping":50},{"user_id":440,"name":"Penis Contortionist","steam_id":76561198073663784,"connected_time":6674000000000,"state":"active","ping":37},{"user_id":535,"name":"slug","steam_id":76561198065902089,"connected_time":909000000000,"state":"active","ping":67},{"user_id":538,"name":"BaCyka","steam_id":76561198029333533,"connected_time":900000000000,"state":"active","ping":60},{"user_id":536,"name":"( ͡° ͜ʖ ͡°)","steam_id":76561199196316280,"connected_time":906000000000,"state":"active","ping":94},{"user_id":396,"name":"howabe","steam_id":76561197996486818,"connected_time":9874000000000,"state":"active","ping":62},{"user_id":504,"name":"whatever","steam_id":76561198095943461,"connected_time":1667000000000,"state":"active","ping":78},{"user_id":598,"name":"Ransu","steam_id":76561198211750823,"connected_time":167000000000,"state":"active","ping":63},{"user_id":579,"name":"y6uu'LL,a MeДBeД9I","steam_id":76561198084701676,"connected_time":302000000000,"state":"active","ping":90},{"user_id":539,"name":"Scout Guy","steam_id":76561198097293587,"connected_time":892000000000,"state":"active","ping":77},{"user_id":540,"name":"[kot.bob]","steam_id":76561198990993971,"connected_time":890000000000,"state":"active","ping":135},{"user_id":541,"name":"Dmskooje","steam_id":76561198127600559,"connected_time":885000000000,"state":"active","ping":58},{"user_id":549,"name":"ATARAKSIA","steam_id":76561198119392756,"connected_time":801000000000,"state":"active","ping":90},{"user_id":543,"name":"Flick","steam_id":76561198001067990,"connected_time":858000000000,"state":"active","ping":57},{"user_id":544,"name":"csgn_tank","steam_id":76561199124027537,"connected_time":856000000000,"state":"active","ping":57}]},{"server_id":320,"name":"Uncletopia | London | 3 | All Maps","name_short":"lon-3","host":"lon-1.uk.uncletopia.com","port":27035,"enabled":true,"region":"eu","cc":"gb","latitude":51.509865,"longitude":-0.118092,"reserved":0,"last_update":"0001-01-01T00:00:00Z","name_a2s":"Uncletopia | London | 3 | All Maps","protocol":17,"map":"cp_steel","folder":"tf","game":"Team Fortress","app_id":440,"player_count":20,"max_players":24,"Bots":0,"server_type":"Dedicated","server_os":"Linux","password":true,"vac":true,"version":"7961495","steam_id":85568392924510192,"keywords":["cp","nocrits","nodmgspread","uncletopia"],"game_id":440,"stv_port":27036,"stv_name":"Uncletopia | London | 3 | All Maps | STV","players":[{"user_id":440,"name":"splarvis","steam_id":76561198007792525,"connected_time":576000000000,"state":"active","ping":30},{"user_id":437,"name":"Live Slug Reaction:","steam_id":76561199398026346,"connected_time":633000000000,"state":"active","ping":54},{"user_id":451,"name":"Peggle 2","steam_id":76561198056572014,"connected_time":235000000000,"state":"active","ping":74},{"user_id":446,"name":"Hitotsume","steam_id":76561198129157178,"connected_time":463000000000,"state":"active","ping":78},{"user_id":441,"name":"Freddy Fazbear","steam_id":76561198299179114,"connected_time":553000000000,"state":"active","ping":70},{"user_id":423,"name":"Shoeman","steam_id":76561198126726364,"connected_time":2774000000000,"state":"active","ping":58},{"user_id":442,"name":"Suspicious Viktor","steam_id":76561198136496249,"connected_time":536000000000,"state":"active","ping":70},{"user_id":420,"name":"TheBeardedM1G","steam_id":76561198040208946,"connected_time":3246000000000,"state":"active","ping":44},{"user_id":435,"name":"Bulyto","steam_id":76561198043205202,"connected_time":1347000000000,"state":"active","ping":74},{"user_id":450,"name":"anson2623","steam_id":76561198147658525,"connected_time":264000000000,"state":"active","ping":47},{"user_id":447,"name":"Ivarsmon","steam_id":76561198997393231,"connected_time":462000000000,"state":"active","ping":77},{"user_id":444,"name":"Average meme enjoyer","steam_id":76561199087566663,"connected_time":516000000000,"state":"active","ping":89},{"user_id":276,"name":"Ixsus\u003c3","steam_id":76561198094756869,"connected_time":13118000000000,"state":"active","ping":61},{"user_id":411,"name":"NotChloe","steam_id":76561198080658092,"connected_time":3702000000000,"state":"active","ping":62},{"user_id":448,"name":"cora","steam_id":76561199474154775,"connected_time":359000000000,"state":"active","ping":60},{"user_id":424,"name":"yuno appreciator","steam_id":76561198083286511,"connected_time":2562000000000,"state":"active","ping":33},{"user_id":431,"name":"My left foot itches","steam_id":76561198078411001,"connected_time":1463000000000,"state":"active","ping":86},{"user_id":282,"name":"Vilmukas","steam_id":76561199106648396,"connected_time":13071000000000,"state":"active","ping":62},{"user_id":380,"name":"Jarppa!","steam_id":76561197995834786,"connected_time":6299000000000,"state":"active","ping":76},{"user_id":402,"name":"Zero Sleep Gaming","steam_id":76561198982674420,"connected_time":4351000000000,"state":"active","ping":44}]},{"server_id":321,"name":"Uncletopia | London | 4 | All Maps","name_short":"lon-4","host":"lon-1.uk.uncletopia.com","port":27045,"enabled":true,"region":"eu","cc":"gb","latitude":51.509865,"longitude":-0.118092,"reserved":0,"last_update":"0001-01-01T00:00:00Z","name_a2s":"Uncletopia | London | 4 | All Maps","protocol":17,"map":"pl_badwater","folder":"tf","game":"Team Fortress","app_id":440,"player_count":24,"max_players":24,"Bots":0,"server_type":"Dedicated","server_os":"Linux","password":true,"vac":true,"version":"7961495","steam_id":85568392924510193,"keywords":["nocrits","nodmgspread","payload","uncletopia"],"game_id":440,"stv_port":27046,"stv_name":"Uncletopia | London | 4 | All Maps | STV","players":[{"user_id":533,"name":"Rad","steam_id":76561199001560866,"connected_time":2130000000000,"state":"active","ping":70},{"user_id":534,"name":"golfmastr","steam_id":76561198993144124,"connected_time":2110000000000,"state":"active","ping":58},{"user_id":538,"name":"Biggest Homie","steam_id":76561198373107677,"connected_time":1909000000000,"state":"active","ping":97},{"user_id":449,"name":"ABSOLUTE UNIT","steam_id":76561197972287320,"connected_time":8825000000000,"state":"active","ping":91},{"user_id":564,"name":"Turtle","steam_id":76561198053254139,"connected_time":27000000000,"state":"spawning","ping":89},{"user_id":547,"name":"Ceasar","steam_id":76561198056590853,"connected_time":986000000000,"state":"active","ping":58},{"user_id":556,"name":"FastAsF*ckBoi","steam_id":76561198160453803,"connected_time":435000000000,"state":"active","ping":84},{"user_id":554,"name":"gio","steam_id":76561198219185620,"connected_time":527000000000,"state":"active","ping":92},{"user_id":565,"name":"Cypher","steam_id":76561197996967254,"connected_time":15000000000,"state":"active","ping":63},{"user_id":545,"name":"KermSlinger","steam_id":76561198854027069,"connected_time":1119000000000,"state":"active","ping":70},{"user_id":558,"name":"Mineflow","steam_id":76561199073568116,"connected_time":426000000000,"state":"active","ping":103},{"user_id":559,"name":"fl1p","steam_id":76561198148565659,"connected_time":399000000000,"state":"active","ping":82},{"user_id":481,"name":"Vitun vittu","steam_id":76561198110679463,"connected_time":6084000000000,"state":"active","ping":61},{"user_id":507,"name":"ST4F","steam_id":76561198262924022,"connected_time":3420000000000,"state":"active","ping":50},{"user_id":540,"name":"Shine","steam_id":76561198136297981,"connected_time":1642000000000,"state":"active","ping":82},{"user_id":511,"name":"Aspartus","steam_id":76561198101385763,"connected_time":3150000000000,"state":"active","ping":43},{"user_id":484,"name":"sui","steam_id":76561198185348855,"connected_time":5796000000000,"state":"active","ping":83},{"user_id":520,"name":"The Chosen One","steam_id":76561199046984627,"connected_time":2773000000000,"state":"active","ping":159},{"user_id":544,"name":"Xtis","steam_id":76561198043837480,"connected_time":1141000000000,"state":"active","ping":65},{"user_id":539,"name":"yuck","steam_id":76561197987249568,"connected_time":1714000000000,"state":"active","ping":105},{"user_id":543,"name":"chickenoidi","steam_id":76561198449498382,"connected_time":1371000000000,"state":"active","ping":104},{"user_id":521,"name":"Bagel","steam_id":76561198167747447,"connected_time":2770000000000,"state":"active","ping":126},{"user_id":524,"name":"Nittugai","steam_id":76561198067366462,"connected_time":2564000000000,"state":"active","ping":60},{"user_id":561,"name":"Senior","steam_id":76561198065014164,"connected_time":261000000000,"state":"active","ping":45}]},{"server_id":21,"name":"Uncletopia | London | 5 | All Maps","name_short":"lon-5","host":"lon-1.uk.uncletopia.com","port":27055,"enabled":true,"region":"eu","cc":"gb","latitude":51.509865,"longitude":-0.118092,"reserved":0,"last_update":"0001-01-01T00:00:00Z","name_a2s":"Uncletopia | London | 5 | All Maps","protocol":17,"map":"pl_upward","folder":"tf","game":"Team Fortress","app_id":440,"player_count":24,"max_players":24,"Bots":0,"server_type":"Dedicated","server_os":"Linux","password":true,"vac":true,"version":"7961495","steam_id":85568392924742829,"keywords":["nocrits","nodmgspread","payload","uncletopia"],"game_id":440,"stv_port":27056,"stv_name":"Uncletopia | London | 5 | All Maps | STV","players":[{"user_id":333,"name":"Oak","steam_id":76561198067315672,"connected_time":2521000000000,"state":"active","ping":45},{"user_id":359,"name":"Box Man","steam_id":76561198220732252,"connected_time":601000000000,"state":"active","ping":55},{"user_id":255,"name":"Ullr","steam_id":76561198140547483,"connected_time":5935000000000,"state":"active","ping":44},{"user_id":293,"name":"GMsU | Rebikas","steam_id":76561198077053764,"connected_time":4867000000000,"state":"active","ping":54},{"user_id":311,"name":"I I | #saveTF2","steam_id":76561199101935057,"connected_time":3994000000000,"state":"active","ping":103},{"user_id":338,"name":"worgeral","steam_id":76561198050781898,"connected_time":2435000000000,"state":"active","ping":57},{"user_id":316,"name":"fortnite sweat","steam_id":76561198865534979,"connected_time":3685000000000,"state":"active","ping":56},{"user_id":361,"name":"2006 Mitsubishi Lancer","steam_id":76561198036632498,"connected_time":116000000000,"state":"active","ping":44},{"user_id":310,"name":"Technic","steam_id":76561198128096130,"connected_time":4134000000000,"state":"active","ping":55},{"user_id":356,"name":"Hasamnas","steam_id":76561199125038537,"connected_time":819000000000,"state":"active","ping":54},{"user_id":362,"name":"Bepperman","steam_id":76561198397517828,"connected_time":111000000000,"state":"active","ping":54},{"user_id":343,"name":"Kahvi","steam_id":76561198723244199,"connected_time":1964000000000,"state":"active","ping":86},{"user_id":276,"name":"JodeXtreme","steam_id":76561198044132935,"connected_time":5645000000000,"state":"active","ping":93},{"user_id":339,"name":"Grim the lemon","steam_id":76561199083433988,"connected_time":2396000000000,"state":"active","ping":81},{"user_id":354,"name":"etc","steam_id":76561197998394797,"connected_time":1164000000000,"state":"active","ping":56},{"user_id":352,"name":"Visphiric","steam_id":76561198071938027,"connected_time":1347000000000,"state":"active","ping":37},{"user_id":341,"name":"Louna","steam_id":76561198393344301,"connected_time":2117000000000,"state":"active","ping":94},{"user_id":346,"name":"Carrot","steam_id":76561198119340863,"connected_time":1920000000000,"state":"active","ping":43},{"user_id":349,"name":"Dombe","steam_id":76561198289424045,"connected_time":1600000000000,"state":"active","ping":61},{"user_id":336,"name":"Wyvern786","steam_id":76561199137770636,"connected_time":2447000000000,"state":"active","ping":81},{"user_id":330,"name":"shh.... tiny carrots r sleeping","steam_id":76561198069649097,"connected_time":2932000000000,"state":"active","ping":67},{"user_id":360,"name":"devlos","steam_id":76561198022211519,"connected_time":461000000000,"state":"active","ping":84},{"user_id":358,"name":"Hooty","steam_id":76561198365932023,"connected_time":739000000000,"state":"active","ping":54},{"user_id":308,"name":"DaLuigi","steam_id":76561198054486188,"connected_time":4369000000000,"state":"active","ping":59}]},{"server_id":22,"name":"Uncletopia | London | 6 | All Maps","name_short":"lon-6","host":"lon-1.uk.uncletopia.com","port":27065,"enabled":true,"region":"eu","cc":"gb","latitude":51.509865,"longitude":-0.118092,"reserved":0,"last_update":"0001-01-01T00:00:00Z","name_a2s":"Uncletopia | London | 6 | All Maps","protocol":17,"map":"pl_rumford_event","folder":"tf","game":"Team Fortress","app_id":440,"player_count":23,"max_players":24,"Bots":0,"server_type":"Dedicated","server_os":"Linux","password":true,"vac":true,"version":"7961495","steam_id":85568392924742830,"keywords":["nocrits","nodmgspread","payload","uncletopia"],"game_id":440,"stv_port":27066,"stv_name":"Uncletopia | London | 6 | All Maps | STV","players":[{"user_id":357,"name":"MrToffeetwo","steam_id":76561199086379748,"connected_time":637000000000,"state":"active","ping":91},{"user_id":345,"name":"Milosz52","steam_id":76561199060940204,"connected_time":2066000000000,"state":"active","ping":75},{"user_id":337,"name":"I AM DOT","steam_id":76561198354118090,"connected_time":2946000000000,"state":"active","ping":89},{"user_id":360,"name":"CookedBird","steam_id":76561198107521676,"connected_time":314000000000,"state":"active","ping":55},{"user_id":322,"name":"cez","steam_id":76561198361380956,"connected_time":3982000000000,"state":"active","ping":44},{"user_id":361,"name":"silicon based life form","steam_id":76561199127121346,"connected_time":53000000000,"state":"active","ping":51},{"user_id":355,"name":"Aiya Leiß","steam_id":76561198067677196,"connected_time":907000000000,"state":"active","ping":55},{"user_id":340,"name":"Miiukade","steam_id":76561198089157860,"connected_time":2911000000000,"state":"active","ping":118},{"user_id":349,"name":"smjwels6","steam_id":76561198859868344,"connected_time":935000000000,"state":"active","ping":64},{"user_id":358,"name":"Ruffel :)","steam_id":76561198136828470,"connected_time":388000000000,"state":"active","ping":70},{"user_id":350,"name":"Dr. Funkenstein","steam_id":76561197977816210,"connected_time":934000000000,"state":"active","ping":63},{"user_id":324,"name":"ra","steam_id":76561198239927434,"connected_time":3929000000000,"state":"active","ping":77},{"user_id":321,"name":"HaylingZar","steam_id":76561198053559897,"connected_time":4299000000000,"state":"active","ping":65},{"user_id":356,"name":"󠀡󠀡","steam_id":76561198059375315,"connected_time":868000000000,"state":"active","ping":72},{"user_id":325,"name":"TOP G","steam_id":76561198138928548,"connected_time":3922000000000,"state":"active","ping":61},{"user_id":309,"name":"NHS Issued Amphetamines","steam_id":76561198303429751,"connected_time":4758000000000,"state":"active","ping":46},{"user_id":344,"name":"knyazF","steam_id":76561198163278585,"connected_time":2572000000000,"state":"active","ping":82},{"user_id":351,"name":"Borshyak","steam_id":76561199198442244,"connected_time":933000000000,"state":"active","ping":100},{"user_id":352,"name":"quickfast","steam_id":76561199438900919,"connected_time":932000000000,"state":"active","ping":40},{"user_id":347,"name":"Dave_G","steam_id":76561198203292668,"connected_time":1336000000000,"state":"active","ping":79},{"user_id":353,"name":"A literal heavy","steam_id":76561199219233587,"connected_time":931000000000,"state":"active","ping":88},{"user_id":348,"name":"DanonArmagedon","steam_id":76561199448191521,"connected_time":1164000000000,"state":"active","ping":116},{"user_id":313,"name":"Balls","steam_id":76561198086400484,"connected_time":4703000000000,"state":"active","ping":70}]},{"server_id":40,"name":"Uncletopia | London | 7 | Stopwatch","name_short":"lon-7","host":"lon-1.uk.uncletopia.com","port":27075,"enabled":true,"region":"eu","cc":"gb","latitude":51.509865,"longitude":-0.118092,"reserved":0,"last_update":"0001-01-01T00:00:00Z","name_a2s":"Uncletopia | London | 7 | Stopwatch","protocol":17,"map":"workshop/koth_bagel_rc6.ugc2514036946","folder":"tf","game":"Team Fortress","app_id":440,"player_count":0,"max_players":24,"Bots":0,"server_type":"Dedicated","server_os":"Linux","password":true,"vac":true,"version":"7961495","steam_id":85568392924964314,"keywords":["cp","nocrits","nodmgspread","uncletopia"],"game_id":440,"stv_port":27076,"stv_name":"Uncletopia | London | 7 | Stopwatch | STV","players":null},{"server_id":41,"name":"Uncletopia | London | 8 | Community","name_short":"lon-8","host":"lon-1.uk.uncletopia.com","port":27085,"enabled":true,"region":"eu","cc":"gb","latitude":51.509865,"longitude":-0.118092,"reserved":0,"last_update":"0001-01-01T00:00:00Z","name_a2s":"Uncletopia | London | 8 | Community","protocol":17,"map":"workshop/koth_ramjam_rc1.ugc459778887","folder":"tf","game":"Team Fortress","app_id":440,"player_count":0,"max_players":24,"Bots":0,"server_type":"Dedicated","server_os":"Linux","password":true,"vac":true,"version":"7961495","steam_id":85568392924964315,"keywords":["cp","nocrits","nodmgspread","uncletopia"],"game_id":440,"stv_port":27086,"stv_name":"Uncletopia | London | 8 | Community | STV","players":null},{"server_id":300,"name":"Uncletopia | Montréal | 1 | One Thousand Uncles","name_short":"mtl-1","host":"mtl-1.ca.uncletopia.com","port":27015,"enabled":true,"region":"us-east","cc":"ca","latitude":45.50889,"longitude":-73.56167,"reserved":0,"last_update":"0001-01-01T00:00:00Z","name_a2s":"","protocol":0,"map":"","folder":"","game":"","app_id":0,"player_count":7,"max_players":0,"Bots":0,"server_type":"","server_os":"","password":false,"vac":false,"version":"","steam_id":0,"keywords":null,"game_id":0,"stv_port":0,"stv_name":"","players":[{"user_id":300,"name":"backwoods","steam_id":76561198328109873,"connected_time":2664000000000,"state":"active","ping":72},{"user_id":301,"name":"Waaagh!","steam_id":76561197995317887,"connected_time":2074000000000,"state":"active","ping":36},{"user_id":152,"name":"puffy","steam_id":76561198411347037,"connected_time":13164000000000,"state":"active","ping":56},{"user_id":306,"name":"Негр южнее Сахар\ufffd","steam_id":76561199296042270,"connected_time":1316000000000,"state":"active","ping":167},{"user_id":310,"name":"The Last Thing","steam_id":76561198047192080,"connected_time":315000000000,"state":"active","ping":83},{"user_id":274,"name":"iamtheSpicer","steam_id":76561198263557044,"connected_time":3846000000000,"state":"active","ping":62},{"user_id":276,"name":"Elite_Friendly","steam_id":76561198819972127,"connected_time":3613000000000,"state":"active","ping":135}]},{"server_id":301,"name":"Uncletopia | Montréal | 2 | One Thousand Uncles","name_short":"mtl-2","host":"mtl-1.ca.uncletopia.com","port":27025,"enabled":true,"region":"us-east","cc":"ca","latitude":45.50889,"longitude":-73.56167,"reserved":0,"last_update":"0001-01-01T00:00:00Z","name_a2s":"","protocol":0,"map":"","folder":"","game":"","app_id":0,"player_count":0,"max_players":0,"Bots":0,"server_type":"","server_os":"","password":false,"vac":false,"version":"","steam_id":0,"keywords":null,"game_id":0,"stv_port":0,"stv_name":"","players":null},{"server_id":302,"name":"Uncletopia | Montréal | 3 | One Thousand Uncles","name_short":"mtl-3","host":"mtl-1.ca.uncletopia.com","port":27035,"enabled":true,"region":"us-east","cc":"ca","latitude":45.50889,"longitude":-73.56167,"reserved":0,"last_update":"0001-01-01T00:00:00Z","name_a2s":"","protocol":0,"map":"","folder":"","game":"","app_id":0,"player_count":12,"max_players":0,"Bots":0,"server_type":"","server_os":"","password":false,"vac":false,"version":"","steam_id":0,"keywords":null,"game_id":0,"stv_port":0,"stv_name":"","players":[{"user_id":147,"name":"xPoonDogg1977x","steam_id":76561198316094788,"connected_time":1749000000000,"state":"active","ping":42},{"user_id":148,"name":"Sussin'","steam_id":76561198059813696,"connected_time":1748000000000,"state":"active","ping":72},{"user_id":190,"name":"Lead Tooth","steam_id":76561198047668895,"connected_time":493000000000,"state":"active","ping":90},{"user_id":113,"name":"Kazuma Yagami","steam_id":76561199044812516,"connected_time":5357000000000,"state":"active","ping":64},{"user_id":114,"name":"pipebombrater","steam_id":76561199029030831,"connected_time":5107000000000,"state":"active","ping":69},{"user_id":146,"name":"LtCrouton","steam_id":76561199158547745,"connected_time":1770000000000,"state":"active","ping":52},{"user_id":133,"name":"Im Groot","steam_id":76561198294943420,"connected_time":3380000000000,"state":"active","ping":94},{"user_id":134,"name":"Giant Two-Flusher","steam_id":76561199266846329,"connected_time":3112000000000,"state":"active","ping":63},{"user_id":169,"name":"stickg","steam_id":76561199193020423,"connected_time":1439000000000,"state":"active","ping":111},{"user_id":171,"name":"Fat Female Over40","steam_id":76561198371166597,"connected_time":975000000000,"state":"active","ping":30},{"user_id":165,"name":"xXx_putrid_pigeon_xXx","steam_id":76561198103367994,"connected_time":1725000000000,"state":"active","ping":73},{"user_id":141,"name":"QuakAtack","steam_id":76561198870770157,"connected_time":2441000000000,"state":"active","ping":64}]},{"server_id":13,"name":"Uncletopia | New York City | 1 | All Maps","name_short":"nyc-1","host":"nyc-1.us.uncletopia.com","port":27015,"enabled":true,"region":"us-east","cc":"us","latitude":40.73061,"longitude":-73.93524,"reserved":0,"last_update":"0001-01-01T00:00:00Z","name_a2s":"Uncletopia | New York City | 1 | All Maps","protocol":17,"map":"cp_snakewater_final1","folder":"tf","game":"Team Fortress","app_id":440,"player_count":24,"max_players":24,"Bots":0,"server_type":"Dedicated","server_os":"Linux","password":true,"vac":true,"version":"7961495","steam_id":85568392924469993,"keywords":["cp","nocrits","nodmgspread","uncletopia"],"game_id":440,"stv_port":27016,"stv_name":"Uncletopia | New York City | 1 | All Maps | STV","players":[{"user_id":265,"name":"BadLuck","steam_id":76561198096452401,"connected_time":452000000000,"state":"active","ping":68},{"user_id":199,"name":"Ceige LFT","steam_id":76561198068538473,"connected_time":5354000000000,"state":"active","ping":86},{"user_id":237,"name":"Inevitable","steam_id":76561198210050169,"connected_time":2636000000000,"state":"active","ping":56},{"user_id":256,"name":"Wique","steam_id":76561198071217597,"connected_time":1489000000000,"state":"active","ping":81},{"user_id":202,"name":"RanchEater","steam_id":76561198836436110,"connected_time":5322000000000,"state":"active","ping":65},{"user_id":266,"name":"MechaSixVII","steam_id":76561198014927379,"connected_time":408000000000,"state":"active","ping":70},{"user_id":253,"name":"Rylline","steam_id":76561198040374588,"connected_time":2064000000000,"state":"active","ping":79},{"user_id":234,"name":"piss man (fake)","steam_id":76561198286647221,"connected_time":2844000000000,"state":"active","ping":125},{"user_id":263,"name":"SpaceSanctum","steam_id":76561198805242305,"connected_time":795000000000,"state":"active","ping":45},{"user_id":267,"name":"DYGIILYIAHSPJTOS","steam_id":76561198042177809,"connected_time":295000000000,"state":"active","ping":76},{"user_id":270,"name":"Jack \"Hee Ho\" Frost","steam_id":76561198353395198,"connected_time":109000000000,"state":"active","ping":69},{"user_id":258,"name":"Drilly22","steam_id":76561198068838338,"connected_time":1474000000000,"state":"active","ping":96},{"user_id":204,"name":"Fluffeline","steam_id":76561198352909489,"connected_time":5301000000000,"state":"active","ping":150},{"user_id":244,"name":"NovaSc6ut","steam_id":76561198277163301,"connected_time":2581000000000,"state":"active","ping":75},{"user_id":262,"name":"mild mannered mystery man","steam_id":76561198072095399,"connected_time":1214000000000,"state":"active","ping":43},{"user_id":189,"name":"John Fortnite","steam_id":76561198076608253,"connected_time":6780000000000,"state":"active","ping":55},{"user_id":224,"name":"a tale of two toads","steam_id":76561198073269122,"connected_time":3647000000000,"state":"active","ping":46},{"user_id":194,"name":"Professional HotDog","steam_id":76561199250225639,"connected_time":6154000000000,"state":"active","ping":71},{"user_id":268,"name":"gold","steam_id":76561199437951175,"connected_time":275000000000,"state":"active","ping":87},{"user_id":230,"name":"hrdurdur","steam_id":76561199204815638,"connected_time":3561000000000,"state":"active","ping":85},{"user_id":264,"name":"De","steam_id":76561198206728044,"connected_time":736000000000,"state":"active","ping":76},{"user_id":241,"name":"Juggernaut","steam_id":76561198306730124,"connected_time":2624000000000,"state":"active","ping":56},{"user_id":259,"name":"Schizo Femboy","steam_id":76561199162627150,"connected_time":1470000000000,"state":"active","ping":144},{"user_id":242,"name":"qmracerbt","steam_id":76561198533919986,"connected_time":2617000000000,"state":"active","ping":56}]},{"server_id":14,"name":"Uncletopia | New York City | 2 | All Maps","name_short":"nyc-2","host":"nyc-1.us.uncletopia.com","port":27025,"enabled":true,"region":"us-east","cc":"us","latitude":40.73061,"longitude":-73.93524,"reserved":0,"last_update":"0001-01-01T00:00:00Z","name_a2s":"Uncletopia | New York City | 2 | All Maps","protocol":17,"map":"cp_mercenarypark","folder":"tf","game":"Team Fortress","app_id":440,"player_count":24,"max_players":24,"Bots":0,"server_type":"Dedicated","server_os":"Linux","password":true,"vac":true,"version":"7961495","steam_id":85568392924469994,"keywords":["cp","nocrits","nodmgspread","uncletopia"],"game_id":440,"stv_port":27026,"stv_name":"Uncletopia | New York City | 2 | All Maps | STV","players":[{"user_id":262,"name":"That Guy","steam_id":76561198074138740,"connected_time":579000000000,"state":"active","ping":78},{"user_id":259,"name":"wool","steam_id":76561198869689933,"connected_time":683000000000,"state":"active","ping":52},{"user_id":250,"name":"A Fucking Degenerate","steam_id":76561198093261788,"connected_time":1265000000000,"state":"active","ping":89},{"user_id":263,"name":"stepho","steam_id":76561199132035586,"connected_time":573000000000,"state":"active","ping":52},{"user_id":248,"name":"Chilidawg","steam_id":76561198108048855,"connected_time":1351000000000,"state":"active","ping":57},{"user_id":251,"name":"Orange Triangle","steam_id":76561198320498182,"connected_time":1242000000000,"state":"active","ping":81},{"user_id":247,"name":"reymundo","steam_id":76561197989412830,"connected_time":1498000000000,"state":"active","ping":121},{"user_id":260,"name":"Person","steam_id":76561198093244204,"connected_time":652000000000,"state":"active","ping":64},{"user_id":261,"name":"5869","steam_id":76561198799616739,"connected_time":649000000000,"state":"active","ping":107},{"user_id":220,"name":"Chubbles","steam_id":76561198237619472,"connected_time":3539000000000,"state":"active","ping":56},{"user_id":269,"name":"FLOOB","steam_id":76561198333094092,"connected_time":417000000000,"state":"active","ping":77},{"user_id":264,"name":"B1eket","steam_id":76561199091717757,"connected_time":559000000000,"state":"active","ping":94},{"user_id":268,"name":"All Monsters Are Real","steam_id":76561198026986192,"connected_time":462000000000,"state":"active","ping":73},{"user_id":265,"name":"Volkan, Pervert Extraordinaire","steam_id":76561198004569575,"connected_time":533000000000,"state":"active","ping":57},{"user_id":270,"name":"pinkissocool {f2p}","steam_id":76561198989599828,"connected_time":271000000000,"state":"active","ping":49},{"user_id":254,"name":"Dreamzapp","steam_id":76561199084936632,"connected_time":959000000000,"state":"active","ping":124},{"user_id":227,"name":"Nic0","steam_id":76561198305690218,"connected_time":2651000000000,"state":"active","ping":55},{"user_id":256,"name":"bambino","steam_id":76561198396348054,"connected_time":885000000000,"state":"active","ping":81},{"user_id":257,"name":"LittleFieryOne","steam_id":76561198107463724,"connected_time":869000000000,"state":"active","ping":76},{"user_id":189,"name":"just a little hater","steam_id":76561198326083509,"connected_time":6257000000000,"state":"active","ping":82},{"user_id":249,"name":"-InternalDeath-","steam_id":76561198866009351,"connected_time":1345000000000,"state":"active","ping":64},{"user_id":255,"name":"Demon Slayer","steam_id":76561198179806930,"connected_time":937000000000,"state":"active","ping":72},{"user_id":266,"name":"InfernoBane","steam_id":76561197997742994,"connected_time":517000000000,"state":"active","ping":74},{"user_id":267,"name":"Small tiny feet","steam_id":76561199141538581,"connected_time":494000000000,"state":"active","ping":128}]},{"server_id":15,"name":"Uncletopia | New York City | 3 | Stopwatch","name_short":"nyc-3","host":"nyc-1.us.uncletopia.com","port":27035,"enabled":true,"region":"us-east","cc":"us","latitude":40.73061,"longitude":-73.93524,"reserved":0,"last_update":"0001-01-01T00:00:00Z","name_a2s":"Uncletopia | New York City | 3 | Stopwatch","protocol":17,"map":"koth_lakeside_final","folder":"tf","game":"Team Fortress","app_id":440,"player_count":0,"max_players":24,"Bots":0,"server_type":"Dedicated","server_os":"Linux","password":true,"vac":true,"version":"7961495","steam_id":85568392924742820,"keywords":["cp","nocrits","nodmgspread","uncletopia"],"game_id":440,"stv_port":27036,"stv_name":"Uncletopia | New York City | 3 | Stopwatch | STV","players":null},{"server_id":16,"name":"Uncletopia | New York City | 4 | Community","name_short":"nyc-4","host":"nyc-1.us.uncletopia.com","port":27045,"enabled":true,"region":"us-east","cc":"us","latitude":40.73061,"longitude":-73.93524,"reserved":0,"last_update":"0001-01-01T00:00:00Z","name_a2s":"Uncletopia | New York City | 4 | Community","protocol":17,"map":"workshop/koth_synthetic_rc6a.ugc1549817316","folder":"tf","game":"Team Fortress","app_id":440,"player_count":0,"max_players":24,"Bots":0,"server_type":"Dedicated","server_os":"Linux","password":true,"vac":true,"version":"7961495","steam_id":85568392924742821,"keywords":["cp","nocrits","nodmgspread","uncletopia"],"game_id":440,"stv_port":27046,"stv_name":"Uncletopia | New York City | 4 | Community | STV","players":null},{"server_id":142,"name":"Uncletopia | São Paulo | 1 | All Maps","name_short":"sao-1","host":"sao-1.br.uncletopia.com","port":27015,"enabled":true,"region":"sa","cc":"br","latitude":-23.533773,"longitude":-46.62529,"reserved":0,"last_update":"0001-01-01T00:00:00Z","name_a2s":"Uncletopia | São Paulo | 1 | All Maps","protocol":17,"map":"pl_snowycoast","folder":"tf","game":"Team Fortress","app_id":440,"player_count":0,"max_players":24,"Bots":0,"server_type":"Dedicated","server_os":"Linux","password":true,"vac":true,"version":"7961495","steam_id":85568392924469996,"keywords":["nocrits","nodmgspread","payload","uncletopia"],"game_id":440,"stv_port":27016,"stv_name":"Uncletopia | São Paulo | 1 | All Maps | STV","players":null},{"server_id":143,"name":"Uncletopia | São Paulo | 2 | Community","name_short":"sao-2","host":"sao-2.br.uncletopia.com","port":27015,"enabled":true,"region":"sa","cc":"br","latitude":-23.533773,"longitude":-46.62529,"reserved":0,"last_update":"0001-01-01T00:00:00Z","name_a2s":"Uncletopia | São Paulo | 2 | Community","protocol":17,"map":"workshop/pl_fifthcurve_rc1.ugc648227046","folder":"tf","game":"Team Fortress","app_id":440,"player_count":0,"max_players":24,"Bots":0,"server_type":"Dedicated","server_os":"Linux","password":true,"vac":true,"version":"7961495","steam_id":85568392924485349,"keywords":["nocrits","nodmgspread","payload","uncletopia"],"game_id":440,"stv_port":27016,"stv_name":"Uncletopia | São Paulo | 2 | Community | STV","players":null},{"server_id":7,"name":"Uncletopia | Seattle | 1 | All Maps","name_short":"sea-1","host":"sea-1.us.uncletopia.com","port":27015,"enabled":true,"region":"us-west","cc":"us","latitude":47.608013,"longitude":-122.33517,"reserved":0,"last_update":"0001-01-01T00:00:00Z","name_a2s":"Uncletopia | Seattle | 1 | All Maps","protocol":17,"map":"cp_steel","folder":"tf","game":"Team Fortress","app_id":440,"player_count":24,"max_players":24,"Bots":0,"server_type":"Dedicated","server_os":"Linux","password":true,"vac":true,"version":"7961495","steam_id":85568392924469997,"keywords":["cp","nocrits","nodmgspread","uncletopia"],"game_id":440,"stv_port":27016,"stv_name":"Uncletopia | Seattle | 1 | All Maps | STV","players":[{"user_id":114,"name":"COOL master_9","steam_id":76561198073041151,"connected_time":3660000000000,"state":"active","ping":93},{"user_id":94,"name":"dearender","steam_id":76561199427644498,"connected_time":5907000000000,"state":"active","ping":48},{"user_id":136,"name":"Streamline","steam_id":76561198031098638,"connected_time":1795000000000,"state":"active","ping":103},{"user_id":85,"name":"owl","steam_id":76561198088403016,"connected_time":6907000000000,"state":"active","ping":151},{"user_id":147,"name":"Bige Rone","steam_id":76561198066718191,"connected_time":772000000000,"state":"active","ping":47},{"user_id":121,"name":"Spruce","steam_id":76561198081684676,"connected_time":3608000000000,"state":"active","ping":62},{"user_id":148,"name":"onionman0106","steam_id":76561199067766868,"connected_time":698000000000,"state":"active","ping":50},{"user_id":138,"name":"Grweb","steam_id":76561198316741856,"connected_time":1455000000000,"state":"active","ping":48},{"user_id":125,"name":"porfer","steam_id":76561199118049168,"connected_time":2954000000000,"state":"active","ping":77},{"user_id":134,"name":"vfa","steam_id":76561198055729118,"connected_time":2125000000000,"state":"active","ping":61},{"user_id":119,"name":"a familiar cat","steam_id":76561198080046542,"connected_time":3624000000000,"state":"active","ping":45},{"user_id":128,"name":"Greskrendtregk","steam_id":76561197969553142,"connected_time":2516000000000,"state":"active","ping":52},{"user_id":126,"name":"ilun","steam_id":76561198042913843,"connected_time":2913000000000,"state":"active","ping":59},{"user_id":132,"name":"Forty","steam_id":76561198257410181,"connected_time":2318000000000,"state":"active","ping":54},{"user_id":60,"name":"firestabber","steam_id":76561198057055577,"connected_time":10168000000000,"state":"active","ping":53},{"user_id":127,"name":"fwoov","steam_id":76561198129166260,"connected_time":2567000000000,"state":"active","ping":76},{"user_id":124,"name":"Grassman (Cc)","steam_id":76561198026488532,"connected_time":3099000000000,"state":"active","ping":61},{"user_id":117,"name":"Fh","steam_id":76561198000903511,"connected_time":3646000000000,"state":"active","ping":60},{"user_id":145,"name":"Bollar I din mun","steam_id":76561198334977151,"connected_time":1032000000000,"state":"active","ping":65},{"user_id":123,"name":"fun guy","steam_id":76561198326208931,"connected_time":3304000000000,"state":"active","ping":49},{"user_id":149,"name":"dust | it/she","steam_id":76561198045218909,"connected_time":648000000000,"state":"active","ping":41},{"user_id":150,"name":"Melly","steam_id":76561198045867175,"connected_time":624000000000,"state":"active","ping":80},{"user_id":137,"name":"Ping","steam_id":76561199206514106,"connected_time":1617000000000,"state":"active","ping":120},{"user_id":89,"name":"xXBeef_SupreamXx","steam_id":76561199247095754,"connected_time":6607000000000,"state":"active","ping":60}]},{"server_id":119,"name":"Uncletopia | Seattle | 2 | All Maps","name_short":"sea-2","host":"sea-1.us.uncletopia.com","port":27025,"enabled":true,"region":"us-west","cc":"us","latitude":47.608013,"longitude":-122.33517,"reserved":0,"last_update":"0001-01-01T00:00:00Z","name_a2s":"Uncletopia | Seattle | 2 | All Maps","protocol":17,"map":"cp_gullywash_final1","folder":"tf","game":"Team Fortress","app_id":440,"player_count":4,"max_players":24,"Bots":0,"server_type":"Dedicated","server_os":"Linux","password":true,"vac":true,"version":"7961495","steam_id":85568392924469998,"keywords":["cp","nocrits","nodmgspread","uncletopia"],"game_id":440,"stv_port":27026,"stv_name":"Uncletopia | Seattle | 2 | All Maps | STV","players":[{"user_id":12,"name":"The Judgement Crow","steam_id":76561198336907833,"connected_time":579000000000,"state":"active","ping":50},{"user_id":16,"name":"Gamekiller839","steam_id":76561199475400469,"connected_time":75000000000,"state":"active","ping":27},{"user_id":13,"name":"Uncle Wahzoinsky","steam_id":76561199462907840,"connected_time":431000000000,"state":"active","ping":54},{"user_id":15,"name":"ShackerJack","steam_id":76561198118017448,"connected_time":408000000000,"state":"active","ping":57}]},{"server_id":406,"name":"Uncletopia | Seattle | 3 | Stopwatch","name_short":"sea-3","host":"sea-1.us.uncletopia.com","port":27035,"enabled":true,"region":"us-west","cc":"us","latitude":47.608013,"longitude":-122.33517,"reserved":0,"last_update":"0001-01-01T00:00:00Z","name_a2s":"Uncletopia | Seattle | 3 | Stopwatch","protocol":17,"map":"pl_pier","folder":"tf","game":"Team Fortress","app_id":440,"player_count":0,"max_players":24,"Bots":0,"server_type":"Dedicated","server_os":"Linux","password":true,"vac":true,"version":"7961495","steam_id":85568392924515217,"keywords":["nocrits","nodmgspread","payload","uncletopia"],"game_id":440,"stv_port":27036,"stv_name":"Uncletopia | Seattle | 3 | Stopwatch | STV","players":null},{"server_id":17,"name":"Uncletopia | San Francisco | 1 | All Maps","name_short":"sfo-1","host":"sfo-1.us.uncletopia.com","port":27015,"enabled":true,"region":"us-west","cc":"us","latitude":37.77397,"longitude":-122.4313,"reserved":0,"last_update":"0001-01-01T00:00:00Z","name_a2s":"Uncletopia | San Francisco | 1 | All Maps","protocol":17,"map":"koth_cascade","folder":"tf","game":"Team Fortress","app_id":440,"player_count":0,"max_players":24,"Bots":0,"server_type":"Dedicated","server_os":"Linux","password":true,"vac":true,"version":"7961495","steam_id":85568392924469999,"keywords":["cp","nocrits","nodmgspread","uncletopia"],"game_id":440,"stv_port":27016,"stv_name":"Uncletopia | San Francisco | 1 | All Maps | STV","players":null},{"server_id":18,"name":"Uncletopia | San Francisco | 2 | All Maps","name_short":"sfo-2","host":"sfo-1.us.uncletopia.com","port":27025,"enabled":true,"region":"us-west","cc":"us","latitude":37.77397,"longitude":-122.4313,"reserved":0,"last_update":"0001-01-01T00:00:00Z","name_a2s":"Uncletopia | San Francisco | 2 | All Maps","protocol":17,"map":"pl_upward","folder":"tf","game":"Team Fortress","app_id":440,"player_count":16,"max_players":24,"Bots":0,"server_type":"Dedicated","server_os":"Linux","password":true,"vac":true,"version":"7961495","steam_id":85568392924470000,"keywords":["nocrits","nodmgspread","payload","uncletopia"],"game_id":440,"stv_port":27026,"stv_name":"Uncletopia | San Francisco | 2 | All Maps | STV","players":[{"user_id":11,"name":"ultraviolentlight","steam_id":76561198874956671,"connected_time":1057000000000,"state":"active","ping":278},{"user_id":32,"name":"Beer69","steam_id":76561199131528964,"connected_time":45000000000,"state":"active","ping":57},{"user_id":23,"name":"Zenire","steam_id":76561199087298510,"connected_time":263000000000,"state":"active","ping":85},{"user_id":15,"name":"The Inn of Ill Omen","steam_id":76561198042402172,"connected_time":863000000000,"state":"active","ping":87},{"user_id":26,"name":"The premium licking experience","steam_id":76561199213456232,"connected_time":121000000000,"state":"active","ping":51},{"user_id":17,"name":"Busta! Straight Busta!","steam_id":76561198121554252,"connected_time":840000000000,"state":"active","ping":101},{"user_id":25,"name":"Thequirka","steam_id":76561198968058652,"connected_time":164000000000,"state":"active","ping":67},{"user_id":19,"name":"hoOmIN","steam_id":76561198334947079,"connected_time":720000000000,"state":"active","ping":58},{"user_id":20,"name":"Prez Pineapple","steam_id":76561198253755258,"connected_time":648000000000,"state":"active","ping":67},{"user_id":21,"name":"Pyrolimited","steam_id":76561198195455657,"connected_time":616000000000,"state":"active","ping":63},{"user_id":35,"name":"Hallucigenia","steam_id":76561198174788342,"connected_time":13000000000,"state":"active","ping":130},{"user_id":29,"name":"Silly Shark","steam_id":76561198130714378,"connected_time":93000000000,"state":"spawning","ping":117},{"user_id":30,"name":"NewNebula12","steam_id":76561198146473719,"connected_time":86000000000,"state":"active","ping":78},{"user_id":31,"name":"MenacingMekhet","steam_id":76561198053165462,"connected_time":75000000000,"state":"active","ping":90},{"user_id":33,"name":"Onerish","steam_id":76561198042057889,"connected_time":23000000000,"state":"active","ping":119},{"user_id":34,"name":"Keamy","steam_id":76561199471434875,"connected_time":15000000000,"state":"active","ping":70}]},{"server_id":19,"name":"Uncletopia | San Francisco | 3 | Stopwatch","name_short":"sfo-3","host":"sfo-1.us.uncletopia.com","port":27035,"enabled":true,"region":"us-west","cc":"us","latitude":37.77397,"longitude":-122.4313,"reserved":0,"last_update":"0001-01-01T00:00:00Z","name_a2s":"Uncletopia | San Francisco | 3 | Stopwatch","protocol":17,"map":"pl_pier","folder":"tf","game":"Team Fortress","app_id":440,"player_count":0,"max_players":24,"Bots":0,"server_type":"Dedicated","server_os":"Linux","password":true,"vac":true,"version":"7961495","steam_id":85568392924742824,"keywords":["nocrits","nodmgspread","payload","uncletopia"],"game_id":440,"stv_port":27036,"stv_name":"Uncletopia | San Francisco | 3 | Stopwatch | STV","players":null},{"server_id":20,"name":"Uncletopia | San Francisco | 4 | Community","name_short":"sfo-4","host":"sfo-1.us.uncletopia.com","port":27045,"enabled":true,"region":"us-west","cc":"us","latitude":37.77397,"longitude":-122.4313,"reserved":0,"last_update":"0001-01-01T00:00:00Z","name_a2s":"Uncletopia | San Francisco | 4 | Community","protocol":17,"map":"workshop/cp_propaganda_b18.ugc1603743849","folder":"tf","game":"Team Fortress","app_id":440,"player_count":0,"max_players":24,"Bots":0,"server_type":"Dedicated","server_os":"Linux","password":true,"vac":true,"version":"7961495","steam_id":85568392924742826,"keywords":["cp","nocrits","nodmgspread","uncletopia"],"game_id":440,"stv_port":27046,"stv_name":"Uncletopia | San Francisco | 4 | Community | STV","players":null},{"server_id":141,"name":"Uncletopia | Sydney | 1 | All Maps","name_short":"syd-1","host":"syd-1.au.uncletopia.com","port":27015,"enabled":true,"region":"au","cc":"au","latitude":-33.865143,"longitude":151.2099,"reserved":0,"last_update":"0001-01-01T00:00:00Z","name_a2s":"Uncletopia | Sydney | 1 | All Maps","protocol":17,"map":"koth_viaduct","folder":"tf","game":"Team Fortress","app_id":440,"player_count":0,"max_players":24,"Bots":0,"server_type":"Dedicated","server_os":"Linux","password":true,"vac":true,"version":"7961495","steam_id":85568392924470001,"keywords":["cp","nocrits","nodmgspread","uncletopia"],"game_id":440,"stv_port":27016,"stv_name":"Uncletopia | Sydney | 1 | All Maps | STV","players":null},{"server_id":123,"name":"Uncletopia | Sydney | 2 | All Maps","name_short":"syd-2","host":"syd-1.au.uncletopia.com","port":27025,"enabled":true,"region":"au","cc":"au","latitude":-33.865143,"longitude":151.2099,"reserved":0,"last_update":"0001-01-01T00:00:00Z","name_a2s":"Uncletopia | Sydney | 2 | All Maps","protocol":17,"map":"koth_viaduct","folder":"tf","game":"Team Fortress","app_id":440,"player_count":0,"max_players":24,"Bots":0,"server_type":"Dedicated","server_os":"Linux","password":true,"vac":true,"version":"7961495","steam_id":85568392924470002,"keywords":["cp","nocrits","nodmgspread","uncletopia"],"game_id":440,"stv_port":27026,"stv_name":"Uncletopia | Sydney | 2 | All Maps | STV","players":null},{"server_id":395,"name":"Uncletopia | Sydney | 3 | All Maps","name_short":"syd-3","host":"syd-1.au.uncletopia.com","port":27035,"enabled":true,"region":"au","cc":"au","latitude":-33.865143,"longitude":151.2099,"reserved":0,"last_update":"0001-01-01T00:00:00Z","name_a2s":"Uncletopia | Sydney | 3 | All Maps","protocol":17,"map":"koth_lakeside_final","folder":"tf","game":"Team Fortress","app_id":440,"player_count":0,"max_players":24,"Bots":0,"server_type":"Dedicated","server_os":"Linux","password":true,"vac":true,"version":"7961495","steam_id":85568392925194467,"keywords":["cp","nocrits","nodmgspread","uncletopia"],"game_id":440,"stv_port":27036,"stv_name":"Uncletopia | Sydney | 3 | All Maps | STV","players":null},{"server_id":396,"name":"Uncletopia | Sydney | 4 | All Maps","name_short":"syd-4","host":"syd-1.au.uncletopia.com","port":27045,"enabled":true,"region":"au","cc":"au","latitude":-33.865143,"longitude":151.2099,"reserved":0,"last_update":"0001-01-01T00:00:00Z","name_a2s":"Uncletopia | Sydney | 4 | All Maps","protocol":17,"map":"koth_highpass","folder":"tf","game":"Team Fortress","app_id":440,"player_count":0,"max_players":24,"Bots":0,"server_type":"Dedicated","server_os":"Linux","password":true,"vac":true,"version":"7961495","steam_id":85568392925397958,"keywords":["cp","nocrits","nodmgspread","uncletopia"],"game_id":440,"stv_port":27046,"stv_name":"Uncletopia | Sydney | 4 | All Maps | STV","players":null},{"server_id":58,"name":"Uncletopia | Sydney | 5 | Stopwatch","name_short":"syd-5","host":"syd-1.au.uncletopia.com","port":27055,"enabled":true,"region":"au","cc":"au","latitude":-33.865143,"longitude":151.2099,"reserved":0,"last_update":"0001-01-01T00:00:00Z","name_a2s":"Uncletopia | Sydney | 5 | Stopwatch","protocol":17,"map":"koth_highpass","folder":"tf","game":"Team Fortress","app_id":440,"player_count":0,"max_players":24,"Bots":0,"server_type":"Dedicated","server_os":"Linux","password":true,"vac":true,"version":"7961495","steam_id":85568392925397959,"keywords":["cp","nocrits","nodmgspread","uncletopia"],"game_id":440,"stv_port":27056,"stv_name":"Uncletopia | Sydney | 5 | Stopwatch | STV","players":null},{"server_id":59,"name":"Uncletopia | Sydney | 6 | Community","name_short":"syd-6","host":"syd-1.au.uncletopia.com","port":27065,"enabled":true,"region":"au","cc":"au","latitude":-33.865143,"longitude":151.2099,"reserved":0,"last_update":"0001-01-01T00:00:00Z","name_a2s":"Uncletopia | Sydney | 6 | Community","protocol":17,"map":"workshop/pl_fifthcurve_rc1.ugc648227046","folder":"tf","game":"Team Fortress","app_id":440,"player_count":0,"max_players":24,"Bots":0,"server_type":"Dedicated","server_os":"Linux","password":true,"vac":true,"version":"7961495","steam_id":85568392925397960,"keywords":["nocrits","nodmgspread","payload","uncletopia"],"game_id":440,"stv_port":27066,"stv_name":"Uncletopia | Sydney | 6 | Community | STV","players":null},{"server_id":49,"name":"Uncletopia | Warsaw | 1 | One Thousand Uncles","name_short":"waw-1","host":"waw-1.pl.uncletopia.com","port":27015,"enabled":true,"region":"eu","cc":"pl","latitude":52.2297,"longitude":21.017532,"reserved":0,"last_update":"0001-01-01T00:00:00Z","name_a2s":"Uncletopia | Warsaw | 1 | One Thousand Uncles","protocol":17,"map":"cp_dustbowl","folder":"tf","game":"Team Fortress","app_id":440,"player_count":30,"max_players":32,"Bots":16,"server_type":"Dedicated","server_os":"Linux","password":true,"vac":true,"version":"7961495","steam_id":85568392925397850,"keywords":["alltalk","bots","cp","danepve","increased_maxplayers","nocrits","norespawntime","uncletopia"],"game_id":440,"stv_port":0,"stv_name":"","players":[{"user_id":576,"name":"DarthDanny","steam_id":76561197997718926,"connected_time":9199000000000,"state":"active","ping":121},{"user_id":711,"name":"Gustavo","steam_id":76561199258367212,"connected_time":1047000000000,"state":"active","ping":107},{"user_id":679,"name":"Mingo","steam_id":76561199191245650,"connected_time":1998000000000,"state":"active","ping":182},{"user_id":733,"name":"father hog","steam_id":76561198884822877,"connected_time":260000000000,"state":"active","ping":87},{"user_id":734,"name":"Ostara","steam_id":76561198200054489,"connected_time":254000000000,"state":"active","ping":75},{"user_id":716,"name":"heexy","steam_id":76561198138548899,"connected_time":413000000000,"state":"active","ping":33},{"user_id":671,"name":"please do not the cat","steam_id":76561198089003514,"connected_time":2534000000000,"state":"active","ping":64},{"user_id":735,"name":"tanyathsus","steam_id":76561198089522447,"connected_time":130000000000,"state":"active","ping":90},{"user_id":736,"name":"yeas","steam_id":76561198106211607,"connected_time":104000000000,"state":"active","ping":97},{"user_id":683,"name":"Max Power","steam_id":76561198019269089,"connected_time":1913000000000,"state":"active","ping":64},{"user_id":737,"name":"𝒯𝓇𝓊𝓈𝓁𝒶𝓋228","steam_id":76561199229195988,"connected_time":90000000000,"state":"active","ping":103},{"user_id":681,"name":"ruffeeh","steam_id":76561197995517185,"connected_time":1972000000000,"state":"active","ping":71},{"user_id":688,"name":"erik_jjj","steam_id":76561198215788857,"connected_time":1557000000000,"state":"active","ping":93},{"user_id":738,"name":"Rice Lee","steam_id":76561198313734012,"connected_time":37000000000,"state":"active","ping":75}]},{"server_id":50,"name":"Uncletopia | Warsaw | 2 | One Thousand Uncles","name_short":"waw-2","host":"waw-1.pl.uncletopia.com","port":27025,"enabled":true,"region":"eu","cc":"pl","latitude":52.2297,"longitude":21.017532,"reserved":0,"last_update":"0001-01-01T00:00:00Z","name_a2s":"Uncletopia | Warsaw | 2 | One Thousand Uncles","protocol":17,"map":"cp_altitude","folder":"tf","game":"Team Fortress","app_id":440,"player_count":25,"max_players":32,"Bots":16,"server_type":"Dedicated","server_os":"Linux","password":true,"vac":true,"version":"7961495","steam_id":85568392925397851,"keywords":["alltalk","bots","cp","danepve","increased_maxplayers","nocrits","norespawntime","uncletopia"],"game_id":440,"stv_port":0,"stv_name":"","players":[{"user_id":440,"name":"Kaia Brodbecker","steam_id":76561198294109951,"connected_time":591000000000,"state":"active","ping":97},{"user_id":431,"name":"Winter Not Summer","steam_id":76561198201409574,"connected_time":2191000000000,"state":"active","ping":151},{"user_id":433,"name":"Uncle Ando","steam_id":76561197994056083,"connected_time":1664000000000,"state":"active","ping":68},{"user_id":435,"name":"que movida","steam_id":76561197966125354,"connected_time":1322000000000,"state":"active","ping":86},{"user_id":397,"name":"Kretes","steam_id":76561198982786431,"connected_time":3522000000000,"state":"active","ping":45},{"user_id":441,"name":"Soya Suki","steam_id":76561197998106435,"connected_time":453000000000,"state":"active","ping":60},{"user_id":458,"name":"Kekkonen","steam_id":76561198944072942,"connected_time":225000000000,"state":"active","ping":101},{"user_id":246,"name":"FinnishGuy","steam_id":76561198155380452,"connected_time":13281000000000,"state":"active","ping":95},{"user_id":410,"name":"pyro","steam_id":76561199255856612,"connected_time":2616000000000,"state":"active","ping":38}]},{"server_id":51,"name":"Uncletopia | Warsaw | 3 | All Maps","name_short":"waw-3","host":"waw-1.pl.uncletopia.com","port":27035,"enabled":true,"region":"eu","cc":"pl","latitude":52.2297,"longitude":21.017532,"reserved":0,"last_update":"0001-01-01T00:00:00Z","name_a2s":"Uncletopia | Warsaw | 3 | All Maps","protocol":17,"map":"pl_upward","folder":"tf","game":"Team Fortress","app_id":440,"player_count":24,"max_players":24,"Bots":0,"server_type":"Dedicated","server_os":"Linux","password":true,"vac":true,"version":"7961495","steam_id":85568392925397852,"keywords":["nocrits","nodmgspread","payload","uncletopia"],"game_id":440,"stv_port":27036,"stv_name":"Uncletopia | Warsaw | 3 | All Maps | STV","players":[{"user_id":45,"name":"stefanbejenari","steam_id":76561199466718294,"connected_time":6290000000000,"state":"active","ping":68},{"user_id":143,"name":"jekk.97","steam_id":76561198146961838,"connected_time":1452000000000,"state":"active","ping":120},{"user_id":40,"name":"Yavuz Sultan Selim","steam_id":76561198842296672,"connected_time":6772000000000,"state":"active","ping":80},{"user_id":114,"name":"alice","steam_id":76561198269200388,"connected_time":3368000000000,"state":"active","ping":45},{"user_id":153,"name":"fönököm","steam_id":76561198107656465,"connected_time":1059000000000,"state":"active","ping":78},{"user_id":175,"name":"Moses","steam_id":76561198257652671,"connected_time":81000000000,"state":"active","ping":43},{"user_id":165,"name":"just a cat","steam_id":76561198328023740,"connected_time":681000000000,"state":"active","ping":61},{"user_id":173,"name":"cuddles","steam_id":76561198805181599,"connected_time":152000000000,"state":"active","ping":85},{"user_id":167,"name":"alex jones gaming","steam_id":76561199090730414,"connected_time":578000000000,"state":"active","ping":108},{"user_id":115,"name":"debil","steam_id":76561198160047415,"connected_time":3305000000000,"state":"active","ping":58},{"user_id":142,"name":"Germanium_Ge","steam_id":76561198130561775,"connected_time":1706000000000,"state":"active","ping":56},{"user_id":109,"name":"Wenolainen","steam_id":76561198334592800,"connected_time":3678000000000,"state":"active","ping":91},{"user_id":155,"name":"Noob_with_source","steam_id":76561198870362103,"connected_time":1011000000000,"state":"active","ping":67},{"user_id":168,"name":"Plebble","steam_id":76561198111613434,"connected_time":570000000000,"state":"active","ping":76},{"user_id":176,"name":"Gruset","steam_id":76561198327512432,"connected_time":74000000000,"state":"active","ping":102},{"user_id":118,"name":"wes","steam_id":76561198067000117,"connected_time":3280000000000,"state":"active","ping":40},{"user_id":178,"name":"Lennox","steam_id":76561198069063554,"connected_time":43000000000,"state":"active","ping":55},{"user_id":172,"name":"MrBreast (REAL)","steam_id":76561197989524651,"connected_time":167000000000,"state":"active","ping":65},{"user_id":166,"name":"MR.BOYKISSER","steam_id":76561198241894636,"connected_time":657000000000,"state":"active","ping":60},{"user_id":149,"name":"dartush","steam_id":76561198067506270,"connected_time":1301000000000,"state":"active","ping":55},{"user_id":174,"name":"Burrito","steam_id":76561198023919089,"connected_time":100000000000,"state":"active","ping":95},{"user_id":159,"name":"Schizophrenic Tyrant","steam_id":76561199011576146,"connected_time":949000000000,"state":"active","ping":89},{"user_id":108,"name":"Morbeus","steam_id":76561198057717808,"connected_time":3704000000000,"state":"active","ping":84},{"user_id":162,"name":"Jevol","steam_id":76561199060223960,"connected_time":875000000000,"state":"active","ping":99}]},{"server_id":52,"name":"Uncletopia | Warsaw | 4 | All Maps","name_short":"waw-4","host":"waw-1.pl.uncletopia.com","port":27045,"enabled":true,"region":"eu","cc":"pl","latitude":52.2297,"longitude":21.017532,"reserved":0,"last_update":"0001-01-01T00:00:00Z","name_a2s":"Uncletopia | Warsaw | 4 | All Maps","protocol":17,"map":"cp_sunshine","folder":"tf","game":"Team Fortress","app_id":440,"player_count":0,"max_players":24,"Bots":0,"server_type":"Dedicated","server_os":"Linux","password":true,"vac":true,"version":"7961495","steam_id":85568392925397853,"keywords":["cp","nocrits","nodmgspread","uncletopia"],"game_id":440,"stv_port":27046,"stv_name":"Uncletopia | Warsaw | 4 | All Maps | STV","players":null},{"server_id":53,"name":"Uncletopia | Warsaw | 5 | Stopwatch","name_short":"waw-5","host":"waw-1.pl.uncletopia.com","port":27055,"enabled":true,"region":"eu","cc":"pl","latitude":52.2297,"longitude":21.017532,"reserved":0,"last_update":"0001-01-01T00:00:00Z","name_a2s":"Uncletopia | Warsaw | 5 | Stopwatch","protocol":17,"map":"workshop/koth_ashville_final.ugc2130459942","folder":"tf","game":"Team Fortress","app_id":440,"player_count":0,"max_players":24,"Bots":0,"server_type":"Dedicated","server_os":"Linux","password":true,"vac":true,"version":"7961495","steam_id":85568392925397854,"keywords":["cp","nocrits","nodmgspread","uncletopia"],"game_id":440,"stv_port":27056,"stv_name":"Uncletopia | Warsaw | 5 | Stopwatch | STV","players":null},{"server_id":54,"name":"Uncletopia | Warsaw | 6 | Community","name_short":"waw-6","host":"waw-1.pl.uncletopia.com","port":27065,"enabled":true,"region":"eu","cc":"pl","latitude":52.2297,"longitude":21.017532,"reserved":0,"last_update":"0001-01-01T00:00:00Z","name_a2s":"Uncletopia | Warsaw | 6 | Community","protocol":17,"map":"workshop/cp_mannbase_rc2a.ugc1900737467","folder":"tf","game":"Team Fortress","app_id":440,"player_count":0,"max_players":24,"Bots":0,"server_type":"Dedicated","server_os":"Linux","password":true,"vac":true,"version":"7961495","steam_id":85568392925397856,"keywords":["cp","nocrits","nodmgspread","uncletopia"],"game_id":440,"stv_port":27066,"stv_name":"Uncletopia | Warsaw | 6 | Community | STV","players":null}]}