{"status":true,"message":"","result":[{"server_id":9,"name":"Uncletopia | Atlanta | 1 | All Maps","name_short":"atl-1","host":"atl-1.us.uncletopia.com","port":27015,"enabled":true,"region":"us-east","cc":"us","latitude":33.753746,"longitude":-84.38633,"reserved":0,"last_update":"0001-01-01T00:00:00Z","name_a2s":"Uncletopia | Atlanta | 1 | All Maps","protocol":17,"map":"pl_barnblitz","folder":"tf","game":"Team Fortress","app_id":440,"player_count":24,"max_players":24,"Bots":0,"server_type":"Dedicated","server_os":"Linux","password":true,"vac":true,"version":"7961495","steam_id":85568392924469982,"keywords":["nocrits","nodmgspread","payload","uncletopia"],"game_id":440,"stv_port":27016,"stv_name":"Uncletopia | Atlanta | 1 | All Maps | STV","players":null},{"server_id":104,"name":"Uncletopia | Atlanta | 2 | All Maps","name_short":"atl-2","host":"atl-1.us.uncletopia.com","port":27025,"enabled":true,"region":"us-east","cc":"us","latitude":33.753746,"longitude":-84.38633,"reserved":0,"last_update":"0001-01-01T00:00:00Z","name_a2s":"Uncletopia | Atlanta | 2 | All Maps","protocol":17,"map":"pl_barnblitz","folder":"tf","game":"Team Fortress","app_id":440,"player_count":24,"max_players":24,"Bots":0,"server_type":"Dedicated","server_os":"Linux","password":true,"vac":true,"version":"7961495","steam_id":85568392924469983,"keywords":["nocrits","nodmgspread","payload","uncletopia"],"game_id":440,"stv_port":27026,"stv_name":"Uncletopia | Atlanta | 2 | All Maps | STV","players":null},{"server_id":400,"name":"Uncletopia | Atlanta | 3 | Stopwatch","name_short":"atl-3","host":"atl-1.us.uncletopia.com","port":27035,"enabled":true,"region":"us-east","cc":"us","latitude":33.753746,"longitude":-84.38633,"reserved":0,"last_update":"0001-01-01T00:00:00Z","name_a2s":"Uncletopia | Atlanta | 3 | Stopwatch","protocol":17,"map":"koth_ashville_final","folder":"tf","game":"Team Fortress","app_id":440,"player_count":0,"max_players":24,"Bots":0,"server_type":"Dedicated","server_os":"Linux","password":true,"vac":true,"version":"7961495","steam_id":85568392924515187,"keywords":["cp","nocrits","nodmgspread","uncletopia"],"game_id":440,"stv_port":27036,"stv_name":"Uncletopia | Atlanta | 3 | Stopwatch | STV","players":null},{"server_id":401,"name":"Uncletopia | Atlanta | 4 | Community","name_short":"atl-4","host":"atl-1.us.uncletopia.com","port":27045,"enabled":true,"region":"us-east","cc":"us","latitude":33.753746,"longitude":-84.38633,"reserved":0,"last_update":"0001-01-01T00:00:00Z","name_a2s":"Uncletopia | Atlanta | 4 | Community","protocol":17,"map":"koth_kemptown_rc1","folder":"tf","game":"Team Fortress","app_id":440,"player_count":4,"max_players":24,"Bots":0,"server_type":"Dedicated","server_os":"Linux","password":true,"vac":true,"version":"7961495","steam_id":85568392924515188,"keywords":["cp","nocrits","nodmgspread","uncletopia"],"game_id":440,"stv_port":27046,"stv_name":"Uncletopia | Atlanta | 4 | Community | STV","players":null},{"server_id":2,"name":"Uncletopia | Chicago | 1 | All Maps","name_short":"chi-1","host":"chi-1.us.uncletopia.com","port":27015,"enabled":true,"region":"us-central","cc":"us","latitude":41.881832,"longitude":-87.62318,"reserved":0,"last_update":"0001-01-01T00:00:00Z","name_a2s":"Uncletopia | Chicago | 1 | All Maps","protocol":17,"map":"pl_upward","folder":"tf","game":"Team Fortress","app_id":440,"player_count":0,"max_players":24,"Bots":0,"server_type":"Dedicated","server_os":"Linux","password":true,"vac":true,"version":"7961495","steam_id":85568392924469984,"keywords":["nocrits","nodmgspread","payload","uncletopia"],"game_id":440,"stv_port":27016,"stv_name":"Uncletopia | Chicago | 1 | All Maps | STV","players":null},{"server_id":106,"name":"Uncletopia | Chicago | 2 | All Maps","name_short":"chi-2","host":"chi-1.us.uncletopia.com","port":27025,"enabled":true,"region":"us-central","cc":"us","latitude":41.881832,"longitude":-87.62318,"reserved":0,"last_update":"0001-01-01T00:00:00Z","name_a2s":"Uncletopia | Chicago | 2 | All Maps","protocol":17,"map":"pl_frontier_final","folder":"tf","game":"Team Fortress","app_id":440,"player_count":24,"max_players":24,"Bots":0,"server_type":"Dedicated","server_os":"Linux","password":true,"vac":true,"version":"7961495","steam_id":85568392924469985,"keywords":["nocrits","nodmgspread","payload","uncletopia"],"game_id":440,"stv_port":27026,"stv_name":"Uncletopia | Chicago | 2 | All Maps | STV","players":[{"user_id":752,"name":"ThatFrog","steam_id":76561198437198904,"connected_time":1518000000000,"state":"active","ping":105},{"user_id":750,"name":"Der Krieger105","steam_id":76561197978384609,"connected_time":1645000000000,"state":"active","ping":95},{"user_id":780,"name":"Brawns","steam_id":76561198045190199,"connected_time":403000000000,"state":"active","ping":81},{"user_id":754,"name":"luxl1","steam_id":76561198975034056,"connected_time":1418000000000,"state":"active","ping":126},{"user_id":776,"name":"Rathalos from Monster Hunter","steam_id":76561198946066038,"connected_time":836000000000,"state":"active","ping":66},{"user_id":728,"name":"c00kie","steam_id":76561198418178297,"connected_time":3697000000000,"state":"active","ping":41},{"user_id":767,"name":"uweh","steam_id":76561198113707813,"connected_time":970000000000,"state":"active","ping":97},{"user_id":765,"name":"kman_kangaroo","steam_id":76561199379271462,"connected_time":1008000000000,"state":"active","ping":80},{"user_id":757,"name":"IsleBound","steam_id":76561198278451717,"connected_time":1185000000000,"state":"active","ping":64},{"user_id":736,"name":"Tetsucabra from Monster Hunter","steam_id":76561198119483989,"connected_time":3456000000000,"state":"active","ping":78},{"user_id":758,"name":"HasheM","steam_id":76561198090308879,"connected_time":1166000000000,"state":"active","ping":128},{"user_id":759,"name":"Natsuki the Scunt","steam_id":76561199175922684,"connected_time":1137000000000,"state":"active","ping":100},{"user_id":772,"name":"bird with bad aim","steam_id":76561198062360755,"connected_time":903000000000,"state":"active","ping":54},{"user_id":781,"name":"Space Cops","steam_id":76561198032414253,"connected_time":382000000000,"state":"active","ping":58},{"user_id":773,"name":"Rori","steam_id":76561198052582902,"connected_time":867000000000,"state":"active","ping":54},{"user_id":764,"name":"Aspxts","steam_id":76561199125254746,"connected_time":1050000000000,"state":"active","ping":58},{"user_id":779,"name":"Raccoon Wizard","steam_id":76561198072562591,"connected_time":417000000000,"state":"active","ping":78},{"user_id":785,"name":"FREE TIBET!","steam_id":76561197996366011,"connected_time":176000000000,"state":"active","ping":76},{"user_id":786,"name":"i suffer from ligma","steam_id":76561199158496518,"connected_time":52000000000,"state":"active","ping":120},{"user_id":774,"name":"I'm a Fungi","steam_id":76561198061507741,"connected_time":860000000000,"state":"active","ping":68},{"user_id":775,"name":"turnip","steam_id":76561197999375941,"connected_time":859000000000,"state":"active","ping":76},{"user_id":771,"name":"Raz","steam_id":76561198879521002,"connected_time":942000000000,"state":"active","ping":64},{"user_id":777,"name":"God's Goofiest Goober","steam_id":76561197991015780,"connected_time":826000000000,"state":"active","ping":67},{"user_id":783,"name":"Silverkeys","steam_id":76561197986012496,"connected_time":361000000000,"state":"active","ping":70}]},{"server_id":402,"name":"Uncletopia | Chicago | 3 | All Maps","name_short":"chi-3","host":"chi-1.us.uncletopia.com","port":27035,"enabled":true,"region":"us-central","cc":"us","latitude":41.881832,"longitude":-87.62318,"reserved":0,"last_update":"0001-01-01T00:00:00Z","name_a2s":"Uncletopia | Chicago | 3 | All Maps","protocol":17,"map":"cp_snakewater_final1","folder":"tf","game":"Team Fortress","app_id":440,"player_count":23,"max_players":24,"Bots":0,"server_type":"Dedicated","server_os":"Linux","password":true,"vac":true,"version":"7961495","steam_id":85568392924515191,"keywords":["cp","nocrits","nodmgspread","uncletopia"],"game_id":440,"stv_port":27036,"stv_name":"Uncletopia | Chicago | 3 | All Maps | STV","players":[{"user_id":384,"name":"fuckterry","steam_id":76561198271957738,"connected_time":3403000000000,"state":"active","ping":77},{"user_id":394,"name":"STEVE","steam_id":76561198063475894,"connected_time":2724000000000,"state":"active","ping":66},{"user_id":408,"name":"Commodore","steam_id":76561198042112852,"connected_time":1608000000000,"state":"active","ping":73},{"user_id":372,"name":"Saul Goodman","steam_id":76561198157305426,"connected_time":3708000000000,"state":"active","ping":60},{"user_id":373,"name":"Kim Wexler","steam_id":76561198964107245,"connected_time":3699000000000,"state":"active","ping":89},{"user_id":421,"name":"vepis","steam_id":76561198015884720,"connected_time":374000000000,"state":"active","ping":63},{"user_id":331,"name":"aisu","steam_id":76561198043768507,"connected_time":7373000000000,"state":"active","ping":64},{"user_id":413,"name":"Legit_Jaxer","steam_id":76561198172234053,"connected_time":1503000000000,"state":"active","ping":130},{"user_id":368,"name":"Ayylmao","steam_id":76561198104780147,"connected_time":3850000000000,"state":"active","ping":44},{"user_id":415,"name":"Dr Oshawott","steam_id":76561198042021629,"connected_time":1457000000000,"state":"active","ping":63},{"user_id":422,"name":"dansal","steam_id":76561197997042510,"connected_time":213000000000,"state":"active","ping":94},{"user_id":401,"name":"Joe Nathan","steam_id":76561198041030399,"connected_time":2194000000000,"state":"active","ping":85},{"user_id":376,"name":"Dick Grimes","steam_id":76561198157414556,"connected_time":3679000000000,"state":"active","ping":87},{"user_id":402,"name":"Shoeshocker","steam_id":76561198174302467,"connected_time":2180000000000,"state":"active","ping":68},{"user_id":392,"name":"LordOfTheNoobs","steam_id":76561197962697523,"connected_time":2780000000000,"state":"active","ping":59},{"user_id":406,"name":"The Roto Grip Exotic Gem","steam_id":76561197961141994,"connected_time":1778000000000,"state":"active","ping":75},{"user_id":364,"name":"Imagine being trash at Medic","steam_id":76561197986530028,"connected_time":4119000000000,"state":"active","ping":109},{"user_id":405,"name":"oppenheimer style","steam_id":76561198026664629,"connected_time":2085000000000,"state":"active","ping":52},{"user_id":419,"name":"OliverOyl","steam_id":76561198273781861,"connected_time":682000000000,"state":"active","ping":79},{"user_id":411,"name":"BeG04T羊","steam_id":76561198303969515,"connected_time":1532000000000,"state":"active","ping":57},{"user_id":418,"name":"Phillip Jeffries","steam_id":76561198064052174,"connected_time":1066000000000,"state":"active","ping":65},{"user_id":399,"name":"baguette","steam_id":76561198138807741,"connected_time":2285000000000,"state":"active","ping":73},{"user_id":395,"name":"Another Was/Were Statistic","steam_id":76561198009837323,"connected_time":2700000000000,"state":"active","ping":91}]},{"server_id":403,"name":"Uncletopia | Chicago | 4 | All Maps","name_short":"chi-4","host":"chi-1.us.uncletopia.com","port":27045,"enabled":true,"region":"us-central","cc":"us","latitude":41.881832,"longitude":-87.62318,"reserved":0,"last_update":"0001-01-01T00:00:00Z","name_a2s":"Uncletopia | Chicago | 4 | All Maps","protocol":17,"map":"pl_thundermountain","folder":"tf","game":"Team Fortress","app_id":440,"player_count":24,"max_players":24,"Bots":0,"server_type":"Dedicated","server_os":"Linux","password":true,"vac":true,"version":"7961495","steam_id":85568392924515193,"keywords":["nocrits","nodmgspread","payload","uncletopia"],"game_id":440,"stv_port":27046,"stv_name":"Uncletopia | Chicago | 4 | All Maps | STV","players":[{"user_id":801,"name":"engiqueer69","steam_id":76561199153261850,"connected_time":1563000000000,"state":"active","ping":130},{"user_id":783,"name":"cofi","steam_id":76561198077504898,"connected_time":2057000000000,"state":"active","ping":65},{"user_id":775,"name":"TheChickenChuck","steam_id":76561199192686708,"connected_time":2425000000000,"state":"active","ping":97},{"user_id":782,"name":"rudy","steam_id":76561198088712799,"connected_time":2071000000000,"state":"active","ping":81},{"user_id":784,"name":"Lummock","steam_id":76561199099083114,"connected_time":2049000000000,"state":"active","ping":110},{"user_id":826,"name":"Antwan","steam_id":76561198246200638,"connected_time":128000000000,"state":"active","ping":65},{"user_id":788,"name":"Henry Ota-Clay","steam_id":76561198053232470,"connected_time":1823000000000,"state":"active","ping":59},{"user_id":651,"name":"Pharthus","steam_id":76561198093866050,"connected_time":9653000000000,"state":"active","ping":90},{"user_id":817,"name":"dulg","steam_id":76561198127640309,"connected_time":280000000000,"state":"active","ping":87},{"user_id":818,"name":"stormfoam","steam_id":76561198936871387,"connected_time":271000000000,"state":"active","ping":72},{"user_id":787,"name":"JordyHunter53","steam_id":76561198214297553,"connected_time":1877000000000,"state":"active","ping":85},{"user_id":790,"name":"Kiradias777","steam_id":76561198067176309,"connected_time":1800000000000,"state":"active","ping":56},{"user_id":820,"name":"women in suits #transrights","steam_id":76561198103901723,"connected_time":256000000000,"state":"active","ping":75},{"user_id":792,"name":"tavvy","steam_id":76561198266284864,"connected_time":1733000000000,"state":"active","ping":129},{"user_id":793,"name":"GuyGoom","steam_id":76561198254522178,"connected_time":1706000000000,"state":"active","ping":53},{"user_id":827,"name":"Syrup_Bottle","steam_id":76561198869174481,"connected_time":68000000000,"state":"spawning","ping":77},{"user_id":822,"name":"Truck-kun2107","steam_id":76561199161417910,"connected_time":244000000000,"state":"active","ping":92},{"user_id":811,"name":"BigNugs","steam_id":76561198056402610,"connected_time":1305000000000,"state":"active","ping":69},{"user_id":796,"name":"Marineland","steam_id":76561198081285187,"connected_time":1683000000000,"state":"active","ping":72},{"user_id":824,"name":"Je","steam_id":76561198060626838,"connected_time":213000000000,"state":"active","ping":74},{"user_id":823,"name":"Cooldog","steam_id":76561198080548713,"connected_time":238000000000,"state":"active","ping":75},{"user_id":825,"name":"DavidB","steam_id":76561198045916255,"connected_time":204000000000,"state":"active","ping":60},{"user_id":800,"name":"Aldinach","steam_id":76561198079912615,"connected_time":1602000000000,"state":"active","ping":59},{"user_id":812,"name":"ANIMALMOTHER","steam_id":76561199075568861,"connected_time":1286000000000,"state":"active","ping":101}]},{"server_id":36,"name":"Uncletopia | Chicago | 5 | All Maps","name_short":"chi-5","host":"chi-2.us.uncletopia.com","port":27015,"enabled":true,"region":"us-central","cc":"us","latitude":41.881832,"longitude":-87.62318,"reserved":0,"last_update":"0001-01-01T00:00:00Z","name_a2s":"Uncletopia | Chicago | 5 | All Maps","protocol":17,"map":"pl_snowycoast","folder":"tf","game":"Team Fortress","app_id":440,"player_count":19,"max_players":24,"Bots":0,"server_type":"Dedicated","server_os":"Linux","password":true,"vac":true,"version":"7961495","steam_id":85568392924866362,"keywords":["nocrits","nodmgspread","payload","uncletopia"],"game_id":440,"stv_port":27016,"stv_name":"Uncletopia | Chicago | 5 | All Maps | STV","players":[{"user_id":243,"name":"4 life","steam_id":76561198175961598,"connected_time":1009000000000,"state":"active","ping":114},{"user_id":248,"name":"zpalmtree","steam_id":76561198134307620,"connected_time":728000000000,"state":"active","ping":51},{"user_id":249,"name":"sixsin","steam_id":76561199215821942,"connected_time":724000000000,"state":"active","ping":67},{"user_id":247,"name":"Scoops M'Gooch","steam_id":76561198048423812,"connected_time":898000000000,"state":"active","ping":107},{"user_id":216,"name":"roast pig with apple in mouth","steam_id":76561198051353647,"connected_time":3017000000000,"state":"active","ping":98},{"user_id":192,"name":"Fudgely","steam_id":76561198039425862,"connected_time":5580000000000,"state":"active","ping":76},{"user_id":232,"name":"IMM0RTAL","steam_id":76561198013747901,"connected_time":2203000000000,"state":"active","ping":75},{"user_id":246,"name":"Mint Jelly","steam_id":76561197991286751,"connected_time":926000000000,"state":"active","ping":43},{"user_id":242,"name":"the album dariacore by leroy","steam_id":76561198061497429,"connected_time":1068000000000,"state":"active","ping":61},{"user_id":241,"name":"!cav","steam_id":76561198041535102,"connected_time":1568000000000,"state":"active","ping":65},{"user_id":225,"name":"RestingImmortal","steam_id":76561198254240564,"connected_time":2736000000000,"state":"active","ping":73},{"user_id":220,"name":"Patchy","steam_id":76561198008112883,"connected_time":2964000000000,"state":"active","ping":76},{"user_id":167,"name":"Gram Tokers Count Doinkula","steam_id":76561198112811565,"connected_time":7450000000000,"state":"active","ping":73},{"user_id":187,"name":"Propaniac Gaming ☑","steam_id":76561198133963270,"connected_time":5742000000000,"state":"active","ping":57},{"user_id":223,"name":"gas station revenant","steam_id":76561198076395705,"connected_time":2847000000000,"state":"active","ping":60},{"user_id":251,"name":"double xp weekend","steam_id":76561198052950547,"connected_time":413000000000,"state":"active","ping":41},{"user_id":238,"name":"aversa","steam_id":76561198840460101,"connected_time":1696000000000,"state":"active","ping":68},{"user_id":227,"name":"MrMind","steam_id":76561199321657653,"connected_time":2669000000000,"state":"active","ping":90},{"user_id":233,"name":"Lawlessbacon","steam_id":76561198829997780,"connected_time":2175000000000,"state":"active","ping":95}]},{"server_id":37,"name":"Uncletopia | Chicago | 6 | All Maps","name_short":"chi-6","host":"chi-2.us.uncletopia.com","port":27025,"enabled":true,"region":"us-central","cc":"us","latitude":41.881832,"longitude":-87.62318,"reserved":0,"last_update":"0001-01-01T00:00:00Z","name_a2s":"Uncletopia | Chicago | 6 | All Maps","protocol":17,"map":"pl_pier","folder":"tf","game":"Team Fortress","app_id":440,"player_count":24,"max_players":24,"Bots":0,"server_type":"Dedicated","server_os":"Linux","password":true,"vac":true,"version":"7961495","steam_id":85568392924866363,"keywords":["nocrits","nodmgspread","payload","uncletopia"],"game_id":440,"stv_port":27026,"stv_name":"Uncletopia | Chicago | 6 | All Maps | STV","players":[{"user_id":445,"name":"Devoid","steam_id":76561198254039012,"connected_time":837000000000,"state":"active","ping":53},{"user_id":453,"name":"\u003c blank \u003e","steam_id":76561198057457717,"connected_time":577000000000,"state":"active","ping":70},{"user_id":444,"name":"Amari","steam_id":76561198272446730,"connected_time":891000000000,"state":"active","ping":53},{"user_id":435,"name":"Bookmenot","steam_id":76561198153442084,"connected_time":1299000000000,"state":"active","ping":64},{"user_id":443,"name":"HyperOrange|#SaveTF2","steam_id":76561198068071327,"connected_time":1005000000000,"state":"active","ping":72},{"user_id":363,"name":"Nillad","steam_id":76561198984334138,"connected_time":7184000000000,"state":"active","ping":83},{"user_id":446,"name":"ceres","steam_id":76561198291976960,"connected_time":807000000000,"state":"active","ping":103},{"user_id":438,"name":"hud_saytext_time 0","steam_id":76561198010327228,"connected_time":1120000000000,"state":"active","ping":162},{"user_id":404,"name":"Urswick","steam_id":76561198166008136,"connected_time":3403000000000,"state":"active","ping":83},{"user_id":440,"name":"Still Alive","steam_id":76561198042523000,"connected_time":1092000000000,"state":"active","ping":97},{"user_id":447,"name":"Dr. Dick","steam_id":76561198138011922,"connected_time":773000000000,"state":"active","ping":73},{"user_id":426,"name":"boffo","steam_id":76561198096978718,"connected_time":2107000000000,"state":"active","ping":89},{"user_id":452,"name":"lightsword24","steam_id":76561198227552556,"connected_time":617000000000,"state":"active","ping":85},{"user_id":442,"name":"Headshotsnake","steam_id":76561198067130248,"connected_time":1082000000000,"state":"active","ping":58},{"user_id":425,"name":"Moonshine Man","steam_id":76561198088010073,"connected_time":2256000000000,"state":"active","ping":75},{"user_id":349,"name":"AL SPUGNAR","steam_id":76561199020253203,"connected_time":7974000000000,"state":"active","ping":118},{"user_id":449,"name":"SHADOW","steam_id":76561198207768148,"connected_time":743000000000,"state":"active","ping":116},{"user_id":454,"name":"Cooltimmy36","steam_id":76561199124403788,"connected_time":576000000000,"state":"active","ping":126},{"user_id":410,"name":"Chin (SFM Comms Open)","steam_id":76561198953123833,"connected_time":3336000000000,"state":"active","ping":115},{"user_id":450,"name":"sawrik","steam_id":76561198018808213,"connected_time":702000000000,"state":"active","ping":67},{"user_id":451,"name":"Chef__7","steam_id":76561199056921540,"connected_time":694000000000,"state":"active","ping":64},{"user_id":428,"name":"poopybutt420","steam_id":76561199000805315,"connected_time":2001000000000,"state":"active","ping":89},{"user_id":347,"name":"ItsThatBear","steam_id":76561198169617659,"connected_time":7992000000000,"state":"active","ping":90},{"user_id":432,"name":"cooper","steam_id":76561198272034065,"connected_time":1785000000000,"state":"active","ping":91}]},{"server_id":38,"name":"Uncletopia | Chicago | 7 | Stopwatch","name_short":"chi-7","host":"chi-2.us.uncletopia.com","port":27035,"enabled":true,"region":"us-central","cc":"us","latitude":41.881832,"longitude":-87.62318,"reserved":0,"last_update":"0001-01-01T00:00:00Z","name_a2s":"Uncletopia | Chicago | 7 | Stopwatch","protocol":17,"map":"workshop/pl_badwater_pro_v12.ugc2142942074","folder":"tf","game":"Team Fortress","app_id":440,"player_count":3,"max_players":24,"Bots":0,"server_type":"Dedicated","server_os":"Linux","password":true,"vac":true,"version":"7961495","steam_id":85568392924866364,"keywords":["nocrits","nodmgspread","payload","uncletopia"],"game_id":440,"stv_port":27036,"stv_name":"Uncletopia | Chicago | 7 | Stopwatch | STV","players":[{"user_id":207,"name":"Zealot wha","steam_id":76561198218369271,"connected_time":254000000000,"state":"active","ping":58},{"user_id":206,"name":"Mom","steam_id":76561198207936000,"connected_time":706000000000,"state":"active","ping":89},{"user_id":201,"name":"CloakedString17","steam_id":76561198443573586,"connected_time":1908000000000,"state":"active","ping":91}]},{"server_id":39,"name":"Uncletopia | Chicago | 8 | Community","name_short":"chi-8","host":"chi-2.us.uncletopia.com","port":27045,"enabled":true,"region":"us-central","cc":"us","latitude":41.881832,"longitude":-87.62318,"reserved":0,"last_update":"0001-01-01T00:00:00Z","name_a2s":"Uncletopia | Chicago | 8 | Community","protocol":17,"map":"workshop/cp_coilblaze_rc7.ugc1272700588","folder":"tf","game":"Team Fortress","app_id":440,"player_count":0,"max_players":24,"Bots":0,"server_type":"Dedicated","server_os":"Linux","password":true,"vac":true,"version":"7961495","steam_id":85568392924866365,"keywords":["cp","nocrits","nodmgspread","uncletopia"],"game_id":440,"stv_port":27046,"stv_name":"Uncletopia | Chicago | 8 | Community | STV","players":null},{"server_id":8,"name":"Uncletopia | Dallas | 1 | All Maps","name_short":"dal-1","host":"dal-1.us.uncletopia.com","port":27015,"enabled":true,"region":"us-central","cc":"us","latitude":32.779167,"longitude":-96.80889,"reserved":0,"last_update":"0001-01-01T00:00:00Z","name_a2s":"Uncletopia | Dallas | 1 | All Maps","protocol":17,"map":"cp_steel","folder":"tf","game":"Team Fortress","app_id":440,"player_count":23,"max_players":24,"Bots":0,"server_type":"Dedicated","server_os":"Linux","password":true,"vac":true,"version":"7961495","steam_id":85568392924469986,"keywords":["cp","nocrits","nodmgspread","uncletopia"],"game_id":440,"stv_port":27016,"stv_name":"Uncletopia | Dallas | 1 | All Maps | STV","players":[{"user_id":552,"name":"spunch bub","steam_id":76561198326658210,"connected_time":1043000000000,"state":"active","ping":87},{"user_id":524,"name":"FanaticSalt","steam_id":76561199380123059,"connected_time":2729000000000,"state":"active","ping":47},{"user_id":557,"name":"Dr. W0lv","steam_id":76561198129237487,"connected_time":702000000000,"state":"active","ping":43},{"user_id":516,"name":"cringeass nae-nae girl","steam_id":76561198108753857,"connected_time":3583000000000,"state":"active","ping":78},{"user_id":494,"name":"sapphoroth","steam_id":76561198062263639,"connected_time":6296000000000,"state":"active","ping":51},{"user_id":564,"name":"EvilPi99let","steam_id":76561197987243470,"connected_time":311000000000,"state":"active","ping":78},{"user_id":541,"name":"ROGUE-PLANET","steam_id":76561198116023052,"connected_time":2019000000000,"state":"active","ping":63},{"user_id":567,"name":"SaaxoM","steam_id":76561198208256603,"connected_time":6000000000,"state":"spawning","ping":78},{"user_id":527,"name":"owl","steam_id":76561198088403016,"connected_time":2672000000000,"state":"active","ping":169},{"user_id":542,"name":"Wine, Good sir?","steam_id":76561198413806134,"connected_time":1977000000000,"state":"active","ping":72},{"user_id":543,"name":"NormanVillage","steam_id":76561198330337371,"connected_time":1967000000000,"state":"active","ping":98},{"user_id":550,"name":"9Bendy9","steam_id":76561198164023601,"connected_time":1322000000000,"state":"active","ping":89},{"user_id":553,"name":"BADWOLF42","steam_id":76561198055447523,"connected_time":840000000000,"state":"active","ping":58},{"user_id":558,"name":"Oatmeal","steam_id":76561198027866416,"connected_time":700000000000,"state":"active","ping":53},{"user_id":469,"name":"Anon","steam_id":76561198109740776,"connected_time":7743000000000,"state":"active","ping":92},{"user_id":565,"name":"NekoTrap","steam_id":76561198797624241,"connected_time":172000000000,"state":"active","ping":88},{"user_id":515,"name":"._.","steam_id":76561198300316801,"connected_time":3894000000000,"state":"active","ping":82},{"user_id":499,"name":"Hydroxianchaos","steam_id":76561198043786828,"connected_time":6082000000000,"state":"active","ping":81},{"user_id":560,"name":"Timur","steam_id":76561197989552257,"connected_time":659000000000,"state":"active","ping":70},{"user_id":554,"name":"GarbbCan","steam_id":76561198927509821,"connected_time":734000000000,"state":"active","ping":108},{"user_id":551,"name":"Fresh","steam_id":76561199006338675,"connected_time":1296000000000,"state":"active","ping":76},{"user_id":566,"name":"Cat™","steam_id":76561198898241158,"connected_time":152000000000,"state":"active","ping":123},{"user_id":539,"name":"Borked","steam_id":76561197984964095,"connected_time":2338000000000,"state":"active","ping":82}]},{"server_id":108,"name":"Uncletopia | Dallas | 2 | All Maps","name_short":"dal-2","host":"dal-1.us.uncletopia.com","port":27025,"enabled":true,"region":"us-central","cc":"us","latitude":32.779167,"longitude":-96.80889,"reserved":0,"last_update":"0001-01-01T00:00:00Z","name_a2s":"Uncletopia | Dallas | 2 | All Maps","protocol":17,"map":"pl_badwater","folder":"tf","game":"Team Fortress","app_id":440,"player_count":21,"max_players":24,"Bots":0,"server_type":"Dedicated","server_os":"Linux","password":true,"vac":true,"version":"7961495","steam_id":85568392924469988,"keywords":["nocrits","nodmgspread","payload","uncletopia"],"game_id":440,"stv_port":27026,"stv_name":"Uncletopia | Dallas | 2 | All Maps | STV","players":[{"user_id":917,"name":"Anor","steam_id":76561198356139775,"connected_time":955000000000,"state":"active","ping":73},{"user_id":901,"name":"Unidity Nargen - bidenskins.loo","steam_id":76561198368508980,"connected_time":1542000000000,"state":"active","ping":94},{"user_id":895,"name":"ThiccNicc","steam_id":76561198236828842,"connected_time":1863000000000,"state":"active","ping":86},{"user_id":924,"name":"Hazeyboi","steam_id":76561198130687838,"connected_time":253000000000,"state":"active","ping":53},{"user_id":923,"name":"njokuani","steam_id":76561199061380038,"connected_time":303000000000,"state":"active","ping":75},{"user_id":925,"name":"cipecaf","steam_id":76561198211841491,"connected_time":182000000000,"state":"active","ping":75},{"user_id":926,"name":"chungy","steam_id":76561198215559840,"connected_time":149000000000,"state":"active","ping":71},{"user_id":871,"name":"Mr_SoulSlasher","steam_id":76561198936267613,"connected_time":2892000000000,"state":"active","ping":92},{"user_id":927,"name":"THICCBEEF GRANDPA","steam_id":76561197993550572,"connected_time":132000000000,"state":"active","ping":90},{"user_id":928,"name":"crotuslovershanks","steam_id":76561199091300223,"connected_time":131000000000,"state":"active","ping":85},{"user_id":929,"name":"Arthur SSJ2","steam_id":76561198043678479,"connected_time":123000000000,"state":"active","ping":45},{"user_id":916,"name":"Insomnia Gaming","steam_id":76561198069735882,"connected_time":995000000000,"state":"active","ping":75},{"user_id":879,"name":"gooch_masta","steam_id":76561198151578423,"connected_time":2591000000000,"state":"active","ping":85},{"user_id":930,"name":"Rudy","steam_id":76561198013456828,"connected_time":95000000000,"state":"active","ping":75},{"user_id":910,"name":"Wiggle Wiggle","steam_id":76561199053447896,"connected_time":1248000000000,"state":"active","ping":90},{"user_id":931,"name":"soymilksteak","steam_id":76561198001488041,"connected_time":57000000000,"state":"active","ping":68},{"user_id":883,"name":"jumpingjacks","steam_id":76561197964839440,"connected_time":2522000000000,"state":"active","ping":83},{"user_id":892,"name":"FedelmiD","steam_id":76561198146765469,"connected_time":2295000000000,"state":"active","ping":71},{"user_id":913,"name":"zeb","steam_id":76561198408349402,"connected_time":1211000000000,"state":"active","ping":78},{"user_id":899,"name":"damiankiller1243","steam_id":76561198868885090,"connected_time":1670000000000,"state":"active","ping":58},{"user_id":922,"name":"Not A Rapper","steam_id":76561198077523537,"connected_time":450000000000,"state":"active","ping":108}]},{"server_id":404,"name":"Uncletopia | Dallas | 3 | All Maps","name_short":"dal-3","host":"dal-1.us.uncletopia.com","port":27035,"enabled":true,"region":"us-central","cc":"us","latitude":32.779167,"longitude":-96.80889,"reserved":0,"last_update":"0001-01-01T00:00:00Z","name_a2s":"Uncletopia | Dallas | 3 | All Maps","protocol":17,"map":"pl_snowycoast","folder":"tf","game":"Team Fortress","app_id":440,"player_count":23,"max_players":24,"Bots":0,"server_type":"Dedicated","server_os":"Linux","password":true,"vac":true,"version":"7961495","steam_id":85568392924515219,"keywords":["nocrits","nodmgspread","payload","uncletopia"],"game_id":440,"stv_port":27036,"stv_name":"Uncletopia | Dallas | 3 | All Maps | STV","players":[{"user_id":282,"name":"ThatsH","steam_id":76561198832998914,"connected_time":1854000000000,"state":"active","ping":67},{"user_id":305,"name":"Inadequate","steam_id":76561198108263810,"connected_time":332000000000,"state":"active","ping":111},{"user_id":306,"name":"Drained","steam_id":76561198081974528,"connected_time":298000000000,"state":"active","ping":69},{"user_id":284,"name":"Whyamidoingthisaaaa","steam_id":76561199168837342,"connected_time":1782000000000,"state":"active","ping":88},{"user_id":307,"name":"Scut","steam_id":76561198973734291,"connected_time":292000000000,"state":"active","ping":89},{"user_id":296,"name":"PiolaCat","steam_id":76561199100535345,"connected_time":1297000000000,"state":"active","ping":183},{"user_id":266,"name":"❤ Ashley ❤","steam_id":76561198056428303,"connected_time":2935000000000,"state":"active","ping":75},{"user_id":308,"name":"supcupman","steam_id":76561198051513866,"connected_time":284000000000,"state":"active","ping":123},{"user_id":310,"name":"Clumsy","steam_id":76561198056345245,"connected_time":173000000000,"state":"active","ping":61},{"user_id":290,"name":"Mr. C","steam_id":76561199174760866,"connected_time":1596000000000,"state":"active","ping":67},{"user_id":304,"name":"Proud Swift City Resident","steam_id":76561198036283992,"connected_time":487000000000,"state":"active","ping":87},{"user_id":283,"name":"alpharuby","steam_id":76561198051638462,"connected_time":1847000000000,"state":"active","ping":83},{"user_id":248,"name":"self sufficient kitten","steam_id":76561197960592612,"connected_time":4140000000000,"state":"active","ping":103},{"user_id":311,"name":"camilb50","steam_id":76561198027878466,"connected_time":126000000000,"state":"active","ping":105},{"user_id":280,"name":"notLoona","steam_id":76561198861851215,"connected_time":1970000000000,"state":"active","ping":69},{"user_id":291,"name":"CHINESE SPY BALLOON OF DEATH","steam_id":76561197975975364,"connected_time":1568000000000,"state":"active","ping":95},{"user_id":210,"name":"SilverLife25","steam_id":76561198392015722,"connected_time":6382000000000,"state":"active","ping":65},{"user_id":295,"name":"Ugly Princess","steam_id":76561198151044270,"connected_time":1345000000000,"state":"active","ping":100},{"user_id":303,"name":"Phil Collins","steam_id":76561198068868644,"connected_time":678000000000,"state":"active","ping":87},{"user_id":312,"name":"Remy the rat","steam_id":76561198080519558,"connected_time":77000000000,"state":"active","ping":59},{"user_id":313,"name":"Philo","steam_id":76561198061873341,"connected_time":58000000000,"state":"active","ping":97},{"user_id":314,"name":"Social_Credit_Investor","steam_id":76561198282283679,"connected_time":13000000000,"state":"spawning","ping":59},{"user_id":302,"name":"donn","steam_id":76561198113080083,"connected_time":922000000000,"state":"active","ping":87}]},{"server_id":405,"name":"Uncletopia | Dallas | 4 | Community","name_short":"dal-4","host":"dal-1.us.uncletopia.com","port":27045,"enabled":true,"region":"us-central","cc":"us","latitude":32.779167,"longitude":-96.80889,"reserved":0,"last_update":"0001-01-01T00:00:00Z","name_a2s":"Uncletopia | Dallas | 4 | Community","protocol":17,"map":"workshop/cp_fulgur_rc2a.ugc2068252300","folder":"tf","game":"Team Fortress","app_id":440,"player_count":0,"max_players":24,"Bots":0,"server_type":"Dedicated","server_os":"Linux","password":true,"vac":true,"version":"7961495","steam_id":85568392924515220,"keywords":["cp","nocrits","nodmgspread","uncletopia"],"game_id":440,"stv_port":27046,"stv_name":"Uncletopia | Dallas | 4 | Community | STV","players":null},{"server_id":5,"name":"Uncletopia | Frankfurt | 1 | All Maps","name_short":"frk-1","host":"frk-1.de.uncletopia.com","port":27015,"enabled":true,"region":"eu","cc":"de","latitude":50.110924,"longitude":8.682127,"reserved":0,"last_update":"0001-01-01T00:00:00Z","name_a2s":"Uncletopia | Frankfurt | 1 | All Maps","protocol":17,"map":"koth_highpass","folder":"tf","game":"Team Fortress","app_id":440,"player_count":1,"max_players":24,"Bots":0,"server_type":"Dedicated","server_os":"Linux","password":true,"vac":true,"version":"7961495","steam_id":85568392924469989,"keywords":["cp","nocrits","nodmgspread","uncletopia"],"game_id":440,"stv_port":27016,"stv_name":"Uncletopia | Frankfurt | 1 | All Maps | STV","players":[{"user_id":3,"name":"Mr.Ludwig(Medic)","steam_id":76561198874465992,"connected_time":3000000000,"state":"spawning","ping":42}]},{"server_id":110,"name":"Uncletopia | Frankfurt | 2 | All Maps","name_short":"frk-2","host":"frk-1.de.uncletopia.com","port":27025,"enabled":true,"region":"eu","cc":"de","latitude":50.110924,"longitude":8.682127,"reserved":0,"last_update":"0001-01-01T00:00:00Z","name_a2s":"Uncletopia | Frankfurt | 2 | All Maps","protocol":17,"map":"cp_dustbowl","folder":"tf","game":"Team Fortress","app_id":440,"player_count":0,"max_players":24,"Bots":0,"server_type":"Dedicated","server_os":"Linux","password":true,"vac":true,"version":"7961495","steam_id":85568392924469990,"keywords":["cp","nocrits","nodmgspread","uncletopia"],"game_id":440,"stv_port":27026,"stv_name":"Uncletopia | Frankfurt | 2 | All Maps | STV","players":null},{"server_id":308,"name":"Uncletopia | Frankfurt | 3 | All Maps","name_short":"frk-3","host":"frk-1.de.uncletopia.com","port":27035,"enabled":true,"region":"eu","cc":"de","latitude":50.110924,"longitude":8.682127,"reserved":0,"last_update":"0001-01-01T00:00:00Z","name_a2s":"Uncletopia | Frankfurt | 3 | All Maps","protocol":17,"map":"pl_barnblitz","folder":"tf","game":"Team Fortress","app_id":440,"player_count":0,"max_players":24,"Bots":0,"server_type":"Dedicated","server_os":"Linux","password":true,"vac":true,"version":"7961495","steam_id":85568392924504274,"keywords":["nocrits","nodmgspread","payload","uncletopia"],"game_id":440,"stv_port":27036,"stv_name":"Uncletopia | Frankfurt | 3 | All Maps | STV","players":null},{"server_id":309,"name":"Uncletopia | Frankfurt | 4 | All Maps","name_short":"frk-4","host":"frk-1.de.uncletopia.com","port":27045,"enabled":true,"region":"eu","cc":"de","latitude":50.110924,"longitude":8.682127,"reserved":0,"last_update":"0001-01-01T00:00:00Z","name_a2s":"Uncletopia | Frankfurt | 4 | All Maps","protocol":17,"map":"koth_highpass","folder":"tf","game":"Team Fortress","app_id":440,"player_count":0,"max_players":24,"Bots":0,"server_type":"Dedicated","server_os":"Linux","password":true,"vac":true,"version":"7961495","steam_id":85568392924504275,"keywords":["cp","nocrits","nodmgspread","uncletopia"],"game_id":440,"stv_port":27046,"stv_name":"Uncletopia | Frankfurt | 4 | All Maps | STV","players":null},{"server_id":310,"name":"Uncletopia | Frankfurt | 5 | All Maps","name_short":"frk-5","host":"frk-1.de.uncletopia.com","port":27055,"enabled":true,"region":"eu","cc":"de","latitude":50.110924,"longitude":8.682127,"reserved":0,"last_update":"0001-01-01T00:00:00Z","name_a2s":"Uncletopia | Frankfurt | 5 | All Maps","protocol":17,"map":"pl_badwater","folder":"tf","game":"Team Fortress","app_id":440,"player_count":0,"max_players":24,"Bots":0,"server_type":"Dedicated","server_os":"Linux","password":true,"vac":true,"version":"7961495","steam_id":85568392924504277,"keywords":["nocrits","nodmgspread","payload","uncletopia"],"game_id":440,"stv_port":27056,"stv_name":"Uncletopia | Frankfurt | 5 | All Maps | STV","players":null},{"server_id":311,"name":"Uncletopia | Frankfurt | 6 | All Maps","name_short":"frk-6","host":"frk-1.de.uncletopia.com","port":27065,"enabled":true,"region":"eu","cc":"de","latitude":50.110924,"longitude":8.682127,"reserved":0,"last_update":"0001-01-01T00:00:00Z","name_a2s":"Uncletopia | Frankfurt | 6 | All Maps","protocol":17,"map":"cp_altitude","folder":"tf","game":"Team Fortress","app_id":440,"player_count":0,"max_players":24,"Bots":0,"server_type":"Dedicated","server_os":"Linux","password":true,"vac":true,"version":"7961495","steam_id":85568392924504278,"keywords":["cp","nocrits","nodmgspread","uncletopia"],"game_id":440,"stv_port":27066,"stv_name":"Uncletopia | Frankfurt | 6 | All Maps | STV","players":null},{"server_id":23,"name":"Uncletopia | Frankfurt | 7 | Stopwatch","name_short":"frk-7","host":"frk-1.de.uncletopia.com","port":27075,"enabled":true,"region":"eu","cc":"de","latitude":50.110924,"longitude":8.682127,"reserved":0,"last_update":"0001-01-01T00:00:00Z","name_a2s":"Uncletopia | Frankfurt | 7 | Stopwatch","protocol":17,"map":"pl_frontier_final","folder":"tf","game":"Team Fortress","app_id":440,"player_count":0,"max_players":24,"Bots":0,"server_type":"Dedicated","server_os":"Linux","password":true,"vac":true,"version":"7961495","steam_id":85568392924742827,"keywords":["nocrits","nodmgspread","payload","uncletopia"],"game_id":440,"stv_port":27076,"stv_name":"Uncletopia | Frankfurt | 7 | Stopwatch | STV","players":null},{"server_id":24,"name":"Uncletopia | Frankfurt | 8 | Community","name_short":"frk-8","host":"frk-1.de.uncletopia.com","port":27085,"enabled":true,"region":"eu","cc":"de","latitude":50.110924,"longitude":8.682127,"reserved":0,"last_update":"0001-01-01T00:00:00Z","name_a2s":"Uncletopia | Frankfurt | 8 | Community","protocol":17,"map":"cp_mountainlab","folder":"tf","game":"Team Fortress","app_id":440,"player_count":0,"max_players":24,"Bots":0,"server_type":"Dedicated","server_os":"Linux","password":true,"vac":true,"version":"7961495","steam_id":85568392924742828,"keywords":["cp","nocrits","nodmgspread","uncletopia"],"game_id":440,"stv_port":27086,"stv_name":"Uncletopia | Frankfurt | 8 | Community | STV","players":null},{"server_id":202,"name":"Uncletopia | Hong Kong | 1 | All Maps","name_short":"hgk-1","host":"hgk-1.hk.uncletopia.com","port":27015,"enabled":true,"region":"asia","cc":"hk","latitude":22.302711,"longitude":114.177216,"reserved":0,"last_update":"0001-01-01T00:00:00Z","name_a2s":"Uncletopia | Hong Kong | 1 | All Maps","protocol":17,"map":"pl_borneo","folder":"tf","game":"Team Fortress","app_id":440,"player_count":0,"max_players":24,"Bots":0,"server_type":"Dedicated","server_os":"Linux","password":true,"vac":true,"version":"7961495","steam_id":85568392924494504,"keywords":["nocrits","nodmgspread","payload","uncletopia"],"game_id":440,"stv_port":27016,"stv_name":"Uncletopia | Hong Kong | 1 | All Maps | STV","players":null},{"server_id":1,"name":"Uncletopia | Los Angeles | 1 | All Maps","name_short":"lax-1","host":"lax-1.us.uncletopia.com","port":27015,"enabled":true,"region":"us-west","cc":"us","latitude":33.94279,"longitude":-118.41004,"reserved":0,"last_update":"0001-01-01T00:00:00Z","name_a2s":"Uncletopia | Los Angeles | 1 | All Maps","protocol":17,"map":"koth_lakeside_final","folder":"tf","game":"Team Fortress","app_id":440,"player_count":22,"max_players":24,"Bots":0,"server_type":"Dedicated","server_os":"Linux","password":true,"vac":true,"version":"7961495","steam_id":85568392924469991,"keywords":["cp","nocrits","nodmgspread","uncletopia"],"game_id":440,"stv_port":27016,"stv_name":"Uncletopia | Los Angeles | 1 | All Maps | STV","players":[{"user_id":264,"name":"Brandcommand","steam_id":76561198047758422,"connected_time":3117000000000,"state":"active","ping":42},{"user_id":316,"name":"PERC LFT","steam_id":76561198203856511,"connected_time":344000000000,"state":"active","ping":75},{"user_id":265,"name":"Squiggly","steam_id":76561198003183167,"connected_time":3106000000000,"state":"active","ping":100},{"user_id":306,"name":"duncaidan","steam_id":76561199013510313,"connected_time":910000000000,"state":"active","ping":49},{"user_id":312,"name":"R Kay","steam_id":76561199107386147,"connected_time":517000000000,"state":"active","ping":90},{"user_id":274,"name":"Kazoo","steam_id":76561199229748300,"connected_time":2699000000000,"state":"active","ping":59},{"user_id":309,"name":"jdm","steam_id":76561199497603020,"connected_time":822000000000,"state":"active","ping":47},{"user_id":282,"name":"Bob","steam_id":76561198225634032,"connected_time":2076000000000,"state":"active","ping":113},{"user_id":314,"name":"Soala","steam_id":76561198058753054,"connected_time":444000000000,"state":"active","ping":105},{"user_id":315,"name":"Streamline","steam_id":76561198031098638,"connected_time":429000000000,"state":"active","ping":98},{"user_id":267,"name":"Tramz","steam_id":76561198372593596,"connected_time":3025000000000,"state":"active","ping":61},{"user_id":283,"name":"Taxman","steam_id":76561198244002396,"connected_time":2051000000000,"state":"active","ping":102},{"user_id":293,"name":"b","steam_id":76561198156336213,"connected_time":1729000000000,"state":"active","ping":60},{"user_id":290,"name":"Crazy Hungarian","steam_id":76561198025498172,"connected_time":1827000000000,"state":"active","ping":80},{"user_id":317,"name":"Capyblappy","steam_id":76561198412600420,"connected_time":295000000000,"state":"active","ping":55},{"user_id":319,"name":"PocketTieAMPLFY","steam_id":76561199080485881,"connected_time":187000000000,"state":"active","ping":132},{"user_id":310,"name":".mp3","steam_id":76561198070710025,"connected_time":767000000000,"state":"active","ping":92},{"user_id":311,"name":"mike","steam_id":76561198163265338,"connected_time":642000000000,"state":"active","ping":74},{"user_id":320,"name":"Mainyx","steam_id":76561198811844438,"connected_time":168000000000,"state":"active","ping":55},{"user_id":321,"name":"vozz","steam_id":76561198242065410,"connected_time":38000000000,"state":"active","ping":55},{"user_id":304,"name":"humgry","steam_id":76561198805659769,"connected_time":1448000000000,"state":"active","ping":74},{"user_id":246,"name":"Whisper!","steam_id":76561198119609795,"connected_time":5188000000000,"state":"active","ping":49}]},{"server_id":112,"name":"Uncletopia | Los Angeles | 2 | All Maps","name_short":"lax-2","host":"lax-1.us.uncletopia.com","port":27025,"enabled":true,"region":"us-west","cc":"us","latitude":33.94279,"longitude":-118.41004,"reserved":0,"last_update":"0001-01-01T00:00:00Z","name_a2s":"Uncletopia | Los Angeles | 2 | All Maps","protocol":17,"map":"cp_process_final","folder":"tf","game":"Team Fortress","app_id":440,"player_count":24,"max_players":24,"Bots":0,"server_type":"Dedicated","server_os":"Linux","password":true,"vac":true,"version":"7961495","steam_id":85568392924469992,"keywords":["cp","nocrits","nodmgspread","uncletopia"],"game_id":440,"stv_port":27026,"stv_name":"Uncletopia | Los Angeles | 2 | All Maps | STV","players":[{"user_id":334,"name":"Enforcer Enthusiast","steam_id":76561199124102271,"connected_time":1015000000000,"state":"active","ping":84},{"user_id":319,"name":"Swag6","steam_id":76561198064110837,"connected_time":1831000000000,"state":"active","ping":50},{"user_id":321,"name":"don't get mad","steam_id":76561198064662875,"connected_time":1401000000000,"state":"active","ping":55},{"user_id":322,"name":"Jubtice","steam_id":76561198995538396,"connected_time":1343000000000,"state":"active","ping":56},{"user_id":346,"name":"killjoy136","steam_id":76561198046123408,"connected_time":234000000000,"state":"active","ping":119},{"user_id":323,"name":"Skarp129","steam_id":76561198108679057,"connected_time":1273000000000,"state":"active","ping":46},{"user_id":262,"name":"ImSoTrash","steam_id":76561199208833677,"connected_time":6684000000000,"state":"active","ping":110},{"user_id":340,"name":"RoastyToast408","steam_id":76561198273018783,"connected_time":805000000000,"state":"active","ping":59},{"user_id":335,"name":"MR MODE","steam_id":76561198046775352,"connected_time":948000000000,"state":"active","ping":57},{"user_id":347,"name":"Anstorner","steam_id":76561198274026015,"connected_time":206000000000,"state":"active","ping":42},{"user_id":336,"name":"SpeedEagle","steam_id":76561198092623489,"connected_time":927000000000,"state":"active","ping":65},{"user_id":341,"name":"St. Michael","steam_id":76561198037611052,"connected_time":701000000000,"state":"active","ping":82},{"user_id":296,"name":"Igrium","steam_id":76561198119549811,"connected_time":4310000000000,"state":"active","ping":62},{"user_id":317,"name":"Main Opp","steam_id":76561198124910662,"connected_time":2423000000000,"state":"active","ping":70},{"user_id":344,"name":"sola venereum","steam_id":76561198368179166,"connected_time":453000000000,"state":"active","ping":37},{"user_id":318,"name":"Mocha Josie","steam_id":76561198066452726,"connected_time":2215000000000,"state":"active","ping":66},{"user_id":348,"name":"californjoe","steam_id":76561197965047795,"connected_time":169000000000,"state":"active","ping":55},{"user_id":275,"name":"Swag5","steam_id":76561198065311356,"connected_time":6179000000000,"state":"active","ping":55},{"user_id":316,"name":"Laventhey","steam_id":76561198977523626,"connected_time":2508000000000,"state":"active","ping":64},{"user_id":333,"name":"cockfighter","steam_id":76561198044268609,"connected_time":1069000000000,"state":"active","ping":108},{"user_id":337,"name":"Mo","steam_id":76561198035399708,"connected_time":923000000000,"state":"active","ping":60},{"user_id":343,"name":"Rain","steam_id":76561198123437878,"connected_time":554000000000,"state":"active","ping":90},{"user_id":339,"name":"BitPieStudios","steam_id":76561198059216393,"connected_time":905000000000,"state":"active","ping":52},{"user_id":293,"name":"mentos14","steam_id":76561198097993629,"connected_time":4758000000000,"state":"active","ping":55}]},{"server_id":324,"name":"Uncletopia | Los Angeles | 3 | All Maps","name_short":"lax-3","host":"lax-1.us.uncletopia.com","port":27035,"enabled":true,"region":"us-west","cc":"us","latitude":33.94279,"longitude":-118.41004,"reserved":0,"last_update":"0001-01-01T00:00:00Z","name_a2s":"Uncletopia | Los Angeles | 3 | All Maps","protocol":17,"map":"pl_swiftwater_final1","folder":"tf","game":"Team Fortress","app_id":440,"player_count":0,"max_players":24,"Bots":0,"server_type":"Dedicated","server_os":"Linux","password":true,"vac":true,"version":"7961495","steam_id":85568392924510198,"keywords":["nocrits","nodmgspread","payload","uncletopia"],"game_id":440,"stv_port":27036,"stv_name":"Uncletopia | Los Angeles | 3 | All Maps | STV","players":null},{"server_id":25,"name":"Uncletopia | Los Angeles | 4 | Stopwatch","name_short":"lax-4","host":"lax-1.us.uncletopia.com","port":27045,"enabled":true,"region":"us-west","cc":"us","latitude":33.94279,"longitude":-118.41004,"reserved":0,"last_update":"0001-01-01T00:00:00Z","name_a2s":"Uncletopia | Los Angeles | 4 | Stopwatch","protocol":17,"map":"workshop/koth_clearcut_b15.ugc2107050255","folder":"tf","game":"Team Fortress","app_id":440,"player_count":24,"max_players":24,"Bots":0,"server_type":"Dedicated","server_os":"Linux","password":true,"vac":true,"version":"7961495","steam_id":85568392924510199,"keywords":["cp","nocrits","nodmgspread","uncletopia"],"game_id":440,"stv_port":27046,"stv_name":"Uncletopia | Los Angeles | 4 | Stopwatch | STV","players":[{"user_id":163,"name":"sqomboashous snickerdoodle","steam_id":76561198346001637,"connected_time":2618000000000,"state":"active","ping":84},{"user_id":171,"name":"DaWayOfRockets","steam_id":76561199228437541,"connected_time":2217000000000,"state":"active","ping":175},{"user_id":190,"name":"jerma watcher to femboy pipelin","steam_id":76561198065662025,"connected_time":1134000000000,"state":"active","ping":57},{"user_id":98,"name":"All Tomorrow's Parties","steam_id":76561197995936212,"connected_time":7529000000000,"state":"active","ping":75},{"user_id":192,"name":"poorly stacked bread trays","steam_id":76561198212098488,"connected_time":948000000000,"state":"active","ping":102},{"user_id":198,"name":"The Lord of Bread","steam_id":76561199203901420,"connected_time":474000000000,"state":"active","ping":66},{"user_id":195,"name":"wugmup","steam_id":76561199096287734,"connected_time":662000000000,"state":"active","ping":65},{"user_id":187,"name":"Maid 'n' China","steam_id":76561198423392976,"connected_time":1285000000000,"state":"active","ping":60},{"user_id":179,"name":"Andreshatesmondays","steam_id":76561198889349797,"connected_time":1887000000000,"state":"active","ping":44},{"user_id":117,"name":"Useless","steam_id":76561198116079299,"connected_time":5820000000000,"state":"active","ping":90},{"user_id":196,"name":"perc 10","steam_id":76561198116471653,"connected_time":654000000000,"state":"active","ping":59},{"user_id":153,"name":"Divorced Father","steam_id":76561199071151136,"connected_time":3017000000000,"state":"active","ping":45},{"user_id":185,"name":"lime creator","steam_id":76561198074047574,"connected_time":1482000000000,"state":"active","ping":69},{"user_id":132,"name":"cielael","steam_id":76561198043971956,"connected_time":4518000000000,"state":"active","ping":52},{"user_id":159,"name":"eryn 🗺","steam_id":76561198004433070,"connected_time":2806000000000,"state":"active","ping":88},{"user_id":202,"name":"TruthHut","steam_id":76561198093452436,"connected_time":7000000000,"state":"spawning","ping":81},{"user_id":182,"name":"Alf Creepypasta","steam_id":76561198841844093,"connected_time":1799000000000,"state":"active","ping":44},{"user_id":86,"name":"Dongus","steam_id":76561197979056451,"connected_time":8584000000000,"state":"active","ping":75},{"user_id":200,"name":"Net_fakelag 40","steam_id":76561198968058652,"connected_time":292000000000,"state":"active","ping":79},{"user_id":148,"name":"ScoutBox","steam_id":76561198111539895,"connected_time":3349000000000,"state":"active","ping":49},{"user_id":201,"name":"selling rice","steam_id":76561198063357023,"connected_time":199000000000,"state":"active","ping":49},{"user_id":170,"name":"Gerbias","steam_id":76561198001002427,"connected_time":2362000000000,"state":"active","ping":66},{"user_id":151,"name":"Lambchop","steam_id":76561198043900363,"connected_time":3173000000000,"state":"active","ping":63},{"user_id":194,"name":"Crustacean Daddy","steam_id":76561198993807061,"connected_time":708000000000,"state":"active","ping":55}]},{"server_id":11,"name":"Uncletopia | London | 1 | All Maps","name_short":"lon-1","host":"lon-1.uk.uncletopia.com","port":27015,"enabled":true,"region":"eu","cc":"gb","latitude":51.509865,"longitude":-0.118092,"reserved":0,"last_update":"0001-01-01T00:00:00Z","name_a2s":"Uncletopia | London | 1 | All Maps","protocol":17,"map":"cp_snakewater_final1","folder":"tf","game":"Team Fortress","app_id":440,"player_count":0,"max_players":24,"Bots":0,"server_type":"Dedicated","server_os":"Linux","password":true,"vac":true,"version":"7961495","steam_id":85568392924367362,"keywords":["cp","nocrits","nodmgspread","uncletopia"],"game_id":440,"stv_port":27016,"stv_name":"Uncletopia | London | 1 | All Maps | STV","players":null},{"server_id":114,"name":"Uncletopia | London | 2 | All Maps","name_short":"lon-2","host":"lon-1.uk.uncletopia.com","port":27025,"enabled":true,"region":"eu","cc":"gb","latitude":51.509865,"longitude":-0.118092,"reserved":0,"last_update":"0001-01-01T00:00:00Z","name_a2s":"Uncletopia | London | 2 | All Maps","protocol":17,"map":"pl_upward","folder":"tf","game":"Team Fortress","app_id":440,"player_count":0,"max_players":24,"Bots":0,"server_type":"Dedicated","server_os":"Linux","password":true,"vac":true,"version":"7961495","steam_id":85568392924470941,"keywords":["nocrits","nodmgspread","payload","uncletopia"],"game_id":440,"stv_port":27026,"stv_name":"Uncletopia | London | 2 | All Maps | STV","players":null},{"server_id":320,"name":"Uncletopia | London | 3 | All Maps","name_short":"lon-3","host":"lon-1.uk.uncletopia.com","port":27035,"enabled":true,"region":"eu","cc":"gb","latitude":51.509865,"longitude":-0.118092,"reserved":0,"last_update":"0001-01-01T00:00:00Z","name_a2s":"Uncletopia | London | 3 | All Maps","protocol":17,"map":"koth_viaduct","folder":"tf","game":"Team Fortress","app_id":440,"player_count":0,"max_players":24,"Bots":0,"server_type":"Dedicated","server_os":"Linux","password":true,"vac":true,"version":"7961495","steam_id":85568392924510192,"keywords":["cp","nocrits","nodmgspread","uncletopia"],"game_id":440,"stv_port":27036,"stv_name":"Uncletopia | London | 3 | All Maps | STV","players":null},{"server_id":321,"name":"Uncletopia | London | 4 | All Maps","name_short":"lon-4","host":"lon-1.uk.uncletopia.com","port":27045,"enabled":true,"region":"eu","cc":"gb","latitude":51.509865,"longitude":-0.118092,"reserved":0,"last_update":"0001-01-01T00:00:00Z","name_a2s":"Uncletopia | London | 4 | All Maps","protocol":17,"map":"koth_cascade","folder":"tf","game":"Team Fortress","app_id":440,"player_count":0,"max_players":24,"Bots":0,"server_type":"Dedicated","server_os":"Linux","password":true,"vac":true,"version":"7961495","steam_id":85568392924510193,"keywords":["cp","nocrits","nodmgspread","uncletopia"],"game_id":440,"stv_port":27046,"stv_name":"Uncletopia | London | 4 | All Maps | STV","players":null},{"server_id":21,"name":"Uncletopia | London | 5 | All Maps","name_short":"lon-5","host":"lon-1.uk.uncletopia.com","port":27055,"enabled":true,"region":"eu","cc":"gb","latitude":51.509865,"longitude":-0.118092,"reserved":0,"last_update":"0001-01-01T00:00:00Z","name_a2s":"Uncletopia | London | 5 | All Maps","protocol":17,"map":"plr_hightower","folder":"tf","game":"Team Fortress","app_id":440,"player_count":9,"max_players":24,"Bots":0,"server_type":"Dedicated","server_os":"Linux","password":true,"vac":true,"version":"7961495","steam_id":85568392924742829,"keywords":["nocrits","nodmgspread","payload","uncletopia"],"game_id":440,"stv_port":27056,"stv_name":"Uncletopia | London | 5 | All Maps | STV","players":[{"user_id":1151,"name":"BoBunny McGlitter","steam_id":76561198057403817,"connected_time":4401000000000,"state":"active","ping":71},{"user_id":1186,"name":"Daquer","steam_id":76561199109170893,"connected_time":1426000000000,"state":"active","ping":81},{"user_id":1193,"name":"Maks","steam_id":76561198315278876,"connected_time":348000000000,"state":"active","ping":46},{"user_id":1185,"name":"Mourning","steam_id":76561198156343940,"connected_time":1481000000000,"state":"active","ping":45},{"user_id":1188,"name":"Noam","steam_id":76561198057789807,"connected_time":1383000000000,"state":"active","ping":90},{"user_id":1190,"name":"МЕДИК!","steam_id":76561198803488036,"connected_time":1290000000000,"state":"active","ping":119},{"user_id":1164,"name":"some girl","steam_id":76561198890391967,"connected_time":3702000000000,"state":"active","ping":84},{"user_id":1172,"name":"carl","steam_id":76561198055827003,"connected_time":3032000000000,"state":"active","ping":67},{"user_id":1109,"name":"toomas2018(real)(official)","steam_id":76561199105796083,"connected_time":7542000000000,"state":"active","ping":78}]},{"server_id":22,"name":"Uncletopia | London | 6 | All Maps","name_short":"lon-6","host":"lon-1.uk.uncletopia.com","port":27065,"enabled":true,"region":"eu","cc":"gb","latitude":51.509865,"longitude":-0.118092,"reserved":0,"last_update":"0001-01-01T00:00:00Z","name_a2s":"Uncletopia | London | 6 | All Maps","protocol":17,"map":"pl_barnblitz","folder":"tf","game":"Team Fortress","app_id":440,"player_count":0,"max_players":24,"Bots":0,"server_type":"Dedicated","server_os":"Linux","password":true,"vac":true,"version":"7961495","steam_id":85568392924742830,"keywords":["nocrits","nodmgspread","payload","uncletopia"],"game_id":440,"stv_port":27066,"stv_name":"Uncletopia | London | 6 | All Maps | STV","players":null},{"server_id":40,"name":"Uncletopia | London | 7 | Stopwatch","name_short":"lon-7","host":"lon-1.uk.uncletopia.com","port":27075,"enabled":true,"region":"eu","cc":"gb","latitude":51.509865,"longitude":-0.118092,"reserved":0,"last_update":"0001-01-01T00:00:00Z","name_a2s":"Uncletopia | London | 7 | Stopwatch","protocol":17,"map":"workshop/koth_clearcut_b15.ugc2107050255","folder":"tf","game":"Team Fortress","app_id":440,"player_count":0,"max_players":24,"Bots":0,"server_type":"Dedicated","server_os":"Linux","password":true,"vac":true,"version":"7961495","steam_id":85568392924964314,"keywords":["cp","nocrits","nodmgspread","uncletopia"],"game_id":440,"stv_port":27076,"stv_name":"Uncletopia | London | 7 | Stopwatch | STV","players":null},{"server_id":41,"name":"Uncletopia | London | 8 | Community","name_short":"lon-8","host":"lon-1.uk.uncletopia.com","port":27085,"enabled":true,"region":"eu","cc":"gb","latitude":51.509865,"longitude":-0.118092,"reserved":0,"last_update":"0001-01-01T00:00:00Z","name_a2s":"Uncletopia | London | 8 | Community","protocol":17,"map":"workshop/koth_slaughter_rc1.ugc1712845210","folder":"tf","game":"Team Fortress","app_id":440,"player_count":0,"max_players":24,"Bots":0,"server_type":"Dedicated","server_os":"Linux","password":true,"vac":true,"version":"7961495","steam_id":85568392924964315,"keywords":["cp","nocrits","nodmgspread","uncletopia"],"game_id":440,"stv_port":27086,"stv_name":"Uncletopia | London | 8 | Community | STV","players":null},{"server_id":300,"name":"Uncletopia | Montréal | 1 | One Thousand Uncles","name_short":"mtl-1","host":"mtl-1.ca.uncletopia.com","port":27015,"enabled":true,"region":"us-east","cc":"ca","latitude":45.50889,"longitude":-73.56167,"reserved":0,"last_update":"0001-01-01T00:00:00Z","name_a2s":"","protocol":0,"map":"","folder":"","game":"","app_id":0,"player_count":0,"max_players":0,"Bots":0,"server_type":"","server_os":"","password":false,"vac":false,"version":"","steam_id":0,"keywords":null,"game_id":0,"stv_port":0,"stv_name":"","players":null},{"server_id":301,"name":"Uncletopia | Montréal | 2 | One Thousand Uncles","name_short":"mtl-2","host":"mtl-1.ca.uncletopia.com","port":27025,"enabled":true,"region":"us-east","cc":"ca","latitude":45.50889,"longitude":-73.56167,"reserved":0,"last_update":"0001-01-01T00:00:00Z","name_a2s":"","protocol":0,"map":"","folder":"","game":"","app_id":0,"player_count":1,"max_players":0,"Bots":0,"server_type":"","server_os":"","password":false,"vac":false,"version":"","steam_id":0,"keywords":null,"game_id":0,"stv_port":0,"stv_name":"","players":[{"user_id":57,"name":"Holiday Fartcruise","steam_id":76561198043851584,"connected_time":1873000000000,"state":"active","ping":123}]},{"server_id":302,"name":"Uncletopia | Montréal | 3 | One Thousand Uncles","name_short":"mtl-3","host":"mtl-1.ca.uncletopia.com","port":27035,"enabled":true,"region":"us-east","cc":"ca","latitude":45.50889,"longitude":-73.56167,"reserved":0,"last_update":"0001-01-01T00:00:00Z","name_a2s":"","protocol":0,"map":"","folder":"","game":"","app_id":0,"player_count":0,"max_players":0,"Bots":0,"server_type":"","server_os":"","password":false,"vac":false,"version":"","steam_id":0,"keywords":null,"game_id":0,"stv_port":0,"stv_name":"","players":null},{"server_id":13,"name":"Uncletopia | New York City | 1 | All Maps","name_short":"nyc-1","host":"nyc-1.us.uncletopia.com","port":27015,"enabled":true,"region":"us-east","cc":"us","latitude":40.73061,"longitude":-73.93524,"reserved":0,"last_update":"0001-01-01T00:00:00Z","name_a2s":"Uncletopia | New York City | 1 | All Maps","protocol":17,"map":"pl_pier","folder":"tf","game":"Team Fortress","app_id":440,"player_count":15,"max_players":24,"Bots":0,"server_type":"Dedicated","server_os":"Linux","password":true,"vac":true,"version":"7961495","steam_id":85568392924469993,"keywords":["nocrits","nodmgspread","payload","uncletopia"],"game_id":440,"stv_port":27016,"stv_name":"Uncletopia | New York City | 1 | All Maps | STV","players":[{"user_id":488,"name":"AudioEmu","steam_id":76561197986419524,"connected_time":4036000000000,"state":"active","ping":46},{"user_id":537,"name":"Coolgoat2005","steam_id":76561198284935250,"connected_time":1321000000000,"state":"active","ping":112},{"user_id":545,"name":"stoppen","steam_id":76561197960281482,"connected_time":752000000000,"state":"active","ping":131},{"user_id":515,"name":"Gentoo Linux Gaming","steam_id":76561197999657118,"connected_time":2336000000000,"state":"active","ping":64},{"user_id":501,"name":"Grazzunk","steam_id":76561198290227691,"connected_time":3814000000000,"state":"active","ping":45},{"user_id":528,"name":"Kamin","steam_id":76561198255299559,"connected_time":1568000000000,"state":"active","ping":104},{"user_id":542,"name":"daylight","steam_id":76561198180639237,"connected_time":1218000000000,"state":"active","ping":61},{"user_id":505,"name":"ZestfulCorgi","steam_id":76561198121279963,"connected_time":3625000000000,"state":"active","ping":76},{"user_id":531,"name":"RedBaron","steam_id":76561198972426107,"connected_time":1539000000000,"state":"active","ping":47},{"user_id":548,"name":"goron","steam_id":76561198051089144,"connected_time":350000000000,"state":"active","ping":61},{"user_id":540,"name":"big sump","steam_id":76561198113364714,"connected_time":1260000000000,"state":"active","ping":42},{"user_id":511,"name":"Rigby","steam_id":76561198258121396,"connected_time":2668000000000,"state":"active","ping":84},{"user_id":534,"name":"CORGI.EXE","steam_id":76561198077093432,"connected_time":1431000000000,"state":"active","ping":55},{"user_id":535,"name":"FAKE TAXI PRANKS","steam_id":76561198136746987,"connected_time":1425000000000,"state":"active","ping":74},{"user_id":541,"name":"TransPuppygirlWithExtraSad","steam_id":76561198085813708,"connected_time":1256000000000,"state":"active","ping":73}]},{"server_id":14,"name":"Uncletopia | New York City | 2 | All Maps","name_short":"nyc-2","host":"nyc-1.us.uncletopia.com","port":27025,"enabled":true,"region":"us-east","cc":"us","latitude":40.73061,"longitude":-73.93524,"reserved":0,"last_update":"0001-01-01T00:00:00Z","name_a2s":"Uncletopia | New York City | 2 | All Maps","protocol":17,"map":"cp_steel","folder":"tf","game":"Team Fortress","app_id":440,"player_count":18,"max_players":24,"Bots":0,"server_type":"Dedicated","server_os":"Linux","password":true,"vac":true,"version":"7961495","steam_id":85568392924469994,"keywords":["cp","nocrits","nodmgspread","uncletopia"],"game_id":440,"stv_port":27026,"stv_name":"Uncletopia | New York City | 2 | All Maps | STV","players":[{"user_id":262,"name":"Lemoncurry","steam_id":76561198045356414,"connected_time":302000000000,"state":"active","ping":71},{"user_id":139,"name":"Bee_Pirate","steam_id":76561199000599111,"connected_time":12037000000000,"state":"active","ping":51},{"user_id":259,"name":"Timothy Grunclebottoms","steam_id":76561198871450477,"connected_time":698000000000,"state":"active","ping":60},{"user_id":252,"name":"AidanDawnfire25","steam_id":76561198139937008,"connected_time":1651000000000,"state":"active","ping":68},{"user_id":265,"name":"ethanf","steam_id":76561198103930234,"connected_time":220000000000,"state":"active","ping":60},{"user_id":261,"name":"Osteo-Oligarch","steam_id":76561198164731896,"connected_time":436000000000,"state":"active","ping":76},{"user_id":263,"name":"junebug","steam_id":76561198126662775,"connected_time":293000000000,"state":"active","ping":66},{"user_id":135,"name":"A Puppy","steam_id":76561198828184456,"connected_time":12435000000000,"state":"active","ping":46},{"user_id":264,"name":"Sceptimus","steam_id":76561198179580927,"connected_time":277000000000,"state":"active","ping":123},{"user_id":266,"name":"Sintra Olivia Leslie","steam_id":76561198412835748,"connected_time":157000000000,"state":"active","ping":68},{"user_id":267,"name":"Ashvilliany Legacy","steam_id":76561198111259720,"connected_time":142000000000,"state":"active","ping":88},{"user_id":268,"name":"frank","steam_id":76561198045436159,"connected_time":131000000000,"state":"active","ping":49},{"user_id":269,"name":"HuskedRice","steam_id":76561199110976285,"connected_time":85000000000,"state":"active","ping":81},{"user_id":140,"name":"ndvr","steam_id":76561199379200102,"connected_time":11621000000000,"state":"active","ping":55},{"user_id":256,"name":"Frisciaman","steam_id":76561198274287443,"connected_time":974000000000,"state":"active","ping":68},{"user_id":191,"name":"BlipBloop","steam_id":76561198205320223,"connected_time":9583000000000,"state":"active","ping":68},{"user_id":243,"name":"ynw__lightbulb","steam_id":76561199134649027,"connected_time":3359000000000,"state":"active","ping":69},{"user_id":239,"name":"brisky","steam_id":76561198869675719,"connected_time":3990000000000,"state":"active","ping":50}]},{"server_id":15,"name":"Uncletopia | New York City | 3 | Stopwatch","name_short":"nyc-3","host":"nyc-1.us.uncletopia.com","port":27035,"enabled":true,"region":"us-east","cc":"us","latitude":40.73061,"longitude":-73.93524,"reserved":0,"last_update":"0001-01-01T00:00:00Z","name_a2s":"Uncletopia | New York City | 3 | Stopwatch","protocol":17,"map":"koth_lakeside_final","folder":"tf","game":"Team Fortress","app_id":440,"player_count":0,"max_players":24,"Bots":0,"server_type":"Dedicated","server_os":"Linux","password":true,"vac":true,"version":"7961495","steam_id":85568392924742820,"keywords":["cp","nocrits","nodmgspread","uncletopia"],"game_id":440,"stv_port":27036,"stv_name":"Uncletopia | New York City | 3 | Stopwatch | STV","players":null},{"server_id":16,"name":"Uncletopia | New York City | 4 | Community","name_short":"nyc-4","host":"nyc-1.us.uncletopia.com","port":27045,"enabled":true,"region":"us-east","cc":"us","latitude":40.73061,"longitude":-73.93524,"reserved":0,"last_update":"0001-01-01T00:00:00Z","name_a2s":"Uncletopia | New York City | 4 | Community","protocol":17,"map":"workshop/cp_bruhstbowl_b6.ugc2878604990","folder":"tf","game":"Team Fortress","app_id":440,"player_count":0,"max_players":24,"Bots":0,"server_type":"Dedicated","server_os":"Linux","password":true,"vac":true,"version":"7961495","steam_id":85568392924742821,"keywords":["cp","nocrits","nodmgspread","uncletopia"],"game_id":440,"stv_port":27046,"stv_name":"Uncletopia | New York City | 4 | Community | STV","players":null},{"server_id":142,"name":"Uncletopia | São Paulo | 1 | All Maps","name_short":"sao-1","host":"sao-1.br.uncletopia.com","port":27015,"enabled":true,"region":"sa","cc":"br","latitude":-23.533773,"longitude":-46.62529,"reserved":0,"last_update":"0001-01-01T00:00:00Z","name_a2s":"Uncletopia | São Paulo | 1 | All Maps","protocol":17,"map":"koth_highpass","folder":"tf","game":"Team Fortress","app_id":440,"player_count":0,"max_players":24,"Bots":0,"server_type":"Dedicated","server_os":"Linux","password":true,"vac":true,"version":"7961495","steam_id":85568392924469996,"keywords":["cp","nocrits","nodmgspread","uncletopia"],"game_id":440,"stv_port":27016,"stv_name":"Uncletopia | São Paulo | 1 | All Maps | STV","players":null},{"server_id":143,"name":"Uncletopia | São Paulo | 2 | Community","name_short":"sao-2","host":"sao-2.br.uncletopia.com","port":27015,"enabled":true,"region":"sa","cc":"br","latitude":-23.533773,"longitude":-46.62529,"reserved":0,"last_update":"0001-01-01T00:00:00Z","name_a2s":"Uncletopia | São Paulo | 2 | Community","protocol":17,"map":"workshop/cp_caldera_rc2.ugc2834196889","folder":"tf","game":"Team Fortress","app_id":440,"player_count":0,"max_players":24,"Bots":0,"server_type":"Dedicated","server_os":"Linux","password":true,"vac":true,"version":"7961495","steam_id":85568392924485349,"keywords":["cp","nocrits","nodmgspread","uncletopia"],"game_id":440,"stv_port":27016,"stv_name":"Uncletopia | São Paulo | 2 | Community | STV","players":null},{"server_id":7,"name":"Uncletopia | Seattle | 1 | All Maps","name_short":"sea-1","host":"sea-1.us.uncletopia.com","port":27015,"enabled":true,"region":"us-west","cc":"us","latitude":47.608013,"longitude":-122.33517,"reserved":0,"last_update":"0001-01-01T00:00:00Z","name_a2s":"Uncletopia | Seattle | 1 | All Maps","protocol":17,"map":"pl_upward","folder":"tf","game":"Team Fortress","app_id":440,"player_count":24,"max_players":24,"Bots":0,"server_type":"Dedicated","server_os":"Linux","password":true,"vac":true,"version":"7961495","steam_id":85568392924469997,"keywords":["nocrits","nodmgspread","payload","uncletopia"],"game_id":440,"stv_port":27016,"stv_name":"Uncletopia | Seattle | 1 | All Maps | STV","players":[{"user_id":579,"name":"Lord Hater","steam_id":76561199158148782,"connected_time":925000000000,"state":"active","ping":80},{"user_id":571,"name":"bogdagod","steam_id":76561198286968297,"connected_time":2153000000000,"state":"active","ping":42},{"user_id":585,"name":"Skoad","steam_id":76561198104650528,"connected_time":296000000000,"state":"active","ping":76},{"user_id":566,"name":"Sniff","steam_id":76561198010270922,"connected_time":2274000000000,"state":"active","ping":51},{"user_id":582,"name":"gorlab","steam_id":76561198025089694,"connected_time":799000000000,"state":"active","ping":61},{"user_id":576,"name":"An Old Lady","steam_id":76561198047480318,"connected_time":1340000000000,"state":"active","ping":74},{"user_id":568,"name":"Apollo","steam_id":76561198162364702,"connected_time":2248000000000,"state":"active","ping":45},{"user_id":551,"name":"i have an rsi","steam_id":76561198020322241,"connected_time":3210000000000,"state":"active","ping":53},{"user_id":572,"name":"ThtGyVrThr","steam_id":76561198805852870,"connected_time":2113000000000,"state":"active","ping":106},{"user_id":557,"name":"mub","steam_id":76561197961943948,"connected_time":2828000000000,"state":"active","ping":46},{"user_id":583,"name":"lasky","steam_id":76561198017030029,"connected_time":799000000000,"state":"active","ping":68},{"user_id":544,"name":"NEBULA","steam_id":76561198086878595,"connected_time":3640000000000,"state":"active","ping":75},{"user_id":578,"name":"C'mon Fat","steam_id":76561198858732642,"connected_time":942000000000,"state":"active","ping":56},{"user_id":575,"name":"pyroclastic flow","steam_id":76561198095121758,"connected_time":2076000000000,"state":"active","ping":75},{"user_id":538,"name":"Skaði","steam_id":76561198063949642,"connected_time":4182000000000,"state":"active","ping":40},{"user_id":559,"name":"lynks disease no sound","steam_id":76561198043465434,"connected_time":2567000000000,"state":"active","ping":74},{"user_id":573,"name":"Maurdakar","steam_id":76561197983420976,"connected_time":2112000000000,"state":"active","ping":103},{"user_id":553,"name":"the bandit","steam_id":76561199158540950,"connected_time":3038000000000,"state":"active","ping":69},{"user_id":574,"name":"Gugomo","steam_id":76561198121428316,"connected_time":2111000000000,"state":"active","ping":71},{"user_id":570,"name":"rushy :))","steam_id":76561198065825165,"connected_time":2225000000000,"state":"active","ping":98},{"user_id":580,"name":"FlamingManiac","steam_id":76561198361996837,"connected_time":925000000000,"state":"active","ping":107},{"user_id":550,"name":"Quaalude","steam_id":76561198100177449,"connected_time":3352000000000,"state":"active","ping":105},{"user_id":556,"name":"hyphy fungi","steam_id":76561198169755734,"connected_time":2885000000000,"state":"active","ping":77},{"user_id":542,"name":"Kryptonite253","steam_id":76561198019919891,"connected_time":3869000000000,"state":"active","ping":45}]},{"server_id":119,"name":"Uncletopia | Seattle | 2 | All Maps","name_short":"sea-2","host":"sea-1.us.uncletopia.com","port":27025,"enabled":true,"region":"us-west","cc":"us","latitude":47.608013,"longitude":-122.33517,"reserved":0,"last_update":"0001-01-01T00:00:00Z","name_a2s":"Uncletopia | Seattle | 2 | All Maps","protocol":17,"map":"pl_badwater","folder":"tf","game":"Team Fortress","app_id":440,"player_count":24,"max_players":24,"Bots":0,"server_type":"Dedicated","server_os":"Linux","password":true,"vac":true,"version":"7961495","steam_id":85568392924469998,"keywords":["nocrits","nodmgspread","payload","uncletopia"],"game_id":440,"stv_port":27026,"stv_name":"Uncletopia | Seattle | 2 | All Maps | STV","players":[{"user_id":384,"name":"Girthworm Jim","steam_id":76561198007433376,"connected_time":113000000000,"state":"active","ping":113},{"user_id":357,"name":"nøbu","steam_id":76561198100614981,"connected_time":1746000000000,"state":"active","ping":104},{"user_id":377,"name":"Hermetic Pillar","steam_id":76561198167583291,"connected_time":381000000000,"state":"active","ping":93},{"user_id":380,"name":"Shadow Wizard Money Gang","steam_id":76561199487351992,"connected_time":172000000000,"state":"active","ping":89},{"user_id":327,"name":"ilun","steam_id":76561198042913843,"connected_time":3886000000000,"state":"active","ping":57},{"user_id":382,"name":"WaffleWithNoToppings","steam_id":76561199088280111,"connected_time":151000000000,"state":"active","ping":53},{"user_id":272,"name":"killer fish","steam_id":76561198858474714,"connected_time":8268000000000,"state":"active","ping":54},{"user_id":321,"name":"Arkus","steam_id":76561199092478198,"connected_time":4009000000000,"state":"active","ping":45},{"user_id":379,"name":"MyMonkeyBaby","steam_id":76561198046896670,"connected_time":279000000000,"state":"active","ping":51},{"user_id":356,"name":"COOL master_9","steam_id":76561198073041151,"connected_time":1889000000000,"state":"active","ping":81},{"user_id":378,"name":"EmNudge","steam_id":76561198095055365,"connected_time":368000000000,"state":"active","ping":39},{"user_id":383,"name":"Trav_YEET","steam_id":76561198960813580,"connected_time":149000000000,"state":"active","ping":104},{"user_id":375,"name":"Common","steam_id":76561198041083863,"connected_time":572000000000,"state":"active","ping":54},{"user_id":281,"name":"TüCold","steam_id":76561198111278197,"connected_time":7957000000000,"state":"active","ping":44},{"user_id":323,"name":"wdylm","steam_id":76561198206523304,"connected_time":4000000000000,"state":"active","ping":45},{"user_id":324,"name":"wile","steam_id":76561198125261443,"connected_time":3999000000000,"state":"active","ping":63},{"user_id":369,"name":"StrayGuitarist","steam_id":76561198091315714,"connected_time":977000000000,"state":"active","ping":63},{"user_id":374,"name":"SneekiCheekiQbone","steam_id":76561198045077980,"connected_time":755000000000,"state":"active","ping":76},{"user_id":334,"name":"Copy","steam_id":76561198025031590,"connected_time":3098000000000,"state":"active","ping":48},{"user_id":385,"name":"Retroliar","steam_id":76561199004899484,"connected_time":106000000000,"state":"active","ping":96},{"user_id":348,"name":"Repeatings","steam_id":76561198209769009,"connected_time":2208000000000,"state":"active","ping":79},{"user_id":326,"name":"a familiar cat","steam_id":76561198080046542,"connected_time":3933000000000,"state":"active","ping":49},{"user_id":343,"name":"GregGaming098","steam_id":76561198882415360,"connected_time":2252000000000,"state":"active","ping":45},{"user_id":354,"name":"your girl♀","steam_id":76561199050118111,"connected_time":2096000000000,"state":"active","ping":54}]},{"server_id":406,"name":"Uncletopia | Seattle | 3 | Stopwatch","name_short":"sea-3","host":"sea-1.us.uncletopia.com","port":27035,"enabled":true,"region":"us-west","cc":"us","latitude":47.608013,"longitude":-122.33517,"reserved":0,"last_update":"0001-01-01T00:00:00Z","name_a2s":"Uncletopia | Seattle | 3 | Stopwatch","protocol":17,"map":"workshop/koth_bagel_rc6.ugc2514036946","folder":"tf","game":"Team Fortress","app_id":440,"player_count":24,"max_players":24,"Bots":0,"server_type":"Dedicated","server_os":"Linux","password":true,"vac":true,"version":"7961495","steam_id":85568392924515217,"keywords":["cp","nocrits","nodmgspread","uncletopia"],"game_id":440,"stv_port":27036,"stv_name":"Uncletopia | Seattle | 3 | Stopwatch | STV","players":[{"user_id":73,"name":"merlin","steam_id":76561198334511480,"connected_time":215000000000,"state":"active","ping":85},{"user_id":58,"name":"joe","steam_id":76561199048784423,"connected_time":857000000000,"state":"active","ping":117},{"user_id":67,"name":"virgin flank","steam_id":76561199467334502,"connected_time":487000000000,"state":"active","ping":61},{"user_id":23,"name":"AWildCheeseFish","steam_id":76561198846504974,"connected_time":3958000000000,"state":"active","ping":45},{"user_id":40,"name":"CubeDio","steam_id":76561198403403639,"connected_time":1767000000000,"state":"active","ping":58},{"user_id":26,"name":"bobtheninjaman","steam_id":76561198066424544,"connected_time":2861000000000,"state":"active","ping":65},{"user_id":41,"name":"Lawyer","steam_id":76561197974126447,"connected_time":1738000000000,"state":"active","ping":116},{"user_id":51,"name":"Day Man","steam_id":76561198067154807,"connected_time":1140000000000,"state":"active","ping":46},{"user_id":59,"name":"Bro D. Foxx","steam_id":76561198859557921,"connected_time":851000000000,"state":"active","ping":83},{"user_id":31,"name":"fuck it, we ball","steam_id":76561198451812135,"connected_time":2317000000000,"state":"active","ping":57},{"user_id":68,"name":"TROY","steam_id":76561197983852176,"connected_time":484000000000,"state":"active","ping":74},{"user_id":33,"name":"Rommel2007","steam_id":76561198041744631,"connected_time":1918000000000,"state":"active","ping":86},{"user_id":65,"name":"Blitzy","steam_id":76561198149472890,"connected_time":575000000000,"state":"active","ping":64},{"user_id":62,"name":"CrilberDingleChalk","steam_id":76561199144469582,"connected_time":679000000000,"state":"active","ping":110},{"user_id":36,"name":"Sudsen","steam_id":76561198370603787,"connected_time":1856000000000,"state":"active","ping":76},{"user_id":38,"name":"Niftis","steam_id":76561199123171549,"connected_time":1834000000000,"state":"active","ping":73},{"user_id":39,"name":"yoshido","steam_id":76561198846313229,"connected_time":1778000000000,"state":"active","ping":100},{"user_id":69,"name":"LeefLett","steam_id":76561199166178308,"connected_time":473000000000,"state":"active","ping":86},{"user_id":47,"name":"_D_I_S_P_E_N_S_E_R_","steam_id":76561199383097700,"connected_time":1416000000000,"state":"active","ping":43},{"user_id":70,"name":"chilis baby back ribs","steam_id":76561198813516435,"connected_time":427000000000,"state":"active","ping":75},{"user_id":50,"name":"dark violet","steam_id":76561198248461754,"connected_time":1281000000000,"state":"active","ping":74},{"user_id":71,"name":"sleePI","steam_id":76561198450073779,"connected_time":386000000000,"state":"active","ping":47},{"user_id":74,"name":"Nom Skirrett","steam_id":76561198014600788,"connected_time":102000000000,"state":"active","ping":74},{"user_id":61,"name":"D.A.V.I.D","steam_id":76561199443570634,"connected_time":717000000000,"state":"active","ping":65}]},{"server_id":17,"name":"Uncletopia | San Francisco | 1 | All Maps","name_short":"sfo-1","host":"sfo-1.us.uncletopia.com","port":27015,"enabled":true,"region":"us-west","cc":"us","latitude":37.77397,"longitude":-122.4313,"reserved":0,"last_update":"0001-01-01T00:00:00Z","name_a2s":"Uncletopia | San Francisco | 1 | All Maps","protocol":17,"map":"cp_dustbowl","folder":"tf","game":"Team Fortress","app_id":440,"player_count":24,"max_players":24,"Bots":0,"server_type":"Dedicated","server_os":"Linux","password":true,"vac":true,"version":"7961495","steam_id":85568392924469999,"keywords":["cp","nocrits","nodmgspread","uncletopia"],"game_id":440,"stv_port":27016,"stv_name":"Uncletopia | San Francisco | 1 | All Maps | STV","players":[{"user_id":205,"name":"Ralph Kramden (Slim Charles)","steam_id":76561197981687895,"connected_time":5599000000000,"state":"active","ping":66},{"user_id":109,"name":"Shitty Pilot","steam_id":76561198042723469,"connected_time":11015000000000,"state":"active","ping":93},{"user_id":241,"name":"Diesel","steam_id":76561198448815852,"connected_time":3159000000000,"state":"active","ping":54},{"user_id":267,"name":"PainInTheRuss","steam_id":76561197977960543,"connected_time":46000000000,"state":"active","ping":43},{"user_id":227,"name":"NGsterson","steam_id":76561198162108154,"connected_time":4220000000000,"state":"active","ping":70},{"user_id":253,"name":"ohnocringe","steam_id":76561199381232082,"connected_time":1324000000000,"state":"active","ping":101},{"user_id":248,"name":"WhatAmIDoing","steam_id":76561199060028126,"connected_time":2073000000000,"state":"active","ping":64},{"user_id":180,"name":"aofi the flat tgirl","steam_id":76561199172110503,"connected_time":7213000000000,"state":"active","ping":113},{"user_id":266,"name":"Melody","steam_id":76561198407789232,"connected_time":176000000000,"state":"active","ping":70},{"user_id":247,"name":"FunnyGoomba","steam_id":76561198279865229,"connected_time":2224000000000,"state":"active","ping":67},{"user_id":197,"name":"Wiener Hole Paper Cut","steam_id":76561198000808203,"connected_time":6132000000000,"state":"active","ping":117},{"user_id":265,"name":"HookaChookaWOO","steam_id":76561198086141591,"connected_time":576000000000,"state":"active","ping":62},{"user_id":225,"name":"Champagne Supernova","steam_id":76561198918114562,"connected_time":4474000000000,"state":"active","ping":62},{"user_id":222,"name":"Genius Meme","steam_id":76561198162911254,"connected_time":4728000000000,"state":"active","ping":83},{"user_id":264,"name":"JawnyMac","steam_id":76561198179529599,"connected_time":698000000000,"state":"active","ping":53},{"user_id":255,"name":"LesserAce","steam_id":76561198153258132,"connected_time":1292000000000,"state":"active","ping":105},{"user_id":258,"name":"B00gal00ga123","steam_id":76561199273507453,"connected_time":910000000000,"state":"active","ping":77},{"user_id":256,"name":"Ronnie Pickering!","steam_id":76561198041842118,"connected_time":1272000000000,"state":"active","ping":69},{"user_id":257,"name":"legalize nuclear bombs","steam_id":76561198418172095,"connected_time":1221000000000,"state":"active","ping":90},{"user_id":234,"name":"CheeseCake488","steam_id":76561199407617942,"connected_time":3782000000000,"state":"active","ping":114},{"user_id":204,"name":"Ian","steam_id":76561198159334435,"connected_time":5888000000000,"state":"active","ping":171},{"user_id":259,"name":"Throws Before Bros󠀡","steam_id":76561197992905530,"connected_time":866000000000,"state":"active","ping":48},{"user_id":162,"name":"Big Titty Goth Garfield","steam_id":76561198129617484,"connected_time":7924000000000,"state":"active","ping":100},{"user_id":243,"name":"The Professor","steam_id":76561198113760863,"connected_time":2857000000000,"state":"active","ping":109}]},{"server_id":18,"name":"Uncletopia | San Francisco | 2 | All Maps","name_short":"sfo-2","host":"sfo-1.us.uncletopia.com","port":27025,"enabled":true,"region":"us-west","cc":"us","latitude":37.77397,"longitude":-122.4313,"reserved":0,"last_update":"0001-01-01T00:00:00Z","name_a2s":"Uncletopia | San Francisco | 2 | All Maps","protocol":17,"map":"koth_viaduct","folder":"tf","game":"Team Fortress","app_id":440,"player_count":0,"max_players":24,"Bots":0,"server_type":"Dedicated","server_os":"Linux","password":true,"vac":true,"version":"7961495","steam_id":85568392924470000,"keywords":["cp","nocrits","nodmgspread","uncletopia"],"game_id":440,"stv_port":27026,"stv_name":"Uncletopia | San Francisco | 2 | All Maps | STV","players":null},{"server_id":19,"name":"Uncletopia | San Francisco | 3 | Stopwatch","name_short":"sfo-3","host":"sfo-1.us.uncletopia.com","port":27035,"enabled":true,"region":"us-west","cc":"us","latitude":37.77397,"longitude":-122.4313,"reserved":0,"last_update":"0001-01-01T00:00:00Z","name_a2s":"Uncletopia | San Francisco | 3 | Stopwatch","protocol":17,"map":"workshop/pl_vigil_rc10.ugc1266210012","folder":"tf","game":"Team Fortress","app_id":440,"player_count":0,"max_players":24,"Bots":0,"server_type":"Dedicated","server_os":"Linux","password":true,"vac":true,"version":"7961495","steam_id":85568392924742824,"keywords":["nocrits","nodmgspread","payload","uncletopia"],"game_id":440,"stv_port":27036,"stv_name":"Uncletopia | San Francisco | 3 | Stopwatch | STV","players":null},{"server_id":20,"name":"Uncletopia | San Francisco | 4 | Community","name_short":"sfo-4","host":"sfo-1.us.uncletopia.com","port":27045,"enabled":true,"region":"us-west","cc":"us","latitude":37.77397,"longitude":-122.4313,"reserved":0,"last_update":"0001-01-01T00:00:00Z","name_a2s":"Uncletopia | San Francisco | 4 | Community","protocol":17,"map":"workshop/cp_hazyfort_rc6.ugc1365963729","folder":"tf","game":"Team Fortress","app_id":440,"player_count":0,"max_players":24,"Bots":0,"server_type":"Dedicated","server_os":"Linux","password":true,"vac":true,"version":"7961495","steam_id":85568392924742826,"keywords":["cp","nocrits","nodmgspread","uncletopia"],"game_id":440,"stv_port":27046,"stv_name":"Uncletopia | San Francisco | 4 | Community | STV","players":null},{"server_id":141,"name":"Uncletopia | Sydney | 1 | All Maps","name_short":"syd-1","host":"syd-1.au.uncletopia.com","port":27015,"enabled":true,"region":"au","cc":"au","latitude":-33.865143,"longitude":151.2099,"reserved":0,"last_update":"0001-01-01T00:00:00Z","name_a2s":"Uncletopia | Sydney | 1 | All Maps","protocol":17,"map":"koth_viaduct","folder":"tf","game":"Team Fortress","app_id":440,"player_count":0,"max_players":24,"Bots":0,"server_type":"Dedicated","server_os":"Linux","password":true,"vac":true,"version":"7961495","steam_id":85568392924470001,"keywords":["cp","nocrits","nodmgspread","uncletopia"],"game_id":440,"stv_port":27016,"stv_name":"Uncletopia | Sydney | 1 | All Maps | STV","players":null},{"server_id":123,"name":"Uncletopia | Sydney | 2 | All Maps","name_short":"syd-2","host":"syd-1.au.uncletopia.com","port":27025,"enabled":true,"region":"au","cc":"au","latitude":-33.865143,"longitude":151.2099,"reserved":0,"last_update":"0001-01-01T00:00:00Z","name_a2s":"Uncletopia | Sydney | 2 | All Maps","protocol":17,"map":"koth_lakeside_final","folder":"tf","game":"Team Fortress","app_id":440,"player_count":0,"max_players":24,"Bots":0,"server_type":"Dedicated","server_os":"Linux","password":true,"vac":true,"version":"7961495","steam_id":85568392924470002,"keywords":["cp","nocrits","nodmgspread","uncletopia"],"game_id":440,"stv_port":27026,"stv_name":"Uncletopia | Sydney | 2 | All Maps | STV","players":null},{"server_id":395,"name":"Uncletopia | Sydney | 3 | All Maps","name_short":"syd-3","host":"syd-1.au.uncletopia.com","port":27035,"enabled":true,"region":"au","cc":"au","latitude":-33.865143,"longitude":151.2099,"reserved":0,"last_update":"0001-01-01T00:00:00Z","name_a2s":"Uncletopia | Sydney | 3 | All Maps","protocol":17,"map":"pl_borneo","folder":"tf","game":"Team Fortress","app_id":440,"player_count":0,"max_players":24,"Bots":0,"server_type":"Dedicated","server_os":"Linux","password":true,"vac":true,"version":"7961495","steam_id":85568392925194467,"keywords":["nocrits","nodmgspread","payload","uncletopia"],"game_id":440,"stv_port":27036,"stv_name":"Uncletopia | Sydney | 3 | All Maps | STV","players":null},{"server_id":396,"name":"Uncletopia | Sydney | 4 | All Maps","name_short":"syd-4","host":"syd-1.au.uncletopia.com","port":27045,"enabled":true,"region":"au","cc":"au","latitude":-33.865143,"longitude":151.2099,"reserved":0,"last_update":"0001-01-01T00:00:00Z","name_a2s":"Uncletopia | Sydney | 4 | All Maps","protocol":17,"map":"cp_process_final","folder":"tf","game":"Team Fortress","app_id":440,"player_count":0,"max_players":24,"Bots":0,"server_type":"Dedicated","server_os":"Linux","password":true,"vac":true,"version":"7961495","steam_id":85568392925397958,"keywords":["cp","nocrits","nodmgspread","uncletopia"],"game_id":440,"stv_port":27046,"stv_name":"Uncletopia | Sydney | 4 | All Maps | STV","players":null},{"server_id":58,"name":"Uncletopia | Sydney | 5 | Stopwatch","name_short":"syd-5","host":"syd-1.au.uncletopia.com","port":27055,"enabled":true,"region":"au","cc":"au","latitude":-33.865143,"longitude":151.2099,"reserved":0,"last_update":"0001-01-01T00:00:00Z","name_a2s":"Uncletopia | Sydney | 5 | Stopwatch","protocol":17,"map":"pl_frontier_final","folder":"tf","game":"Team Fortress","app_id":440,"player_count":0,"max_players":24,"Bots":0,"server_type":"Dedicated","server_os":"Linux","password":true,"vac":true,"version":"7961495","steam_id":85568392925397959,"keywords":["nocrits","nodmgspread","payload","uncletopia"],"game_id":440,"stv_port":27056,"stv_name":"Uncletopia | Sydney | 5 | Stopwatch | STV","players":null},{"server_id":59,"name":"Uncletopia | Sydney | 6 | Community","name_short":"syd-6","host":"syd-1.au.uncletopia.com","port":27065,"enabled":true,"region":"au","cc":"au","latitude":-33.865143,"longitude":151.2099,"reserved":0,"last_update":"0001-01-01T00:00:00Z","name_a2s":"Uncletopia | Sydney | 6 | Community","protocol":17,"map":"cp_sunshine","folder":"tf","game":"Team Fortress","app_id":440,"player_count":0,"max_players":24,"Bots":0,"server_type":"Dedicated","server_os":"Linux","password":true,"vac":true,"version":"7961495","steam_id":85568392925397960,"keywords":["cp","nocrits","nodmgspread","uncletopia"],"game_id":440,"stv_port":27066,"stv_name":"Uncletopia | Sydney | 6 | Community | STV","players":null},{"server_id":49,"name":"Uncletopia | Warsaw | 1 | One Thousand Uncles","name_short":"waw-1","host":"waw-1.pl.uncletopia.com","port":27015,"enabled":true,"region":"eu","cc":"pl","latitude":52.2297,"longitude":21.017532,"reserved":0,"last_update":"0001-01-01T00:00:00Z","name_a2s":"Uncletopia | Warsaw | 1 | One Thousand Uncles","protocol":17,"map":"koth_highpass","folder":"tf","game":"Team Fortress","app_id":440,"player_count":0,"max_players":32,"Bots":0,"server_type":"Dedicated","server_os":"Linux","password":true,"vac":true,"version":"7961495","steam_id":85568392925397850,"keywords":["alltalk","cp","danepve","increased_maxplayers","nocrits","norespawntime","uncletopia"],"game_id":440,"stv_port":0,"stv_name":"","players":null},{"server_id":50,"name":"Uncletopia | Warsaw | 2 | One Thousand Uncles","name_short":"waw-2","host":"waw-1.pl.uncletopia.com","port":27025,"enabled":true,"region":"eu","cc":"pl","latitude":52.2297,"longitude":21.017532,"reserved":0,"last_update":"0001-01-01T00:00:00Z","name_a2s":"Uncletopia | Warsaw | 2 | One Thousand Uncles","protocol":17,"map":"pl_goldrush","folder":"tf","game":"Team Fortress","app_id":440,"player_count":0,"max_players":32,"Bots":0,"server_type":"Dedicated","server_os":"Linux","password":true,"vac":true,"version":"7961495","steam_id":85568392925397851,"keywords":["alltalk","danepve","increased_maxplayers","nocrits","norespawntime","payload","uncletopia"],"game_id":440,"stv_port":0,"stv_name":"","players":null},{"server_id":51,"name":"Uncletopia | Warsaw | 3 | All Maps","name_short":"waw-3","host":"waw-1.pl.uncletopia.com","port":27035,"enabled":true,"region":"eu","cc":"pl","latitude":52.2297,"longitude":21.017532,"reserved":0,"last_update":"0001-01-01T00:00:00Z","name_a2s":"Uncletopia | Warsaw | 3 | All Maps","protocol":17,"map":"plr_pipeline","folder":"tf","game":"Team Fortress","app_id":440,"player_count":0,"max_players":24,"Bots":0,"server_type":"Dedicated","server_os":"Linux","password":true,"vac":true,"version":"7961495","steam_id":85568392925397852,"keywords":["nocrits","nodmgspread","payload","uncletopia"],"game_id":440,"stv_port":27036,"stv_name":"Uncletopia | Warsaw | 3 | All Maps | STV","players":null},{"server_id":52,"name":"Uncletopia | Warsaw | 4 | All Maps","name_short":"waw-4","host":"waw-1.pl.uncletopia.com","port":27045,"enabled":true,"region":"eu","cc":"pl","latitude":52.2297,"longitude":21.017532,"reserved":0,"last_update":"0001-01-01T00:00:00Z","name_a2s":"Uncletopia | Warsaw | 4 | All Maps","protocol":17,"map":"cp_coldfront","folder":"tf","game":"Team Fortress","app_id":440,"player_count":0,"max_players":24,"Bots":0,"server_type":"Dedicated","server_os":"Linux","password":true,"vac":true,"version":"7961495","steam_id":85568392925397853,"keywords":["cp","nocrits","nodmgspread","uncletopia"],"game_id":440,"stv_port":27046,"stv_name":"Uncletopia | Warsaw | 4 | All Maps | STV","players":null},{"server_id":53,"name":"Uncletopia | Warsaw | 5 | Stopwatch","name_short":"waw-5","host":"waw-1.pl.uncletopia.com","port":27055,"enabled":true,"region":"eu","cc":"pl","latitude":52.2297,"longitude":21.017532,"reserved":0,"last_update":"0001-01-01T00:00:00Z","name_a2s":"Uncletopia | Warsaw | 5 | Stopwatch","protocol":17,"map":"workshop/koth_bagel_rc6.ugc2514036946","folder":"tf","game":"Team Fortress","app_id":440,"player_count":0,"max_players":24,"Bots":0,"server_type":"Dedicated","server_os":"Linux","password":true,"vac":true,"version":"7961495","steam_id":85568392925397854,"keywords":["cp","nocrits","nodmgspread","uncletopia"],"game_id":440,"stv_port":27056,"stv_name":"Uncletopia | Warsaw | 5 | Stopwatch | STV","players":null},{"server_id":54,"name":"Uncletopia | Warsaw | 6 | Community","name_short":"waw-6","host":"waw-1.pl.uncletopia.com","port":27065,"enabled":true,"region":"eu","cc":"pl","latitude":52.2297,"longitude":21.017532,"reserved":0,"last_update":"0001-01-01T00:00:00Z","name_a2s":"Uncletopia | Warsaw | 6 | Community","protocol":17,"map":"workshop/pl_badwater_pro_v12.ugc2142942074","folder":"tf","game":"Team Fortress","app_id":440,"player_count":0,"max_players":24,"Bots":0,"server_type":"Dedicated","server_os":"Linux","password":true,"vac":true,"version":"7961495","steam_id":85568392925397856,"keywords":["nocrits","nodmgspread","payload","uncletopia"],"game_id":440,"stv_port":27066,"stv_name":"Uncletopia | Warsaw | 6 | Community | STV","players":null}]}