{"status":true,"message":"","result":[{"server_id":9,"name":"Uncletopia | Atlanta | 1 | All Maps","name_short":"atl-1","host":"atl-1.us.uncletopia.com","port":27015,"enabled":true,"region":"us-east","cc":"us","latitude":33.753746,"longitude":-84.38633,"reserved":0,"last_update":"0001-01-01T00:00:00Z","name_a2s":"Uncletopia | Atlanta | 1 | All Maps","protocol":17,"map":"pl_badwater","folder":"tf","game":"Team Fortress","app_id":440,"player_count":24,"max_players":24,"Bots":0,"server_type":"Dedicated","server_os":"Linux","password":true,"vac":true,"version":"7961495","steam_id":85568392924469982,"keywords":["nocrits","nodmgspread","payload","uncletopia"],"game_id":440,"stv_port":27016,"stv_name":"Uncletopia | Atlanta | 1 | All Maps | STV","players":null},{"server_id":104,"name":"Uncletopia | Atlanta | 2 | All Maps","name_short":"atl-2","host":"atl-1.us.uncletopia.com","port":27025,"enabled":true,"region":"us-east","cc":"us","latitude":33.753746,"longitude":-84.38633,"reserved":0,"last_update":"0001-01-01T00:00:00Z","name_a2s":"Uncletopia | Atlanta | 2 | All Maps","protocol":17,"map":"koth_sawmill","folder":"tf","game":"Team Fortress","app_id":440,"player_count":0,"max_players":24,"Bots":0,"server_type":"Dedicated","server_os":"Linux","password":true,"vac":true,"version":"7961495","steam_id":85568392924469983,"keywords":["cp","nocrits","nodmgspread","uncletopia"],"game_id":440,"stv_port":27026,"stv_name":"Uncletopia | Atlanta | 2 | All Maps | STV","players":null},{"server_id":400,"name":"Uncletopia | Atlanta | 3 | Stopwatch","name_short":"atl-3","host":"atl-1.us.uncletopia.com","port":27035,"enabled":true,"region":"us-east","cc":"us","latitude":33.753746,"longitude":-84.38633,"reserved":0,"last_update":"0001-01-01T00:00:00Z","name_a2s":"Uncletopia | Atlanta | 3 | Stopwatch","protocol":17,"map":"cp_metalworks","folder":"tf","game":"Team Fortress","app_id":440,"player_count":0,"max_players":24,"Bots":0,"server_type":"Dedicated","server_os":"Linux","password":true,"vac":true,"version":"7961495","steam_id":85568392924515187,"keywords":["cp","nocrits","nodmgspread","uncletopia"],"game_id":440,"stv_port":27036,"stv_name":"Uncletopia | Atlanta | 3 | Stopwatch | STV","players":null},{"server_id":401,"name":"Uncletopia | Atlanta | 4 | Community","name_short":"atl-4","host":"atl-1.us.uncletopia.com","port":27045,"enabled":true,"region":"us-east","cc":"us","latitude":33.753746,"longitude":-84.38633,"reserved":0,"last_update":"0001-01-01T00:00:00Z","name_a2s":"Uncletopia | Atlanta | 4 | Community","protocol":17,"map":"koth_synthetic_rc6a","folder":"tf","game":"Team Fortress","app_id":440,"player_count":2,"max_players":24,"Bots":0,"server_type":"Dedicated","server_os":"Linux","password":true,"vac":true,"version":"7961495","steam_id":85568392924515188,"keywords":["cp","nocrits","nodmgspread","uncletopia"],"game_id":440,"stv_port":27046,"stv_name":"Uncletopia | Atlanta | 4 | Community | STV","players":null},{"server_id":2,"name":"Uncletopia | Chicago | 1 | All Maps","name_short":"chi-1","host":"chi-1.us.uncletopia.com","port":27015,"enabled":true,"region":"us-central","cc":"us","latitude":41.881832,"longitude":-87.62318,"reserved":0,"last_update":"0001-01-01T00:00:00Z","name_a2s":"Uncletopia | Chicago | 1 | All Maps","protocol":17,"map":"pl_upward","folder":"tf","game":"Team Fortress","app_id":440,"player_count":15,"max_players":24,"Bots":0,"server_type":"Dedicated","server_os":"Linux","password":true,"vac":true,"version":"7961495","steam_id":85568392924469984,"keywords":["nocrits","nodmgspread","payload","uncletopia"],"game_id":440,"stv_port":27016,"stv_name":"Uncletopia | Chicago | 1 | All Maps | STV","players":[{"user_id":711,"name":"RXQ","steam_id":76561199423258992,"connected_time":250000000000,"state":"active","ping":337},{"user_id":686,"name":"Worst Scenario","steam_id":76561199052130229,"connected_time":2552000000000,"state":"active","ping":59},{"user_id":712,"name":"TinyTator","steam_id":76561198799282234,"connected_time":116000000000,"state":"active","ping":85},{"user_id":715,"name":"Iron Argus","steam_id":76561198181088245,"connected_time":16000000000,"state":"active","ping":58},{"user_id":714,"name":"BIG LION","steam_id":76561198091880358,"connected_time":56000000000,"state":"active","ping":47},{"user_id":688,"name":"rando","steam_id":76561197982325629,"connected_time":2258000000000,"state":"active","ping":60},{"user_id":601,"name":"Bearegard","steam_id":76561198061926542,"connected_time":10886000000000,"state":"active","ping":56},{"user_id":710,"name":"Space","steam_id":76561198350489754,"connected_time":528000000000,"state":"active","ping":56},{"user_id":642,"name":"tiefling lesbian","steam_id":76561198162998471,"connected_time":6174000000000,"state":"active","ping":69},{"user_id":552,"name":"Khaicchi ♥","steam_id":76561198104454754,"connected_time":14237000000000,"state":"active","ping":169},{"user_id":693,"name":"SteveC","steam_id":76561197994786195,"connected_time":1806000000000,"state":"active","ping":58},{"user_id":661,"name":"ComputeCore167","steam_id":76561198301250353,"connected_time":5001000000000,"state":"active","ping":65},{"user_id":685,"name":"Maurdakar","steam_id":76561197983420976,"connected_time":2644000000000,"state":"active","ping":56},{"user_id":696,"name":"alvöru","steam_id":76561198273488925,"connected_time":1744000000000,"state":"active","ping":86},{"user_id":672,"name":"Bookmenot","steam_id":76561198153442084,"connected_time":4198000000000,"state":"active","ping":58}]},{"server_id":106,"name":"Uncletopia | Chicago | 2 | All Maps","name_short":"chi-2","host":"chi-1.us.uncletopia.com","port":27025,"enabled":true,"region":"us-central","cc":"us","latitude":41.881832,"longitude":-87.62318,"reserved":0,"last_update":"0001-01-01T00:00:00Z","name_a2s":"Uncletopia | Chicago | 2 | All Maps","protocol":17,"map":"pl_swiftwater_final1","folder":"tf","game":"Team Fortress","app_id":440,"player_count":24,"max_players":24,"Bots":0,"server_type":"Dedicated","server_os":"Linux","password":true,"vac":true,"version":"7961495","steam_id":85568392924469985,"keywords":["nocrits","nodmgspread","payload","uncletopia"],"game_id":440,"stv_port":27026,"stv_name":"Uncletopia | Chicago | 2 | All Maps | STV","players":[{"user_id":629,"name":"stuffedidiot","steam_id":76561199181513019,"connected_time":2959000000000,"state":"active","ping":103},{"user_id":666,"name":"reis","steam_id":76561199232952016,"connected_time":781000000000,"state":"active","ping":180},{"user_id":657,"name":"JoJoJo","steam_id":76561198067153390,"connected_time":1528000000000,"state":"active","ping":54},{"user_id":631,"name":"ward","steam_id":76561198134667434,"connected_time":2924000000000,"state":"active","ping":43},{"user_id":668,"name":"Lullaby","steam_id":76561198061103166,"connected_time":643000000000,"state":"active","ping":53},{"user_id":671,"name":"donn","steam_id":76561198113080083,"connected_time":56000000000,"state":"active","ping":47},{"user_id":586,"name":"Citizen⁵","steam_id":76561198053856640,"connected_time":7538000000000,"state":"active","ping":70},{"user_id":633,"name":"DinosaurBeard100","steam_id":76561198122256369,"connected_time":2917000000000,"state":"active","ping":75},{"user_id":665,"name":"Rudy","steam_id":76561198013456828,"connected_time":798000000000,"state":"active","ping":60},{"user_id":625,"name":"self sufficient kitten","steam_id":76561197960592612,"connected_time":3688000000000,"state":"active","ping":109},{"user_id":652,"name":"NFT(non functioning testicle)","steam_id":76561198092435966,"connected_time":2019000000000,"state":"active","ping":58},{"user_id":635,"name":"RED BALLOON PARANOIA","steam_id":76561198070136627,"connected_time":2885000000000,"state":"active","ping":93},{"user_id":663,"name":"Snikerdoodle","steam_id":76561198049832811,"connected_time":950000000000,"state":"active","ping":161},{"user_id":649,"name":"dookiemonster33","steam_id":76561198979494052,"connected_time":2077000000000,"state":"active","ping":97},{"user_id":670,"name":"Smelly","steam_id":76561198380507370,"connected_time":459000000000,"state":"active","ping":85},{"user_id":609,"name":"❤ Ashley ❤","steam_id":76561198056428303,"connected_time":5028000000000,"state":"active","ping":94},{"user_id":626,"name":"TÖZI","steam_id":76561198045268695,"connected_time":3688000000000,"state":"active","ping":86},{"user_id":655,"name":"ProxyRoxy","steam_id":76561198120936328,"connected_time":1809000000000,"state":"active","ping":72},{"user_id":621,"name":"Crisp","steam_id":76561198132644084,"connected_time":3980000000000,"state":"active","ping":69},{"user_id":656,"name":"Icarus","steam_id":76561198180484659,"connected_time":1804000000000,"state":"active","ping":79},{"user_id":672,"name":"ColdTooth","steam_id":76561197994963901,"connected_time":34000000000,"state":"active","ping":76},{"user_id":638,"name":"DonoC","steam_id":76561198274473338,"connected_time":2828000000000,"state":"active","ping":86},{"user_id":642,"name":"milk vibes","steam_id":76561198036753164,"connected_time":2730000000000,"state":"active","ping":60},{"user_id":662,"name":"BurnN8or101","steam_id":76561198132668224,"connected_time":1130000000000,"state":"active","ping":58}]},{"server_id":402,"name":"Uncletopia | Chicago | 3 | All Maps","name_short":"chi-3","host":"chi-1.us.uncletopia.com","port":27035,"enabled":true,"region":"us-central","cc":"us","latitude":41.881832,"longitude":-87.62318,"reserved":0,"last_update":"0001-01-01T00:00:00Z","name_a2s":"Uncletopia | Chicago | 3 | All Maps","protocol":17,"map":"pl_barnblitz","folder":"tf","game":"Team Fortress","app_id":440,"player_count":24,"max_players":24,"Bots":0,"server_type":"Dedicated","server_os":"Linux","password":true,"vac":true,"version":"7961495","steam_id":85568392924515191,"keywords":["nocrits","nodmgspread","payload","uncletopia"],"game_id":440,"stv_port":27036,"stv_name":"Uncletopia | Chicago | 3 | All Maps | STV","players":[{"user_id":725,"name":"Ace Attorney","steam_id":76561198133011705,"connected_time":194000000000,"state":"active","ping":60},{"user_id":712,"name":"micah","steam_id":76561197984579630,"connected_time":633000000000,"state":"active","ping":90},{"user_id":707,"name":"badboy6996","steam_id":76561197969386201,"connected_time":1785000000000,"state":"active","ping":45},{"user_id":702,"name":"yomommasabitch","steam_id":76561198323217150,"connected_time":2269000000000,"state":"active","ping":60},{"user_id":715,"name":"The_epic_crab","steam_id":76561199121903803,"connected_time":618000000000,"state":"active","ping":96},{"user_id":716,"name":"Nukeboy","steam_id":76561198147058560,"connected_time":609000000000,"state":"active","ping":101},{"user_id":720,"name":"Sqooky","steam_id":76561198838054669,"connected_time":558000000000,"state":"active","ping":71},{"user_id":711,"name":"Scruga","steam_id":76561197993476998,"connected_time":707000000000,"state":"active","ping":144},{"user_id":717,"name":"\"Psychotic Chiaki Nanami\" GF","steam_id":76561198164782653,"connected_time":581000000000,"state":"active","ping":68},{"user_id":713,"name":"aaron","steam_id":76561198113364714,"connected_time":625000000000,"state":"active","ping":56},{"user_id":718,"name":"gerg","steam_id":76561197997127387,"connected_time":579000000000,"state":"active","ping":100},{"user_id":669,"name":"Tetra","steam_id":76561198012329955,"connected_time":5509000000000,"state":"active","ping":105},{"user_id":699,"name":"LVL","steam_id":76561198334403617,"connected_time":2381000000000,"state":"active","ping":57},{"user_id":714,"name":"xLeoparrd","steam_id":76561198940657194,"connected_time":625000000000,"state":"active","ping":88},{"user_id":722,"name":"viagra addict","steam_id":76561198017705248,"connected_time":453000000000,"state":"active","ping":48},{"user_id":634,"name":"urine trouble","steam_id":76561199013266640,"connected_time":7794000000000,"state":"active","ping":68},{"user_id":678,"name":"JP\u003c3","steam_id":76561198126686695,"connected_time":4418000000000,"state":"active","ping":57},{"user_id":659,"name":"Motreir","steam_id":76561198151717946,"connected_time":6480000000000,"state":"active","ping":77},{"user_id":724,"name":"Majestic-A","steam_id":76561198988062101,"connected_time":260000000000,"state":"active","ping":95},{"user_id":709,"name":"CHIKN","steam_id":76561198277792665,"connected_time":1748000000000,"state":"active","ping":106},{"user_id":719,"name":"b","steam_id":76561198156336213,"connected_time":577000000000,"state":"active","ping":75},{"user_id":721,"name":"social distance warrior","steam_id":76561198128992994,"connected_time":544000000000,"state":"active","ping":89},{"user_id":705,"name":"that_man4","steam_id":76561198133102865,"connected_time":2201000000000,"state":"active","ping":75},{"user_id":653,"name":"Tom Crúaich","steam_id":76561197999439911,"connected_time":6806000000000,"state":"active","ping":76}]},{"server_id":403,"name":"Uncletopia | Chicago | 4 | All Maps","name_short":"chi-4","host":"chi-1.us.uncletopia.com","port":27045,"enabled":true,"region":"us-central","cc":"us","latitude":41.881832,"longitude":-87.62318,"reserved":0,"last_update":"0001-01-01T00:00:00Z","name_a2s":"Uncletopia | Chicago | 4 | All Maps","protocol":17,"map":"cp_sunshine","folder":"tf","game":"Team Fortress","app_id":440,"player_count":24,"max_players":24,"Bots":0,"server_type":"Dedicated","server_os":"Linux","password":true,"vac":true,"version":"7961495","steam_id":85568392924515193,"keywords":["cp","nocrits","nodmgspread","uncletopia"],"game_id":440,"stv_port":27046,"stv_name":"Uncletopia | Chicago | 4 | All Maps | STV","players":[{"user_id":800,"name":"zuma deluxe","steam_id":76561198059041027,"connected_time":3516000000000,"state":"active","ping":103},{"user_id":841,"name":"DoctorDucky","steam_id":76561198356434380,"connected_time":277000000000,"state":"active","ping":85},{"user_id":834,"name":"delusional schizophrenic","steam_id":76561198323435040,"connected_time":1279000000000,"state":"active","ping":58},{"user_id":838,"name":"esog","steam_id":76561198250069226,"connected_time":539000000000,"state":"active","ping":70},{"user_id":845,"name":"kaputon","steam_id":76561198146299782,"connected_time":64000000000,"state":"active","ping":59},{"user_id":830,"name":"Imagine being trash at Medic","steam_id":76561197986530028,"connected_time":1656000000000,"state":"active","ping":102},{"user_id":823,"name":"im drunk AF (sorry)","steam_id":76561199010126042,"connected_time":2074000000000,"state":"active","ping":88},{"user_id":824,"name":"SPIRE_FAN","steam_id":76561198001486573,"connected_time":1991000000000,"state":"active","ping":63},{"user_id":806,"name":"SIN K4RMA","steam_id":76561198869287223,"connected_time":3374000000000,"state":"active","ping":77},{"user_id":765,"name":"kicks","steam_id":76561199228854923,"connected_time":6427000000000,"state":"active","ping":61},{"user_id":820,"name":"Dan","steam_id":76561198453824178,"connected_time":2933000000000,"state":"active","ping":132},{"user_id":837,"name":"Gammaplex","steam_id":76561198981228176,"connected_time":591000000000,"state":"active","ping":54},{"user_id":843,"name":"parque","steam_id":76561198088325483,"connected_time":185000000000,"state":"active","ping":123},{"user_id":814,"name":"FROYO donovin","steam_id":76561198045679387,"connected_time":3139000000000,"state":"active","ping":48},{"user_id":762,"name":"Two-Ton Heavy Thing","steam_id":76561198201724274,"connected_time":6450000000000,"state":"active","ping":93},{"user_id":836,"name":"MechaZard","steam_id":76561198985919768,"connected_time":1046000000000,"state":"active","ping":86},{"user_id":842,"name":"ThiccNicc","steam_id":76561198236828842,"connected_time":241000000000,"state":"active","ping":72},{"user_id":788,"name":"lili of the valley","steam_id":76561198253172399,"connected_time":5210000000000,"state":"active","ping":70},{"user_id":844,"name":"An Engineer","steam_id":76561198110381643,"connected_time":178000000000,"state":"active","ping":71},{"user_id":807,"name":"Lore","steam_id":76561198098407538,"connected_time":3325000000000,"state":"active","ping":47},{"user_id":829,"name":"Phocae","steam_id":76561199317584594,"connected_time":1790000000000,"state":"active","ping":60},{"user_id":828,"name":"Furious George","steam_id":76561198405111646,"connected_time":1858000000000,"state":"active","ping":99},{"user_id":822,"name":"GreekYogurt","steam_id":76561198037671890,"connected_time":2327000000000,"state":"active","ping":111},{"user_id":810,"name":"Hertz","steam_id":76561198245322982,"connected_time":3249000000000,"state":"active","ping":52}]},{"server_id":36,"name":"Uncletopia | Chicago | 5 | All Maps","name_short":"chi-5","host":"chi-2.us.uncletopia.com","port":27015,"enabled":true,"region":"us-central","cc":"us","latitude":41.881832,"longitude":-87.62318,"reserved":0,"last_update":"0001-01-01T00:00:00Z","name_a2s":"Uncletopia | Chicago | 5 | All Maps","protocol":17,"map":"cp_dustbowl","folder":"tf","game":"Team Fortress","app_id":440,"player_count":4,"max_players":24,"Bots":0,"server_type":"Dedicated","server_os":"Linux","password":true,"vac":true,"version":"7961495","steam_id":85568392924866362,"keywords":["cp","nocrits","nodmgspread","uncletopia"],"game_id":440,"stv_port":27016,"stv_name":"Uncletopia | Chicago | 5 | All Maps | STV","players":[{"user_id":648,"name":"Lj3online","steam_id":76561198009960926,"connected_time":683000000000,"state":"active","ping":99},{"user_id":650,"name":"Vaccine Eater","steam_id":76561198026301425,"connected_time":587000000000,"state":"active","ping":86},{"user_id":647,"name":"bf","steam_id":76561198026032347,"connected_time":710000000000,"state":"active","ping":86},{"user_id":627,"name":"Cute Little Femboy :3","steam_id":76561199280564132,"connected_time":2841000000000,"state":"active","ping":34}]},{"server_id":37,"name":"Uncletopia | Chicago | 6 | All Maps","name_short":"chi-6","host":"chi-2.us.uncletopia.com","port":27025,"enabled":true,"region":"us-central","cc":"us","latitude":41.881832,"longitude":-87.62318,"reserved":0,"last_update":"0001-01-01T00:00:00Z","name_a2s":"Uncletopia | Chicago | 6 | All Maps","protocol":17,"map":"cp_sunshine","folder":"tf","game":"Team Fortress","app_id":440,"player_count":24,"max_players":24,"Bots":0,"server_type":"Dedicated","server_os":"Linux","password":true,"vac":true,"version":"7961495","steam_id":85568392924866363,"keywords":["cp","nocrits","nodmgspread","uncletopia"],"game_id":440,"stv_port":27026,"stv_name":"Uncletopia | Chicago | 6 | All Maps | STV","players":[{"user_id":588,"name":"cat lesbian","steam_id":76561198012480197,"connected_time":908000000000,"state":"active","ping":82},{"user_id":569,"name":"Part-Time Pybro","steam_id":76561198079508595,"connected_time":2754000000000,"state":"active","ping":110},{"user_id":589,"name":"opossum","steam_id":76561198148905570,"connected_time":898000000000,"state":"active","ping":68},{"user_id":585,"name":"Merchant","steam_id":76561198130468663,"connected_time":1175000000000,"state":"active","ping":59},{"user_id":603,"name":"Leonardo DiCaprio","steam_id":76561198121886765,"connected_time":556000000000,"state":"active","ping":57},{"user_id":607,"name":"Blobbyfish","steam_id":76561198822962650,"connected_time":333000000000,"state":"active","ping":73},{"user_id":566,"name":"roman","steam_id":76561198170066797,"connected_time":2828000000000,"state":"active","ping":63},{"user_id":595,"name":"EliteSpartan","steam_id":76561198174023582,"connected_time":841000000000,"state":"active","ping":58},{"user_id":550,"name":"Major_Pippy","steam_id":76561198004482878,"connected_time":3839000000000,"state":"active","ping":102},{"user_id":551,"name":"cliftoce","steam_id":76561197998912007,"connected_time":3834000000000,"state":"active","ping":89},{"user_id":552,"name":"birb borb","steam_id":76561198288922289,"connected_time":3812000000000,"state":"active","ping":101},{"user_id":606,"name":"Macro","steam_id":76561199442846226,"connected_time":344000000000,"state":"active","ping":76},{"user_id":600,"name":"y0","steam_id":76561198143894333,"connected_time":784000000000,"state":"active","ping":46},{"user_id":587,"name":"Xyverle","steam_id":76561198799726415,"connected_time":1118000000000,"state":"active","ping":60},{"user_id":594,"name":"Owl Bisexual","steam_id":76561198075469828,"connected_time":849000000000,"state":"active","ping":73},{"user_id":601,"name":"RagunCagun","steam_id":76561198132848008,"connected_time":710000000000,"state":"active","ping":45},{"user_id":570,"name":"☹","steam_id":76561198804763186,"connected_time":2733000000000,"state":"active","ping":63},{"user_id":584,"name":"weed lesbian","steam_id":76561198042263805,"connected_time":1250000000000,"state":"active","ping":90},{"user_id":602,"name":"Lesbian Mommy","steam_id":76561198074612980,"connected_time":559000000000,"state":"active","ping":85},{"user_id":571,"name":"toastman","steam_id":76561198207073088,"connected_time":2712000000000,"state":"active","ping":68},{"user_id":598,"name":"Mint Jelly","steam_id":76561197991286751,"connected_time":800000000000,"state":"active","ping":58},{"user_id":502,"name":"Ludcmorais","steam_id":76561198359217809,"connected_time":7915000000000,"state":"active","ping":183},{"user_id":572,"name":"Anna","steam_id":76561199071867217,"connected_time":2712000000000,"state":"active","ping":61},{"user_id":599,"name":"chunk","steam_id":76561198134775401,"connected_time":792000000000,"state":"active","ping":62}]},{"server_id":38,"name":"Uncletopia | Chicago | 7 | Stopwatch","name_short":"chi-7","host":"chi-2.us.uncletopia.com","port":27035,"enabled":true,"region":"us-central","cc":"us","latitude":41.881832,"longitude":-87.62318,"reserved":0,"last_update":"0001-01-01T00:00:00Z","name_a2s":"Uncletopia | Chicago | 7 | Stopwatch","protocol":17,"map":"workshop/koth_clearcut_b15.ugc2107050255","folder":"tf","game":"Team Fortress","app_id":440,"player_count":0,"max_players":24,"Bots":0,"server_type":"Dedicated","server_os":"Linux","password":true,"vac":true,"version":"7961495","steam_id":85568392924866364,"keywords":["cp","nocrits","nodmgspread","uncletopia"],"game_id":440,"stv_port":27036,"stv_name":"Uncletopia | Chicago | 7 | Stopwatch | STV","players":null},{"server_id":39,"name":"Uncletopia | Chicago | 8 | Community","name_short":"chi-8","host":"chi-2.us.uncletopia.com","port":27045,"enabled":true,"region":"us-central","cc":"us","latitude":41.881832,"longitude":-87.62318,"reserved":0,"last_update":"0001-01-01T00:00:00Z","name_a2s":"Uncletopia | Chicago | 8 | Community","protocol":17,"map":"workshop/koth_ramjam_rc1.ugc459778887","folder":"tf","game":"Team Fortress","app_id":440,"player_count":0,"max_players":24,"Bots":0,"server_type":"Dedicated","server_os":"Linux","password":true,"vac":true,"version":"7961495","steam_id":85568392924866365,"keywords":["cp","nocrits","nodmgspread","uncletopia"],"game_id":440,"stv_port":27046,"stv_name":"Uncletopia | Chicago | 8 | Community | STV","players":null},{"server_id":8,"name":"Uncletopia | Dallas | 1 | All Maps","name_short":"dal-1","host":"dal-1.us.uncletopia.com","port":27015,"enabled":true,"region":"us-central","cc":"us","latitude":32.779167,"longitude":-96.80889,"reserved":0,"last_update":"0001-01-01T00:00:00Z","name_a2s":"Uncletopia | Dallas | 1 | All Maps","protocol":17,"map":"pl_frontier_final","folder":"tf","game":"Team Fortress","app_id":440,"player_count":23,"max_players":24,"Bots":0,"server_type":"Dedicated","server_os":"Linux","password":true,"vac":true,"version":"7961495","steam_id":85568392924469986,"keywords":["nocrits","nodmgspread","payload","uncletopia"],"game_id":440,"stv_port":27016,"stv_name":"Uncletopia | Dallas | 1 | All Maps | STV","players":[{"user_id":650,"name":"Arthur SSJ2","steam_id":76561198043678479,"connected_time":526000000000,"state":"active","ping":48},{"user_id":636,"name":"Zaid","steam_id":76561199142840666,"connected_time":1491000000000,"state":"active","ping":140},{"user_id":655,"name":"Artic_Ryuu","steam_id":76561198182194918,"connected_time":114000000000,"state":"active","ping":69},{"user_id":638,"name":"gretchling","steam_id":76561198046111695,"connected_time":1295000000000,"state":"active","ping":47},{"user_id":651,"name":"Cliffigriff","steam_id":76561198121924499,"connected_time":504000000000,"state":"active","ping":45},{"user_id":567,"name":"Vaun Leon","steam_id":76561199223266577,"connected_time":8751000000000,"state":"active","ping":71},{"user_id":637,"name":"Railly","steam_id":76561198357355915,"connected_time":1342000000000,"state":"active","ping":82},{"user_id":632,"name":"jerma but crying and lesbian","steam_id":76561198110661425,"connected_time":1878000000000,"state":"active","ping":77},{"user_id":652,"name":"KOI BOY","steam_id":76561198402739250,"connected_time":439000000000,"state":"active","ping":80},{"user_id":645,"name":"wise","steam_id":76561198030066204,"connected_time":889000000000,"state":"active","ping":74},{"user_id":647,"name":"karlonieva2005","steam_id":76561199098573261,"connected_time":679000000000,"state":"active","ping":81},{"user_id":649,"name":"LeefLett","steam_id":76561199166178308,"connected_time":616000000000,"state":"active","ping":93},{"user_id":653,"name":"atomic clarence","steam_id":76561198156538484,"connected_time":375000000000,"state":"active","ping":88},{"user_id":641,"name":"Titar Industries","steam_id":76561198143078476,"connected_time":1225000000000,"state":"active","ping":83},{"user_id":597,"name":"soft and wet","steam_id":76561198081974528,"connected_time":5052000000000,"state":"active","ping":66},{"user_id":593,"name":"Withered Bonnie (Real)","steam_id":76561198423310113,"connected_time":5766000000000,"state":"active","ping":52},{"user_id":602,"name":"BADWOLF42","steam_id":76561198055447523,"connected_time":4999000000000,"state":"active","ping":51},{"user_id":566,"name":"Lydia","steam_id":76561198800417942,"connected_time":8957000000000,"state":"active","ping":96},{"user_id":648,"name":"Louie","steam_id":76561198195963114,"connected_time":650000000000,"state":"active","ping":81},{"user_id":624,"name":"Rira","steam_id":76561197995224164,"connected_time":2977000000000,"state":"active","ping":79},{"user_id":625,"name":"poopshitter420","steam_id":76561198074624639,"connected_time":2823000000000,"state":"active","ping":63},{"user_id":572,"name":"Hedless","steam_id":76561197992723400,"connected_time":7984000000000,"state":"active","ping":84},{"user_id":654,"name":"The Sex Defender","steam_id":76561198152976188,"connected_time":225000000000,"state":"active","ping":81}]},{"server_id":108,"name":"Uncletopia | Dallas | 2 | All Maps","name_short":"dal-2","host":"dal-1.us.uncletopia.com","port":27025,"enabled":true,"region":"us-central","cc":"us","latitude":32.779167,"longitude":-96.80889,"reserved":0,"last_update":"0001-01-01T00:00:00Z","name_a2s":"Uncletopia | Dallas | 2 | All Maps","protocol":17,"map":"pl_badwater","folder":"tf","game":"Team Fortress","app_id":440,"player_count":24,"max_players":24,"Bots":0,"server_type":"Dedicated","server_os":"Linux","password":true,"vac":true,"version":"7961495","steam_id":85568392924469988,"keywords":["nocrits","nodmgspread","payload","uncletopia"],"game_id":440,"stv_port":27026,"stv_name":"Uncletopia | Dallas | 2 | All Maps | STV","players":[{"user_id":536,"name":"bendera","steam_id":76561197965486503,"connected_time":4117000000000,"state":"active","ping":87},{"user_id":571,"name":"gooch_masta","steam_id":76561198151578423,"connected_time":898000000000,"state":"active","ping":84},{"user_id":567,"name":"gundog","steam_id":76561198063240044,"connected_time":1346000000000,"state":"active","ping":62},{"user_id":562,"name":"ุ","steam_id":76561198404271005,"connected_time":1823000000000,"state":"active","ping":70},{"user_id":581,"name":"Spinch","steam_id":76561198296224166,"connected_time":246000000000,"state":"active","ping":79},{"user_id":574,"name":"5kPrime","steam_id":76561198039471915,"connected_time":535000000000,"state":"active","ping":101},{"user_id":546,"name":"Kenny[poor]","steam_id":76561199005805984,"connected_time":3795000000000,"state":"active","ping":45},{"user_id":564,"name":"John16Mark","steam_id":76561198119445407,"connected_time":1767000000000,"state":"active","ping":64},{"user_id":541,"name":"selling rice","steam_id":76561198063357023,"connected_time":3952000000000,"state":"active","ping":86},{"user_id":553,"name":"☙ Corrupt ❧","steam_id":76561197977631915,"connected_time":2682000000000,"state":"active","ping":72},{"user_id":575,"name":"seats","steam_id":76561197998756039,"connected_time":513000000000,"state":"active","ping":74},{"user_id":578,"name":"jam crimer","steam_id":76561198006064930,"connected_time":451000000000,"state":"active","ping":119},{"user_id":543,"name":"Harufloofer","steam_id":76561199084506827,"connected_time":3944000000000,"state":"active","ping":44},{"user_id":576,"name":"shield","steam_id":76561198976876859,"connected_time":491000000000,"state":"active","ping":87},{"user_id":583,"name":"exten-z","steam_id":76561198004359190,"connected_time":93000000000,"state":"active","ping":75},{"user_id":577,"name":"Saintlike #SaveTF2","steam_id":76561198368576108,"connected_time":483000000000,"state":"active","ping":91},{"user_id":416,"name":"Publo","steam_id":76561198161777140,"connected_time":17309000000000,"state":"active","ping":60},{"user_id":569,"name":"JtsRes","steam_id":76561197994809241,"connected_time":996000000000,"state":"active","ping":62},{"user_id":489,"name":"sloth (be nice im cringe)","steam_id":76561198047098172,"connected_time":10044000000000,"state":"active","ping":99},{"user_id":579,"name":"loser","steam_id":76561198259380127,"connected_time":431000000000,"state":"active","ping":86},{"user_id":555,"name":"type \"bad med\" to kick","steam_id":76561198076402476,"connected_time":2662000000000,"state":"active","ping":96},{"user_id":582,"name":"plink","steam_id":76561198057829889,"connected_time":199000000000,"state":"active","ping":60},{"user_id":551,"name":"Gamerfan64","steam_id":76561198801410962,"connected_time":3279000000000,"state":"active","ping":46},{"user_id":535,"name":"BLOCKHEAD","steam_id":76561198808224331,"connected_time":4167000000000,"state":"active","ping":132}]},{"server_id":404,"name":"Uncletopia | Dallas | 3 | All Maps","name_short":"dal-3","host":"dal-1.us.uncletopia.com","port":27035,"enabled":true,"region":"us-central","cc":"us","latitude":32.779167,"longitude":-96.80889,"reserved":0,"last_update":"0001-01-01T00:00:00Z","name_a2s":"Uncletopia | Dallas | 3 | All Maps","protocol":17,"map":"pl_pier","folder":"tf","game":"Team Fortress","app_id":440,"player_count":3,"max_players":24,"Bots":0,"server_type":"Dedicated","server_os":"Linux","password":true,"vac":true,"version":"7961495","steam_id":85568392924515219,"keywords":["nocrits","nodmgspread","payload","uncletopia"],"game_id":440,"stv_port":27036,"stv_name":"Uncletopia | Dallas | 3 | All Maps | STV","players":[{"user_id":57,"name":"Snoopy","steam_id":76561198273735974,"connected_time":34151000000000,"state":"active","ping":71},{"user_id":463,"name":"Kamin","steam_id":76561198255299559,"connected_time":2522000000000,"state":"active","ping":61},{"user_id":483,"name":"Rogue Process","steam_id":76561198042056228,"connected_time":814000000000,"state":"active","ping":79}]},{"server_id":405,"name":"Uncletopia | Dallas | 4 | Community","name_short":"dal-4","host":"dal-1.us.uncletopia.com","port":27045,"enabled":true,"region":"us-central","cc":"us","latitude":32.779167,"longitude":-96.80889,"reserved":0,"last_update":"0001-01-01T00:00:00Z","name_a2s":"Uncletopia | Dallas | 4 | Community","protocol":17,"map":"workshop/pl_corrode_rc2.ugc546577989","folder":"tf","game":"Team Fortress","app_id":440,"player_count":23,"max_players":24,"Bots":0,"server_type":"Dedicated","server_os":"Linux","password":true,"vac":true,"version":"7961495","steam_id":85568392924515220,"keywords":["nocrits","nodmgspread","payload","uncletopia"],"game_id":440,"stv_port":27046,"stv_name":"Uncletopia | Dallas | 4 | Community | STV","players":[{"user_id":330,"name":"StillNotGinger","steam_id":76561198063419189,"connected_time":1811000000000,"state":"active","ping":57},{"user_id":331,"name":"rice","steam_id":76561198037565441,"connected_time":1804000000000,"state":"active","ping":85},{"user_id":362,"name":"EzzyIzzy","steam_id":76561198032350068,"connected_time":10000000000,"state":"spawning","ping":62},{"user_id":328,"name":"Trapilicious","steam_id":76561198061430457,"connected_time":1955000000000,"state":"active","ping":52},{"user_id":284,"name":"wugmup","steam_id":76561199096287734,"connected_time":4583000000000,"state":"active","ping":94},{"user_id":361,"name":"Epifiny","steam_id":76561198027958086,"connected_time":37000000000,"state":"active","ping":87},{"user_id":344,"name":"Whippin Forgies","steam_id":76561198071058300,"connected_time":1211000000000,"state":"active","ping":104},{"user_id":332,"name":"t.tv/FamilyGuyFunnyMoments277","steam_id":76561198416047580,"connected_time":1727000000000,"state":"active","ping":90},{"user_id":333,"name":"your little goofy homie","steam_id":76561198967158026,"connected_time":1713000000000,"state":"active","ping":72},{"user_id":272,"name":"Captain Chicken","steam_id":76561198047767530,"connected_time":5594000000000,"state":"active","ping":111},{"user_id":360,"name":"C^a^L","steam_id":76561198241124222,"connected_time":368000000000,"state":"active","ping":92},{"user_id":348,"name":"no vc no c","steam_id":76561197989503095,"connected_time":1113000000000,"state":"active","ping":184},{"user_id":352,"name":"Zorospo","steam_id":76561198369967690,"connected_time":1025000000000,"state":"active","ping":48},{"user_id":343,"name":"payam","steam_id":76561197995431209,"connected_time":1252000000000,"state":"active","ping":74},{"user_id":346,"name":"jeffus","steam_id":76561199347238848,"connected_time":1197000000000,"state":"active","ping":112},{"user_id":355,"name":"Huevodorado71","steam_id":76561198798277033,"connected_time":929000000000,"state":"active","ping":85},{"user_id":268,"name":"Mer","steam_id":76561198192171041,"connected_time":6056000000000,"state":"active","ping":115},{"user_id":347,"name":"danilala","steam_id":76561198318754760,"connected_time":1190000000000,"state":"active","ping":85},{"user_id":356,"name":"dogerich404","steam_id":76561199124102546,"connected_time":787000000000,"state":"active","ping":96},{"user_id":357,"name":"Ninjoth","steam_id":76561198038611753,"connected_time":765000000000,"state":"active","ping":90},{"user_id":337,"name":"Squids023","steam_id":76561199013031576,"connected_time":1635000000000,"state":"active","ping":107},{"user_id":359,"name":"BosnianBones","steam_id":76561198300187313,"connected_time":531000000000,"state":"active","ping":81},{"user_id":316,"name":"BoX_hEaD101","steam_id":76561198200875467,"connected_time":2877000000000,"state":"active","ping":93}]},{"server_id":5,"name":"Uncletopia | Frankfurt | 1 | All Maps","name_short":"frk-1","host":"frk-1.de.uncletopia.com","port":27015,"enabled":true,"region":"eu","cc":"de","latitude":50.110924,"longitude":8.682127,"reserved":0,"last_update":"0001-01-01T00:00:00Z","name_a2s":"Uncletopia | Frankfurt | 1 | All Maps","protocol":17,"map":"koth_highpass","folder":"tf","game":"Team Fortress","app_id":440,"player_count":0,"max_players":24,"Bots":0,"server_type":"Dedicated","server_os":"Linux","password":true,"vac":true,"version":"7961495","steam_id":85568392924469989,"keywords":["cp","nocrits","nodmgspread","uncletopia"],"game_id":440,"stv_port":27016,"stv_name":"Uncletopia | Frankfurt | 1 | All Maps | STV","players":null},{"server_id":110,"name":"Uncletopia | Frankfurt | 2 | All Maps","name_short":"frk-2","host":"frk-1.de.uncletopia.com","port":27025,"enabled":true,"region":"eu","cc":"de","latitude":50.110924,"longitude":8.682127,"reserved":0,"last_update":"0001-01-01T00:00:00Z","name_a2s":"Uncletopia | Frankfurt | 2 | All Maps","protocol":17,"map":"cp_dustbowl","folder":"tf","game":"Team Fortress","app_id":440,"player_count":0,"max_players":24,"Bots":0,"server_type":"Dedicated","server_os":"Linux","password":true,"vac":true,"version":"7961495","steam_id":85568392924469990,"keywords":["cp","nocrits","nodmgspread","uncletopia"],"game_id":440,"stv_port":27026,"stv_name":"Uncletopia | Frankfurt | 2 | All Maps | STV","players":null},{"server_id":308,"name":"Uncletopia | Frankfurt | 3 | All Maps","name_short":"frk-3","host":"frk-1.de.uncletopia.com","port":27035,"enabled":true,"region":"eu","cc":"de","latitude":50.110924,"longitude":8.682127,"reserved":0,"last_update":"0001-01-01T00:00:00Z","name_a2s":"Uncletopia | Frankfurt | 3 | All Maps","protocol":17,"map":"pl_barnblitz","folder":"tf","game":"Team Fortress","app_id":440,"player_count":0,"max_players":24,"Bots":0,"server_type":"Dedicated","server_os":"Linux","password":true,"vac":true,"version":"7961495","steam_id":85568392924504274,"keywords":["nocrits","nodmgspread","payload","uncletopia"],"game_id":440,"stv_port":27036,"stv_name":"Uncletopia | Frankfurt | 3 | All Maps | STV","players":null},{"server_id":309,"name":"Uncletopia | Frankfurt | 4 | All Maps","name_short":"frk-4","host":"frk-1.de.uncletopia.com","port":27045,"enabled":true,"region":"eu","cc":"de","latitude":50.110924,"longitude":8.682127,"reserved":0,"last_update":"0001-01-01T00:00:00Z","name_a2s":"Uncletopia | Frankfurt | 4 | All Maps","protocol":17,"map":"koth_highpass","folder":"tf","game":"Team Fortress","app_id":440,"player_count":0,"max_players":24,"Bots":0,"server_type":"Dedicated","server_os":"Linux","password":true,"vac":true,"version":"7961495","steam_id":85568392924504275,"keywords":["cp","nocrits","nodmgspread","uncletopia"],"game_id":440,"stv_port":27046,"stv_name":"Uncletopia | Frankfurt | 4 | All Maps | STV","players":null},{"server_id":310,"name":"Uncletopia | Frankfurt | 5 | All Maps","name_short":"frk-5","host":"frk-1.de.uncletopia.com","port":27055,"enabled":true,"region":"eu","cc":"de","latitude":50.110924,"longitude":8.682127,"reserved":0,"last_update":"0001-01-01T00:00:00Z","name_a2s":"Uncletopia | Frankfurt | 5 | All Maps","protocol":17,"map":"pl_upward","folder":"tf","game":"Team Fortress","app_id":440,"player_count":16,"max_players":24,"Bots":0,"server_type":"Dedicated","server_os":"Linux","password":true,"vac":true,"version":"7961495","steam_id":85568392924504277,"keywords":["nocrits","nodmgspread","payload","uncletopia"],"game_id":440,"stv_port":27056,"stv_name":"Uncletopia | Frankfurt | 5 | All Maps | STV","players":[{"user_id":15,"name":"scar","steam_id":76561198927694734,"connected_time":1344000000000,"state":"active","ping":67},{"user_id":30,"name":"THEALLSEEINGCAKE","steam_id":76561199251417876,"connected_time":301000000000,"state":"active","ping":155},{"user_id":23,"name":"DaKing","steam_id":76561197995935273,"connected_time":475000000000,"state":"active","ping":112},{"user_id":6,"name":"concussion gaming","steam_id":76561198425494530,"connected_time":3022000000000,"state":"active","ping":111},{"user_id":29,"name":"Waffy","steam_id":76561199045810038,"connected_time":303000000000,"state":"active","ping":68},{"user_id":17,"name":":|","steam_id":76561198119247892,"connected_time":988000000000,"state":"active","ping":98},{"user_id":33,"name":"kalid","steam_id":76561198051468640,"connected_time":11000000000,"state":"spawning","ping":59},{"user_id":24,"name":"cestmir","steam_id":76561198083346999,"connected_time":470000000000,"state":"active","ping":47},{"user_id":19,"name":"katten","steam_id":76561198163615254,"connected_time":911000000000,"state":"active","ping":46},{"user_id":20,"name":"Aida","steam_id":76561198311044984,"connected_time":875000000000,"state":"active","ping":59},{"user_id":21,"name":"MackerelMiguel246","steam_id":76561198089478290,"connected_time":776000000000,"state":"active","ping":52},{"user_id":22,"name":"leonardini.w","steam_id":76561199097963071,"connected_time":711000000000,"state":"active","ping":84},{"user_id":25,"name":"videogaming","steam_id":76561198818037965,"connected_time":459000000000,"state":"active","ping":106},{"user_id":27,"name":"Miedzan","steam_id":76561198405250516,"connected_time":378000000000,"state":"active","ping":67},{"user_id":28,"name":"M7md4916","steam_id":76561199087378396,"connected_time":370000000000,"state":"active","ping":101},{"user_id":31,"name":"Jennifer","steam_id":76561199474556920,"connected_time":275000000000,"state":"active","ping":71}]},{"server_id":311,"name":"Uncletopia | Frankfurt | 6 | All Maps","name_short":"frk-6","host":"frk-1.de.uncletopia.com","port":27065,"enabled":true,"region":"eu","cc":"de","latitude":50.110924,"longitude":8.682127,"reserved":0,"last_update":"0001-01-01T00:00:00Z","name_a2s":"Uncletopia | Frankfurt | 6 | All Maps","protocol":17,"map":"cp_altitude","folder":"tf","game":"Team Fortress","app_id":440,"player_count":0,"max_players":24,"Bots":0,"server_type":"Dedicated","server_os":"Linux","password":true,"vac":true,"version":"7961495","steam_id":85568392924504278,"keywords":["cp","nocrits","nodmgspread","uncletopia"],"game_id":440,"stv_port":27066,"stv_name":"Uncletopia | Frankfurt | 6 | All Maps | STV","players":null},{"server_id":23,"name":"Uncletopia | Frankfurt | 7 | Stopwatch","name_short":"frk-7","host":"frk-1.de.uncletopia.com","port":27075,"enabled":true,"region":"eu","cc":"de","latitude":50.110924,"longitude":8.682127,"reserved":0,"last_update":"0001-01-01T00:00:00Z","name_a2s":"Uncletopia | Frankfurt | 7 | Stopwatch","protocol":17,"map":"pl_frontier_final","folder":"tf","game":"Team Fortress","app_id":440,"player_count":0,"max_players":24,"Bots":0,"server_type":"Dedicated","server_os":"Linux","password":true,"vac":true,"version":"7961495","steam_id":85568392924742827,"keywords":["nocrits","nodmgspread","payload","uncletopia"],"game_id":440,"stv_port":27076,"stv_name":"Uncletopia | Frankfurt | 7 | Stopwatch | STV","players":null},{"server_id":24,"name":"Uncletopia | Frankfurt | 8 | Community","name_short":"frk-8","host":"frk-1.de.uncletopia.com","port":27085,"enabled":true,"region":"eu","cc":"de","latitude":50.110924,"longitude":8.682127,"reserved":0,"last_update":"0001-01-01T00:00:00Z","name_a2s":"Uncletopia | Frankfurt | 8 | Community","protocol":17,"map":"workshop/cp_overgrown_rc8.ugc503939302","folder":"tf","game":"Team Fortress","app_id":440,"player_count":0,"max_players":24,"Bots":0,"server_type":"Dedicated","server_os":"Linux","password":true,"vac":true,"version":"7961495","steam_id":85568392924742828,"keywords":["cp","nocrits","nodmgspread","uncletopia"],"game_id":440,"stv_port":27086,"stv_name":"Uncletopia | Frankfurt | 8 | Community | STV","players":null},{"server_id":202,"name":"Uncletopia | Hong Kong | 1 | All Maps","name_short":"hgk-1","host":"hgk-1.hk.uncletopia.com","port":27015,"enabled":true,"region":"asia","cc":"hk","latitude":22.302711,"longitude":114.177216,"reserved":0,"last_update":"0001-01-01T00:00:00Z","name_a2s":"Uncletopia | Hong Kong | 1 | All Maps","protocol":17,"map":"pl_frontier_final","folder":"tf","game":"Team Fortress","app_id":440,"player_count":23,"max_players":24,"Bots":0,"server_type":"Dedicated","server_os":"Linux","password":true,"vac":true,"version":"7961495","steam_id":85568392924494504,"keywords":["nocrits","nodmgspread","payload","uncletopia"],"game_id":440,"stv_port":27016,"stv_name":"Uncletopia | Hong Kong | 1 | All Maps | STV","players":[{"user_id":84,"name":"Windmill","steam_id":76561199230997986,"connected_time":6793000000000,"state":"active","ping":69},{"user_id":138,"name":"Hay","steam_id":76561199438952901,"connected_time":105000000000,"state":"active","ping":55},{"user_id":139,"name":"allMAX","steam_id":76561198270980670,"connected_time":88000000000,"state":"active","ping":131},{"user_id":137,"name":"MANCO FETT","steam_id":76561198107128889,"connected_time":123000000000,"state":"active","ping":96},{"user_id":108,"name":"human696982","steam_id":76561199496222946,"connected_time":4677000000000,"state":"active","ping":103},{"user_id":126,"name":"Davey Jone's Locker","steam_id":76561199049981494,"connected_time":1311000000000,"state":"active","ping":33},{"user_id":58,"name":"Corbezy","steam_id":76561197993398349,"connected_time":8926000000000,"state":"active","ping":91},{"user_id":124,"name":"god of cum (platinum cum arc)","steam_id":76561199161406614,"connected_time":1606000000000,"state":"active","ping":101},{"user_id":93,"name":"SmeechSmeech","steam_id":76561198139374838,"connected_time":5915000000000,"state":"active","ping":54},{"user_id":101,"name":"villy","steam_id":76561198169263597,"connected_time":5226000000000,"state":"active","ping":42},{"user_id":85,"name":"Lu","steam_id":76561198320532821,"connected_time":6673000000000,"state":"active","ping":64},{"user_id":127,"name":"ArcticDolphin","steam_id":76561198203626319,"connected_time":1209000000000,"state":"active","ping":133},{"user_id":117,"name":"BAzooKA","steam_id":76561198061628689,"connected_time":3062000000000,"state":"active","ping":57},{"user_id":140,"name":"feet fetish","steam_id":76561198164297839,"connected_time":38000000000,"state":"active","ping":76},{"user_id":104,"name":"123456","steam_id":76561198333809604,"connected_time":4844000000000,"state":"active","ping":71},{"user_id":141,"name":"nikhilborah49","steam_id":76561199152527526,"connected_time":4000000000,"state":"spawning","ping":82},{"user_id":136,"name":"Puddin","steam_id":76561198140052918,"connected_time":168000000000,"state":"active","ping":88},{"user_id":135,"name":"Nephew Nate","steam_id":76561199137872034,"connected_time":413000000000,"state":"active","ping":92},{"user_id":88,"name":"silverhouse7 | A |","steam_id":76561198349634906,"connected_time":6460000000000,"state":"active","ping":127},{"user_id":114,"name":"doze","steam_id":76561198318292720,"connected_time":3093000000000,"state":"active","ping":137},{"user_id":97,"name":"\"SKS\"","steam_id":76561198187995386,"connected_time":5788000000000,"state":"active","ping":78},{"user_id":110,"name":"im_0ff","steam_id":76561198339346695,"connected_time":4338000000000,"state":"active","ping":123},{"user_id":123,"name":"Ivy","steam_id":76561198400698408,"connected_time":1877000000000,"state":"active","ping":95}]},{"server_id":1,"name":"Uncletopia | Los Angeles | 1 | All Maps","name_short":"lax-1","host":"lax-1.us.uncletopia.com","port":27015,"enabled":true,"region":"us-west","cc":"us","latitude":33.94279,"longitude":-118.41004,"reserved":0,"last_update":"0001-01-01T00:00:00Z","name_a2s":"Uncletopia | Los Angeles | 1 | All Maps","protocol":17,"map":"pl_thundermountain","folder":"tf","game":"Team Fortress","app_id":440,"player_count":24,"max_players":24,"Bots":0,"server_type":"Dedicated","server_os":"Linux","password":true,"vac":true,"version":"7961495","steam_id":85568392924469991,"keywords":["nocrits","nodmgspread","payload","uncletopia"],"game_id":440,"stv_port":27016,"stv_name":"Uncletopia | Los Angeles | 1 | All Maps | STV","players":[{"user_id":893,"name":"armdouz","steam_id":76561199170540341,"connected_time":697000000000,"state":"active","ping":56},{"user_id":872,"name":"vvitch","steam_id":76561198279661941,"connected_time":1394000000000,"state":"active","ping":47},{"user_id":895,"name":"costco hot dog","steam_id":76561199112000229,"connected_time":291000000000,"state":"active","ping":78},{"user_id":875,"name":"cielael","steam_id":76561198043971956,"connected_time":1047000000000,"state":"active","ping":48},{"user_id":873,"name":"a chicken","steam_id":76561198313121580,"connected_time":1116000000000,"state":"active","ping":50},{"user_id":876,"name":"havarti gaming","steam_id":76561198069895678,"connected_time":1024000000000,"state":"active","ping":99},{"user_id":879,"name":"Octo","steam_id":76561198024056355,"connected_time":1003000000000,"state":"active","ping":48},{"user_id":882,"name":"Jay","steam_id":76561198986573969,"connected_time":938000000000,"state":"active","ping":94},{"user_id":891,"name":"Enddramon","steam_id":76561198169461084,"connected_time":792000000000,"state":"active","ping":139},{"user_id":878,"name":"spy's flat ass","steam_id":76561198163164053,"connected_time":1015000000000,"state":"active","ping":153},{"user_id":888,"name":"jimmy outlaw","steam_id":76561198070380402,"connected_time":841000000000,"state":"active","ping":115},{"user_id":894,"name":"FI LO","steam_id":76561198976530881,"connected_time":438000000000,"state":"active","ping":45},{"user_id":813,"name":"Agent Q","steam_id":76561198830829003,"connected_time":4838000000000,"state":"active","ping":72},{"user_id":880,"name":"Fireheart","steam_id":76561198171109323,"connected_time":996000000000,"state":"active","ping":54},{"user_id":858,"name":"Satori Komeiji","steam_id":76561198158211423,"connected_time":2972000000000,"state":"active","ping":48},{"user_id":881,"name":"Kng","steam_id":76561198993248203,"connected_time":996000000000,"state":"active","ping":113},{"user_id":896,"name":"Zenire","steam_id":76561199087298510,"connected_time":268000000000,"state":"active","ping":84},{"user_id":897,"name":"Whisper!","steam_id":76561198119609795,"connected_time":236000000000,"state":"active","ping":55},{"user_id":884,"name":"Savaqa","steam_id":76561198158016688,"connected_time":906000000000,"state":"active","ping":52},{"user_id":885,"name":"Toastered","steam_id":76561198178459042,"connected_time":897000000000,"state":"active","ping":68},{"user_id":887,"name":"Guerito550hp","steam_id":76561198019028544,"connected_time":845000000000,"state":"active","ping":133},{"user_id":889,"name":"happer","steam_id":76561198018252253,"connected_time":839000000000,"state":"active","ping":57},{"user_id":840,"name":"ChiMaTa","steam_id":76561198067166198,"connected_time":3523000000000,"state":"active","ping":101},{"user_id":890,"name":"risoray","steam_id":76561198351900955,"connected_time":830000000000,"state":"active","ping":51}]},{"server_id":112,"name":"Uncletopia | Los Angeles | 2 | All Maps","name_short":"lax-2","host":"lax-1.us.uncletopia.com","port":27025,"enabled":true,"region":"us-west","cc":"us","latitude":33.94279,"longitude":-118.41004,"reserved":0,"last_update":"0001-01-01T00:00:00Z","name_a2s":"Uncletopia | Los Angeles | 2 | All Maps","protocol":17,"map":"koth_lakeside_final","folder":"tf","game":"Team Fortress","app_id":440,"player_count":17,"max_players":24,"Bots":0,"server_type":"Dedicated","server_os":"Linux","password":true,"vac":true,"version":"7961495","steam_id":85568392924469992,"keywords":["cp","nocrits","nodmgspread","uncletopia"],"game_id":440,"stv_port":27026,"stv_name":"Uncletopia | Los Angeles | 2 | All Maps | STV","players":[{"user_id":339,"name":"Ralph Kramden (Slim Charles)","steam_id":76561197981687895,"connected_time":152000000000,"state":"active","ping":62},{"user_id":295,"name":"Sacrificial Lamb","steam_id":76561197988869981,"connected_time":5301000000000,"state":"active","ping":85},{"user_id":323,"name":"Your Dinosaurs","steam_id":76561198392670237,"connected_time":1783000000000,"state":"active","ping":46},{"user_id":320,"name":"NewWorldBlues","steam_id":76561198823311447,"connected_time":2701000000000,"state":"active","ping":87},{"user_id":334,"name":"Wicket","steam_id":76561198044023036,"connected_time":993000000000,"state":"active","ping":96},{"user_id":319,"name":"Skarp129","steam_id":76561198108679057,"connected_time":2801000000000,"state":"active","ping":45},{"user_id":307,"name":"aaron123","steam_id":76561198184669555,"connected_time":3230000000000,"state":"active","ping":43},{"user_id":303,"name":"for eel? on cod? no carp?","steam_id":76561198095121758,"connected_time":4462000000000,"state":"active","ping":53},{"user_id":308,"name":"Crowvette","steam_id":76561198000457496,"connected_time":3224000000000,"state":"active","ping":46},{"user_id":338,"name":"decibel","steam_id":76561198116162007,"connected_time":534000000000,"state":"active","ping":135},{"user_id":340,"name":"Pablo.Gonzalez.2007","steam_id":76561199083115222,"connected_time":137000000000,"state":"active","ping":123},{"user_id":333,"name":"bigpoo (lean addict)","steam_id":76561198864139320,"connected_time":1005000000000,"state":"active","ping":147},{"user_id":332,"name":"KUNG FU KOTAS","steam_id":76561198264385097,"connected_time":1504000000000,"state":"active","ping":49},{"user_id":289,"name":"紅鬍子","steam_id":76561198072410042,"connected_time":6646000000000,"state":"active","ping":50},{"user_id":284,"name":"sola venereum","steam_id":76561198368179166,"connected_time":6878000000000,"state":"active","ping":42},{"user_id":305,"name":"jovial","steam_id":76561198297130941,"connected_time":3467000000000,"state":"active","ping":50},{"user_id":321,"name":"Innocent Hubert","steam_id":76561199496059845,"connected_time":2352000000000,"state":"active","ping":106}]},{"server_id":324,"name":"Uncletopia | Los Angeles | 3 | All Maps","name_short":"lax-3","host":"lax-1.us.uncletopia.com","port":27035,"enabled":true,"region":"us-west","cc":"us","latitude":33.94279,"longitude":-118.41004,"reserved":0,"last_update":"0001-01-01T00:00:00Z","name_a2s":"Uncletopia | Los Angeles | 3 | All Maps","protocol":17,"map":"cp_sunshine","folder":"tf","game":"Team Fortress","app_id":440,"player_count":18,"max_players":24,"Bots":0,"server_type":"Dedicated","server_os":"Linux","password":true,"vac":true,"version":"7961495","steam_id":85568392924510198,"keywords":["cp","nocrits","nodmgspread","uncletopia"],"game_id":440,"stv_port":27036,"stv_name":"Uncletopia | Los Angeles | 3 | All Maps | STV","players":[{"user_id":157,"name":"Wick","steam_id":76561198062996360,"connected_time":130000000000,"state":"active","ping":57},{"user_id":149,"name":"ROGUE-PLANET","steam_id":76561198116023052,"connected_time":774000000000,"state":"active","ping":76},{"user_id":116,"name":"adam1g","steam_id":76561198025747866,"connected_time":3867000000000,"state":"active","ping":73},{"user_id":156,"name":"brando_not_lando","steam_id":76561198163197384,"connected_time":151000000000,"state":"active","ping":56},{"user_id":123,"name":"Blue","steam_id":76561198119315134,"connected_time":3782000000000,"state":"active","ping":90},{"user_id":144,"name":"Salazar9","steam_id":76561198049903973,"connected_time":1462000000000,"state":"active","ping":79},{"user_id":135,"name":"greens beans","steam_id":76561198153611491,"connected_time":2626000000000,"state":"active","ping":73},{"user_id":88,"name":"walrooos","steam_id":76561198024521839,"connected_time":5089000000000,"state":"active","ping":49},{"user_id":112,"name":"here2he1p","steam_id":76561199216977630,"connected_time":4116000000000,"state":"active","ping":85},{"user_id":158,"name":"ඞ⁧⁧OͭnͪeͤTrueDev","steam_id":76561198107400823,"connected_time":110000000000,"state":"active","ping":95},{"user_id":159,"name":"fried rice","steam_id":76561198928939100,"connected_time":58000000000,"state":"active","ping":99},{"user_id":107,"name":"marantmed06","steam_id":76561199180381715,"connected_time":4289000000000,"state":"active","ping":50},{"user_id":145,"name":"AMD Ryzen 9 7900X - 12-Core 4.7","steam_id":76561198158455149,"connected_time":1381000000000,"state":"active","ping":88},{"user_id":154,"name":"The Caretaker","steam_id":76561198125241411,"connected_time":402000000000,"state":"active","ping":81},{"user_id":113,"name":"sentry buster ASMR","steam_id":76561198065662025,"connected_time":4114000000000,"state":"active","ping":57},{"user_id":133,"name":"mine diam","steam_id":76561198119123981,"connected_time":3092000000000,"state":"active","ping":71},{"user_id":148,"name":"marche","steam_id":76561198130096615,"connected_time":886000000000,"state":"active","ping":52},{"user_id":151,"name":"Thunder","steam_id":76561198097721532,"connected_time":759000000000,"state":"active","ping":47}]},{"server_id":25,"name":"Uncletopia | Los Angeles | 4 | Stopwatch","name_short":"lax-4","host":"lax-1.us.uncletopia.com","port":27045,"enabled":true,"region":"us-west","cc":"us","latitude":33.94279,"longitude":-118.41004,"reserved":0,"last_update":"0001-01-01T00:00:00Z","name_a2s":"Uncletopia | Los Angeles | 4 | Stopwatch","protocol":17,"map":"koth_highpass","folder":"tf","game":"Team Fortress","app_id":440,"player_count":0,"max_players":24,"Bots":0,"server_type":"Dedicated","server_os":"Linux","password":true,"vac":true,"version":"7961495","steam_id":85568392924510199,"keywords":["cp","nocrits","nodmgspread","uncletopia"],"game_id":440,"stv_port":27046,"stv_name":"Uncletopia | Los Angeles | 4 | Stopwatch | STV","players":null},{"server_id":11,"name":"Uncletopia | London | 1 | All Maps","name_short":"lon-1","host":"lon-1.uk.uncletopia.com","port":27015,"enabled":true,"region":"eu","cc":"gb","latitude":51.509865,"longitude":-0.118092,"reserved":0,"last_update":"0001-01-01T00:00:00Z","name_a2s":"Uncletopia | London | 1 | All Maps","protocol":17,"map":"koth_highpass","folder":"tf","game":"Team Fortress","app_id":440,"player_count":0,"max_players":24,"Bots":0,"server_type":"Dedicated","server_os":"Linux","password":true,"vac":true,"version":"7961495","steam_id":85568392924367362,"keywords":["cp","nocrits","nodmgspread","uncletopia"],"game_id":440,"stv_port":27016,"stv_name":"Uncletopia | London | 1 | All Maps | STV","players":null},{"server_id":114,"name":"Uncletopia | London | 2 | All Maps","name_short":"lon-2","host":"lon-1.uk.uncletopia.com","port":27025,"enabled":true,"region":"eu","cc":"gb","latitude":51.509865,"longitude":-0.118092,"reserved":0,"last_update":"0001-01-01T00:00:00Z","name_a2s":"Uncletopia | London | 2 | All Maps","protocol":17,"map":"koth_lakeside_final","folder":"tf","game":"Team Fortress","app_id":440,"player_count":0,"max_players":24,"Bots":0,"server_type":"Dedicated","server_os":"Linux","password":true,"vac":true,"version":"7961495","steam_id":85568392924470941,"keywords":["cp","nocrits","nodmgspread","uncletopia"],"game_id":440,"stv_port":27026,"stv_name":"Uncletopia | London | 2 | All Maps | STV","players":null},{"server_id":320,"name":"Uncletopia | London | 3 | All Maps","name_short":"lon-3","host":"lon-1.uk.uncletopia.com","port":27035,"enabled":true,"region":"eu","cc":"gb","latitude":51.509865,"longitude":-0.118092,"reserved":0,"last_update":"0001-01-01T00:00:00Z","name_a2s":"Uncletopia | London | 3 | All Maps","protocol":17,"map":"cp_process_final","folder":"tf","game":"Team Fortress","app_id":440,"player_count":0,"max_players":24,"Bots":0,"server_type":"Dedicated","server_os":"Linux","password":true,"vac":true,"version":"7961495","steam_id":85568392924510192,"keywords":["cp","nocrits","nodmgspread","uncletopia"],"game_id":440,"stv_port":27036,"stv_name":"Uncletopia | London | 3 | All Maps | STV","players":null},{"server_id":321,"name":"Uncletopia | London | 4 | All Maps","name_short":"lon-4","host":"lon-1.uk.uncletopia.com","port":27045,"enabled":true,"region":"eu","cc":"gb","latitude":51.509865,"longitude":-0.118092,"reserved":0,"last_update":"0001-01-01T00:00:00Z","name_a2s":"Uncletopia | London | 4 | All Maps","protocol":17,"map":"koth_cascade","folder":"tf","game":"Team Fortress","app_id":440,"player_count":0,"max_players":24,"Bots":0,"server_type":"Dedicated","server_os":"Linux","password":true,"vac":true,"version":"7961495","steam_id":85568392924510193,"keywords":["cp","nocrits","nodmgspread","uncletopia"],"game_id":440,"stv_port":27046,"stv_name":"Uncletopia | London | 4 | All Maps | STV","players":null},{"server_id":21,"name":"Uncletopia | London | 5 | All Maps","name_short":"lon-5","host":"lon-1.uk.uncletopia.com","port":27055,"enabled":true,"region":"eu","cc":"gb","latitude":51.509865,"longitude":-0.118092,"reserved":0,"last_update":"0001-01-01T00:00:00Z","name_a2s":"Uncletopia | London | 5 | All Maps","protocol":17,"map":"koth_lakeside_final","folder":"tf","game":"Team Fortress","app_id":440,"player_count":0,"max_players":24,"Bots":0,"server_type":"Dedicated","server_os":"Linux","password":true,"vac":true,"version":"7961495","steam_id":85568392924742829,"keywords":["cp","nocrits","nodmgspread","uncletopia"],"game_id":440,"stv_port":27056,"stv_name":"Uncletopia | London | 5 | All Maps | STV","players":null},{"server_id":22,"name":"Uncletopia | London | 6 | All Maps","name_short":"lon-6","host":"lon-1.uk.uncletopia.com","port":27065,"enabled":true,"region":"eu","cc":"gb","latitude":51.509865,"longitude":-0.118092,"reserved":0,"last_update":"0001-01-01T00:00:00Z","name_a2s":"Uncletopia | London | 6 | All Maps","protocol":17,"map":"cp_dustbowl","folder":"tf","game":"Team Fortress","app_id":440,"player_count":0,"max_players":24,"Bots":0,"server_type":"Dedicated","server_os":"Linux","password":true,"vac":true,"version":"7961495","steam_id":85568392924742830,"keywords":["cp","nocrits","nodmgspread","uncletopia"],"game_id":440,"stv_port":27066,"stv_name":"Uncletopia | London | 6 | All Maps | STV","players":null},{"server_id":40,"name":"Uncletopia | London | 7 | Stopwatch","name_short":"lon-7","host":"lon-1.uk.uncletopia.com","port":27075,"enabled":true,"region":"eu","cc":"gb","latitude":51.509865,"longitude":-0.118092,"reserved":0,"last_update":"0001-01-01T00:00:00Z","name_a2s":"Uncletopia | London | 7 | Stopwatch","protocol":17,"map":"koth_lakeside_final","folder":"tf","game":"Team Fortress","app_id":440,"player_count":0,"max_players":24,"Bots":0,"server_type":"Dedicated","server_os":"Linux","password":true,"vac":true,"version":"7961495","steam_id":85568392924964314,"keywords":["cp","nocrits","nodmgspread","uncletopia"],"game_id":440,"stv_port":27076,"stv_name":"Uncletopia | London | 7 | Stopwatch | STV","players":null},{"server_id":41,"name":"Uncletopia | London | 8 | Community","name_short":"lon-8","host":"lon-1.uk.uncletopia.com","port":27085,"enabled":true,"region":"eu","cc":"gb","latitude":51.509865,"longitude":-0.118092,"reserved":0,"last_update":"0001-01-01T00:00:00Z","name_a2s":"Uncletopia | London | 8 | Community","protocol":17,"map":"cp_snakewater_final1","folder":"tf","game":"Team Fortress","app_id":440,"player_count":0,"max_players":24,"Bots":0,"server_type":"Dedicated","server_os":"Linux","password":true,"vac":true,"version":"7961495","steam_id":85568392924964315,"keywords":["cp","nocrits","nodmgspread","uncletopia"],"game_id":440,"stv_port":27086,"stv_name":"Uncletopia | London | 8 | Community | STV","players":null},{"server_id":300,"name":"Uncletopia | Montréal | 1 | One Thousand Uncles","name_short":"mtl-1","host":"mtl-1.ca.uncletopia.com","port":27015,"enabled":true,"region":"us-east","cc":"ca","latitude":45.50889,"longitude":-73.56167,"reserved":0,"last_update":"0001-01-01T00:00:00Z","name_a2s":"","protocol":0,"map":"","folder":"","game":"","app_id":0,"player_count":7,"max_players":0,"Bots":0,"server_type":"","server_os":"","password":false,"vac":false,"version":"","steam_id":0,"keywords":null,"game_id":0,"stv_port":0,"stv_name":"","players":[{"user_id":476,"name":"Draco","steam_id":76561198031226933,"connected_time":5030000000000,"state":"active","ping":127},{"user_id":500,"name":"Muffin","steam_id":76561198111403028,"connected_time":1652000000000,"state":"active","ping":45},{"user_id":477,"name":"Vix The Vulpix","steam_id":76561198292181452,"connected_time":5022000000000,"state":"active","ping":97},{"user_id":478,"name":"Error 4 Oh Four","steam_id":76561198121637567,"connected_time":4551000000000,"state":"active","ping":79},{"user_id":470,"name":"1-800-GHOST-DANCE","steam_id":76561198835430429,"connected_time":6098000000000,"state":"active","ping":89},{"user_id":518,"name":"aydyn-mongush-2023","steam_id":76561199490121186,"connected_time":1317000000000,"state":"active","ping":243},{"user_id":473,"name":"spyackaso spyu","steam_id":76561198039728594,"connected_time":5767000000000,"state":"active","ping":119}]},{"server_id":301,"name":"Uncletopia | Montréal | 2 | One Thousand Uncles","name_short":"mtl-2","host":"mtl-1.ca.uncletopia.com","port":27025,"enabled":true,"region":"us-east","cc":"ca","latitude":45.50889,"longitude":-73.56167,"reserved":0,"last_update":"0001-01-01T00:00:00Z","name_a2s":"","protocol":0,"map":"","folder":"","game":"","app_id":0,"player_count":0,"max_players":0,"Bots":0,"server_type":"","server_os":"","password":false,"vac":false,"version":"","steam_id":0,"keywords":null,"game_id":0,"stv_port":0,"stv_name":"","players":null},{"server_id":302,"name":"Uncletopia | Montréal | 3 | One Thousand Uncles","name_short":"mtl-3","host":"mtl-1.ca.uncletopia.com","port":27035,"enabled":true,"region":"us-east","cc":"ca","latitude":45.50889,"longitude":-73.56167,"reserved":0,"last_update":"0001-01-01T00:00:00Z","name_a2s":"","protocol":0,"map":"","folder":"","game":"","app_id":0,"player_count":0,"max_players":0,"Bots":0,"server_type":"","server_os":"","password":false,"vac":false,"version":"","steam_id":0,"keywords":null,"game_id":0,"stv_port":0,"stv_name":"","players":null},{"server_id":13,"name":"Uncletopia | New York City | 1 | All Maps","name_short":"nyc-1","host":"nyc-1.us.uncletopia.com","port":27015,"enabled":true,"region":"us-east","cc":"us","latitude":40.73061,"longitude":-73.93524,"reserved":0,"last_update":"0001-01-01T00:00:00Z","name_a2s":"Uncletopia | New York City | 1 | All Maps","protocol":17,"map":"cp_process_final","folder":"tf","game":"Team Fortress","app_id":440,"player_count":11,"max_players":24,"Bots":0,"server_type":"Dedicated","server_os":"Linux","password":true,"vac":true,"version":"7961495","steam_id":85568392924469993,"keywords":["cp","nocrits","nodmgspread","uncletopia"],"game_id":440,"stv_port":27016,"stv_name":"Uncletopia | New York City | 1 | All Maps | STV","players":[{"user_id":679,"name":"sooty","steam_id":76561198830243167,"connected_time":29000000000,"state":"active","ping":50},{"user_id":654,"name":"NANOBITES","steam_id":76561198186944363,"connected_time":1778000000000,"state":"active","ping":64},{"user_id":655,"name":"at4p4l  her","steam_id":76561198877065517,"connected_time":1733000000000,"state":"spawning","ping":109},{"user_id":677,"name":"Feces","steam_id":76561198380219187,"connected_time":640000000000,"state":"active","ping":72},{"user_id":645,"name":"Burial","steam_id":76561198200227585,"connected_time":2246000000000,"state":"active","ping":62},{"user_id":663,"name":"Jharlembuschk","steam_id":76561198132174368,"connected_time":1260000000000,"state":"active","ping":67},{"user_id":664,"name":"Kirbo","steam_id":76561199185303303,"connected_time":1240000000000,"state":"active","ping":85},{"user_id":666,"name":"lalalemons","steam_id":76561198243965308,"connected_time":1220000000000,"state":"active","ping":76},{"user_id":671,"name":"quandavious dinglebottom","steam_id":76561199078842978,"connected_time":1114000000000,"state":"active","ping":73},{"user_id":658,"name":"ceo of pl_pier","steam_id":76561198085696816,"connected_time":1577000000000,"state":"active","ping":61},{"user_id":667,"name":"SpockASD","steam_id":76561198307516731,"connected_time":1216000000000,"state":"active","ping":94}]},{"server_id":14,"name":"Uncletopia | New York City | 2 | All Maps","name_short":"nyc-2","host":"nyc-1.us.uncletopia.com","port":27025,"enabled":true,"region":"us-east","cc":"us","latitude":40.73061,"longitude":-73.93524,"reserved":0,"last_update":"0001-01-01T00:00:00Z","name_a2s":"Uncletopia | New York City | 2 | All Maps","protocol":17,"map":"koth_harvest_final","folder":"tf","game":"Team Fortress","app_id":440,"player_count":24,"max_players":24,"Bots":0,"server_type":"Dedicated","server_os":"Linux","password":true,"vac":true,"version":"7961495","steam_id":85568392924469994,"keywords":["cp","nocrits","nodmgspread","uncletopia"],"game_id":440,"stv_port":27026,"stv_name":"Uncletopia | New York City | 2 | All Maps | STV","players":[{"user_id":863,"name":"Shwartzy","steam_id":76561198073927139,"connected_time":6699000000000,"state":"active","ping":52},{"user_id":867,"name":"Chanddy","steam_id":76561198058949058,"connected_time":6473000000000,"state":"active","ping":54},{"user_id":947,"name":"Sh3ba Spaniel","steam_id":76561198047412394,"connected_time":2473000000000,"state":"active","ping":79},{"user_id":959,"name":"Nero25","steam_id":76561198027720631,"connected_time":1063000000000,"state":"active","ping":108},{"user_id":864,"name":"hopdon","steam_id":76561198051616613,"connected_time":6494000000000,"state":"active","ping":87},{"user_id":951,"name":"Slauvy","steam_id":76561198001479663,"connected_time":1562000000000,"state":"active","ping":74},{"user_id":891,"name":"Dusk","steam_id":76561198119302704,"connected_time":5696000000000,"state":"active","ping":41},{"user_id":949,"name":"Bastardson62","steam_id":76561199112288342,"connected_time":1811000000000,"state":"active","ping":72},{"user_id":962,"name":"hamilton","steam_id":76561198034096096,"connected_time":498000000000,"state":"active","ping":64},{"user_id":920,"name":"Brigadier General Bacon","steam_id":76561198046787753,"connected_time":4658000000000,"state":"active","ping":88},{"user_id":927,"name":"Draconis","steam_id":76561198151381256,"connected_time":4210000000000,"state":"active","ping":58},{"user_id":953,"name":"SasukeGOD","steam_id":76561199077255310,"connected_time":1539000000000,"state":"active","ping":86},{"user_id":946,"name":"DivineBanana","steam_id":76561198026529731,"connected_time":2553000000000,"state":"active","ping":89},{"user_id":961,"name":"Gram Tokers Count Doinkula","steam_id":76561198112811565,"connected_time":638000000000,"state":"active","ping":59},{"user_id":922,"name":"Walter and the Band of the Hawk","steam_id":76561198028431416,"connected_time":4621000000000,"state":"active","ping":109},{"user_id":956,"name":"he suckin on my rick til i mort","steam_id":76561198310711692,"connected_time":1363000000000,"state":"active","ping":166},{"user_id":954,"name":"._.","steam_id":76561198300316801,"connected_time":1505000000000,"state":"active","ping":44},{"user_id":846,"name":"Wique","steam_id":76561198071217597,"connected_time":8015000000000,"state":"active","ping":67},{"user_id":836,"name":"˗ˏˋNima´ˎ˗","steam_id":76561198102045762,"connected_time":9311000000000,"state":"active","ping":67},{"user_id":918,"name":"Bush Inspector","steam_id":76561198287505512,"connected_time":5072000000000,"state":"active","ping":126},{"user_id":966,"name":"Ujin","steam_id":76561197995386642,"connected_time":120000000000,"state":"active","ping":158},{"user_id":958,"name":"CHIPS","steam_id":76561199085414584,"connected_time":1242000000000,"state":"active","ping":58},{"user_id":562,"name":"zpalmtree","steam_id":76561198134307620,"connected_time":24546000000000,"state":"active","ping":65},{"user_id":967,"name":"ATL1_Lav4ie_She/They","steam_id":76561198825997674,"connected_time":111000000000,"state":"active","ping":62}]},{"server_id":15,"name":"Uncletopia | New York City | 3 | Stopwatch","name_short":"nyc-3","host":"nyc-1.us.uncletopia.com","port":27035,"enabled":true,"region":"us-east","cc":"us","latitude":40.73061,"longitude":-73.93524,"reserved":0,"last_update":"0001-01-01T00:00:00Z","name_a2s":"Uncletopia | New York City | 3 | Stopwatch","protocol":17,"map":"koth_lakeside_final","folder":"tf","game":"Team Fortress","app_id":440,"player_count":0,"max_players":24,"Bots":0,"server_type":"Dedicated","server_os":"Linux","password":true,"vac":true,"version":"7961495","steam_id":85568392924742820,"keywords":["cp","nocrits","nodmgspread","uncletopia"],"game_id":440,"stv_port":27036,"stv_name":"Uncletopia | New York City | 3 | Stopwatch | STV","players":null},{"server_id":16,"name":"Uncletopia | New York City | 4 | Community","name_short":"nyc-4","host":"nyc-1.us.uncletopia.com","port":27045,"enabled":true,"region":"us-east","cc":"us","latitude":40.73061,"longitude":-73.93524,"reserved":0,"last_update":"0001-01-01T00:00:00Z","name_a2s":"Uncletopia | New York City | 4 | Community","protocol":17,"map":"workshop/koth_trenchfoot_b1a.ugc731436616","folder":"tf","game":"Team Fortress","app_id":440,"player_count":0,"max_players":24,"Bots":0,"server_type":"Dedicated","server_os":"Linux","password":true,"vac":true,"version":"7961495","steam_id":85568392924742821,"keywords":["cp","nocrits","nodmgspread","uncletopia"],"game_id":440,"stv_port":27046,"stv_name":"Uncletopia | New York City | 4 | Community | STV","players":null},{"server_id":142,"name":"Uncletopia | São Paulo | 1 | All Maps","name_short":"sao-1","host":"sao-1.br.uncletopia.com","port":27015,"enabled":true,"region":"sa","cc":"br","latitude":-23.533773,"longitude":-46.62529,"reserved":0,"last_update":"0001-01-01T00:00:00Z","name_a2s":"Uncletopia | São Paulo | 1 | All Maps","protocol":17,"map":"pl_frontier_final","folder":"tf","game":"Team Fortress","app_id":440,"player_count":0,"max_players":24,"Bots":0,"server_type":"Dedicated","server_os":"Linux","password":true,"vac":true,"version":"7961495","steam_id":85568392924469996,"keywords":["nocrits","nodmgspread","payload","uncletopia"],"game_id":440,"stv_port":27016,"stv_name":"Uncletopia | São Paulo | 1 | All Maps | STV","players":null},{"server_id":143,"name":"Uncletopia | São Paulo | 2 | Community","name_short":"sao-2","host":"sao-2.br.uncletopia.com","port":27015,"enabled":true,"region":"sa","cc":"br","latitude":-23.533773,"longitude":-46.62529,"reserved":0,"last_update":"0001-01-01T00:00:00Z","name_a2s":"Uncletopia | São Paulo | 2 | Community","protocol":17,"map":"workshop/koth_product_final.ugc454272353","folder":"tf","game":"Team Fortress","app_id":440,"player_count":0,"max_players":24,"Bots":0,"server_type":"Dedicated","server_os":"Linux","password":true,"vac":true,"version":"7961495","steam_id":85568392924485349,"keywords":["cp","nocrits","nodmgspread","uncletopia"],"game_id":440,"stv_port":27016,"stv_name":"Uncletopia | São Paulo | 2 | Community | STV","players":null},{"server_id":7,"name":"Uncletopia | Seattle | 1 | All Maps","name_short":"sea-1","host":"sea-1.us.uncletopia.com","port":27015,"enabled":true,"region":"us-west","cc":"us","latitude":47.608013,"longitude":-122.33517,"reserved":0,"last_update":"0001-01-01T00:00:00Z","name_a2s":"Uncletopia | Seattle | 1 | All Maps","protocol":17,"map":"pl_badwater","folder":"tf","game":"Team Fortress","app_id":440,"player_count":24,"max_players":24,"Bots":0,"server_type":"Dedicated","server_os":"Linux","password":true,"vac":true,"version":"7961495","steam_id":85568392924469997,"keywords":["nocrits","nodmgspread","payload","uncletopia"],"game_id":440,"stv_port":27016,"stv_name":"Uncletopia | Seattle | 1 | All Maps | STV","players":[{"user_id":722,"name":"HotHead","steam_id":76561198138468982,"connected_time":904000000000,"state":"active","ping":33},{"user_id":688,"name":"jayeskae","steam_id":76561198144220801,"connected_time":4301000000000,"state":"active","ping":49},{"user_id":726,"name":"An Old Lady","steam_id":76561198047480318,"connected_time":268000000000,"state":"active","ping":69},{"user_id":583,"name":"nolove","steam_id":76561198274550638,"connected_time":12928000000000,"state":"active","ping":105},{"user_id":712,"name":"mboddy","steam_id":76561197997190809,"connected_time":2664000000000,"state":"active","ping":69},{"user_id":595,"name":"Ayayayayayahuasca","steam_id":76561199002906056,"connected_time":11799000000000,"state":"active","ping":52},{"user_id":670,"name":"♥ Osana Najimi ♥ (Soupcan)","steam_id":76561198056269538,"connected_time":4907000000000,"state":"active","ping":48},{"user_id":678,"name":"Defeat","steam_id":76561198065203818,"connected_time":4714000000000,"state":"active","ping":44},{"user_id":596,"name":"Steeb","steam_id":76561198008058593,"connected_time":11758000000000,"state":"active","ping":84},{"user_id":718,"name":"TROY","steam_id":76561197983852176,"connected_time":2419000000000,"state":"active","ping":75},{"user_id":658,"name":"Grand","steam_id":76561198290143399,"connected_time":6430000000000,"state":"active","ping":77},{"user_id":727,"name":"Arsonist Goose","steam_id":76561198147441830,"connected_time":267000000000,"state":"active","ping":70},{"user_id":713,"name":"rat gets the cheese","steam_id":76561198031234032,"connected_time":2663000000000,"state":"active","ping":96},{"user_id":677,"name":"Gm_Trash","steam_id":76561199445091548,"connected_time":4731000000000,"state":"active","ping":60},{"user_id":728,"name":"Toaster (Hamilton Beach)","steam_id":76561198039891934,"connected_time":257000000000,"state":"active","ping":60},{"user_id":714,"name":"weed boner","steam_id":76561198034131572,"connected_time":2657000000000,"state":"active","ping":36},{"user_id":582,"name":"smeasly","steam_id":76561198028718812,"connected_time":12932000000000,"state":"active","ping":42},{"user_id":715,"name":"gorlab","steam_id":76561198025089694,"connected_time":2653000000000,"state":"active","ping":60},{"user_id":717,"name":"RIP Bashar Jackson","steam_id":76561198062940197,"connected_time":2567000000000,"state":"active","ping":45},{"user_id":674,"name":"Tom Skirrett","steam_id":76561198014600788,"connected_time":4750000000000,"state":"active","ping":67},{"user_id":725,"name":"cerious","steam_id":76561197994365894,"connected_time":270000000000,"state":"active","ping":43},{"user_id":709,"name":"soup","steam_id":76561198043209046,"connected_time":3531000000000,"state":"active","ping":70},{"user_id":721,"name":"Henchie!","steam_id":76561198047567464,"connected_time":978000000000,"state":"active","ping":88},{"user_id":730,"name":"bigcabbage73","steam_id":76561198271939793,"connected_time":256000000000,"state":"active","ping":114}]},{"server_id":119,"name":"Uncletopia | Seattle | 2 | All Maps","name_short":"sea-2","host":"sea-1.us.uncletopia.com","port":27025,"enabled":true,"region":"us-west","cc":"us","latitude":47.608013,"longitude":-122.33517,"reserved":0,"last_update":"0001-01-01T00:00:00Z","name_a2s":"Uncletopia | Seattle | 2 | All Maps","protocol":17,"map":"pl_badwater","folder":"tf","game":"Team Fortress","app_id":440,"player_count":24,"max_players":24,"Bots":0,"server_type":"Dedicated","server_os":"Linux","password":true,"vac":true,"version":"7961495","steam_id":85568392924469998,"keywords":["nocrits","nodmgspread","payload","uncletopia"],"game_id":440,"stv_port":27026,"stv_name":"Uncletopia | Seattle | 2 | All Maps | STV","players":[{"user_id":516,"name":"«Dᵃʳᵏ.,,.Tᵉᵐᵖ»","steam_id":76561198018185884,"connected_time":2854000000000,"state":"active","ping":41},{"user_id":474,"name":"selvhat","steam_id":76561198114225509,"connected_time":7044000000000,"state":"active","ping":76},{"user_id":456,"name":"totally not a pile of beans","steam_id":76561198119851931,"connected_time":8444000000000,"state":"active","ping":128},{"user_id":525,"name":"Retroliar","steam_id":76561199004899484,"connected_time":1926000000000,"state":"active","ping":81},{"user_id":532,"name":"Obersteuermann","steam_id":76561198044468707,"connected_time":754000000000,"state":"active","ping":49},{"user_id":535,"name":"Meatball Obsessed Demoman","steam_id":76561198253325844,"connected_time":255000000000,"state":"active","ping":58},{"user_id":534,"name":"squart guy","steam_id":76561199411560141,"connected_time":725000000000,"state":"active","ping":47},{"user_id":512,"name":"habanero chilli pepper","steam_id":76561197970371943,"connected_time":3804000000000,"state":"active","ping":160},{"user_id":388,"name":"ilun","steam_id":76561198042913843,"connected_time":15645000000000,"state":"active","ping":62},{"user_id":490,"name":"Drone #0432 (they/it)","steam_id":76561198027321950,"connected_time":5182000000000,"state":"active","ping":108},{"user_id":449,"name":"Hindmost","steam_id":76561199081837220,"connected_time":9829000000000,"state":"active","ping":100},{"user_id":530,"name":"toasterturret5","steam_id":76561199406940732,"connected_time":1097000000000,"state":"active","ping":134},{"user_id":391,"name":"SCARCELY LETHAL BUTTERFLY KNIFE","steam_id":76561199488457138,"connected_time":15292000000000,"state":"active","ping":57},{"user_id":524,"name":"Steve","steam_id":76561198352805460,"connected_time":1961000000000,"state":"active","ping":67},{"user_id":507,"name":"Azary56","steam_id":76561198321404617,"connected_time":3984000000000,"state":"active","ping":66},{"user_id":536,"name":"Strikerbolt","steam_id":76561199095622897,"connected_time":6000000000,"state":"spawning","ping":86},{"user_id":514,"name":"PHIL1L1L1L1L","steam_id":76561198309010627,"connected_time":3730000000000,"state":"active","ping":81},{"user_id":515,"name":"Wigan Akimbo","steam_id":76561198004916219,"connected_time":3318000000000,"state":"active","ping":76},{"user_id":517,"name":"Poundcake","steam_id":76561198042196918,"connected_time":2520000000000,"state":"active","ping":52},{"user_id":528,"name":"↟ ↟ callie ↟ ↟","steam_id":76561198058199952,"connected_time":1554000000000,"state":"active","ping":39},{"user_id":521,"name":"R5-D4","steam_id":76561198025196439,"connected_time":2121000000000,"state":"active","ping":53},{"user_id":533,"name":"Famousboy907","steam_id":76561198301765349,"connected_time":742000000000,"state":"active","ping":101},{"user_id":522,"name":"moomin","steam_id":76561198336244269,"connected_time":2120000000000,"state":"active","ping":75},{"user_id":523,"name":"digitaldisorder","steam_id":76561198041841128,"connected_time":2068000000000,"state":"active","ping":90}]},{"server_id":406,"name":"Uncletopia | Seattle | 3 | Stopwatch","name_short":"sea-3","host":"sea-1.us.uncletopia.com","port":27035,"enabled":true,"region":"us-west","cc":"us","latitude":47.608013,"longitude":-122.33517,"reserved":0,"last_update":"0001-01-01T00:00:00Z","name_a2s":"Uncletopia | Seattle | 3 | Stopwatch","protocol":17,"map":"pl_swiftwater_final1","folder":"tf","game":"Team Fortress","app_id":440,"player_count":23,"max_players":24,"Bots":0,"server_type":"Dedicated","server_os":"Linux","password":true,"vac":true,"version":"7961495","steam_id":85568392924515217,"keywords":["nocrits","nodmgspread","payload","uncletopia"],"game_id":440,"stv_port":27036,"stv_name":"Uncletopia | Seattle | 3 | Stopwatch | STV","players":[{"user_id":17,"name":"basement","steam_id":76561198936592005,"connected_time":8019000000000,"state":"active","ping":52},{"user_id":18,"name":"jocsanbruh","steam_id":76561198227338548,"connected_time":7954000000000,"state":"active","ping":40},{"user_id":107,"name":"mr sakurai a 2nd animatronic ha","steam_id":76561198243695590,"connected_time":1226000000000,"state":"active","ping":58},{"user_id":71,"name":"Acuzik","steam_id":76561198045453400,"connected_time":3072000000000,"state":"active","ping":100},{"user_id":23,"name":"AWildCheeseFish","steam_id":76561198846504974,"connected_time":6884000000000,"state":"active","ping":45},{"user_id":112,"name":"mwee machine","steam_id":76561198047126327,"connected_time":718000000000,"state":"active","ping":89},{"user_id":27,"name":"MancalaMadMan","steam_id":76561198347324053,"connected_time":5869000000000,"state":"active","ping":105},{"user_id":115,"name":"Lawn Mower","steam_id":76561199052059238,"connected_time":486000000000,"state":"active","ping":78},{"user_id":113,"name":"no drama","steam_id":76561198115714484,"connected_time":699000000000,"state":"active","ping":58},{"user_id":117,"name":"moe","steam_id":76561198929586245,"connected_time":273000000000,"state":"active","ping":78},{"user_id":75,"name":"Donny Q","steam_id":76561198020901703,"connected_time":2960000000000,"state":"active","ping":38},{"user_id":78,"name":"One Horned Bitch Destroyer","steam_id":76561198045810191,"connected_time":2881000000000,"state":"active","ping":40},{"user_id":96,"name":"Braingoo Hex","steam_id":76561198083094783,"connected_time":2225000000000,"state":"active","ping":111},{"user_id":116,"name":"Shibuya 808","steam_id":76561198040462757,"connected_time":312000000000,"state":"active","ping":124},{"user_id":81,"name":"Doogly","steam_id":76561198080281457,"connected_time":2776000000000,"state":"active","ping":50},{"user_id":103,"name":"elder lich joe biden","steam_id":76561198257134732,"connected_time":1816000000000,"state":"active","ping":57},{"user_id":120,"name":"nutman","steam_id":76561198962941550,"connected_time":169000000000,"state":"active","ping":75},{"user_id":92,"name":"El Gato Paranoico","steam_id":76561198116567116,"connected_time":2495000000000,"state":"active","ping":134},{"user_id":119,"name":"Keth","steam_id":76561198155903648,"connected_time":177000000000,"state":"active","ping":54},{"user_id":114,"name":"bird with bad aim","steam_id":76561198062360755,"connected_time":683000000000,"state":"active","ping":107},{"user_id":90,"name":"Future_Max","steam_id":76561198312718139,"connected_time":2520000000000,"state":"active","ping":56},{"user_id":104,"name":"TüCold","steam_id":76561198111278197,"connected_time":1800000000000,"state":"active","ping":57},{"user_id":122,"name":"FireQuiz","steam_id":76561198107357249,"connected_time":114000000000,"state":"active","ping":57}]},{"server_id":17,"name":"Uncletopia | San Francisco | 1 | All Maps","name_short":"sfo-1","host":"sfo-1.us.uncletopia.com","port":27015,"enabled":true,"region":"us-west","cc":"us","latitude":37.77397,"longitude":-122.4313,"reserved":0,"last_update":"0001-01-01T00:00:00Z","name_a2s":"Uncletopia | San Francisco | 1 | All Maps","protocol":17,"map":"pl_pier","folder":"tf","game":"Team Fortress","app_id":440,"player_count":24,"max_players":24,"Bots":0,"server_type":"Dedicated","server_os":"Linux","password":true,"vac":true,"version":"7961495","steam_id":85568392924469999,"keywords":["nocrits","nodmgspread","payload","uncletopia"],"game_id":440,"stv_port":27016,"stv_name":"Uncletopia | San Francisco | 1 | All Maps | STV","players":[{"user_id":576,"name":"Irritated Duck","steam_id":76561198247792076,"connected_time":1703000000000,"state":"active","ping":75},{"user_id":569,"name":"Sleepy Bunny","steam_id":76561198069870490,"connected_time":1769000000000,"state":"active","ping":63},{"user_id":500,"name":"aisu","steam_id":76561198043768507,"connected_time":8086000000000,"state":"active","ping":94},{"user_id":593,"name":"Antonpirulero10","steam_id":76561198253036781,"connected_time":285000000000,"state":"active","ping":82},{"user_id":579,"name":"goug","steam_id":76561198345528370,"connected_time":1537000000000,"state":"active","ping":41},{"user_id":582,"name":"adam","steam_id":76561198260698193,"connected_time":943000000000,"state":"active","ping":141},{"user_id":449,"name":"Flinkerdoodle","steam_id":76561198052111706,"connected_time":11646000000000,"state":"active","ping":77},{"user_id":591,"name":"LazySushi","steam_id":76561198043802202,"connected_time":348000000000,"state":"active","ping":101},{"user_id":552,"name":"Cave Dweller","steam_id":76561198374825685,"connected_time":3238000000000,"state":"active","ping":60},{"user_id":571,"name":"Dr. Bob","steam_id":76561198020215410,"connected_time":1758000000000,"state":"active","ping":51},{"user_id":572,"name":"Chills","steam_id":76561198086144555,"connected_time":1758000000000,"state":"active","ping":83},{"user_id":590,"name":"cameltoe joe","steam_id":76561198100779419,"connected_time":632000000000,"state":"active","ping":57},{"user_id":595,"name":"[Bandit]","steam_id":76561197986919852,"connected_time":187000000000,"state":"active","ping":64},{"user_id":566,"name":"raaabr","steam_id":76561198050339024,"connected_time":2185000000000,"state":"active","ping":73},{"user_id":573,"name":"Hello Citizen","steam_id":76561198055522364,"connected_time":1749000000000,"state":"active","ping":65},{"user_id":587,"name":"smogun","steam_id":76561198361158518,"connected_time":806000000000,"state":"active","ping":65},{"user_id":588,"name":"big car","steam_id":76561198067082350,"connected_time":762000000000,"state":"active","ping":56},{"user_id":584,"name":"Misfit","steam_id":76561198044561021,"connected_time":908000000000,"state":"active","ping":61},{"user_id":585,"name":"(TPT) Ghost","steam_id":76561198123262873,"connected_time":903000000000,"state":"active","ping":71},{"user_id":556,"name":"Pyrotek⁴","steam_id":76561198072747672,"connected_time":3166000000000,"state":"active","ping":48},{"user_id":496,"name":"Professional Virgin","steam_id":76561199074327402,"connected_time":8349000000000,"state":"active","ping":112},{"user_id":575,"name":"sora","steam_id":76561198094256973,"connected_time":1732000000000,"state":"active","ping":52},{"user_id":532,"name":"Melody","steam_id":76561198407789232,"connected_time":5649000000000,"state":"active","ping":78},{"user_id":596,"name":"smushedtomato","steam_id":76561198383837457,"connected_time":173000000000,"state":"active","ping":61}]},{"server_id":18,"name":"Uncletopia | San Francisco | 2 | All Maps","name_short":"sfo-2","host":"sfo-1.us.uncletopia.com","port":27025,"enabled":true,"region":"us-west","cc":"us","latitude":37.77397,"longitude":-122.4313,"reserved":0,"last_update":"0001-01-01T00:00:00Z","name_a2s":"Uncletopia | San Francisco | 2 | All Maps","protocol":17,"map":"koth_cascade","folder":"tf","game":"Team Fortress","app_id":440,"player_count":4,"max_players":24,"Bots":0,"server_type":"Dedicated","server_os":"Linux","password":true,"vac":true,"version":"7961495","steam_id":85568392924470000,"keywords":["cp","nocrits","nodmgspread","uncletopia"],"game_id":440,"stv_port":27026,"stv_name":"Uncletopia | San Francisco | 2 | All Maps | STV","players":[{"user_id":23,"name":"Mastercrazybird","steam_id":76561198085747599,"connected_time":973000000000,"state":"active","ping":57},{"user_id":24,"name":"Yackaboi","steam_id":76561199444911765,"connected_time":821000000000,"state":"active","ping":79},{"user_id":25,"name":"johnman gooberguy","steam_id":76561199014859764,"connected_time":766000000000,"state":"active","ping":62},{"user_id":27,"name":"1000 Ping","steam_id":76561198098330939,"connected_time":221000000000,"state":"active","ping":85}]},{"server_id":19,"name":"Uncletopia | San Francisco | 3 | Stopwatch","name_short":"sfo-3","host":"sfo-1.us.uncletopia.com","port":27035,"enabled":true,"region":"us-west","cc":"us","latitude":37.77397,"longitude":-122.4313,"reserved":0,"last_update":"0001-01-01T00:00:00Z","name_a2s":"Uncletopia | San Francisco | 3 | Stopwatch","protocol":17,"map":"workshop/pl_badwater_pro_v12.ugc2142942074","folder":"tf","game":"Team Fortress","app_id":440,"player_count":0,"max_players":24,"Bots":0,"server_type":"Dedicated","server_os":"Linux","password":true,"vac":true,"version":"7961495","steam_id":85568392924742824,"keywords":["nocrits","nodmgspread","payload","uncletopia"],"game_id":440,"stv_port":27036,"stv_name":"Uncletopia | San Francisco | 3 | Stopwatch | STV","players":null},{"server_id":20,"name":"Uncletopia | San Francisco | 4 | Community","name_short":"sfo-4","host":"sfo-1.us.uncletopia.com","port":27045,"enabled":true,"region":"us-west","cc":"us","latitude":37.77397,"longitude":-122.4313,"reserved":0,"last_update":"0001-01-01T00:00:00Z","name_a2s":"Uncletopia | San Francisco | 4 | Community","protocol":17,"map":"workshop/cp_mannbase_rc2a.ugc1900737467","folder":"tf","game":"Team Fortress","app_id":440,"player_count":0,"max_players":24,"Bots":0,"server_type":"Dedicated","server_os":"Linux","password":true,"vac":true,"version":"7961495","steam_id":85568392924742826,"keywords":["cp","nocrits","nodmgspread","uncletopia"],"game_id":440,"stv_port":27046,"stv_name":"Uncletopia | San Francisco | 4 | Community | STV","players":null},{"server_id":141,"name":"Uncletopia | Sydney | 1 | All Maps","name_short":"syd-1","host":"syd-1.au.uncletopia.com","port":27015,"enabled":true,"region":"au","cc":"au","latitude":-33.865143,"longitude":151.2099,"reserved":0,"last_update":"0001-01-01T00:00:00Z","name_a2s":"Uncletopia | Sydney | 1 | All Maps","protocol":17,"map":"pl_thundermountain","folder":"tf","game":"Team Fortress","app_id":440,"player_count":23,"max_players":24,"Bots":0,"server_type":"Dedicated","server_os":"Linux","password":true,"vac":true,"version":"7961495","steam_id":85568392924470001,"keywords":["nocrits","nodmgspread","payload","uncletopia"],"game_id":440,"stv_port":27016,"stv_name":"Uncletopia | Sydney | 1 | All Maps | STV","players":[{"user_id":280,"name":"Massira","steam_id":76561199445907962,"connected_time":2554000000000,"state":"active","ping":56},{"user_id":283,"name":"horrid webbon ᘛ⁐̤ᕐᐷ","steam_id":76561198061998379,"connected_time":2317000000000,"state":"active","ping":48},{"user_id":307,"name":"hired goon(er)","steam_id":76561198048064049,"connected_time":156000000000,"state":"active","ping":70},{"user_id":293,"name":"jono","steam_id":76561198059701670,"connected_time":1893000000000,"state":"active","ping":42},{"user_id":309,"name":"timboe","steam_id":76561198003442007,"connected_time":68000000000,"state":"active","ping":52},{"user_id":310,"name":"juice","steam_id":76561199009556495,"connected_time":40000000000,"state":"active","ping":152},{"user_id":297,"name":"Phibs","steam_id":76561199323730865,"connected_time":1488000000000,"state":"active","ping":37},{"user_id":300,"name":"SUCC MY DUCC","steam_id":76561198127068703,"connected_time":1083000000000,"state":"active","ping":73},{"user_id":311,"name":"Kumquat King","steam_id":76561199018139964,"connected_time":31000000000,"state":"active","ping":89},{"user_id":268,"name":"frog","steam_id":76561198300661780,"connected_time":3383000000000,"state":"active","ping":38},{"user_id":305,"name":"Urethra Franklin","steam_id":76561198079351541,"connected_time":516000000000,"state":"active","ping":45},{"user_id":298,"name":"The Return of Wolfie","steam_id":76561198264237939,"connected_time":1240000000000,"state":"active","ping":141},{"user_id":266,"name":"Dupiter","steam_id":76561198108820767,"connected_time":3497000000000,"state":"active","ping":59},{"user_id":308,"name":"SassnCheeky","steam_id":76561197993875592,"connected_time":102000000000,"state":"active","ping":56},{"user_id":306,"name":"Benji","steam_id":76561198158187293,"connected_time":441000000000,"state":"active","ping":77},{"user_id":270,"name":"Moose-tache","steam_id":76561199061383142,"connected_time":3367000000000,"state":"active","ping":52},{"user_id":207,"name":"las","steam_id":76561198039162155,"connected_time":7867000000000,"state":"active","ping":51},{"user_id":288,"name":"Sinclair","steam_id":76561198836630870,"connected_time":2131000000000,"state":"active","ping":101},{"user_id":275,"name":"no teles 4 u","steam_id":76561198018478297,"connected_time":3157000000000,"state":"active","ping":73},{"user_id":256,"name":"Snuky","steam_id":76561198117902338,"connected_time":4110000000000,"state":"active","ping":44},{"user_id":282,"name":"Helohel","steam_id":76561198112998639,"connected_time":2342000000000,"state":"active","ping":70},{"user_id":303,"name":"Mooty","steam_id":76561198301293435,"connected_time":664000000000,"state":"active","ping":58},{"user_id":245,"name":"wheezer","steam_id":76561199439508788,"connected_time":5006000000000,"state":"active","ping":66}]},{"server_id":123,"name":"Uncletopia | Sydney | 2 | All Maps","name_short":"syd-2","host":"syd-1.au.uncletopia.com","port":27025,"enabled":true,"region":"au","cc":"au","latitude":-33.865143,"longitude":151.2099,"reserved":0,"last_update":"0001-01-01T00:00:00Z","name_a2s":"Uncletopia | Sydney | 2 | All Maps","protocol":17,"map":"koth_lakeside_final","folder":"tf","game":"Team Fortress","app_id":440,"player_count":0,"max_players":24,"Bots":0,"server_type":"Dedicated","server_os":"Linux","password":true,"vac":true,"version":"7961495","steam_id":85568392924470002,"keywords":["cp","nocrits","nodmgspread","uncletopia"],"game_id":440,"stv_port":27026,"stv_name":"Uncletopia | Sydney | 2 | All Maps | STV","players":null},{"server_id":395,"name":"Uncletopia | Sydney | 3 | All Maps","name_short":"syd-3","host":"syd-1.au.uncletopia.com","port":27035,"enabled":true,"region":"au","cc":"au","latitude":-33.865143,"longitude":151.2099,"reserved":0,"last_update":"0001-01-01T00:00:00Z","name_a2s":"Uncletopia | Sydney | 3 | All Maps","protocol":17,"map":"cp_altitude","folder":"tf","game":"Team Fortress","app_id":440,"player_count":0,"max_players":24,"Bots":0,"server_type":"Dedicated","server_os":"Linux","password":true,"vac":true,"version":"7961495","steam_id":85568392925194467,"keywords":["cp","nocrits","nodmgspread","uncletopia"],"game_id":440,"stv_port":27036,"stv_name":"Uncletopia | Sydney | 3 | All Maps | STV","players":null},{"server_id":396,"name":"Uncletopia | Sydney | 4 | All Maps","name_short":"syd-4","host":"syd-1.au.uncletopia.com","port":27045,"enabled":true,"region":"au","cc":"au","latitude":-33.865143,"longitude":151.2099,"reserved":0,"last_update":"0001-01-01T00:00:00Z","name_a2s":"Uncletopia | Sydney | 4 | All Maps","protocol":17,"map":"cp_dustbowl","folder":"tf","game":"Team Fortress","app_id":440,"player_count":0,"max_players":24,"Bots":0,"server_type":"Dedicated","server_os":"Linux","password":true,"vac":true,"version":"7961495","steam_id":85568392925397958,"keywords":["cp","nocrits","nodmgspread","uncletopia"],"game_id":440,"stv_port":27046,"stv_name":"Uncletopia | Sydney | 4 | All Maps | STV","players":null},{"server_id":58,"name":"Uncletopia | Sydney | 5 | Stopwatch","name_short":"syd-5","host":"syd-1.au.uncletopia.com","port":27055,"enabled":true,"region":"au","cc":"au","latitude":-33.865143,"longitude":151.2099,"reserved":0,"last_update":"0001-01-01T00:00:00Z","name_a2s":"Uncletopia | Sydney | 5 | Stopwatch","protocol":17,"map":"koth_highpass","folder":"tf","game":"Team Fortress","app_id":440,"player_count":0,"max_players":24,"Bots":0,"server_type":"Dedicated","server_os":"Linux","password":true,"vac":true,"version":"7961495","steam_id":85568392925397959,"keywords":["cp","nocrits","nodmgspread","uncletopia"],"game_id":440,"stv_port":27056,"stv_name":"Uncletopia | Sydney | 5 | Stopwatch | STV","players":null},{"server_id":59,"name":"Uncletopia | Sydney | 6 | Community","name_short":"syd-6","host":"syd-1.au.uncletopia.com","port":27065,"enabled":true,"region":"au","cc":"au","latitude":-33.865143,"longitude":151.2099,"reserved":0,"last_update":"0001-01-01T00:00:00Z","name_a2s":"Uncletopia | Sydney | 6 | Community","protocol":17,"map":"cp_sunshine","folder":"tf","game":"Team Fortress","app_id":440,"player_count":0,"max_players":24,"Bots":0,"server_type":"Dedicated","server_os":"Linux","password":true,"vac":true,"version":"7961495","steam_id":85568392925397960,"keywords":["cp","nocrits","nodmgspread","uncletopia"],"game_id":440,"stv_port":27066,"stv_name":"Uncletopia | Sydney | 6 | Community | STV","players":null},{"server_id":49,"name":"Uncletopia | Warsaw | 1 | One Thousand Uncles","name_short":"waw-1","host":"waw-1.pl.uncletopia.com","port":27015,"enabled":true,"region":"eu","cc":"pl","latitude":52.2297,"longitude":21.017532,"reserved":0,"last_update":"0001-01-01T00:00:00Z","name_a2s":"Uncletopia | Warsaw | 1 | One Thousand Uncles","protocol":17,"map":"cp_altitude","folder":"tf","game":"Team Fortress","app_id":440,"player_count":17,"max_players":32,"Bots":16,"server_type":"Dedicated","server_os":"Linux","password":true,"vac":true,"version":"7961495","steam_id":85568392925397850,"keywords":["alltalk","bots","cp","danepve","increased_maxplayers","nocrits","norespawntime","uncletopia"],"game_id":440,"stv_port":0,"stv_name":"","players":[{"user_id":40,"name":"?TheEnd","steam_id":76561198055280327,"connected_time":929000000000,"state":"active","ping":56}]},{"server_id":50,"name":"Uncletopia | Warsaw | 2 | One Thousand Uncles","name_short":"waw-2","host":"waw-1.pl.uncletopia.com","port":27025,"enabled":true,"region":"eu","cc":"pl","latitude":52.2297,"longitude":21.017532,"reserved":0,"last_update":"0001-01-01T00:00:00Z","name_a2s":"Uncletopia | Warsaw | 2 | One Thousand Uncles","protocol":17,"map":"pl_goldrush","folder":"tf","game":"Team Fortress","app_id":440,"player_count":0,"max_players":32,"Bots":0,"server_type":"Dedicated","server_os":"Linux","password":true,"vac":true,"version":"7961495","steam_id":85568392925397851,"keywords":["alltalk","danepve","increased_maxplayers","nocrits","norespawntime","payload","uncletopia"],"game_id":440,"stv_port":0,"stv_name":"","players":null},{"server_id":51,"name":"Uncletopia | Warsaw | 3 | All Maps","name_short":"waw-3","host":"waw-1.pl.uncletopia.com","port":27035,"enabled":true,"region":"eu","cc":"pl","latitude":52.2297,"longitude":21.017532,"reserved":0,"last_update":"0001-01-01T00:00:00Z","name_a2s":"Uncletopia | Warsaw | 3 | All Maps","protocol":17,"map":"plr_pipeline","folder":"tf","game":"Team Fortress","app_id":440,"player_count":0,"max_players":24,"Bots":0,"server_type":"Dedicated","server_os":"Linux","password":true,"vac":true,"version":"7961495","steam_id":85568392925397852,"keywords":["nocrits","nodmgspread","payload","uncletopia"],"game_id":440,"stv_port":27036,"stv_name":"Uncletopia | Warsaw | 3 | All Maps | STV","players":null},{"server_id":52,"name":"Uncletopia | Warsaw | 4 | All Maps","name_short":"waw-4","host":"waw-1.pl.uncletopia.com","port":27045,"enabled":true,"region":"eu","cc":"pl","latitude":52.2297,"longitude":21.017532,"reserved":0,"last_update":"0001-01-01T00:00:00Z","name_a2s":"Uncletopia | Warsaw | 4 | All Maps","protocol":17,"map":"cp_coldfront","folder":"tf","game":"Team Fortress","app_id":440,"player_count":0,"max_players":24,"Bots":0,"server_type":"Dedicated","server_os":"Linux","password":true,"vac":true,"version":"7961495","steam_id":85568392925397853,"keywords":["cp","nocrits","nodmgspread","uncletopia"],"game_id":440,"stv_port":27046,"stv_name":"Uncletopia | Warsaw | 4 | All Maps | STV","players":null},{"server_id":53,"name":"Uncletopia | Warsaw | 5 | Stopwatch","name_short":"waw-5","host":"waw-1.pl.uncletopia.com","port":27055,"enabled":true,"region":"eu","cc":"pl","latitude":52.2297,"longitude":21.017532,"reserved":0,"last_update":"0001-01-01T00:00:00Z","name_a2s":"Uncletopia | Warsaw | 5 | Stopwatch","protocol":17,"map":"workshop/koth_bagel_rc6.ugc2514036946","folder":"tf","game":"Team Fortress","app_id":440,"player_count":0,"max_players":24,"Bots":0,"server_type":"Dedicated","server_os":"Linux","password":true,"vac":true,"version":"7961495","steam_id":85568392925397854,"keywords":["cp","nocrits","nodmgspread","uncletopia"],"game_id":440,"stv_port":27056,"stv_name":"Uncletopia | Warsaw | 5 | Stopwatch | STV","players":null},{"server_id":54,"name":"Uncletopia | Warsaw | 6 | Community","name_short":"waw-6","host":"waw-1.pl.uncletopia.com","port":27065,"enabled":true,"region":"eu","cc":"pl","latitude":52.2297,"longitude":21.017532,"reserved":0,"last_update":"0001-01-01T00:00:00Z","name_a2s":"Uncletopia | Warsaw | 6 | Community","protocol":17,"map":"workshop/pl_badwater_pro_v12.ugc2142942074","folder":"tf","game":"Team Fortress","app_id":440,"player_count":0,"max_players":24,"Bots":0,"server_type":"Dedicated","server_os":"Linux","password":true,"vac":true,"version":"7961495","steam_id":85568392925397856,"keywords":["nocrits","nodmgspread","payload","uncletopia"],"game_id":440,"stv_port":27066,"stv_name":"Uncletopia | Warsaw | 6 | Community | STV","players":null}]}