{"status":true,"message":"","result":[{"server_id":9,"name":"Uncletopia | Atlanta | 1 | All Maps","name_short":"atl-1","host":"atl-1.us.uncletopia.com","port":27015,"enabled":true,"region":"us-east","cc":"us","latitude":33.753746,"longitude":-84.38633,"reserved":0,"last_update":"0001-01-01T00:00:00Z","name_a2s":"Uncletopia | Atlanta | 1 | All Maps","protocol":17,"map":"ctf_doublecross","folder":"tf","game":"Team Fortress","app_id":440,"player_count":24,"max_players":24,"Bots":0,"server_type":"Dedicated","server_os":"Linux","password":true,"vac":true,"version":"7961495","steam_id":85568392924469982,"keywords":["ctf","nocrits","nodmgspread","uncletopia"],"game_id":440,"stv_port":27016,"stv_name":"Uncletopia | Atlanta | 1 | All Maps | STV","players":[{"user_id":621,"name":"SpiderString (She/She++)","steam_id":76561198092409181,"connected_time":875000000000,"state":"active","ping":102},{"user_id":615,"name":"chexo4","steam_id":76561198150532531,"connected_time":1726000000000,"state":"active","ping":48},{"user_id":630,"name":".Rakitsune","steam_id":76561199014286847,"connected_time":572000000000,"state":"active","ping":80},{"user_id":622,"name":"Katto","steam_id":76561197976002174,"connected_time":835000000000,"state":"active","ping":57},{"user_id":585,"name":"Squanchy","steam_id":76561198036319676,"connected_time":4254000000000,"state":"active","ping":56},{"user_id":599,"name":"AKK0","steam_id":76561199063194145,"connected_time":3580000000000,"state":"active","ping":81},{"user_id":536,"name":"Tommy Provolone","steam_id":76561198170062377,"connected_time":7649000000000,"state":"active","ping":85},{"user_id":619,"name":"S-pin","steam_id":76561198195599518,"connected_time":1090000000000,"state":"active","ping":83},{"user_id":611,"name":"the voices are winning","steam_id":76561199007483227,"connected_time":2136000000000,"state":"active","ping":77},{"user_id":638,"name":"TheComrade","steam_id":76561198885877773,"connected_time":239000000000,"state":"active","ping":74},{"user_id":589,"name":"IZISOO","steam_id":76561198970380577,"connected_time":4109000000000,"state":"active","ping":84},{"user_id":623,"name":"Orn Free taa","steam_id":76561198128077944,"connected_time":831000000000,"state":"active","ping":60},{"user_id":632,"name":"menonamed","steam_id":76561198199564382,"connected_time":561000000000,"state":"active","ping":69},{"user_id":600,"name":"Notsocreative","steam_id":76561198236372202,"connected_time":3431000000000,"state":"active","ping":70},{"user_id":627,"name":"Taco","steam_id":76561198185185694,"connected_time":742000000000,"state":"active","ping":73},{"user_id":593,"name":"HAT-WEARING‚Ñ¢ Maggot Gamer Cat","steam_id":76561197973992705,"connected_time":3977000000000,"state":"active","ping":114},{"user_id":601,"name":"Spiceitwithred","steam_id":76561198313150295,"connected_time":3360000000000,"state":"active","ping":116},{"user_id":625,"name":"The Lunar Barista","steam_id":76561198180602091,"connected_time":785000000000,"state":"active","ping":47},{"user_id":633,"name":"BL√òRG","steam_id":76561198036126673,"connected_time":511000000000,"state":"active","ping":89},{"user_id":628,"name":"Clownfucker","steam_id":76561198091713728,"connected_time":703000000000,"state":"active","ping":103},{"user_id":634,"name":"ChillinSquare","steam_id":76561198023745593,"connected_time":503000000000,"state":"active","ping":101},{"user_id":613,"name":"Coffee Instant Type 2","steam_id":76561198307845869,"connected_time":1892000000000,"state":"active","ping":77},{"user_id":576,"name":"LaChancla","steam_id":76561198971528917,"connected_time":5338000000000,"state":"active","ping":76},{"user_id":636,"name":"uufyfuu","steam_id":76561198142787212,"connected_time":358000000000,"state":"active","ping":116}]},{"server_id":104,"name":"Uncletopia | Atlanta | 2 | All Maps","name_short":"atl-2","host":"atl-1.us.uncletopia.com","port":27025,"enabled":true,"region":"us-east","cc":"us","latitude":33.753746,"longitude":-84.38633,"reserved":0,"last_update":"0001-01-01T00:00:00Z","name_a2s":"Uncletopia | Atlanta | 2 | All Maps","protocol":17,"map":"pl_goldrush","folder":"tf","game":"Team Fortress","app_id":440,"player_count":21,"max_players":24,"Bots":0,"server_type":"Dedicated","server_os":"Linux","password":true,"vac":true,"version":"7961495","steam_id":85568392924469983,"keywords":["nocrits","nodmgspread","payload","uncletopia"],"game_id":440,"stv_port":27026,"stv_name":"Uncletopia | Atlanta | 2 | All Maps | STV","players":[{"user_id":496,"name":"radicalPolio","steam_id":76561197961561855,"connected_time":50000000000,"state":"active","ping":60},{"user_id":487,"name":"jinkies","steam_id":76561198199950729,"connected_time":478000000000,"state":"active","ping":131},{"user_id":476,"name":"Count Ejacula","steam_id":76561198058400387,"connected_time":1388000000000,"state":"active","ping":109},{"user_id":488,"name":"Klip","steam_id":76561198316254429,"connected_time":450000000000,"state":"active","ping":70},{"user_id":489,"name":"Mercy!Avatar","steam_id":76561199113870006,"connected_time":445000000000,"state":"active","ping":65},{"user_id":400,"name":"G4Vi","steam_id":76561197998117895,"connected_time":7999000000000,"state":"active","ping":63},{"user_id":495,"name":"Cooldog","steam_id":76561198080548713,"connected_time":64000000000,"state":"active","ping":71},{"user_id":478,"name":"El Gato Paranoico","steam_id":76561198116567116,"connected_time":1227000000000,"state":"active","ping":70},{"user_id":497,"name":"Chilledr","steam_id":76561198799250315,"connected_time":43000000000,"state":"active","ping":65},{"user_id":462,"name":"xavier","steam_id":76561198210294852,"connected_time":2278000000000,"state":"active","ping":63},{"user_id":498,"name":"Final_MarioXD","steam_id":76561199184862419,"connected_time":7000000000,"state":"spawning","ping":98},{"user_id":472,"name":"ƒê√Ø…ê»ê…π…¶…Üa","steam_id":76561198981411945,"connected_time":1859000000000,"state":"active","ping":144},{"user_id":474,"name":"Yoshimelon","steam_id":76561198253054325,"connected_time":1459000000000,"state":"active","ping":65},{"user_id":482,"name":"RoyalKaiser RBMK -Mex-","steam_id":76561198886933897,"connected_time":984000000000,"state":"active","ping":121},{"user_id":439,"name":"Fred Ott","steam_id":76561198099088693,"connected_time":3942000000000,"state":"active","ping":65},{"user_id":466,"name":"Average JoJo Fan","steam_id":76561198863432523,"connected_time":2084000000000,"state":"active","ping":101},{"user_id":491,"name":"gusjacobi","steam_id":76561198233500588,"connected_time":406000000000,"state":"active","ping":94},{"user_id":452,"name":"Bippums","steam_id":76561198366406729,"connected_time":2667000000000,"state":"active","ping":82},{"user_id":485,"name":"sonylea10","steam_id":76561198080723679,"connected_time":916000000000,"state":"active","ping":80},{"user_id":493,"name":"Dougiebuggie","steam_id":76561198987895080,"connected_time":354000000000,"state":"active","ping":88},{"user_id":492,"name":"Deimos","steam_id":76561198254665780,"connected_time":405000000000,"state":"active","ping":70}]},{"server_id":400,"name":"Uncletopia | Atlanta | 3 | Stopwatch","name_short":"atl-3","host":"atl-1.us.uncletopia.com","port":27035,"enabled":true,"region":"us-east","cc":"us","latitude":33.753746,"longitude":-84.38633,"reserved":0,"last_update":"0001-01-01T00:00:00Z","name_a2s":"Uncletopia | Atlanta | 3 | Stopwatch","protocol":17,"map":"workshop/koth_ramjam_rc1.ugc459778887","folder":"tf","game":"Team Fortress","app_id":440,"player_count":1,"max_players":24,"Bots":0,"server_type":"Dedicated","server_os":"Linux","password":true,"vac":true,"version":"7961495","steam_id":85568392924515187,"keywords":["cp","nocrits","nodmgspread","uncletopia"],"game_id":440,"stv_port":27036,"stv_name":"Uncletopia | Atlanta | 3 | Stopwatch | STV","players":[{"user_id":183,"name":"Taskrabbits","steam_id":76561198366682546,"connected_time":57000000000,"state":"active","ping":106}]},{"server_id":401,"name":"Uncletopia | Atlanta | 4 | Community","name_short":"atl-4","host":"atl-1.us.uncletopia.com","port":27045,"enabled":true,"region":"us-east","cc":"us","latitude":33.753746,"longitude":-84.38633,"reserved":0,"last_update":"0001-01-01T00:00:00Z","name_a2s":"Uncletopia | Atlanta | 4 | Community","protocol":17,"map":"workshop/koth_product_final.ugc454272353","folder":"tf","game":"Team Fortress","app_id":440,"player_count":4,"max_players":24,"Bots":0,"server_type":"Dedicated","server_os":"Linux","password":true,"vac":true,"version":"7961495","steam_id":85568392924515188,"keywords":["cp","nocrits","nodmgspread","uncletopia"],"game_id":440,"stv_port":27046,"stv_name":"Uncletopia | Atlanta | 4 | Community | STV","players":[{"user_id":133,"name":"Zul1t","steam_id":76561199085942424,"connected_time":2072000000000,"state":"active","ping":84},{"user_id":124,"name":"eloressa","steam_id":76561198120330867,"connected_time":4508000000000,"state":"active","ping":85},{"user_id":125,"name":"H4N-TYUM1","steam_id":76561198069387999,"connected_time":4506000000000,"state":"active","ping":79},{"user_id":127,"name":"Phenix","steam_id":76561198362616975,"connected_time":4485000000000,"state":"active","ping":80}]},{"server_id":2,"name":"Uncletopia | Chicago | 1 | All Maps","name_short":"chi-1","host":"chi-1.us.uncletopia.com","port":27015,"enabled":true,"region":"us-central","cc":"us","latitude":41.881832,"longitude":-87.62318,"reserved":0,"last_update":"0001-01-01T00:00:00Z","name_a2s":"Uncletopia | Chicago | 1 | All Maps","protocol":17,"map":"pl_badwater","folder":"tf","game":"Team Fortress","app_id":440,"player_count":21,"max_players":24,"Bots":0,"server_type":"Dedicated","server_os":"Linux","password":true,"vac":true,"version":"7961495","steam_id":85568392924469984,"keywords":["nocrits","nodmgspread","payload","uncletopia"],"game_id":440,"stv_port":27016,"stv_name":"Uncletopia | Chicago | 1 | All Maps | STV","players":[{"user_id":691,"name":"Oli B\u003eQS/BP/Bulk w/ 1.5k+ keys","steam_id":76561198140316312,"connected_time":2388000000000,"state":"active","ping":50},{"user_id":711,"name":"k8o","steam_id":76561198042481882,"connected_time":1278000000000,"state":"active","ping":44},{"user_id":706,"name":"bird enthusiast","steam_id":76561198087661713,"connected_time":1768000000000,"state":"active","ping":60},{"user_id":692,"name":"Femboy Medic Main","steam_id":76561198268225109,"connected_time":2383000000000,"state":"active","ping":71},{"user_id":688,"name":"Spyfall","steam_id":76561198081729993,"connected_time":2924000000000,"state":"active","ping":68},{"user_id":723,"name":"·πΩ‚ßâ Lyndon Johnson","steam_id":76561198000173889,"connected_time":899000000000,"state":"active","ping":69},{"user_id":713,"name":"oppenheimer style","steam_id":76561198026664629,"connected_time":1183000000000,"state":"active","ping":47},{"user_id":714,"name":"Howard Hamlin","steam_id":76561198881039861,"connected_time":1172000000000,"state":"active","ping":73},{"user_id":722,"name":"Milkmur","steam_id":76561198210043821,"connected_time":936000000000,"state":"active","ping":68},{"user_id":716,"name":"The Notorious T.A.F.T.","steam_id":76561198073012352,"connected_time":1115000000000,"state":"active","ping":88},{"user_id":718,"name":"ark","steam_id":76561198041066271,"connected_time":1102000000000,"state":"active","ping":76},{"user_id":704,"name":"Oh wow.","steam_id":76561199039754846,"connected_time":1960000000000,"state":"active","ping":118},{"user_id":695,"name":"badboy6996 #TRUMP2024","steam_id":76561197969386201,"connected_time":2340000000000,"state":"active","ping":58},{"user_id":696,"name":"LVL","steam_id":76561198334403617,"connected_time":2335000000000,"state":"active","ping":52},{"user_id":719,"name":"TF2C | fac -AA-","steam_id":76561198009818412,"connected_time":1093000000000,"state":"active","ping":70},{"user_id":376,"name":"Rode hard, put away wet","steam_id":76561198062764039,"connected_time":25072000000000,"state":"active","ping":50},{"user_id":697,"name":"Nortel Network Telephone T7316","steam_id":76561198399261089,"connected_time":2310000000000,"state":"active","ping":78},{"user_id":728,"name":"onion","steam_id":76561198242311084,"connected_time":80000000000,"state":"active","ping":59},{"user_id":686,"name":"Praise_to_the_Flashlight!","steam_id":76561199001728789,"connected_time":3429000000000,"state":"active","ping":60},{"user_id":720,"name":"T√ñZI","steam_id":76561198045268695,"connected_time":1060000000000,"state":"active","ping":94},{"user_id":725,"name":"Teddy \"The Bear\" Roosevelt","steam_id":76561198022397601,"connected_time":497000000000,"state":"active","ping":67}]},{"server_id":106,"name":"Uncletopia | Chicago | 2 | All Maps","name_short":"chi-2","host":"chi-1.us.uncletopia.com","port":27025,"enabled":true,"region":"us-central","cc":"us","latitude":41.881832,"longitude":-87.62318,"reserved":0,"last_update":"0001-01-01T00:00:00Z","name_a2s":"Uncletopia | Chicago | 2 | All Maps","protocol":17,"map":"pl_hoodoo_final","folder":"tf","game":"Team Fortress","app_id":440,"player_count":20,"max_players":24,"Bots":0,"server_type":"Dedicated","server_os":"Linux","password":true,"vac":true,"version":"7961495","steam_id":85568392924469985,"keywords":["nocrits","nodmgspread","payload","uncletopia"],"game_id":440,"stv_port":27026,"stv_name":"Uncletopia | Chicago | 2 | All Maps | STV","players":[{"user_id":858,"name":"Larry T.G","steam_id":76561198140157079,"connected_time":2370000000000,"state":"active","ping":64},{"user_id":889,"name":"Zeebop","steam_id":76561198148332988,"connected_time":929000000000,"state":"active","ping":48},{"user_id":885,"name":"8bean","steam_id":76561198239138132,"connected_time":1048000000000,"state":"active","ping":60},{"user_id":861,"name":"Snoman","steam_id":76561197969248675,"connected_time":2185000000000,"state":"active","ping":59},{"user_id":888,"name":"moron","steam_id":76561198979187983,"connected_time":994000000000,"state":"active","ping":99},{"user_id":886,"name":"‚ÜêNumKeys‚Üí","steam_id":76561198047174338,"connected_time":1005000000000,"state":"active","ping":57},{"user_id":899,"name":"Hey","steam_id":76561198447517893,"connected_time":457000000000,"state":"active","ping":72},{"user_id":900,"name":"FAKE TAXI PRANKS","steam_id":76561198136746987,"connected_time":214000000000,"state":"active","ping":96},{"user_id":827,"name":"Amoxicilina","steam_id":76561198168486429,"connected_time":5964000000000,"state":"active","ping":115},{"user_id":891,"name":"Carpet enthusiast","steam_id":76561198024040142,"connected_time":851000000000,"state":"active","ping":87},{"user_id":901,"name":"Snoopist","steam_id":76561198144023761,"connected_time":200000000000,"state":"active","ping":30},{"user_id":787,"name":"RusticCarp42989","steam_id":76561198361151865,"connected_time":7684000000000,"state":"active","ping":121},{"user_id":892,"name":"Jose Papacito Piernas Largas Ma","steam_id":76561198040299217,"connected_time":839000000000,"state":"active","ping":101},{"user_id":893,"name":"Tonedeft","steam_id":76561198145220502,"connected_time":826000000000,"state":"active","ping":78},{"user_id":789,"name":"SiltyStar85","steam_id":76561198309175923,"connected_time":7662000000000,"state":"active","ping":88},{"user_id":869,"name":"playguy carter","steam_id":76561198080679337,"connected_time":2004000000000,"state":"active","ping":49},{"user_id":902,"name":"Fresnel","steam_id":76561198266960876,"connected_time":77000000000,"state":"spawning","ping":74},{"user_id":895,"name":"Madrox Who?","steam_id":76561197988859134,"connected_time":810000000000,"state":"active","ping":74},{"user_id":896,"name":"Gardangle","steam_id":76561198394173831,"connected_time":788000000000,"state":"active","ping":97},{"user_id":884,"name":"enhanced with disney's FastPlay","steam_id":76561198164134387,"connected_time":1242000000000,"state":"active","ping":105}]},{"server_id":402,"name":"Uncletopia | Chicago | 3 | All Maps","name_short":"chi-3","host":"chi-1.us.uncletopia.com","port":27035,"enabled":true,"region":"us-central","cc":"us","latitude":41.881832,"longitude":-87.62318,"reserved":0,"last_update":"0001-01-01T00:00:00Z","name_a2s":"Uncletopia | Chicago | 3 | All Maps","protocol":17,"map":"koth_sawmill","folder":"tf","game":"Team Fortress","app_id":440,"player_count":20,"max_players":24,"Bots":0,"server_type":"Dedicated","server_os":"Linux","password":true,"vac":true,"version":"7961495","steam_id":85568392924515191,"keywords":["cp","nocrits","nodmgspread","uncletopia"],"game_id":440,"stv_port":27036,"stv_name":"Uncletopia | Chicago | 3 | All Maps | STV","players":[{"user_id":617,"name":"wizmage12","steam_id":76561198021054641,"connected_time":1824000000000,"state":"active","ping":169},{"user_id":643,"name":"raisedbybirds","steam_id":76561198131531646,"connected_time":108000000000,"state":"active","ping":75},{"user_id":619,"name":"disco zombi","steam_id":76561198262595909,"connected_time":1772000000000,"state":"active","ping":79},{"user_id":608,"name":"thecal","steam_id":76561198307893384,"connected_time":2519000000000,"state":"active","ping":50},{"user_id":620,"name":"Obama Gaming 2023","steam_id":76561199006905645,"connected_time":1727000000000,"state":"active","ping":94},{"user_id":644,"name":"Jpxfred","steam_id":76561199414783749,"connected_time":8000000000,"state":"spawning","ping":91},{"user_id":628,"name":"Garbo","steam_id":76561198192120869,"connected_time":869000000000,"state":"active","ping":59},{"user_id":609,"name":"Dad","steam_id":76561198009425458,"connected_time":2513000000000,"state":"active","ping":85},{"user_id":629,"name":"Dave","steam_id":76561198295272309,"connected_time":847000000000,"state":"active","ping":135},{"user_id":631,"name":"staks","steam_id":76561198059570070,"connected_time":712000000000,"state":"active","ping":44},{"user_id":637,"name":"craven","steam_id":76561198088191503,"connected_time":470000000000,"state":"active","ping":67},{"user_id":610,"name":"yesoko","steam_id":76561198072917024,"connected_time":2509000000000,"state":"active","ping":55},{"user_id":626,"name":"Ghost \"With the Most\" Toastee","steam_id":76561198085410969,"connected_time":1217000000000,"state":"active","ping":50},{"user_id":638,"name":"gerg","steam_id":76561197997127387,"connected_time":349000000000,"state":"active","ping":99},{"user_id":623,"name":"Remixer","steam_id":76561198014220611,"connected_time":1610000000000,"state":"active","ping":83},{"user_id":625,"name":"Dece1ve_","steam_id":76561198179566378,"connected_time":1510000000000,"state":"active","ping":61},{"user_id":639,"name":"Under an Unquiet Skull","steam_id":76561198164782653,"connected_time":349000000000,"state":"active","ping":74},{"user_id":640,"name":"social distance warrior","steam_id":76561198128992994,"connected_time":344000000000,"state":"active","ping":88},{"user_id":612,"name":"Peepster","steam_id":76561198297854733,"connected_time":2499000000000,"state":"active","ping":71},{"user_id":641,"name":"Dr Oshawott","steam_id":76561198042021629,"connected_time":303000000000,"state":"active","ping":64}]},{"server_id":403,"name":"Uncletopia | Chicago | 4 | All Maps","name_short":"chi-4","host":"chi-1.us.uncletopia.com","port":27045,"enabled":true,"region":"us-central","cc":"us","latitude":41.881832,"longitude":-87.62318,"reserved":0,"last_update":"0001-01-01T00:00:00Z","name_a2s":"Uncletopia | Chicago | 4 | All Maps","protocol":17,"map":"pl_badwater","folder":"tf","game":"Team Fortress","app_id":440,"player_count":0,"max_players":24,"Bots":0,"server_type":"Dedicated","server_os":"Linux","password":true,"vac":true,"version":"7961495","steam_id":85568392924515193,"keywords":["nocrits","nodmgspread","payload","uncletopia"],"game_id":440,"stv_port":27046,"stv_name":"Uncletopia | Chicago | 4 | All Maps | STV","players":null},{"server_id":36,"name":"Uncletopia | Chicago | 5 | All Maps","name_short":"chi-5","host":"chi-2.us.uncletopia.com","port":27015,"enabled":true,"region":"us-central","cc":"us","latitude":41.881832,"longitude":-87.62318,"reserved":0,"last_update":"0001-01-01T00:00:00Z","name_a2s":"Uncletopia | Chicago | 5 | All Maps","protocol":17,"map":"pl_frontier_final","folder":"tf","game":"Team Fortress","app_id":440,"player_count":24,"max_players":24,"Bots":0,"server_type":"Dedicated","server_os":"Linux","password":true,"vac":true,"version":"7961495","steam_id":85568392924866362,"keywords":["nocrits","nodmgspread","payload","uncletopia"],"game_id":440,"stv_port":27016,"stv_name":"Uncletopia | Chicago | 5 | All Maps | STV","players":[{"user_id":516,"name":"Joebobio","steam_id":76561198024442760,"connected_time":770000000000,"state":"active","ping":66},{"user_id":504,"name":"God's Yoinkiest Sploinker","steam_id":76561198131631865,"connected_time":2173000000000,"state":"active","ping":77},{"user_id":517,"name":"The Sydney Sleeper Itself","steam_id":76561198180251763,"connected_time":731000000000,"state":"active","ping":71},{"user_id":418,"name":"deljoe13","steam_id":76561198091686996,"connected_time":7893000000000,"state":"active","ping":83},{"user_id":514,"name":"slep.py","steam_id":76561197988287144,"connected_time":1116000000000,"state":"active","ping":57},{"user_id":417,"name":"Brawns","steam_id":76561198045190199,"connected_time":7926000000000,"state":"active","ping":83},{"user_id":505,"name":"bad spy player","steam_id":76561198873699671,"connected_time":2168000000000,"state":"active","ping":103},{"user_id":495,"name":"RealStanzy","steam_id":76561199060261003,"connected_time":3258000000000,"state":"active","ping":82},{"user_id":518,"name":"Drachma","steam_id":76561198007310514,"connected_time":705000000000,"state":"active","ping":64},{"user_id":459,"name":"kim wexler","steam_id":76561199199795741,"connected_time":5220000000000,"state":"active","ping":64},{"user_id":515,"name":"Person","steam_id":76561198093244204,"connected_time":1107000000000,"state":"active","ping":74},{"user_id":478,"name":"c64guy","steam_id":76561198023022744,"connected_time":3831000000000,"state":"active","ping":56},{"user_id":529,"name":"–ü–≤—Ç –î–∏–Ω–≥–æ","steam_id":76561198119683217,"connected_time":47000000000,"state":"active","ping":105},{"user_id":506,"name":"krarv","steam_id":76561199037042318,"connected_time":2164000000000,"state":"active","ping":94},{"user_id":520,"name":"old slimey ichabod","steam_id":76561198043900518,"connected_time":666000000000,"state":"active","ping":59},{"user_id":526,"name":"Weebmcgee","steam_id":76561198081231557,"connected_time":263000000000,"state":"active","ping":75},{"user_id":509,"name":"Car Insurance","steam_id":76561198379549507,"connected_time":2111000000000,"state":"active","ping":120},{"user_id":528,"name":"KONYAC","steam_id":76561198082925085,"connected_time":84000000000,"state":"active","ping":83},{"user_id":438,"name":"Manny Heffley","steam_id":76561198135137213,"connected_time":7074000000000,"state":"active","ping":58},{"user_id":503,"name":"meow","steam_id":76561198046948758,"connected_time":2511000000000,"state":"active","ping":57},{"user_id":465,"name":"A_Malebolgia","steam_id":76561198097722818,"connected_time":4891000000000,"state":"active","ping":94},{"user_id":522,"name":"Five","steam_id":76561198026640473,"connected_time":529000000000,"state":"active","ping":75},{"user_id":524,"name":"Yongle","steam_id":76561198068591156,"connected_time":467000000000,"state":"active","ping":57},{"user_id":525,"name":"The Assistant Regional Manager","steam_id":76561199221484936,"connected_time":436000000000,"state":"active","ping":119}]},{"server_id":37,"name":"Uncletopia | Chicago | 6 | All Maps","name_short":"chi-6","host":"chi-2.us.uncletopia.com","port":27025,"enabled":true,"region":"us-central","cc":"us","latitude":41.881832,"longitude":-87.62318,"reserved":0,"last_update":"0001-01-01T00:00:00Z","name_a2s":"Uncletopia | Chicago | 6 | All Maps","protocol":17,"map":"koth_suijin","folder":"tf","game":"Team Fortress","app_id":440,"player_count":21,"max_players":24,"Bots":0,"server_type":"Dedicated","server_os":"Linux","password":true,"vac":true,"version":"7961495","steam_id":85568392924866363,"keywords":["cp","nocrits","nodmgspread","uncletopia"],"game_id":440,"stv_port":27026,"stv_name":"Uncletopia | Chicago | 6 | All Maps | STV","players":[{"user_id":398,"name":"Toaster","steam_id":76561198290922494,"connected_time":87000000000,"state":"active","ping":81},{"user_id":382,"name":"Azure","steam_id":76561198260328183,"connected_time":843000000000,"state":"active","ping":68},{"user_id":339,"name":"Zelumie","steam_id":76561198147335801,"connected_time":6145000000000,"state":"active","ping":51},{"user_id":365,"name":"whitr","steam_id":76561198043981478,"connected_time":3999000000000,"state":"active","ping":101},{"user_id":381,"name":"H0ovy","steam_id":76561198996230924,"connected_time":846000000000,"state":"active","ping":47},{"user_id":389,"name":"HooHay","steam_id":76561199350870177,"connected_time":630000000000,"state":"active","ping":61},{"user_id":385,"name":"Mint Jelly","steam_id":76561197991286751,"connected_time":819000000000,"state":"active","ping":46},{"user_id":357,"name":"GreekGoat_Coffee","steam_id":76561198129331088,"connected_time":4183000000000,"state":"active","ping":45},{"user_id":350,"name":"cirno","steam_id":76561198166081596,"connected_time":4763000000000,"state":"active","ping":93},{"user_id":391,"name":"bcizzo","steam_id":76561197994399953,"connected_time":330000000000,"state":"active","ping":102},{"user_id":390,"name":"Cowboyfos","steam_id":76561199055740230,"connected_time":555000000000,"state":"active","ping":100},{"user_id":392,"name":"Mr. Mystical Perfection","steam_id":76561198036444997,"connected_time":321000000000,"state":"active","ping":89},{"user_id":369,"name":"shoobs","steam_id":76561198042507255,"connected_time":3188000000000,"state":"active","ping":90},{"user_id":393,"name":"Clumsy","steam_id":76561198056345245,"connected_time":309000000000,"state":"active","ping":67},{"user_id":394,"name":"Tockbird","steam_id":76561199437964594,"connected_time":283000000000,"state":"active","ping":119},{"user_id":397,"name":"dookiemonster33","steam_id":76561198979494052,"connected_time":153000000000,"state":"active","ping":94},{"user_id":362,"name":"Lois I'm hardstuck iron","steam_id":76561198113364714,"connected_time":4051000000000,"state":"active","ping":62},{"user_id":400,"name":"Shrebbie","steam_id":76561198875230824,"connected_time":52000000000,"state":"active","ping":54},{"user_id":363,"name":"Hey Lois I'm Malding","steam_id":76561198043256782,"connected_time":4031000000000,"state":"active","ping":82},{"user_id":401,"name":"Kragg Main","steam_id":76561198035512373,"connected_time":26000000000,"state":"active","ping":84},{"user_id":370,"name":"76561198213435803","steam_id":76561198213435803,"connected_time":3179000000000,"state":"active","ping":53}]},{"server_id":38,"name":"Uncletopia | Chicago | 7 | Stopwatch","name_short":"chi-7","host":"chi-2.us.uncletopia.com","port":27035,"enabled":true,"region":"us-central","cc":"us","latitude":41.881832,"longitude":-87.62318,"reserved":0,"last_update":"0001-01-01T00:00:00Z","name_a2s":"Uncletopia | Chicago | 7 | Stopwatch","protocol":17,"map":"cp_granary","folder":"tf","game":"Team Fortress","app_id":440,"player_count":0,"max_players":24,"Bots":0,"server_type":"Dedicated","server_os":"Linux","password":true,"vac":true,"version":"7961495","steam_id":85568392924866364,"keywords":["cp","nocrits","nodmgspread","uncletopia"],"game_id":440,"stv_port":27036,"stv_name":"Uncletopia | Chicago | 7 | Stopwatch | STV","players":null},{"server_id":39,"name":"Uncletopia | Chicago | 8 | Community","name_short":"chi-8","host":"chi-2.us.uncletopia.com","port":27045,"enabled":true,"region":"us-central","cc":"us","latitude":41.881832,"longitude":-87.62318,"reserved":0,"last_update":"0001-01-01T00:00:00Z","name_a2s":"Uncletopia | Chicago | 8 | Community","protocol":17,"map":"workshop/pl_vigil_rc10.ugc1266210012","folder":"tf","game":"Team Fortress","app_id":440,"player_count":0,"max_players":24,"Bots":0,"server_type":"Dedicated","server_os":"Linux","password":true,"vac":true,"version":"7961495","steam_id":85568392924866365,"keywords":["nocrits","nodmgspread","payload","uncletopia"],"game_id":440,"stv_port":27046,"stv_name":"Uncletopia | Chicago | 8 | Community | STV","players":null},{"server_id":8,"name":"Uncletopia | Dallas | 1 | All Maps","name_short":"dal-1","host":"dal-1.us.uncletopia.com","port":27015,"enabled":true,"region":"us-central","cc":"us","latitude":32.779167,"longitude":-96.80889,"reserved":0,"last_update":"0001-01-01T00:00:00Z","name_a2s":"Uncletopia | Dallas | 1 | All Maps","protocol":17,"map":"pl_upward","folder":"tf","game":"Team Fortress","app_id":440,"player_count":19,"max_players":24,"Bots":0,"server_type":"Dedicated","server_os":"Linux","password":true,"vac":true,"version":"7961495","steam_id":85568392924469986,"keywords":["nocrits","nodmgspread","payload","uncletopia"],"game_id":440,"stv_port":27016,"stv_name":"Uncletopia | Dallas | 1 | All Maps | STV","players":[{"user_id":442,"name":"the lazy gamer","steam_id":76561199070127039,"connected_time":406000000000,"state":"spawning","ping":111},{"user_id":424,"name":"Blue Eyes Ace Dragon.","steam_id":76561198048214237,"connected_time":3139000000000,"state":"spawning","ping":70},{"user_id":328,"name":"Cat in a fedora","steam_id":76561198187502875,"connected_time":12203000000000,"state":"spawning","ping":69},{"user_id":411,"name":"bog003","steam_id":76561197987243470,"connected_time":4948000000000,"state":"spawning","ping":74},{"user_id":443,"name":"Drapph","steam_id":76561199384213314,"connected_time":53000000000,"state":"spawning","ping":61},{"user_id":369,"name":"The Winter Medic","steam_id":76561198197112922,"connected_time":8129000000000,"state":"spawning","ping":78},{"user_id":402,"name":"Woody","steam_id":76561198020308956,"connected_time":6017000000000,"state":"spawning","ping":54},{"user_id":440,"name":"[BALLS] r30848","steam_id":76561199123984543,"connected_time":433000000000,"state":"spawning","ping":51},{"user_id":413,"name":"CeLeb144","steam_id":76561199089907740,"connected_time":4906000000000,"state":"spawning","ping":58},{"user_id":432,"name":"FanaticSalt","steam_id":76561199380123059,"connected_time":1928000000000,"state":"spawning","ping":51},{"user_id":418,"name":"+","steam_id":76561198262422184,"connected_time":3930000000000,"state":"spawning","ping":45},{"user_id":435,"name":"Greg Boberton 2012","steam_id":76561198983566026,"connected_time":1419000000000,"state":"spawning","ping":80},{"user_id":444,"name":"[BALLS] Izzy","steam_id":76561199042250833,"connected_time":52000000000,"state":"spawning","ping":51},{"user_id":445,"name":"TEAM FORTRESS 2","steam_id":76561198819943354,"connected_time":28000000000,"state":"spawning","ping":30},{"user_id":436,"name":"rexelfhcir","steam_id":76561199018207049,"connected_time":601000000000,"state":"spawning","ping":53},{"user_id":415,"name":"FRANKY!!!","steam_id":76561199211305343,"connected_time":4899000000000,"state":"spawning","ping":91},{"user_id":423,"name":"Lain","steam_id":76561198029303534,"connected_time":3322000000000,"state":"spawning","ping":64},{"user_id":433,"name":"moe","steam_id":76561198929586245,"connected_time":1920000000000,"state":"spawning","ping":69},{"user_id":438,"name":"PK","steam_id":76561198368722500,"connected_time":514000000000,"state":"spawning","ping":68}]},{"server_id":108,"name":"Uncletopia | Dallas | 2 | All Maps","name_short":"dal-2","host":"dal-1.us.uncletopia.com","port":27025,"enabled":true,"region":"us-central","cc":"us","latitude":32.779167,"longitude":-96.80889,"reserved":0,"last_update":"0001-01-01T00:00:00Z","name_a2s":"Uncletopia | Dallas | 2 | All Maps","protocol":17,"map":"pl_barnblitz","folder":"tf","game":"Team Fortress","app_id":440,"player_count":23,"max_players":24,"Bots":0,"server_type":"Dedicated","server_os":"Linux","password":true,"vac":true,"version":"7961495","steam_id":85568392924469988,"keywords":["nocrits","nodmgspread","payload","uncletopia"],"game_id":440,"stv_port":27026,"stv_name":"Uncletopia | Dallas | 2 | All Maps | STV","players":[{"user_id":418,"name":"Mithrildo","steam_id":76561198000564263,"connected_time":36000000000,"state":"active","ping":66},{"user_id":395,"name":"TrashPanda (she/her)","steam_id":76561198447864095,"connected_time":1641000000000,"state":"active","ping":66},{"user_id":385,"name":"munching charcoal","steam_id":76561198150803812,"connected_time":2417000000000,"state":"active","ping":84},{"user_id":417,"name":"BitPieStudios","steam_id":76561198059216393,"connected_time":80000000000,"state":"active","ping":86},{"user_id":365,"name":"Transgender Guy Fieri","steam_id":76561198801467075,"connected_time":4608000000000,"state":"active","ping":60},{"user_id":406,"name":"KevilPo","steam_id":76561199244507267,"connected_time":994000000000,"state":"active","ping":96},{"user_id":398,"name":"Fyr","steam_id":76561198048507556,"connected_time":1298000000000,"state":"active","ping":50},{"user_id":388,"name":"big boy bobert","steam_id":76561198801207748,"connected_time":2041000000000,"state":"active","ping":63},{"user_id":399,"name":"nugit74","steam_id":76561198325736178,"connected_time":1284000000000,"state":"active","ping":59},{"user_id":419,"name":"lytewerk","steam_id":76561198002819791,"connected_time":31000000000,"state":"active","ping":116},{"user_id":420,"name":"lanoc","steam_id":76561198055415367,"connected_time":29000000000,"state":"active","ping":62},{"user_id":421,"name":"java","steam_id":76561198030276792,"connected_time":27000000000,"state":"active","ping":73},{"user_id":402,"name":"Squiliam","steam_id":76561198025278006,"connected_time":1195000000000,"state":"active","ping":43},{"user_id":367,"name":"Tang","steam_id":76561198121340574,"connected_time":4589000000000,"state":"active","ping":77},{"user_id":403,"name":"potato pat üü†„ÉÑ","steam_id":76561198025489194,"connected_time":1165000000000,"state":"active","ping":52},{"user_id":341,"name":"stuffedidiot","steam_id":76561199181513019,"connected_time":8258000000000,"state":"active","ping":117},{"user_id":342,"name":"Rat Smacker","steam_id":76561198043629646,"connected_time":8254000000000,"state":"active","ping":59},{"user_id":354,"name":"anonEDM","steam_id":76561197976560316,"connected_time":6254000000000,"state":"active","ping":98},{"user_id":407,"name":"poggerchamp","steam_id":76561199145124973,"connected_time":988000000000,"state":"active","ping":49},{"user_id":370,"name":"NormalManPerson","steam_id":76561198007436312,"connected_time":4458000000000,"state":"active","ping":105},{"user_id":416,"name":"frank","steam_id":76561198137777483,"connected_time":268000000000,"state":"active","ping":85},{"user_id":411,"name":"hi","steam_id":76561198809577048,"connected_time":945000000000,"state":"active","ping":98},{"user_id":348,"name":"Gelisor","steam_id":76561198001581101,"connected_time":8139000000000,"state":"active","ping":102}]},{"server_id":404,"name":"Uncletopia | Dallas | 3 | All Maps","name_short":"dal-3","host":"dal-1.us.uncletopia.com","port":27035,"enabled":true,"region":"us-central","cc":"us","latitude":32.779167,"longitude":-96.80889,"reserved":0,"last_update":"0001-01-01T00:00:00Z","name_a2s":"Uncletopia | Dallas | 3 | All Maps","protocol":17,"map":"cp_steel","folder":"tf","game":"Team Fortress","app_id":440,"player_count":24,"max_players":24,"Bots":0,"server_type":"Dedicated","server_os":"Linux","password":true,"vac":true,"version":"7961495","steam_id":85568392924515219,"keywords":["cp","nocrits","nodmgspread","uncletopia"],"game_id":440,"stv_port":27036,"stv_name":"Uncletopia | Dallas | 3 | All Maps | STV","players":[{"user_id":300,"name":"FireQuiz","steam_id":76561198107357249,"connected_time":685000000000,"state":"active","ping":101},{"user_id":303,"name":"MoriMorzilla","steam_id":76561198272609196,"connected_time":568000000000,"state":"active","ping":68},{"user_id":277,"name":"Minecraft","steam_id":76561198409907417,"connected_time":2535000000000,"state":"active","ping":85},{"user_id":319,"name":"Claybae","steam_id":76561198064290179,"connected_time":0,"state":"spawning","ping":34},{"user_id":264,"name":"laughs bigman","steam_id":76561198067714032,"connected_time":3114000000000,"state":"active","ping":79},{"user_id":307,"name":"Killerfish360","steam_id":76561198115029584,"connected_time":429000000000,"state":"active","ping":42},{"user_id":308,"name":"THE man is EPIC","steam_id":76561198085410777,"connected_time":428000000000,"state":"active","ping":113},{"user_id":309,"name":"LJRicochet","steam_id":76561198109125997,"connected_time":412000000000,"state":"active","ping":159},{"user_id":310,"name":"Fireheart888","steam_id":76561198044555953,"connected_time":397000000000,"state":"active","ping":119},{"user_id":311,"name":"schnedwob","steam_id":76561197999146588,"connected_time":326000000000,"state":"active","ping":56},{"user_id":298,"name":"Azosion","steam_id":76561198861267703,"connected_time":811000000000,"state":"active","ping":80},{"user_id":292,"name":"zpalmtree","steam_id":76561198134307620,"connected_time":1476000000000,"state":"active","ping":90},{"user_id":291,"name":"Ace","steam_id":76561198806699742,"connected_time":1580000000000,"state":"active","ping":93},{"user_id":317,"name":"killstreak451","steam_id":76561198189671403,"connected_time":216000000000,"state":"active","ping":70},{"user_id":313,"name":"big fish","steam_id":76561198186479818,"connected_time":316000000000,"state":"active","ping":92},{"user_id":293,"name":"Lane","steam_id":76561197965828506,"connected_time":1440000000000,"state":"active","ping":57},{"user_id":314,"name":"CatLike Pigeon","steam_id":76561198171716030,"connected_time":272000000000,"state":"active","ping":100},{"user_id":283,"name":"bashdzy","steam_id":76561199006087600,"connected_time":2326000000000,"state":"active","ping":75},{"user_id":256,"name":"Pinetree w/ apples.","steam_id":76561198105411709,"connected_time":3958000000000,"state":"active","ping":112},{"user_id":315,"name":"Meathouse","steam_id":76561198169966346,"connected_time":266000000000,"state":"active","ping":102},{"user_id":207,"name":"penis atomizer 9000 üè≥Ô∏è?","steam_id":76561198864841966,"connected_time":7935000000000,"state":"active","ping":98},{"user_id":295,"name":"Mufalito","steam_id":76561198951889482,"connected_time":846000000000,"state":"active","ping":145},{"user_id":316,"name":"Breadfan","steam_id":76561197993176053,"connected_time":260000000000,"state":"active","ping":86},{"user_id":318,"name":"somewhat silly","steam_id":76561198010269150,"connected_time":210000000000,"state":"active","ping":100}]},{"server_id":405,"name":"Uncletopia | Dallas | 4 | Community","name_short":"dal-4","host":"dal-1.us.uncletopia.com","port":27045,"enabled":true,"region":"us-central","cc":"us","latitude":32.779167,"longitude":-96.80889,"reserved":0,"last_update":"0001-01-01T00:00:00Z","name_a2s":"Uncletopia | Dallas | 4 | Community","protocol":17,"map":"workshop/pl_cashworks_final1.ugc2904065412","folder":"tf","game":"Team Fortress","app_id":440,"player_count":0,"max_players":24,"Bots":0,"server_type":"Dedicated","server_os":"Linux","password":true,"vac":true,"version":"7961495","steam_id":85568392924515220,"keywords":["nocrits","nodmgspread","payload","uncletopia"],"game_id":440,"stv_port":27046,"stv_name":"Uncletopia | Dallas | 4 | Community | STV","players":null},{"server_id":5,"name":"Uncletopia | Frankfurt | 1 | All Maps","name_short":"frk-1","host":"frk-1.de.uncletopia.com","port":27015,"enabled":true,"region":"eu","cc":"de","latitude":50.110924,"longitude":8.682127,"reserved":0,"last_update":"0001-01-01T00:00:00Z","name_a2s":"Uncletopia | Frankfurt | 1 | All Maps","protocol":17,"map":"koth_highpass","folder":"tf","game":"Team Fortress","app_id":440,"player_count":0,"max_players":24,"Bots":0,"server_type":"Dedicated","server_os":"Linux","password":true,"vac":true,"version":"7961495","steam_id":85568392924469989,"keywords":["cp","nocrits","nodmgspread","uncletopia"],"game_id":440,"stv_port":27016,"stv_name":"Uncletopia | Frankfurt | 1 | All Maps | STV","players":null},{"server_id":110,"name":"Uncletopia | Frankfurt | 2 | All Maps","name_short":"frk-2","host":"frk-1.de.uncletopia.com","port":27025,"enabled":true,"region":"eu","cc":"de","latitude":50.110924,"longitude":8.682127,"reserved":0,"last_update":"0001-01-01T00:00:00Z","name_a2s":"Uncletopia | Frankfurt | 2 | All Maps","protocol":17,"map":"cp_dustbowl","folder":"tf","game":"Team Fortress","app_id":440,"player_count":0,"max_players":24,"Bots":0,"server_type":"Dedicated","server_os":"Linux","password":true,"vac":true,"version":"7961495","steam_id":85568392924469990,"keywords":["cp","nocrits","nodmgspread","uncletopia"],"game_id":440,"stv_port":27026,"stv_name":"Uncletopia | Frankfurt | 2 | All Maps | STV","players":null},{"server_id":308,"name":"Uncletopia | Frankfurt | 3 | All Maps","name_short":"frk-3","host":"frk-1.de.uncletopia.com","port":27035,"enabled":true,"region":"eu","cc":"de","latitude":50.110924,"longitude":8.682127,"reserved":0,"last_update":"0001-01-01T00:00:00Z","name_a2s":"Uncletopia | Frankfurt | 3 | All Maps","protocol":17,"map":"pl_barnblitz","folder":"tf","game":"Team Fortress","app_id":440,"player_count":0,"max_players":24,"Bots":0,"server_type":"Dedicated","server_os":"Linux","password":true,"vac":true,"version":"7961495","steam_id":85568392924504274,"keywords":["nocrits","nodmgspread","payload","uncletopia"],"game_id":440,"stv_port":27036,"stv_name":"Uncletopia | Frankfurt | 3 | All Maps | STV","players":null},{"server_id":309,"name":"Uncletopia | Frankfurt | 4 | All Maps","name_short":"frk-4","host":"frk-1.de.uncletopia.com","port":27045,"enabled":true,"region":"eu","cc":"de","latitude":50.110924,"longitude":8.682127,"reserved":0,"last_update":"0001-01-01T00:00:00Z","name_a2s":"Uncletopia | Frankfurt | 4 | All Maps","protocol":17,"map":"koth_highpass","folder":"tf","game":"Team Fortress","app_id":440,"player_count":0,"max_players":24,"Bots":0,"server_type":"Dedicated","server_os":"Linux","password":true,"vac":true,"version":"7961495","steam_id":85568392924504275,"keywords":["cp","nocrits","nodmgspread","uncletopia"],"game_id":440,"stv_port":27046,"stv_name":"Uncletopia | Frankfurt | 4 | All Maps | STV","players":null},{"server_id":310,"name":"Uncletopia | Frankfurt | 5 | All Maps","name_short":"frk-5","host":"frk-1.de.uncletopia.com","port":27055,"enabled":true,"region":"eu","cc":"de","latitude":50.110924,"longitude":8.682127,"reserved":0,"last_update":"0001-01-01T00:00:00Z","name_a2s":"Uncletopia | Frankfurt | 5 | All Maps","protocol":17,"map":"pl_badwater","folder":"tf","game":"Team Fortress","app_id":440,"player_count":0,"max_players":24,"Bots":0,"server_type":"Dedicated","server_os":"Linux","password":true,"vac":true,"version":"7961495","steam_id":85568392924504277,"keywords":["nocrits","nodmgspread","payload","uncletopia"],"game_id":440,"stv_port":27056,"stv_name":"Uncletopia | Frankfurt | 5 | All Maps | STV","players":null},{"server_id":311,"name":"Uncletopia | Frankfurt | 6 | All Maps","name_short":"frk-6","host":"frk-1.de.uncletopia.com","port":27065,"enabled":true,"region":"eu","cc":"de","latitude":50.110924,"longitude":8.682127,"reserved":0,"last_update":"0001-01-01T00:00:00Z","name_a2s":"Uncletopia | Frankfurt | 6 | All Maps","protocol":17,"map":"cp_altitude","folder":"tf","game":"Team Fortress","app_id":440,"player_count":0,"max_players":24,"Bots":0,"server_type":"Dedicated","server_os":"Linux","password":true,"vac":true,"version":"7961495","steam_id":85568392924504278,"keywords":["cp","nocrits","nodmgspread","uncletopia"],"game_id":440,"stv_port":27066,"stv_name":"Uncletopia | Frankfurt | 6 | All Maps | STV","players":null},{"server_id":23,"name":"Uncletopia | Frankfurt | 7 | Stopwatch","name_short":"frk-7","host":"frk-1.de.uncletopia.com","port":27075,"enabled":true,"region":"eu","cc":"de","latitude":50.110924,"longitude":8.682127,"reserved":0,"last_update":"0001-01-01T00:00:00Z","name_a2s":"Uncletopia | Frankfurt | 7 | Stopwatch","protocol":17,"map":"pl_frontier_final","folder":"tf","game":"Team Fortress","app_id":440,"player_count":0,"max_players":24,"Bots":0,"server_type":"Dedicated","server_os":"Linux","password":true,"vac":true,"version":"7961495","steam_id":85568392924742827,"keywords":["nocrits","nodmgspread","payload","uncletopia"],"game_id":440,"stv_port":27076,"stv_name":"Uncletopia | Frankfurt | 7 | Stopwatch | STV","players":null},{"server_id":24,"name":"Uncletopia | Frankfurt | 8 | Community","name_short":"frk-8","host":"frk-1.de.uncletopia.com","port":27085,"enabled":true,"region":"eu","cc":"de","latitude":50.110924,"longitude":8.682127,"reserved":0,"last_update":"0001-01-01T00:00:00Z","name_a2s":"Uncletopia | Frankfurt | 8 | Community","protocol":17,"map":"cp_mountainlab","folder":"tf","game":"Team Fortress","app_id":440,"player_count":0,"max_players":24,"Bots":0,"server_type":"Dedicated","server_os":"Linux","password":true,"vac":true,"version":"7961495","steam_id":85568392924742828,"keywords":["cp","nocrits","nodmgspread","uncletopia"],"game_id":440,"stv_port":27086,"stv_name":"Uncletopia | Frankfurt | 8 | Community | STV","players":null},{"server_id":202,"name":"Uncletopia | Hong Kong | 1 | All Maps","name_short":"hgk-1","host":"hgk-1.hk.uncletopia.com","port":27015,"enabled":true,"region":"asia","cc":"hk","latitude":22.302711,"longitude":114.177216,"reserved":0,"last_update":"0001-01-01T00:00:00Z","name_a2s":"Uncletopia | Hong Kong | 1 | All Maps","protocol":17,"map":"pl_borneo","folder":"tf","game":"Team Fortress","app_id":440,"player_count":24,"max_players":24,"Bots":0,"server_type":"Dedicated","server_os":"Linux","password":true,"vac":true,"version":"7961495","steam_id":85568392924494504,"keywords":["nocrits","nodmgspread","payload","uncletopia"],"game_id":440,"stv_port":27016,"stv_name":"Uncletopia | Hong Kong | 1 | All Maps | STV","players":[{"user_id":23,"name":"MS PowerPoint","steam_id":76561198369523192,"connected_time":6849000000000,"state":"active","ping":67},{"user_id":102,"name":"momosneakeradventure","steam_id":76561199046440440,"connected_time":372000000000,"state":"active","ping":45},{"user_id":98,"name":"JDSFE","steam_id":76561198975490851,"connected_time":898000000000,"state":"active","ping":147},{"user_id":80,"name":"BAzooKA","steam_id":76561198061628689,"connected_time":2992000000000,"state":"active","ping":53},{"user_id":92,"name":"I'm going to eat your ass","steam_id":76561198313605970,"connected_time":2220000000000,"state":"active","ping":150},{"user_id":47,"name":"ihavenomouthandimustscream","steam_id":76561198172874097,"connected_time":5358000000000,"state":"active","ping":72},{"user_id":97,"name":"corpse_cadaver","steam_id":76561199225360457,"connected_time":1219000000000,"state":"active","ping":70},{"user_id":96,"name":"Alice (artificial)","steam_id":76561198052410860,"connected_time":1839000000000,"state":"active","ping":114},{"user_id":103,"name":"sett.","steam_id":76561199010718657,"connected_time":16000000000,"state":"active","ping":81},{"user_id":87,"name":"Popolor","steam_id":76561198134861914,"connected_time":2525000000000,"state":"active","ping":82},{"user_id":42,"name":"Hay","steam_id":76561199438952901,"connected_time":5780000000000,"state":"active","ping":55},{"user_id":67,"name":"Lu","steam_id":76561198320532821,"connected_time":3801000000000,"state":"active","ping":75},{"user_id":88,"name":"vnc","steam_id":76561199075775384,"connected_time":2488000000000,"state":"active","ping":87},{"user_id":73,"name":"Saffron","steam_id":76561199025320247,"connected_time":3426000000000,"state":"active","ping":76},{"user_id":79,"name":"karnolyth","steam_id":76561198965473654,"connected_time":3007000000000,"state":"active","ping":76},{"user_id":72,"name":"screaming sniper","steam_id":76561199085568674,"connected_time":3440000000000,"state":"active","ping":71},{"user_id":54,"name":"fred \\ need premium","steam_id":76561199496222946,"connected_time":5045000000000,"state":"active","ping":96},{"user_id":65,"name":"the NYN mass producer","steam_id":76561198214192048,"connected_time":4193000000000,"state":"active","ping":97},{"user_id":81,"name":"sugma","steam_id":76561199009556495,"connected_time":2836000000000,"state":"active","ping":110},{"user_id":77,"name":"vintage","steam_id":76561198230213828,"connected_time":3049000000000,"state":"active","ping":64},{"user_id":59,"name":"rotundotund","steam_id":76561198057691986,"connected_time":4766000000000,"state":"active","ping":77},{"user_id":90,"name":"spinach (old mouse)","steam_id":76561198042539541,"connected_time":2397000000000,"state":"active","ping":84},{"user_id":99,"name":"Wx","steam_id":76561199217780897,"connected_time":816000000000,"state":"active","ping":119},{"user_id":101,"name":"[Sicky] I twin-charged your kid","steam_id":76561198228084940,"connected_time":477000000000,"state":"active","ping":43}]},{"server_id":1,"name":"Uncletopia | Los Angeles | 1 | All Maps","name_short":"lax-1","host":"lax-1.us.uncletopia.com","port":27015,"enabled":true,"region":"us-west","cc":"us","latitude":33.94279,"longitude":-118.41004,"reserved":0,"last_update":"0001-01-01T00:00:00Z","name_a2s":"Uncletopia | Los Angeles | 1 | All Maps","protocol":17,"map":"pl_badwater","folder":"tf","game":"Team Fortress","app_id":440,"player_count":24,"max_players":24,"Bots":0,"server_type":"Dedicated","server_os":"Linux","password":true,"vac":true,"version":"7961495","steam_id":85568392924469991,"keywords":["nocrits","nodmgspread","payload","uncletopia"],"game_id":440,"stv_port":27016,"stv_name":"Uncletopia | Los Angeles | 1 | All Maps | STV","players":[{"user_id":487,"name":"Maid 'n' China","steam_id":76561198423392976,"connected_time":1770000000000,"state":"active","ping":50},{"user_id":498,"name":"Gut125","steam_id":76561198101787225,"connected_time":935000000000,"state":"active","ping":38},{"user_id":492,"name":"lol","steam_id":76561198026491738,"connected_time":1654000000000,"state":"active","ping":67},{"user_id":500,"name":"beezer","steam_id":76561199049160726,"connected_time":377000000000,"state":"active","ping":53},{"user_id":497,"name":"A class hero","steam_id":76561198066091050,"connected_time":1283000000000,"state":"active","ping":61},{"user_id":493,"name":"T√ºCold","steam_id":76561198111278197,"connected_time":1646000000000,"state":"active","ping":60},{"user_id":467,"name":"Strange Festive Femboy","steam_id":76561198050385093,"connected_time":4374000000000,"state":"active","ping":125},{"user_id":446,"name":"filtered by cp_steel","steam_id":76561198031409921,"connected_time":5997000000000,"state":"active","ping":49},{"user_id":501,"name":"STUPID DUMBASS BABY","steam_id":76561199112576615,"connected_time":295000000000,"state":"active","ping":66},{"user_id":494,"name":"meph","steam_id":76561198149683030,"connected_time":1623000000000,"state":"active","ping":69},{"user_id":432,"name":"Phrog","steam_id":76561198072975322,"connected_time":7458000000000,"state":"active","ping":78},{"user_id":484,"name":"sirFrost","steam_id":76561198072267177,"connected_time":2616000000000,"state":"active","ping":79},{"user_id":485,"name":"Bodhisattva","steam_id":76561198085228896,"connected_time":2139000000000,"state":"active","ping":46},{"user_id":502,"name":"mutant demonic imp","steam_id":76561198132803810,"connected_time":14000000000,"state":"active","ping":362},{"user_id":470,"name":"shreklover69","steam_id":76561198054070811,"connected_time":4241000000000,"state":"active","ping":50},{"user_id":427,"name":"Keth","steam_id":76561198155903648,"connected_time":7532000000000,"state":"active","ping":75},{"user_id":478,"name":"duncaidan","steam_id":76561199013510313,"connected_time":3141000000000,"state":"active","ping":47},{"user_id":496,"name":"gagobears","steam_id":76561198086008437,"connected_time":1472000000000,"state":"active","ping":75},{"user_id":394,"name":"aldwych","steam_id":76561198318126190,"connected_time":9861000000000,"state":"active","ping":153},{"user_id":426,"name":"Robotguy9","steam_id":76561198147429617,"connected_time":7586000000000,"state":"active","ping":94},{"user_id":481,"name":"Lock'd","steam_id":76561198170108230,"connected_time":2907000000000,"state":"active","ping":75},{"user_id":495,"name":"pyrotechnic","steam_id":76561198043558709,"connected_time":1583000000000,"state":"active","ping":72},{"user_id":429,"name":"Vrita","steam_id":76561198059483641,"connected_time":7498000000000,"state":"active","ping":60},{"user_id":473,"name":"Mr. Noodle","steam_id":76561198025280658,"connected_time":3350000000000,"state":"active","ping":48}]},{"server_id":112,"name":"Uncletopia | Los Angeles | 2 | All Maps","name_short":"lax-2","host":"lax-1.us.uncletopia.com","port":27025,"enabled":true,"region":"us-west","cc":"us","latitude":33.94279,"longitude":-118.41004,"reserved":0,"last_update":"0001-01-01T00:00:00Z","name_a2s":"Uncletopia | Los Angeles | 2 | All Maps","protocol":17,"map":"cp_egypt_final","folder":"tf","game":"Team Fortress","app_id":440,"player_count":22,"max_players":24,"Bots":0,"server_type":"Dedicated","server_os":"Linux","password":true,"vac":true,"version":"7961495","steam_id":85568392924469992,"keywords":["cp","nocrits","nodmgspread","uncletopia"],"game_id":440,"stv_port":27026,"stv_name":"Uncletopia | Los Angeles | 2 | All Maps | STV","players":[{"user_id":197,"name":"DaddyGalaxy","steam_id":76561198139697796,"connected_time":1377000000000,"state":"active","ping":75},{"user_id":174,"name":"Alejandro","steam_id":76561197970051493,"connected_time":3518000000000,"state":"active","ping":147},{"user_id":139,"name":"Hectic_Puppy (bday in 3 DAYS)","steam_id":76561198111645213,"connected_time":7904000000000,"state":"active","ping":45},{"user_id":211,"name":"Flops","steam_id":76561197961030141,"connected_time":407000000000,"state":"active","ping":75},{"user_id":188,"name":"pan","steam_id":76561198093968095,"connected_time":1591000000000,"state":"active","ping":52},{"user_id":160,"name":"Talented","steam_id":76561198800259660,"connected_time":6974000000000,"state":"active","ping":90},{"user_id":172,"name":"Stealthguy724","steam_id":76561198195961430,"connected_time":4019000000000,"state":"active","ping":125},{"user_id":123,"name":"Context","steam_id":76561197972634187,"connected_time":10335000000000,"state":"active","ping":50},{"user_id":205,"name":"jimmy outlaw","steam_id":76561198070380402,"connected_time":825000000000,"state":"active","ping":90},{"user_id":206,"name":"happer","steam_id":76561198018252253,"connected_time":821000000000,"state":"active","ping":59},{"user_id":207,"name":"checkswing","steam_id":76561198999816132,"connected_time":779000000000,"state":"active","ping":129},{"user_id":212,"name":"Astro","steam_id":76561198131062247,"connected_time":355000000000,"state":"active","ping":92},{"user_id":216,"name":"waggyaggy","steam_id":76561197998241407,"connected_time":14000000000,"state":"spawning","ping":44},{"user_id":187,"name":"Ethanol Buttchugger","steam_id":76561199127590316,"connected_time":1695000000000,"state":"active","ping":56},{"user_id":176,"name":"Enstabanger","steam_id":76561198140736928,"connected_time":2887000000000,"state":"active","ping":68},{"user_id":201,"name":"Rusty","steam_id":76561198055585129,"connected_time":1123000000000,"state":"active","ping":75},{"user_id":178,"name":"Squatter1","steam_id":76561198078987734,"connected_time":2151000000000,"state":"active","ping":77},{"user_id":215,"name":"Tyranophallus Rex","steam_id":76561198026541997,"connected_time":288000000000,"state":"active","ping":90},{"user_id":193,"name":"Jesus Epstein","steam_id":76561198203047891,"connected_time":1477000000000,"state":"active","ping":57},{"user_id":210,"name":"ryonica","steam_id":76561198100844473,"connected_time":590000000000,"state":"active","ping":106},{"user_id":194,"name":"ninety9dragonfly","steam_id":76561198363406983,"connected_time":1475000000000,"state":"active","ping":74},{"user_id":196,"name":"Shang","steam_id":76561198298637817,"connected_time":1391000000000,"state":"active","ping":93}]},{"server_id":324,"name":"Uncletopia | Los Angeles | 3 | All Maps","name_short":"lax-3","host":"lax-1.us.uncletopia.com","port":27035,"enabled":true,"region":"us-west","cc":"us","latitude":33.94279,"longitude":-118.41004,"reserved":0,"last_update":"0001-01-01T00:00:00Z","name_a2s":"Uncletopia | Los Angeles | 3 | All Maps","protocol":17,"map":"pl_pier","folder":"tf","game":"Team Fortress","app_id":440,"player_count":24,"max_players":24,"Bots":0,"server_type":"Dedicated","server_os":"Linux","password":true,"vac":true,"version":"7961495","steam_id":85568392924510198,"keywords":["nocrits","nodmgspread","payload","uncletopia"],"game_id":440,"stv_port":27036,"stv_name":"Uncletopia | Los Angeles | 3 | All Maps | STV","players":[{"user_id":103,"name":"Ricochet Pro","steam_id":76561198005328215,"connected_time":1620000000000,"state":"active","ping":66},{"user_id":87,"name":"nao","steam_id":76561198073982533,"connected_time":2680000000000,"state":"active","ping":95},{"user_id":110,"name":"Smoothpolishness","steam_id":76561198029084002,"connected_time":874000000000,"state":"active","ping":62},{"user_id":96,"name":"Igrium","steam_id":76561198119549811,"connected_time":1929000000000,"state":"active","ping":63},{"user_id":120,"name":"Sgt. Eclair","steam_id":76561198156384194,"connected_time":248000000000,"state":"active","ping":50},{"user_id":105,"name":"Mocha Josie","steam_id":76561198066452726,"connected_time":1396000000000,"state":"active","ping":85},{"user_id":97,"name":"Holo Jumpscare","steam_id":76561198153908250,"connected_time":1922000000000,"state":"active","ping":57},{"user_id":33,"name":"tomandjerry085","steam_id":76561198800789071,"connected_time":5965000000000,"state":"active","ping":60},{"user_id":73,"name":"Oops","steam_id":76561198015032646,"connected_time":3607000000000,"state":"active","ping":56},{"user_id":34,"name":"Harry Rage!!","steam_id":76561198873895549,"connected_time":5959000000000,"state":"active","ping":66},{"user_id":112,"name":"shirt","steam_id":76561198081014760,"connected_time":831000000000,"state":"active","ping":53},{"user_id":113,"name":"Hunter","steam_id":76561198041932384,"connected_time":778000000000,"state":"active","ping":69},{"user_id":114,"name":"A rat eating spaghetti","steam_id":76561198868639780,"connected_time":746000000000,"state":"active","ping":57},{"user_id":76,"name":"Bullwinkle J. Moose","steam_id":76561198075977196,"connected_time":3483000000000,"state":"active","ping":85},{"user_id":102,"name":"üëäCrockettMannüëä","steam_id":76561198286581911,"connected_time":1695000000000,"state":"active","ping":89},{"user_id":115,"name":"Mix56374","steam_id":76561199093717909,"connected_time":725000000000,"state":"active","ping":61},{"user_id":116,"name":"123","steam_id":76561198040375911,"connected_time":723000000000,"state":"active","ping":106},{"user_id":117,"name":"Chef","steam_id":76561198037041957,"connected_time":713000000000,"state":"active","ping":54},{"user_id":119,"name":"(‡∏á'ÃÄ-'ÃÅ)‡∏á","steam_id":76561198191536489,"connected_time":627000000000,"state":"active","ping":65},{"user_id":77,"name":"Eden","steam_id":76561198081284664,"connected_time":3460000000000,"state":"active","ping":57},{"user_id":78,"name":"TacoMan4Life","steam_id":76561198832562728,"connected_time":3422000000000,"state":"active","ping":60},{"user_id":100,"name":"Spread Joy, Not Hate","steam_id":76561198053117503,"connected_time":1891000000000,"state":"active","ping":93},{"user_id":64,"name":"Incredible Donk","steam_id":76561198427360423,"connected_time":4283000000000,"state":"active","ping":58},{"user_id":81,"name":"MistaRattle","steam_id":76561199144406643,"connected_time":3266000000000,"state":"active","ping":69}]},{"server_id":25,"name":"Uncletopia | Los Angeles | 4 | Stopwatch","name_short":"lax-4","host":"lax-1.us.uncletopia.com","port":27045,"enabled":true,"region":"us-west","cc":"us","latitude":33.94279,"longitude":-118.41004,"reserved":0,"last_update":"0001-01-01T00:00:00Z","name_a2s":"Uncletopia | Los Angeles | 4 | Stopwatch","protocol":17,"map":"workshop/cp_process_f12.ugc2302948105","folder":"tf","game":"Team Fortress","app_id":440,"player_count":0,"max_players":24,"Bots":0,"server_type":"Dedicated","server_os":"Linux","password":true,"vac":true,"version":"7961495","steam_id":85568392924510199,"keywords":["cp","nocrits","nodmgspread","uncletopia"],"game_id":440,"stv_port":27046,"stv_name":"Uncletopia | Los Angeles | 4 | Stopwatch | STV","players":null},{"server_id":11,"name":"Uncletopia | London | 1 | All Maps","name_short":"lon-1","host":"lon-1.uk.uncletopia.com","port":27015,"enabled":true,"region":"eu","cc":"gb","latitude":51.509865,"longitude":-0.118092,"reserved":0,"last_update":"0001-01-01T00:00:00Z","name_a2s":"Uncletopia | London | 1 | All Maps","protocol":17,"map":"pl_badwater","folder":"tf","game":"Team Fortress","app_id":440,"player_count":1,"max_players":24,"Bots":0,"server_type":"Dedicated","server_os":"Linux","password":true,"vac":true,"version":"7961495","steam_id":85568392924367362,"keywords":["nocrits","nodmgspread","payload","uncletopia"],"game_id":440,"stv_port":27016,"stv_name":"Uncletopia | London | 1 | All Maps | STV","players":[{"user_id":3,"name":"yuno appreciator","steam_id":76561198083286511,"connected_time":2494000000000,"state":"active","ping":30}]},{"server_id":114,"name":"Uncletopia | London | 2 | All Maps","name_short":"lon-2","host":"lon-1.uk.uncletopia.com","port":27025,"enabled":true,"region":"eu","cc":"gb","latitude":51.509865,"longitude":-0.118092,"reserved":0,"last_update":"0001-01-01T00:00:00Z","name_a2s":"Uncletopia | London | 2 | All Maps","protocol":17,"map":"koth_lakeside_final","folder":"tf","game":"Team Fortress","app_id":440,"player_count":0,"max_players":24,"Bots":0,"server_type":"Dedicated","server_os":"Linux","password":true,"vac":true,"version":"7961495","steam_id":85568392924470941,"keywords":["cp","nocrits","nodmgspread","uncletopia"],"game_id":440,"stv_port":27026,"stv_name":"Uncletopia | London | 2 | All Maps | STV","players":null},{"server_id":320,"name":"Uncletopia | London | 3 | All Maps","name_short":"lon-3","host":"lon-1.uk.uncletopia.com","port":27035,"enabled":true,"region":"eu","cc":"gb","latitude":51.509865,"longitude":-0.118092,"reserved":0,"last_update":"0001-01-01T00:00:00Z","name_a2s":"Uncletopia | London | 3 | All Maps","protocol":17,"map":"cp_process_final","folder":"tf","game":"Team Fortress","app_id":440,"player_count":0,"max_players":24,"Bots":0,"server_type":"Dedicated","server_os":"Linux","password":true,"vac":true,"version":"7961495","steam_id":85568392924510192,"keywords":["cp","nocrits","nodmgspread","uncletopia"],"game_id":440,"stv_port":27036,"stv_name":"Uncletopia | London | 3 | All Maps | STV","players":null},{"server_id":321,"name":"Uncletopia | London | 4 | All Maps","name_short":"lon-4","host":"lon-1.uk.uncletopia.com","port":27045,"enabled":true,"region":"eu","cc":"gb","latitude":51.509865,"longitude":-0.118092,"reserved":0,"last_update":"0001-01-01T00:00:00Z","name_a2s":"Uncletopia | London | 4 | All Maps","protocol":17,"map":"koth_cascade","folder":"tf","game":"Team Fortress","app_id":440,"player_count":0,"max_players":24,"Bots":0,"server_type":"Dedicated","server_os":"Linux","password":true,"vac":true,"version":"7961495","steam_id":85568392924510193,"keywords":["cp","nocrits","nodmgspread","uncletopia"],"game_id":440,"stv_port":27046,"stv_name":"Uncletopia | London | 4 | All Maps | STV","players":null},{"server_id":21,"name":"Uncletopia | London | 5 | All Maps","name_short":"lon-5","host":"lon-1.uk.uncletopia.com","port":27055,"enabled":true,"region":"eu","cc":"gb","latitude":51.509865,"longitude":-0.118092,"reserved":0,"last_update":"0001-01-01T00:00:00Z","name_a2s":"Uncletopia | London | 5 | All Maps","protocol":17,"map":"koth_lakeside_final","folder":"tf","game":"Team Fortress","app_id":440,"player_count":0,"max_players":24,"Bots":0,"server_type":"Dedicated","server_os":"Linux","password":true,"vac":true,"version":"7961495","steam_id":85568392924742829,"keywords":["cp","nocrits","nodmgspread","uncletopia"],"game_id":440,"stv_port":27056,"stv_name":"Uncletopia | London | 5 | All Maps | STV","players":null},{"server_id":22,"name":"Uncletopia | London | 6 | All Maps","name_short":"lon-6","host":"lon-1.uk.uncletopia.com","port":27065,"enabled":true,"region":"eu","cc":"gb","latitude":51.509865,"longitude":-0.118092,"reserved":0,"last_update":"0001-01-01T00:00:00Z","name_a2s":"Uncletopia | London | 6 | All Maps","protocol":17,"map":"cp_dustbowl","folder":"tf","game":"Team Fortress","app_id":440,"player_count":0,"max_players":24,"Bots":0,"server_type":"Dedicated","server_os":"Linux","password":true,"vac":true,"version":"7961495","steam_id":85568392924742830,"keywords":["cp","nocrits","nodmgspread","uncletopia"],"game_id":440,"stv_port":27066,"stv_name":"Uncletopia | London | 6 | All Maps | STV","players":null},{"server_id":40,"name":"Uncletopia | London | 7 | Stopwatch","name_short":"lon-7","host":"lon-1.uk.uncletopia.com","port":27075,"enabled":true,"region":"eu","cc":"gb","latitude":51.509865,"longitude":-0.118092,"reserved":0,"last_update":"0001-01-01T00:00:00Z","name_a2s":"Uncletopia | London | 7 | Stopwatch","protocol":17,"map":"koth_lakeside_final","folder":"tf","game":"Team Fortress","app_id":440,"player_count":0,"max_players":24,"Bots":0,"server_type":"Dedicated","server_os":"Linux","password":true,"vac":true,"version":"7961495","steam_id":85568392924964314,"keywords":["cp","nocrits","nodmgspread","uncletopia"],"game_id":440,"stv_port":27076,"stv_name":"Uncletopia | London | 7 | Stopwatch | STV","players":null},{"server_id":41,"name":"Uncletopia | London | 8 | Community","name_short":"lon-8","host":"lon-1.uk.uncletopia.com","port":27085,"enabled":true,"region":"eu","cc":"gb","latitude":51.509865,"longitude":-0.118092,"reserved":0,"last_update":"0001-01-01T00:00:00Z","name_a2s":"Uncletopia | London | 8 | Community","protocol":17,"map":"cp_snakewater_final1","folder":"tf","game":"Team Fortress","app_id":440,"player_count":0,"max_players":24,"Bots":0,"server_type":"Dedicated","server_os":"Linux","password":true,"vac":true,"version":"7961495","steam_id":85568392924964315,"keywords":["cp","nocrits","nodmgspread","uncletopia"],"game_id":440,"stv_port":27086,"stv_name":"Uncletopia | London | 8 | Community | STV","players":null},{"server_id":300,"name":"Uncletopia | Montr√©al | 1 | One Thousand Uncles","name_short":"mtl-1","host":"mtl-1.ca.uncletopia.com","port":27015,"enabled":true,"region":"us-east","cc":"ca","latitude":45.50889,"longitude":-73.56167,"reserved":0,"last_update":"0001-01-01T00:00:00Z","name_a2s":"","protocol":0,"map":"","folder":"","game":"","app_id":0,"player_count":0,"max_players":0,"Bots":0,"server_type":"","server_os":"","password":false,"vac":false,"version":"","steam_id":0,"keywords":null,"game_id":0,"stv_port":0,"stv_name":"","players":null},{"server_id":301,"name":"Uncletopia | Montr√©al | 2 | One Thousand Uncles","name_short":"mtl-2","host":"mtl-1.ca.uncletopia.com","port":27025,"enabled":true,"region":"us-east","cc":"ca","latitude":45.50889,"longitude":-73.56167,"reserved":0,"last_update":"0001-01-01T00:00:00Z","name_a2s":"","protocol":0,"map":"","folder":"","game":"","app_id":0,"player_count":1,"max_players":0,"Bots":0,"server_type":"","server_os":"","password":false,"vac":false,"version":"","steam_id":0,"keywords":null,"game_id":0,"stv_port":0,"stv_name":"","players":[{"user_id":255,"name":"Lots0","steam_id":76561198043143145,"connected_time":1087000000000,"state":"active","ping":90}]},{"server_id":302,"name":"Uncletopia | Montr√©al | 3 | One Thousand Uncles","name_short":"mtl-3","host":"mtl-1.ca.uncletopia.com","port":27035,"enabled":true,"region":"us-east","cc":"ca","latitude":45.50889,"longitude":-73.56167,"reserved":0,"last_update":"0001-01-01T00:00:00Z","name_a2s":"","protocol":0,"map":"","folder":"","game":"","app_id":0,"player_count":0,"max_players":0,"Bots":0,"server_type":"","server_os":"","password":false,"vac":false,"version":"","steam_id":0,"keywords":null,"game_id":0,"stv_port":0,"stv_name":"","players":null},{"server_id":13,"name":"Uncletopia | New York City | 1 | All Maps","name_short":"nyc-1","host":"nyc-1.us.uncletopia.com","port":27015,"enabled":true,"region":"us-east","cc":"us","latitude":40.73061,"longitude":-73.93524,"reserved":0,"last_update":"0001-01-01T00:00:00Z","name_a2s":"Uncletopia | New York City | 1 | All Maps","protocol":17,"map":"cp_fastlane","folder":"tf","game":"Team Fortress","app_id":440,"player_count":15,"max_players":24,"Bots":0,"server_type":"Dedicated","server_os":"Linux","password":true,"vac":true,"version":"7961495","steam_id":85568392924469993,"keywords":["cp","nocrits","nodmgspread","uncletopia"],"game_id":440,"stv_port":27016,"stv_name":"Uncletopia | New York City | 1 | All Maps | STV","players":[{"user_id":791,"name":"CRAZY engineer","steam_id":76561198887937902,"connected_time":536000000000,"state":"active","ping":72},{"user_id":750,"name":"Goredude","steam_id":76561198041048764,"connected_time":3141000000000,"state":"active","ping":44},{"user_id":771,"name":"Chicken Burger","steam_id":76561198358529311,"connected_time":1451000000000,"state":"active","ping":88},{"user_id":752,"name":"Pluto","steam_id":76561198012630802,"connected_time":2706000000000,"state":"active","ping":114},{"user_id":776,"name":"Mrbobz :^)","steam_id":76561198038681120,"connected_time":1315000000000,"state":"active","ping":146},{"user_id":764,"name":"rattlin' bog","steam_id":76561198224551028,"connected_time":2359000000000,"state":"active","ping":51},{"user_id":778,"name":"Deedestroyer","steam_id":76561197996072506,"connected_time":1304000000000,"state":"active","ping":141},{"user_id":780,"name":"Buterbrod","steam_id":76561198829880730,"connected_time":1220000000000,"state":"active","ping":175},{"user_id":789,"name":"AlmondMilk","steam_id":76561198151229725,"connected_time":649000000000,"state":"active","ping":45},{"user_id":787,"name":"SoldMyKidneyForCollege","steam_id":76561198096329559,"connected_time":978000000000,"state":"active","ping":114},{"user_id":734,"name":"quack","steam_id":76561198138783216,"connected_time":4754000000000,"state":"active","ping":37},{"user_id":766,"name":"tacofever","steam_id":76561198010966507,"connected_time":2206000000000,"state":"active","ping":115},{"user_id":739,"name":"Filthy Hobo","steam_id":76561198174373015,"connected_time":4672000000000,"state":"active","ping":129},{"user_id":768,"name":"Lemoncurry","steam_id":76561198045356414,"connected_time":1985000000000,"state":"active","ping":68},{"user_id":760,"name":"Vordt","steam_id":76561198040942866,"connected_time":2524000000000,"state":"active","ping":43}]},{"server_id":14,"name":"Uncletopia | New York City | 2 | All Maps","name_short":"nyc-2","host":"nyc-1.us.uncletopia.com","port":27025,"enabled":true,"region":"us-east","cc":"us","latitude":40.73061,"longitude":-73.93524,"reserved":0,"last_update":"0001-01-01T00:00:00Z","name_a2s":"Uncletopia | New York City | 2 | All Maps","protocol":17,"map":"cp_altitude","folder":"tf","game":"Team Fortress","app_id":440,"player_count":1,"max_players":24,"Bots":0,"server_type":"Dedicated","server_os":"Linux","password":true,"vac":true,"version":"7961495","steam_id":85568392924469994,"keywords":["cp","nocrits","nodmgspread","uncletopia"],"game_id":440,"stv_port":27026,"stv_name":"Uncletopia | New York City | 2 | All Maps | STV","players":[{"user_id":610,"name":"tac","steam_id":76561198408477421,"connected_time":464000000000,"state":"active","ping":92}]},{"server_id":15,"name":"Uncletopia | New York City | 3 | Stopwatch","name_short":"nyc-3","host":"nyc-1.us.uncletopia.com","port":27035,"enabled":true,"region":"us-east","cc":"us","latitude":40.73061,"longitude":-73.93524,"reserved":0,"last_update":"0001-01-01T00:00:00Z","name_a2s":"Uncletopia | New York City | 3 | Stopwatch","protocol":17,"map":"workshop/koth_ashville_final.ugc2130459942","folder":"tf","game":"Team Fortress","app_id":440,"player_count":0,"max_players":24,"Bots":0,"server_type":"Dedicated","server_os":"Linux","password":true,"vac":true,"version":"7961495","steam_id":85568392924742820,"keywords":["cp","nocrits","nodmgspread","uncletopia"],"game_id":440,"stv_port":27036,"stv_name":"Uncletopia | New York City | 3 | Stopwatch | STV","players":null},{"server_id":16,"name":"Uncletopia | New York City | 4 | Community","name_short":"nyc-4","host":"nyc-1.us.uncletopia.com","port":27045,"enabled":true,"region":"us-east","cc":"us","latitude":40.73061,"longitude":-73.93524,"reserved":0,"last_update":"0001-01-01T00:00:00Z","name_a2s":"Uncletopia | New York City | 4 | Community","protocol":17,"map":"workshop/pl_vigil_rc10.ugc1266210012","folder":"tf","game":"Team Fortress","app_id":440,"player_count":2,"max_players":24,"Bots":0,"server_type":"Dedicated","server_os":"Linux","password":true,"vac":true,"version":"7961495","steam_id":85568392924742821,"keywords":["nocrits","nodmgspread","payload","uncletopia"],"game_id":440,"stv_port":27046,"stv_name":"Uncletopia | New York City | 4 | Community | STV","players":[{"user_id":213,"name":"Roald","steam_id":76561198143182772,"connected_time":2937000000000,"state":"active","ping":75},{"user_id":216,"name":"Orko","steam_id":76561198162232131,"connected_time":1286000000000,"state":"active","ping":65}]},{"server_id":142,"name":"Uncletopia | S√£o Paulo | 1 | All Maps","name_short":"sao-1","host":"sao-1.br.uncletopia.com","port":27015,"enabled":true,"region":"sa","cc":"br","latitude":-23.533773,"longitude":-46.62529,"reserved":0,"last_update":"0001-01-01T00:00:00Z","name_a2s":"Uncletopia | S√£o Paulo | 1 | All Maps","protocol":17,"map":"cp_altitude","folder":"tf","game":"Team Fortress","app_id":440,"player_count":0,"max_players":24,"Bots":0,"server_type":"Dedicated","server_os":"Linux","password":true,"vac":true,"version":"7961495","steam_id":85568392924469996,"keywords":["cp","nocrits","nodmgspread","uncletopia"],"game_id":440,"stv_port":27016,"stv_name":"Uncletopia | S√£o Paulo | 1 | All Maps | STV","players":null},{"server_id":143,"name":"Uncletopia | S√£o Paulo | 2 | Community","name_short":"sao-2","host":"sao-2.br.uncletopia.com","port":27015,"enabled":true,"region":"sa","cc":"br","latitude":-23.533773,"longitude":-46.62529,"reserved":0,"last_update":"0001-01-01T00:00:00Z","name_a2s":"Uncletopia | S√£o Paulo | 2 | Community","protocol":17,"map":"workshop/cp_coilblaze_rc7.ugc1272700588","folder":"tf","game":"Team Fortress","app_id":440,"player_count":0,"max_players":24,"Bots":0,"server_type":"Dedicated","server_os":"Linux","password":true,"vac":true,"version":"7961495","steam_id":85568392924485349,"keywords":["cp","nocrits","nodmgspread","uncletopia"],"game_id":440,"stv_port":27016,"stv_name":"Uncletopia | S√£o Paulo | 2 | Community | STV","players":null},{"server_id":7,"name":"Uncletopia | Seattle | 1 | All Maps","name_short":"sea-1","host":"sea-1.us.uncletopia.com","port":27015,"enabled":true,"region":"us-west","cc":"us","latitude":47.608013,"longitude":-122.33517,"reserved":0,"last_update":"0001-01-01T00:00:00Z","name_a2s":"Uncletopia | Seattle | 1 | All Maps","protocol":17,"map":"pl_upward","folder":"tf","game":"Team Fortress","app_id":440,"player_count":25,"max_players":24,"Bots":0,"server_type":"Dedicated","server_os":"Linux","password":true,"vac":true,"version":"7961495","steam_id":85568392924469997,"keywords":["alltalk","nocrits","nodmgspread","payload","uncletopia"],"game_id":440,"stv_port":27016,"stv_name":"Uncletopia | Seattle | 1 | All Maps | STV","players":[{"user_id":671,"name":"Spectre","steam_id":76561198037535169,"connected_time":2630000000000,"state":"active","ping":71},{"user_id":678,"name":"[TrC] Nosy","steam_id":76561197978859310,"connected_time":1190000000000,"state":"active","ping":56},{"user_id":646,"name":"NEBULA","steam_id":76561198086878595,"connected_time":6603000000000,"state":"active","ping":69},{"user_id":640,"name":"Daz","steam_id":76561198041431938,"connected_time":7302000000000,"state":"active","ping":55},{"user_id":668,"name":"theslayert4","steam_id":76561199258578780,"connected_time":3587000000000,"state":"active","ping":45},{"user_id":663,"name":"soup","steam_id":76561198043209046,"connected_time":4682000000000,"state":"active","ping":72},{"user_id":656,"name":"evilOlive","steam_id":76561198106222025,"connected_time":5599000000000,"state":"active","ping":85},{"user_id":660,"name":"Attrition","steam_id":76561197969881916,"connected_time":4766000000000,"state":"active","ping":51},{"user_id":591,"name":"‚ô¶‚ô£Quadric‚ô•‚ô†","steam_id":76561198061003853,"connected_time":12126000000000,"state":"active","ping":108},{"user_id":653,"name":"blinkerton city","steam_id":76561198054270410,"connected_time":5630000000000,"state":"active","ping":57},{"user_id":687,"name":"jorts","steam_id":76561199041179985,"connected_time":107000000000,"state":"active","ping":57},{"user_id":672,"name":"UltraLemon","steam_id":76561198353134617,"connected_time":2629000000000,"state":"active","ping":52},{"user_id":666,"name":"Sniff","steam_id":76561198010270922,"connected_time":4290000000000,"state":"active","ping":65},{"user_id":681,"name":"Nightshade","steam_id":76561199011017814,"connected_time":472000000000,"state":"active","ping":71},{"user_id":673,"name":"Nom Skirrett","steam_id":76561198014600788,"connected_time":2628000000000,"state":"active","ping":67},{"user_id":682,"name":"[TrC] Dackstrus","steam_id":76561197973518509,"connected_time":430000000000,"state":"active","ping":61},{"user_id":674,"name":"tophawkyy","steam_id":76561199075934685,"connected_time":2628000000000,"state":"active","ping":92},{"user_id":676,"name":"roryistheburfdaygorl :))","steam_id":76561198065825165,"connected_time":2392000000000,"state":"active","ping":48},{"user_id":641,"name":"Dog","steam_id":76561198041841128,"connected_time":7283000000000,"state":"active","ping":80},{"user_id":601,"name":"Aardappel","steam_id":76561198030894676,"connected_time":10746000000000,"state":"active","ping":63},{"user_id":597,"name":"Sweets","steam_id":76561198998446307,"connected_time":11052000000000,"state":"active","ping":69},{"user_id":588,"name":"Gm_Sweet","steam_id":76561199445091548,"connected_time":12272000000000,"state":"active","ping":60},{"user_id":685,"name":"car crash compilation #34","steam_id":76561198042773724,"connected_time":329000000000,"state":"active","ping":94},{"user_id":638,"name":"Cheezbeargur","steam_id":76561198164702899,"connected_time":7587000000000,"state":"active","ping":72},{"user_id":670,"name":"John Calibur","steam_id":76561197999986606,"connected_time":3141000000000,"state":"active","ping":70}]},{"server_id":119,"name":"Uncletopia | Seattle | 2 | All Maps","name_short":"sea-2","host":"sea-1.us.uncletopia.com","port":27025,"enabled":true,"region":"us-west","cc":"us","latitude":47.608013,"longitude":-122.33517,"reserved":0,"last_update":"0001-01-01T00:00:00Z","name_a2s":"Uncletopia | Seattle | 2 | All Maps","protocol":17,"map":"koth_viaduct","folder":"tf","game":"Team Fortress","app_id":440,"player_count":24,"max_players":24,"Bots":0,"server_type":"Dedicated","server_os":"Linux","password":true,"vac":true,"version":"7961495","steam_id":85568392924469998,"keywords":["cp","nocrits","nodmgspread","uncletopia"],"game_id":440,"stv_port":27026,"stv_name":"Uncletopia | Seattle | 2 | All Maps | STV","players":[{"user_id":328,"name":"florence","steam_id":76561198854390990,"connected_time":650000000000,"state":"active","ping":75},{"user_id":296,"name":"Type Three Dabeetus","steam_id":76561198062710038,"connected_time":3232000000000,"state":"active","ping":67},{"user_id":311,"name":"Banette","steam_id":76561198215458333,"connected_time":1735000000000,"state":"active","ping":46},{"user_id":283,"name":"\u0026Femboy Friday (they/them)","steam_id":76561198027321950,"connected_time":4599000000000,"state":"active","ping":55},{"user_id":333,"name":"pabelelkks5","steam_id":76561199195672603,"connected_time":242000000000,"state":"active","ping":58},{"user_id":324,"name":"Dongus","steam_id":76561197979056451,"connected_time":938000000000,"state":"active","ping":46},{"user_id":288,"name":"AWGER","steam_id":76561198284683624,"connected_time":3486000000000,"state":"active","ping":90},{"user_id":309,"name":"FidelGuevara","steam_id":76561198368296171,"connected_time":1749000000000,"state":"active","ping":94},{"user_id":334,"name":"Kid Named FInger","steam_id":76561198318766104,"connected_time":236000000000,"state":"active","ping":36},{"user_id":322,"name":"‚ô•CharaÂñúÁîüÂ≠ê‚ô•","steam_id":76561198080500920,"connected_time":1044000000000,"state":"active","ping":79},{"user_id":323,"name":"Neb","steam_id":76561198883473473,"connected_time":973000000000,"state":"active","ping":47},{"user_id":330,"name":"PLATNUMHANNYA","steam_id":76561198451426311,"connected_time":329000000000,"state":"active","ping":47},{"user_id":320,"name":"top 10 sidewalks","steam_id":76561198844273999,"connected_time":1192000000000,"state":"active","ping":48},{"user_id":335,"name":"MayKay","steam_id":76561199016092265,"connected_time":234000000000,"state":"active","ping":81},{"user_id":336,"name":"Be Gay, Do Crimes, Smoke Weed!","steam_id":76561198092419868,"connected_time":221000000000,"state":"active","ping":49},{"user_id":337,"name":"The Horny","steam_id":76561198863639459,"connected_time":192000000000,"state":"active","ping":61},{"user_id":338,"name":"JACK BRUNO","steam_id":76561198027957690,"connected_time":191000000000,"state":"active","ping":71},{"user_id":304,"name":"slowdance","steam_id":76561198097427947,"connected_time":2594000000000,"state":"active","ping":125},{"user_id":332,"name":"SpopM","steam_id":76561198928388508,"connected_time":277000000000,"state":"active","ping":75},{"user_id":321,"name":"Seriously Bruh","steam_id":76561198070408485,"connected_time":1187000000000,"state":"active","ping":55},{"user_id":325,"name":"NightmareOhm","steam_id":76561198338853664,"connected_time":878000000000,"state":"active","ping":45},{"user_id":339,"name":"cerious","steam_id":76561197994365894,"connected_time":177000000000,"state":"active","ping":40},{"user_id":340,"name":"Mom","steam_id":76561198207936000,"connected_time":174000000000,"state":"active","ping":65},{"user_id":341,"name":"MoondogIe","steam_id":76561198063328194,"connected_time":169000000000,"state":"active","ping":51}]},{"server_id":406,"name":"Uncletopia | Seattle | 3 | Stopwatch","name_short":"sea-3","host":"sea-1.us.uncletopia.com","port":27035,"enabled":true,"region":"us-west","cc":"us","latitude":47.608013,"longitude":-122.33517,"reserved":0,"last_update":"0001-01-01T00:00:00Z","name_a2s":"Uncletopia | Seattle | 3 | Stopwatch","protocol":17,"map":"workshop/cp_reckoner_rc6.ugc674719999","folder":"tf","game":"Team Fortress","app_id":440,"player_count":0,"max_players":24,"Bots":0,"server_type":"Dedicated","server_os":"Linux","password":true,"vac":true,"version":"7961495","steam_id":85568392924515217,"keywords":["cp","nocrits","nodmgspread","uncletopia"],"game_id":440,"stv_port":27036,"stv_name":"Uncletopia | Seattle | 3 | Stopwatch | STV","players":null},{"server_id":17,"name":"Uncletopia | San Francisco | 1 | All Maps","name_short":"sfo-1","host":"sfo-1.us.uncletopia.com","port":27015,"enabled":true,"region":"us-west","cc":"us","latitude":37.77397,"longitude":-122.4313,"reserved":0,"last_update":"0001-01-01T00:00:00Z","name_a2s":"Uncletopia | San Francisco | 1 | All Maps","protocol":17,"map":"koth_nucleus","folder":"tf","game":"Team Fortress","app_id":440,"player_count":24,"max_players":24,"Bots":0,"server_type":"Dedicated","server_os":"Linux","password":true,"vac":true,"version":"7961495","steam_id":85568392924469999,"keywords":["cp","nocrits","nodmgspread","uncletopia"],"game_id":440,"stv_port":27016,"stv_name":"Uncletopia | San Francisco | 1 | All Maps | STV","players":[{"user_id":328,"name":"HungryHippo","steam_id":76561198047615363,"connected_time":715000000000,"state":"active","ping":54},{"user_id":280,"name":"Grungus","steam_id":76561198047700230,"connected_time":4973000000000,"state":"active","ping":45},{"user_id":277,"name":"remanedur","steam_id":76561198059459507,"connected_time":5230000000000,"state":"active","ping":129},{"user_id":301,"name":"Battle Bug","steam_id":76561198005793034,"connected_time":3299000000000,"state":"active","ping":64},{"user_id":314,"name":"Quibits","steam_id":76561198032944405,"connected_time":2733000000000,"state":"active","ping":46},{"user_id":307,"name":"shakoiwa","steam_id":76561199059441773,"connected_time":3010000000000,"state":"active","ping":79},{"user_id":296,"name":"9's little helper","steam_id":76561199206177858,"connected_time":3595000000000,"state":"active","ping":62},{"user_id":331,"name":"Riven","steam_id":76561198091701349,"connected_time":616000000000,"state":"active","ping":97},{"user_id":326,"name":"Fray","steam_id":76561198030141282,"connected_time":838000000000,"state":"active","ping":101},{"user_id":330,"name":"purple hatsune miku","steam_id":76561198108844158,"connected_time":692000000000,"state":"active","ping":67},{"user_id":334,"name":"B00gal00ga123","steam_id":76561199273507453,"connected_time":189000000000,"state":"active","ping":76},{"user_id":324,"name":"Desert Cross Tortoise Fox","steam_id":76561198030736326,"connected_time":1169000000000,"state":"active","ping":69},{"user_id":306,"name":"9","steam_id":76561198208996573,"connected_time":3080000000000,"state":"active","ping":64},{"user_id":325,"name":"knatspray","steam_id":76561198832507482,"connected_time":1107000000000,"state":"active","ping":83},{"user_id":319,"name":"Borris","steam_id":76561198011136886,"connected_time":2131000000000,"state":"active","ping":64},{"user_id":336,"name":"Muselk","steam_id":76561199289676387,"connected_time":107000000000,"state":"active","ping":102},{"user_id":302,"name":"FastCo. Piglet","steam_id":76561198001877571,"connected_time":3286000000000,"state":"active","ping":105},{"user_id":316,"name":"Shabooyaroll-call","steam_id":76561198112306237,"connected_time":2530000000000,"state":"active","ping":68},{"user_id":335,"name":"nat","steam_id":76561198179923093,"connected_time":187000000000,"state":"active","ping":63},{"user_id":309,"name":"Wren","steam_id":76561198012067451,"connected_time":2962000000000,"state":"active","ping":105},{"user_id":333,"name":"Some Dood on the Internet","steam_id":76561198054657687,"connected_time":560000000000,"state":"active","ping":76},{"user_id":311,"name":"Conrad Murray","steam_id":76561198141682876,"connected_time":2916000000000,"state":"active","ping":104},{"user_id":322,"name":"Buswolley","steam_id":76561197995205571,"connected_time":1328000000000,"state":"active","ping":56},{"user_id":313,"name":"The_RainbowTrout","steam_id":76561199309554436,"connected_time":2867000000000,"state":"active","ping":67}]},{"server_id":18,"name":"Uncletopia | San Francisco | 2 | All Maps","name_short":"sfo-2","host":"sfo-1.us.uncletopia.com","port":27025,"enabled":true,"region":"us-west","cc":"us","latitude":37.77397,"longitude":-122.4313,"reserved":0,"last_update":"0001-01-01T00:00:00Z","name_a2s":"Uncletopia | San Francisco | 2 | All Maps","protocol":17,"map":"pl_swiftwater_final1","folder":"tf","game":"Team Fortress","app_id":440,"player_count":0,"max_players":24,"Bots":0,"server_type":"Dedicated","server_os":"Linux","password":true,"vac":true,"version":"7961495","steam_id":85568392924470000,"keywords":["nocrits","nodmgspread","payload","uncletopia"],"game_id":440,"stv_port":27026,"stv_name":"Uncletopia | San Francisco | 2 | All Maps | STV","players":null},{"server_id":19,"name":"Uncletopia | San Francisco | 3 | Stopwatch","name_short":"sfo-3","host":"sfo-1.us.uncletopia.com","port":27035,"enabled":true,"region":"us-west","cc":"us","latitude":37.77397,"longitude":-122.4313,"reserved":0,"last_update":"0001-01-01T00:00:00Z","name_a2s":"Uncletopia | San Francisco | 3 | Stopwatch","protocol":17,"map":"koth_highpass","folder":"tf","game":"Team Fortress","app_id":440,"player_count":0,"max_players":24,"Bots":0,"server_type":"Dedicated","server_os":"Linux","password":true,"vac":true,"version":"7961495","steam_id":85568392924742824,"keywords":["cp","nocrits","nodmgspread","uncletopia"],"game_id":440,"stv_port":27036,"stv_name":"Uncletopia | San Francisco | 3 | Stopwatch | STV","players":null},{"server_id":20,"name":"Uncletopia | San Francisco | 4 | Community","name_short":"sfo-4","host":"sfo-1.us.uncletopia.com","port":27045,"enabled":true,"region":"us-west","cc":"us","latitude":37.77397,"longitude":-122.4313,"reserved":0,"last_update":"0001-01-01T00:00:00Z","name_a2s":"Uncletopia | San Francisco | 4 | Community","protocol":17,"map":"workshop/koth_ashville_final.ugc2130459942","folder":"tf","game":"Team Fortress","app_id":440,"player_count":0,"max_players":24,"Bots":0,"server_type":"Dedicated","server_os":"Linux","password":true,"vac":true,"version":"7961495","steam_id":85568392924742826,"keywords":["cp","nocrits","nodmgspread","uncletopia"],"game_id":440,"stv_port":27046,"stv_name":"Uncletopia | San Francisco | 4 | Community | STV","players":null},{"server_id":141,"name":"Uncletopia | Sydney | 1 | All Maps","name_short":"syd-1","host":"syd-1.au.uncletopia.com","port":27015,"enabled":true,"region":"au","cc":"au","latitude":-33.865143,"longitude":151.2099,"reserved":0,"last_update":"0001-01-01T00:00:00Z","name_a2s":"Uncletopia | Sydney | 1 | All Maps","protocol":17,"map":"pl_borneo","folder":"tf","game":"Team Fortress","app_id":440,"player_count":24,"max_players":24,"Bots":0,"server_type":"Dedicated","server_os":"Linux","password":true,"vac":true,"version":"7961495","steam_id":85568392924470001,"keywords":["nocrits","nodmgspread","payload","uncletopia"],"game_id":440,"stv_port":27016,"stv_name":"Uncletopia | Sydney | 1 | All Maps | STV","players":[{"user_id":137,"name":"edwardo","steam_id":76561198268861226,"connected_time":2385000000000,"state":"active","ping":60},{"user_id":143,"name":"No Scrubs","steam_id":76561197969619053,"connected_time":1032000000000,"state":"active","ping":74},{"user_id":101,"name":"FizzySpoon","steam_id":76561198071464721,"connected_time":6208000000000,"state":"active","ping":60},{"user_id":102,"name":"negan.feels","steam_id":76561198075745774,"connected_time":6046000000000,"state":"active","ping":58},{"user_id":115,"name":"saturation","steam_id":76561199457046392,"connected_time":4741000000000,"state":"active","ping":76},{"user_id":148,"name":"ok i pull up","steam_id":76561198048064049,"connected_time":423000000000,"state":"active","ping":78},{"user_id":23,"name":"voxii","steam_id":76561198099698281,"connected_time":13090000000000,"state":"active","ping":72},{"user_id":133,"name":"diamond","steam_id":76561198206754736,"connected_time":2688000000000,"state":"active","ping":58},{"user_id":146,"name":"Pompadouraus","steam_id":76561198327530525,"connected_time":795000000000,"state":"active","ping":74},{"user_id":138,"name":"Warren","steam_id":76561198120350917,"connected_time":2194000000000,"state":"active","ping":38},{"user_id":135,"name":"soupy","steam_id":76561198073734936,"connected_time":2390000000000,"state":"active","ping":92},{"user_id":125,"name":"Sentry Gun (EpicGuy4227)","steam_id":76561198094132328,"connected_time":3253000000000,"state":"active","ping":53},{"user_id":139,"name":"Malphas","steam_id":76561198011425371,"connected_time":2176000000000,"state":"active","ping":59},{"user_id":128,"name":"Astro Samurai","steam_id":76561198328252260,"connected_time":3028000000000,"state":"active","ping":55},{"user_id":132,"name":"Snuky","steam_id":76561198117902338,"connected_time":3006000000000,"state":"active","ping":42},{"user_id":103,"name":"Senator_Armstron","steam_id":76561198078987455,"connected_time":5991000000000,"state":"active","ping":72},{"user_id":140,"name":"P. Ness","steam_id":76561198037664265,"connected_time":1875000000000,"state":"active","ping":62},{"user_id":109,"name":"Teamfighting","steam_id":76561198160135508,"connected_time":5474000000000,"state":"active","ping":46},{"user_id":129,"name":"‚Ä† Reeve","steam_id":76561197969102326,"connected_time":3023000000000,"state":"active","ping":72},{"user_id":119,"name":"sarah.nintendogs","steam_id":76561198035811678,"connected_time":4664000000000,"state":"active","ping":37},{"user_id":144,"name":"no teles 4 u","steam_id":76561198018478297,"connected_time":905000000000,"state":"active","ping":73},{"user_id":145,"name":"monnickev","steam_id":76561198252587162,"connected_time":901000000000,"state":"active","ping":42},{"user_id":147,"name":"horrid webbon ·òõ‚ÅêÃ§·ïê·ê∑","steam_id":76561198061998379,"connected_time":458000000000,"state":"active","ping":47},{"user_id":152,"name":"uso","steam_id":76561198028756598,"connected_time":151000000000,"state":"active","ping":90}]},{"server_id":123,"name":"Uncletopia | Sydney | 2 | All Maps","name_short":"syd-2","host":"syd-1.au.uncletopia.com","port":27025,"enabled":true,"region":"au","cc":"au","latitude":-33.865143,"longitude":151.2099,"reserved":0,"last_update":"0001-01-01T00:00:00Z","name_a2s":"Uncletopia | Sydney | 2 | All Maps","protocol":17,"map":"pl_barnblitz","folder":"tf","game":"Team Fortress","app_id":440,"player_count":24,"max_players":24,"Bots":0,"server_type":"Dedicated","server_os":"Linux","password":true,"vac":true,"version":"7961495","steam_id":85568392924470002,"keywords":["nocrits","nodmgspread","payload","uncletopia"],"game_id":440,"stv_port":27026,"stv_name":"Uncletopia | Sydney | 2 | All Maps | STV","players":[{"user_id":82,"name":"Reefo","steam_id":76561198161626796,"connected_time":226000000000,"state":"active","ping":69},{"user_id":37,"name":"Alpha Furry","steam_id":76561198253080474,"connected_time":2454000000000,"state":"active","ping":65},{"user_id":35,"name":"Dadszoo","steam_id":76561198296611122,"connected_time":2595000000000,"state":"active","ping":65},{"user_id":72,"name":"John Pork","steam_id":76561198291410614,"connected_time":433000000000,"state":"active","ping":105},{"user_id":59,"name":"\u003e:FrozenDragon:\u003c","steam_id":76561198227960928,"connected_time":1473000000000,"state":"active","ping":104},{"user_id":12,"name":"Spiffing","steam_id":76561199020105540,"connected_time":3674000000000,"state":"active","ping":90},{"user_id":13,"name":"zog","steam_id":76561198330464664,"connected_time":3663000000000,"state":"active","ping":46},{"user_id":14,"name":"Sebby V","steam_id":76561199104964949,"connected_time":3621000000000,"state":"active","ping":66},{"user_id":15,"name":"Otoh Gunga","steam_id":76561199130693703,"connected_time":3618000000000,"state":"active","ping":70},{"user_id":73,"name":"Dr Joe Rogan","steam_id":76561198249435392,"connected_time":432000000000,"state":"active","ping":94},{"user_id":51,"name":"FascismSalad","steam_id":76561198262410973,"connected_time":2028000000000,"state":"active","ping":51},{"user_id":25,"name":"tf2 dung eater","steam_id":76561198274740718,"connected_time":3189000000000,"state":"active","ping":65},{"user_id":80,"name":"Brud","steam_id":76561198123542239,"connected_time":265000000000,"state":"active","ping":50},{"user_id":68,"name":"4LOW","steam_id":76561199156942316,"connected_time":579000000000,"state":"active","ping":77},{"user_id":22,"name":"JunkKnight","steam_id":76561198050917553,"connected_time":3355000000000,"state":"active","ping":58},{"user_id":47,"name":"Fresh Produce Gaming","steam_id":76561198358483352,"connected_time":2213000000000,"state":"active","ping":65},{"user_id":69,"name":"mada","steam_id":76561199436707447,"connected_time":549000000000,"state":"active","ping":53},{"user_id":75,"name":"Obama dick","steam_id":76561199156700020,"connected_time":397000000000,"state":"active","ping":74},{"user_id":70,"name":"POLTERGUY","steam_id":76561199066712046,"connected_time":535000000000,"state":"active","ping":67},{"user_id":55,"name":"El","steam_id":76561198095659550,"connected_time":1701000000000,"state":"active","ping":93},{"user_id":67,"name":"ANML","steam_id":76561198260039591,"connected_time":971000000000,"state":"active","ping":63},{"user_id":45,"name":"stroob","steam_id":76561198045320644,"connected_time":2288000000000,"state":"active","ping":56},{"user_id":83,"name":"Storms","steam_id":76561199058704739,"connected_time":141000000000,"state":"active","ping":80},{"user_id":84,"name":"Her0bryne","steam_id":76561198440336357,"connected_time":4000000000,"state":"spawning","ping":60}]},{"server_id":395,"name":"Uncletopia | Sydney | 3 | All Maps","name_short":"syd-3","host":"syd-1.au.uncletopia.com","port":27035,"enabled":true,"region":"au","cc":"au","latitude":-33.865143,"longitude":151.2099,"reserved":0,"last_update":"0001-01-01T00:00:00Z","name_a2s":"Uncletopia | Sydney | 3 | All Maps","protocol":17,"map":"pl_swiftwater_final1","folder":"tf","game":"Team Fortress","app_id":440,"player_count":0,"max_players":24,"Bots":0,"server_type":"Dedicated","server_os":"Linux","password":true,"vac":true,"version":"7961495","steam_id":85568392925194467,"keywords":["nocrits","nodmgspread","payload","uncletopia"],"game_id":440,"stv_port":27036,"stv_name":"Uncletopia | Sydney | 3 | All Maps | STV","players":null},{"server_id":396,"name":"Uncletopia | Sydney | 4 | All Maps","name_short":"syd-4","host":"syd-1.au.uncletopia.com","port":27045,"enabled":true,"region":"au","cc":"au","latitude":-33.865143,"longitude":151.2099,"reserved":0,"last_update":"0001-01-01T00:00:00Z","name_a2s":"Uncletopia | Sydney | 4 | All Maps","protocol":17,"map":"cp_process_final","folder":"tf","game":"Team Fortress","app_id":440,"player_count":0,"max_players":24,"Bots":0,"server_type":"Dedicated","server_os":"Linux","password":true,"vac":true,"version":"7961495","steam_id":85568392925397958,"keywords":["cp","nocrits","nodmgspread","uncletopia"],"game_id":440,"stv_port":27046,"stv_name":"Uncletopia | Sydney | 4 | All Maps | STV","players":null},{"server_id":58,"name":"Uncletopia | Sydney | 5 | Stopwatch","name_short":"syd-5","host":"syd-1.au.uncletopia.com","port":27055,"enabled":true,"region":"au","cc":"au","latitude":-33.865143,"longitude":151.2099,"reserved":0,"last_update":"0001-01-01T00:00:00Z","name_a2s":"Uncletopia | Sydney | 5 | Stopwatch","protocol":17,"map":"pl_frontier_final","folder":"tf","game":"Team Fortress","app_id":440,"player_count":0,"max_players":24,"Bots":0,"server_type":"Dedicated","server_os":"Linux","password":true,"vac":true,"version":"7961495","steam_id":85568392925397959,"keywords":["nocrits","nodmgspread","payload","uncletopia"],"game_id":440,"stv_port":27056,"stv_name":"Uncletopia | Sydney | 5 | Stopwatch | STV","players":null},{"server_id":59,"name":"Uncletopia | Sydney | 6 | Community","name_short":"syd-6","host":"syd-1.au.uncletopia.com","port":27065,"enabled":true,"region":"au","cc":"au","latitude":-33.865143,"longitude":151.2099,"reserved":0,"last_update":"0001-01-01T00:00:00Z","name_a2s":"Uncletopia | Sydney | 6 | Community","protocol":17,"map":"cp_sunshine","folder":"tf","game":"Team Fortress","app_id":440,"player_count":0,"max_players":24,"Bots":0,"server_type":"Dedicated","server_os":"Linux","password":true,"vac":true,"version":"7961495","steam_id":85568392925397960,"keywords":["cp","nocrits","nodmgspread","uncletopia"],"game_id":440,"stv_port":27066,"stv_name":"Uncletopia | Sydney | 6 | Community | STV","players":null},{"server_id":49,"name":"Uncletopia | Warsaw | 1 | One Thousand Uncles","name_short":"waw-1","host":"waw-1.pl.uncletopia.com","port":27015,"enabled":true,"region":"eu","cc":"pl","latitude":52.2297,"longitude":21.017532,"reserved":0,"last_update":"0001-01-01T00:00:00Z","name_a2s":"Uncletopia | Warsaw | 1 | One Thousand Uncles","protocol":17,"map":"koth_highpass","folder":"tf","game":"Team Fortress","app_id":440,"player_count":0,"max_players":32,"Bots":0,"server_type":"Dedicated","server_os":"Linux","password":true,"vac":true,"version":"7961495","steam_id":85568392925397850,"keywords":["alltalk","cp","danepve","increased_maxplayers","nocrits","norespawntime","uncletopia"],"game_id":440,"stv_port":0,"stv_name":"","players":null},{"server_id":50,"name":"Uncletopia | Warsaw | 2 | One Thousand Uncles","name_short":"waw-2","host":"waw-1.pl.uncletopia.com","port":27025,"enabled":true,"region":"eu","cc":"pl","latitude":52.2297,"longitude":21.017532,"reserved":0,"last_update":"0001-01-01T00:00:00Z","name_a2s":"Uncletopia | Warsaw | 2 | One Thousand Uncles","protocol":17,"map":"pl_goldrush","folder":"tf","game":"Team Fortress","app_id":440,"player_count":0,"max_players":32,"Bots":0,"server_type":"Dedicated","server_os":"Linux","password":true,"vac":true,"version":"7961495","steam_id":85568392925397851,"keywords":["alltalk","danepve","increased_maxplayers","nocrits","norespawntime","payload","uncletopia"],"game_id":440,"stv_port":0,"stv_name":"","players":null},{"server_id":51,"name":"Uncletopia | Warsaw | 3 | All Maps","name_short":"waw-3","host":"waw-1.pl.uncletopia.com","port":27035,"enabled":true,"region":"eu","cc":"pl","latitude":52.2297,"longitude":21.017532,"reserved":0,"last_update":"0001-01-01T00:00:00Z","name_a2s":"Uncletopia | Warsaw | 3 | All Maps","protocol":17,"map":"plr_pipeline","folder":"tf","game":"Team Fortress","app_id":440,"player_count":0,"max_players":24,"Bots":0,"server_type":"Dedicated","server_os":"Linux","password":true,"vac":true,"version":"7961495","steam_id":85568392925397852,"keywords":["nocrits","nodmgspread","payload","uncletopia"],"game_id":440,"stv_port":27036,"stv_name":"Uncletopia | Warsaw | 3 | All Maps | STV","players":null},{"server_id":52,"name":"Uncletopia | Warsaw | 4 | All Maps","name_short":"waw-4","host":"waw-1.pl.uncletopia.com","port":27045,"enabled":true,"region":"eu","cc":"pl","latitude":52.2297,"longitude":21.017532,"reserved":0,"last_update":"0001-01-01T00:00:00Z","name_a2s":"Uncletopia | Warsaw | 4 | All Maps","protocol":17,"map":"cp_coldfront","folder":"tf","game":"Team Fortress","app_id":440,"player_count":0,"max_players":24,"Bots":0,"server_type":"Dedicated","server_os":"Linux","password":true,"vac":true,"version":"7961495","steam_id":85568392925397853,"keywords":["cp","nocrits","nodmgspread","uncletopia"],"game_id":440,"stv_port":27046,"stv_name":"Uncletopia | Warsaw | 4 | All Maps | STV","players":null},{"server_id":53,"name":"Uncletopia | Warsaw | 5 | Stopwatch","name_short":"waw-5","host":"waw-1.pl.uncletopia.com","port":27055,"enabled":true,"region":"eu","cc":"pl","latitude":52.2297,"longitude":21.017532,"reserved":0,"last_update":"0001-01-01T00:00:00Z","name_a2s":"Uncletopia | Warsaw | 5 | Stopwatch","protocol":17,"map":"workshop/koth_bagel_rc6.ugc2514036946","folder":"tf","game":"Team Fortress","app_id":440,"player_count":0,"max_players":24,"Bots":0,"server_type":"Dedicated","server_os":"Linux","password":true,"vac":true,"version":"7961495","steam_id":85568392925397854,"keywords":["cp","nocrits","nodmgspread","uncletopia"],"game_id":440,"stv_port":27056,"stv_name":"Uncletopia | Warsaw | 5 | Stopwatch | STV","players":null},{"server_id":54,"name":"Uncletopia | Warsaw | 6 | Community","name_short":"waw-6","host":"waw-1.pl.uncletopia.com","port":27065,"enabled":true,"region":"eu","cc":"pl","latitude":52.2297,"longitude":21.017532,"reserved":0,"last_update":"0001-01-01T00:00:00Z","name_a2s":"Uncletopia | Warsaw | 6 | Community","protocol":17,"map":"workshop/pl_badwater_pro_v12.ugc2142942074","folder":"tf","game":"Team Fortress","app_id":440,"player_count":0,"max_players":24,"Bots":0,"server_type":"Dedicated","server_os":"Linux","password":true,"vac":true,"version":"7961495","steam_id":85568392925397856,"keywords":["nocrits","nodmgspread","payload","uncletopia"],"game_id":440,"stv_port":27066,"stv_name":"Uncletopia | Warsaw | 6 | Community | STV","players":null}]}