{"status":true,"message":"","result":[{"server_id":9,"name":"Uncletopia | Atlanta | 1 | All Maps","name_short":"atl-1","host":"atl-1.us.uncletopia.com","port":27015,"enabled":true,"region":"us-east","cc":"us","latitude":33.753746,"longitude":-84.38633,"reserved":0,"last_update":"0001-01-01T00:00:00Z","name_a2s":"Uncletopia | Atlanta | 1 | All Maps","protocol":17,"map":"cp_foundry","folder":"tf","game":"Team Fortress","app_id":440,"player_count":24,"max_players":24,"Bots":0,"server_type":"Dedicated","server_os":"Linux","password":true,"vac":true,"version":"7961495","steam_id":85568392924469982,"keywords":["cp","nocrits","nodmgspread","uncletopia"],"game_id":440,"stv_port":27016,"stv_name":"Uncletopia | Atlanta | 1 | All Maps | STV","players":[{"user_id":188,"name":"Oopsie Daisy ❋","steam_id":76561198042144492,"connected_time":2273000000000,"state":"active","ping":45},{"user_id":206,"name":"Lylith!!!","steam_id":76561198386687546,"connected_time":623000000000,"state":"active","ping":48},{"user_id":203,"name":"The Undead Knight","steam_id":76561198010654500,"connected_time":1049000000000,"state":"active","ping":57},{"user_id":175,"name":"BIG HOG","steam_id":76561198079923652,"connected_time":2647000000000,"state":"active","ping":61},{"user_id":161,"name":"dadgummit","steam_id":76561198005806915,"connected_time":3165000000000,"state":"active","ping":77},{"user_id":116,"name":"lil hog","steam_id":76561199230929836,"connected_time":6943000000000,"state":"active","ping":84},{"user_id":220,"name":"TheSaltRobot","steam_id":76561198839739497,"connected_time":208000000000,"state":"active","ping":72},{"user_id":205,"name":"The Speavy from Team Fortress 2","steam_id":76561199054591319,"connected_time":994000000000,"state":"active","ping":65},{"user_id":166,"name":"Hudbus","steam_id":76561198193921543,"connected_time":3085000000000,"state":"active","ping":74},{"user_id":200,"name":"I need to reach my friend!","steam_id":76561198982810452,"connected_time":1141000000000,"state":"active","ping":78},{"user_id":170,"name":"Electroid","steam_id":76561199092263960,"connected_time":2896000000000,"state":"active","ping":45},{"user_id":204,"name":"Burnt","steam_id":76561198430058031,"connected_time":1030000000000,"state":"active","ping":65},{"user_id":216,"name":"zzzz","steam_id":76561198310495200,"connected_time":294000000000,"state":"active","ping":74},{"user_id":209,"name":"HOOD Bowl","steam_id":76561198101325132,"connected_time":524000000000,"state":"active","ping":84},{"user_id":191,"name":"ark","steam_id":76561198041066271,"connected_time":2210000000000,"state":"active","ping":86},{"user_id":192,"name":"TF2C | fac","steam_id":76561198009818412,"connected_time":2184000000000,"state":"active","ping":63},{"user_id":217,"name":"Le4n!!!","steam_id":76561198045522596,"connected_time":293000000000,"state":"active","ping":71},{"user_id":198,"name":"HÖLLENFEUER","steam_id":76561198032751171,"connected_time":1163000000000,"state":"active","ping":45},{"user_id":201,"name":"Mage","steam_id":76561198285026879,"connected_time":1141000000000,"state":"active","ping":75},{"user_id":143,"name":"eish","steam_id":76561198089463603,"connected_time":4687000000000,"state":"active","ping":128},{"user_id":218,"name":"why","steam_id":76561199059732212,"connected_time":282000000000,"state":"active","ping":60},{"user_id":150,"name":"rat","steam_id":76561198272622003,"connected_time":3964000000000,"state":"active","ping":60},{"user_id":215,"name":"nomad","steam_id":76561197998740399,"connected_time":303000000000,"state":"active","ping":70},{"user_id":219,"name":"Grazzunk","steam_id":76561198290227691,"connected_time":281000000000,"state":"active","ping":68}]},{"server_id":104,"name":"Uncletopia | Atlanta | 2 | All Maps","name_short":"atl-2","host":"atl-1.us.uncletopia.com","port":27025,"enabled":true,"region":"us-east","cc":"us","latitude":33.753746,"longitude":-84.38633,"reserved":0,"last_update":"0001-01-01T00:00:00Z","name_a2s":"Uncletopia | Atlanta | 2 | All Maps","protocol":17,"map":"koth_lakeside_final","folder":"tf","game":"Team Fortress","app_id":440,"player_count":0,"max_players":24,"Bots":0,"server_type":"Dedicated","server_os":"Linux","password":true,"vac":true,"version":"7961495","steam_id":85568392924469983,"keywords":["cp","nocrits","nodmgspread","uncletopia"],"game_id":440,"stv_port":27026,"stv_name":"Uncletopia | Atlanta | 2 | All Maps | STV","players":null},{"server_id":400,"name":"Uncletopia | Atlanta | 3 | Stopwatch","name_short":"atl-3","host":"atl-1.us.uncletopia.com","port":27035,"enabled":true,"region":"us-east","cc":"us","latitude":33.753746,"longitude":-84.38633,"reserved":0,"last_update":"0001-01-01T00:00:00Z","name_a2s":"Uncletopia | Atlanta | 3 | Stopwatch","protocol":17,"map":"cp_snakewater_final1","folder":"tf","game":"Team Fortress","app_id":440,"player_count":24,"max_players":24,"Bots":0,"server_type":"Dedicated","server_os":"Linux","password":true,"vac":true,"version":"7961495","steam_id":85568392924515187,"keywords":["cp","nocrits","nodmgspread","uncletopia"],"game_id":440,"stv_port":27036,"stv_name":"Uncletopia | Atlanta | 3 | Stopwatch | STV","players":[{"user_id":221,"name":"garfield","steam_id":76561198114119308,"connected_time":2388000000000,"state":"active","ping":45},{"user_id":163,"name":"DaMultiversalist","steam_id":76561198239552412,"connected_time":5016000000000,"state":"active","ping":73},{"user_id":198,"name":"ThatOneDioDude (Joe Defender)","steam_id":76561198840608049,"connected_time":3336000000000,"state":"active","ping":51},{"user_id":250,"name":"BOUZENZEL","steam_id":76561198095000722,"connected_time":1019000000000,"state":"active","ping":60},{"user_id":248,"name":"mywwo","steam_id":76561198155659357,"connected_time":1139000000000,"state":"active","ping":75},{"user_id":245,"name":"Shrebbie","steam_id":76561198875230824,"connected_time":1228000000000,"state":"active","ping":59},{"user_id":257,"name":"toastman","steam_id":76561198207073088,"connected_time":313000000000,"state":"active","ping":81},{"user_id":251,"name":"N4G4S4K1 1S K4RK4L1C1OUS","steam_id":76561199031772797,"connected_time":1015000000000,"state":"active","ping":82},{"user_id":236,"name":"El Bondin","steam_id":76561198820792434,"connected_time":1487000000000,"state":"active","ping":87},{"user_id":241,"name":"Hipster_Giraffe","steam_id":76561198069701092,"connected_time":1347000000000,"state":"active","ping":83},{"user_id":225,"name":"R. Achael","steam_id":76561198133715771,"connected_time":2375000000000,"state":"active","ping":45},{"user_id":182,"name":"MenacingMekhet","steam_id":76561198053165462,"connected_time":4478000000000,"state":"active","ping":37},{"user_id":243,"name":"The","steam_id":76561198274011748,"connected_time":1256000000000,"state":"active","ping":105},{"user_id":259,"name":"PikaWarrior1222","steam_id":76561199502616838,"connected_time":36000000000,"state":"active","ping":58},{"user_id":258,"name":"SPF420","steam_id":76561198083991705,"connected_time":118000000000,"state":"active","ping":80},{"user_id":229,"name":"fazaness","steam_id":76561198851525394,"connected_time":2189000000000,"state":"active","ping":68},{"user_id":226,"name":"professionalhoovy54","steam_id":76561199091028565,"connected_time":2327000000000,"state":"active","ping":83},{"user_id":252,"name":"Punished Shitster","steam_id":76561198150452857,"connected_time":997000000000,"state":"active","ping":79},{"user_id":249,"name":"popswagica","steam_id":76561198072179483,"connected_time":1138000000000,"state":"active","ping":105},{"user_id":256,"name":"Officer Chef","steam_id":76561198310658990,"connected_time":637000000000,"state":"active","ping":71},{"user_id":240,"name":"BumpofNight","steam_id":76561198011581312,"connected_time":1426000000000,"state":"active","ping":64},{"user_id":255,"name":"Matthew 10:39","steam_id":76561198121933439,"connected_time":920000000000,"state":"active","ping":61},{"user_id":230,"name":"\u003etfw no buggo gf","steam_id":76561198980062131,"connected_time":2186000000000,"state":"active","ping":71},{"user_id":210,"name":"the keebler","steam_id":76561199486326945,"connected_time":2913000000000,"state":"active","ping":62}]},{"server_id":401,"name":"Uncletopia | Atlanta | 4 | Community","name_short":"atl-4","host":"atl-1.us.uncletopia.com","port":27045,"enabled":true,"region":"us-east","cc":"us","latitude":33.753746,"longitude":-84.38633,"reserved":0,"last_update":"0001-01-01T00:00:00Z","name_a2s":"Uncletopia | Atlanta | 4 | Community","protocol":17,"map":"workshop/pl_vigil_rc10.ugc1266210012","folder":"tf","game":"Team Fortress","app_id":440,"player_count":0,"max_players":24,"Bots":0,"server_type":"Dedicated","server_os":"Linux","password":true,"vac":true,"version":"7961495","steam_id":85568392924515188,"keywords":["nocrits","nodmgspread","payload","uncletopia"],"game_id":440,"stv_port":27046,"stv_name":"Uncletopia | Atlanta | 4 | Community | STV","players":null},{"server_id":2,"name":"Uncletopia | Chicago | 1 | All Maps","name_short":"chi-1","host":"chi-1.us.uncletopia.com","port":27015,"enabled":true,"region":"us-central","cc":"us","latitude":41.881832,"longitude":-87.62318,"reserved":0,"last_update":"0001-01-01T00:00:00Z","name_a2s":"Uncletopia | Chicago | 1 | All Maps","protocol":17,"map":"cp_altitude","folder":"tf","game":"Team Fortress","app_id":440,"player_count":24,"max_players":24,"Bots":0,"server_type":"Dedicated","server_os":"Linux","password":true,"vac":true,"version":"7961495","steam_id":85568392924469984,"keywords":["cp","nocrits","nodmgspread","uncletopia"],"game_id":440,"stv_port":27016,"stv_name":"Uncletopia | Chicago | 1 | All Maps | STV","players":[{"user_id":507,"name":"TheBrocklobster","steam_id":76561198039682984,"connected_time":2065000000000,"state":"active","ping":101},{"user_id":528,"name":"beep","steam_id":76561199096448766,"connected_time":133000000000,"state":"active","ping":90},{"user_id":526,"name":"Emerald_Knight","steam_id":76561198067372868,"connected_time":224000000000,"state":"active","ping":48},{"user_id":513,"name":"John Fortnite","steam_id":76561198076608253,"connected_time":1966000000000,"state":"active","ping":65},{"user_id":530,"name":"vom","steam_id":76561198070311363,"connected_time":107000000000,"state":"active","ping":57},{"user_id":506,"name":"Tyler\u0026Fingers","steam_id":76561198085154485,"connected_time":2069000000000,"state":"active","ping":76},{"user_id":531,"name":"Berb","steam_id":76561198193911899,"connected_time":105000000000,"state":"active","ping":85},{"user_id":532,"name":"WeegeePJ","steam_id":76561199383362382,"connected_time":105000000000,"state":"active","ping":78},{"user_id":523,"name":"SmokinSaltyStyle","steam_id":76561198025303821,"connected_time":1539000000000,"state":"active","ping":44},{"user_id":519,"name":"weed cat","steam_id":76561198003082319,"connected_time":1779000000000,"state":"active","ping":50},{"user_id":474,"name":"Charlie","steam_id":76561198798127908,"connected_time":3385000000000,"state":"active","ping":65},{"user_id":492,"name":"Jason","steam_id":76561198107058140,"connected_time":2920000000000,"state":"active","ping":58},{"user_id":463,"name":"Teddiemercury","steam_id":76561197987034023,"connected_time":3636000000000,"state":"active","ping":44},{"user_id":508,"name":"Drake the Pixel","steam_id":76561198131824401,"connected_time":2051000000000,"state":"active","ping":64},{"user_id":524,"name":"Dankstein","steam_id":76561198122662378,"connected_time":1526000000000,"state":"active","ping":166},{"user_id":510,"name":"ᵐᵉᵒʷ","steam_id":76561199200969139,"connected_time":2042000000000,"state":"active","ping":111},{"user_id":500,"name":"Pim","steam_id":76561198046050375,"connected_time":2703000000000,"state":"active","ping":108},{"user_id":533,"name":"joe don","steam_id":76561199084126379,"connected_time":98000000000,"state":"active","ping":76},{"user_id":517,"name":"thatdamncat","steam_id":76561198366911191,"connected_time":1855000000000,"state":"active","ping":59},{"user_id":515,"name":"Scarceblue","steam_id":76561198107882998,"connected_time":1910000000000,"state":"active","ping":63},{"user_id":516,"name":"Crλf227","steam_id":76561198196211121,"connected_time":1908000000000,"state":"active","ping":94},{"user_id":525,"name":"argie motorcyclist","steam_id":76561199368976785,"connected_time":1455000000000,"state":"active","ping":61},{"user_id":405,"name":"Lennu","steam_id":76561198060730154,"connected_time":4773000000000,"state":"active","ping":73},{"user_id":312,"name":"mrpineapple070","steam_id":76561199088278757,"connected_time":6654000000000,"state":"active","ping":97}]},{"server_id":106,"name":"Uncletopia | Chicago | 2 | All Maps","name_short":"chi-2","host":"chi-1.us.uncletopia.com","port":27025,"enabled":true,"region":"us-central","cc":"us","latitude":41.881832,"longitude":-87.62318,"reserved":0,"last_update":"0001-01-01T00:00:00Z","name_a2s":"Uncletopia | Chicago | 2 | All Maps","protocol":17,"map":"pl_thundermountain","folder":"tf","game":"Team Fortress","app_id":440,"player_count":24,"max_players":24,"Bots":0,"server_type":"Dedicated","server_os":"Linux","password":true,"vac":true,"version":"7961495","steam_id":85568392924469985,"keywords":["nocrits","nodmgspread","payload","uncletopia"],"game_id":440,"stv_port":27026,"stv_name":"Uncletopia | Chicago | 2 | All Maps | STV","players":[{"user_id":402,"name":"Jordankade","steam_id":76561198104779534,"connected_time":1178000000000,"state":"active","ping":69},{"user_id":398,"name":"pew pew","steam_id":76561198110661425,"connected_time":1299000000000,"state":"active","ping":81},{"user_id":360,"name":"loscemo","steam_id":76561197994884609,"connected_time":4943000000000,"state":"active","ping":57},{"user_id":397,"name":"psi","steam_id":76561198061497429,"connected_time":1306000000000,"state":"active","ping":59},{"user_id":396,"name":"BunnyBlitz","steam_id":76561198165881112,"connected_time":1321000000000,"state":"active","ping":73},{"user_id":345,"name":"Sick Skeleton","steam_id":76561198097707557,"connected_time":6284000000000,"state":"active","ping":114},{"user_id":419,"name":"mr, mean","steam_id":76561198095048900,"connected_time":277000000000,"state":"active","ping":50},{"user_id":392,"name":"Mf Zoom","steam_id":76561198844434119,"connected_time":1785000000000,"state":"active","ping":115},{"user_id":399,"name":"Ligmus Sigmus","steam_id":76561198168946002,"connected_time":1259000000000,"state":"active","ping":60},{"user_id":400,"name":"mechana","steam_id":76561198111344972,"connected_time":1246000000000,"state":"active","ping":63},{"user_id":401,"name":"Angry Spirit","steam_id":76561198148603463,"connected_time":1229000000000,"state":"active","ping":60},{"user_id":394,"name":"Donkski","steam_id":76561198406895347,"connected_time":1535000000000,"state":"active","ping":73},{"user_id":414,"name":"Jacob Hornberger 2016","steam_id":76561198204549723,"connected_time":805000000000,"state":"active","ping":75},{"user_id":417,"name":"Wyatt","steam_id":76561199068781227,"connected_time":378000000000,"state":"active","ping":105},{"user_id":405,"name":"mama luigi","steam_id":76561198058956253,"connected_time":1127000000000,"state":"active","ping":83},{"user_id":410,"name":"Dr. Han","steam_id":76561198811130843,"connected_time":983000000000,"state":"active","ping":71},{"user_id":418,"name":"Serene Salamander","steam_id":76561198001094770,"connected_time":378000000000,"state":"active","ping":113},{"user_id":389,"name":"costco peanutbutter pretzels","steam_id":76561198081075865,"connected_time":2338000000000,"state":"active","ping":60},{"user_id":407,"name":"cowboy steve","steam_id":76561198007464245,"connected_time":1092000000000,"state":"active","ping":81},{"user_id":421,"name":"Cowabummer","steam_id":76561198272640432,"connected_time":13000000000,"state":"spawning","ping":80},{"user_id":366,"name":"twitch.tv/rustyorion","steam_id":76561198439186347,"connected_time":4520000000000,"state":"active","ping":102},{"user_id":409,"name":"Winter the Witchie","steam_id":76561198151971178,"connected_time":1086000000000,"state":"active","ping":56},{"user_id":412,"name":"MacawAbalone","steam_id":76561198015127948,"connected_time":972000000000,"state":"active","ping":46},{"user_id":359,"name":"YOU WHAT?!","steam_id":76561198418679471,"connected_time":4990000000000,"state":"active","ping":66}]},{"server_id":402,"name":"Uncletopia | Chicago | 3 | All Maps","name_short":"chi-3","host":"chi-1.us.uncletopia.com","port":27035,"enabled":true,"region":"us-central","cc":"us","latitude":41.881832,"longitude":-87.62318,"reserved":0,"last_update":"0001-01-01T00:00:00Z","name_a2s":"Uncletopia | Chicago | 3 | All Maps","protocol":17,"map":"pl_barnblitz","folder":"tf","game":"Team Fortress","app_id":440,"player_count":0,"max_players":24,"Bots":0,"server_type":"Dedicated","server_os":"Linux","password":true,"vac":true,"version":"7961495","steam_id":85568392924515191,"keywords":["nocrits","nodmgspread","payload","uncletopia"],"game_id":440,"stv_port":27036,"stv_name":"Uncletopia | Chicago | 3 | All Maps | STV","players":null},{"server_id":403,"name":"Uncletopia | Chicago | 4 | All Maps","name_short":"chi-4","host":"chi-1.us.uncletopia.com","port":27045,"enabled":true,"region":"us-central","cc":"us","latitude":41.881832,"longitude":-87.62318,"reserved":0,"last_update":"0001-01-01T00:00:00Z","name_a2s":"Uncletopia | Chicago | 4 | All Maps","protocol":17,"map":"cp_dustbowl","folder":"tf","game":"Team Fortress","app_id":440,"player_count":24,"max_players":24,"Bots":0,"server_type":"Dedicated","server_os":"Linux","password":true,"vac":true,"version":"7961495","steam_id":85568392924515193,"keywords":["cp","nocrits","nodmgspread","uncletopia"],"game_id":440,"stv_port":27046,"stv_name":"Uncletopia | Chicago | 4 | All Maps | STV","players":[{"user_id":279,"name":"FlareD","steam_id":76561198209415300,"connected_time":2280000000000,"state":"active","ping":81},{"user_id":286,"name":"the scranton dirt smoker","steam_id":76561198305796131,"connected_time":1245000000000,"state":"active","ping":51},{"user_id":285,"name":"en","steam_id":76561199129590802,"connected_time":1281000000000,"state":"active","ping":102},{"user_id":258,"name":"Admiral Crumbs","steam_id":76561198108791583,"connected_time":3735000000000,"state":"active","ping":60},{"user_id":288,"name":"ry19680","steam_id":76561198109309994,"connected_time":1228000000000,"state":"active","ping":63},{"user_id":253,"name":"4pi3","steam_id":76561199093363610,"connected_time":3877000000000,"state":"active","ping":73},{"user_id":289,"name":"overwatch refugee","steam_id":76561199003985688,"connected_time":1205000000000,"state":"active","ping":73},{"user_id":271,"name":"boykissing? YES PLEASE!","steam_id":76561198063970639,"connected_time":3233000000000,"state":"active","ping":66},{"user_id":290,"name":"xanakin skywocker","steam_id":76561198347313393,"connected_time":1194000000000,"state":"active","ping":62},{"user_id":291,"name":"Artgrendadier","steam_id":76561198063305359,"connected_time":1140000000000,"state":"active","ping":64},{"user_id":252,"name":"Private Sloppy","steam_id":76561198019861196,"connected_time":3894000000000,"state":"active","ping":69},{"user_id":246,"name":"Buffalo Soldier","steam_id":76561198089364545,"connected_time":4518000000000,"state":"active","ping":35},{"user_id":261,"name":"Skelebob","steam_id":76561198880649335,"connected_time":3710000000000,"state":"active","ping":60},{"user_id":298,"name":"Smartchicken","steam_id":76561198037744517,"connected_time":686000000000,"state":"active","ping":62},{"user_id":294,"name":"Dr.StrangeGlove","steam_id":76561198286114229,"connected_time":1050000000000,"state":"active","ping":64},{"user_id":263,"name":"BOOMER DOOMER","steam_id":76561198262318826,"connected_time":3698000000000,"state":"active","ping":75},{"user_id":301,"name":"money getting 1 percenter","steam_id":76561198012796388,"connected_time":14000000000,"state":"active","ping":45},{"user_id":283,"name":"pizzaroger2003","steam_id":76561198179785873,"connected_time":1357000000000,"state":"active","ping":60},{"user_id":300,"name":"the pest","steam_id":76561198826298849,"connected_time":226000000000,"state":"active","ping":80},{"user_id":297,"name":"lego star wars on the psp","steam_id":76561198148014773,"connected_time":937000000000,"state":"active","ping":61},{"user_id":234,"name":"goombinus","steam_id":76561198136164826,"connected_time":5390000000000,"state":"active","ping":46},{"user_id":270,"name":"Uncle Majic the Hip Hop Magicia","steam_id":76561198107924303,"connected_time":3259000000000,"state":"active","ping":69},{"user_id":223,"name":"serialnumber435","steam_id":76561199466187650,"connected_time":5849000000000,"state":"active","ping":138},{"user_id":276,"name":"cfamadas","steam_id":76561199055881965,"connected_time":3025000000000,"state":"active","ping":81}]},{"server_id":36,"name":"Uncletopia | Chicago | 5 | All Maps","name_short":"chi-5","host":"chi-2.us.uncletopia.com","port":27015,"enabled":true,"region":"us-central","cc":"us","latitude":41.881832,"longitude":-87.62318,"reserved":0,"last_update":"0001-01-01T00:00:00Z","name_a2s":"Uncletopia | Chicago | 5 | All Maps","protocol":17,"map":"pl_borneo","folder":"tf","game":"Team Fortress","app_id":440,"player_count":0,"max_players":24,"Bots":0,"server_type":"Dedicated","server_os":"Linux","password":true,"vac":true,"version":"7961495","steam_id":85568392924866362,"keywords":["nocrits","nodmgspread","payload","uncletopia"],"game_id":440,"stv_port":27016,"stv_name":"Uncletopia | Chicago | 5 | All Maps | STV","players":null},{"server_id":37,"name":"Uncletopia | Chicago | 6 | All Maps","name_short":"chi-6","host":"chi-2.us.uncletopia.com","port":27025,"enabled":true,"region":"us-central","cc":"us","latitude":41.881832,"longitude":-87.62318,"reserved":0,"last_update":"0001-01-01T00:00:00Z","name_a2s":"Uncletopia | Chicago | 6 | All Maps","protocol":17,"map":"cp_altitude","folder":"tf","game":"Team Fortress","app_id":440,"player_count":0,"max_players":24,"Bots":0,"server_type":"Dedicated","server_os":"Linux","password":true,"vac":true,"version":"7961495","steam_id":85568392924866363,"keywords":["cp","nocrits","nodmgspread","uncletopia"],"game_id":440,"stv_port":27026,"stv_name":"Uncletopia | Chicago | 6 | All Maps | STV","players":null},{"server_id":38,"name":"Uncletopia | Chicago | 7 | Stopwatch","name_short":"chi-7","host":"chi-2.us.uncletopia.com","port":27035,"enabled":true,"region":"us-central","cc":"us","latitude":41.881832,"longitude":-87.62318,"reserved":0,"last_update":"0001-01-01T00:00:00Z","name_a2s":"Uncletopia | Chicago | 7 | Stopwatch","protocol":17,"map":"cp_snakewater_final1","folder":"tf","game":"Team Fortress","app_id":440,"player_count":4,"max_players":24,"Bots":0,"server_type":"Dedicated","server_os":"Linux","password":true,"vac":true,"version":"7961495","steam_id":85568392924866364,"keywords":["cp","nocrits","nodmgspread","uncletopia"],"game_id":440,"stv_port":27036,"stv_name":"Uncletopia | Chicago | 7 | Stopwatch | STV","players":[{"user_id":8,"name":"the milk man","steam_id":76561199247476314,"connected_time":424000000000,"state":"active","ping":72},{"user_id":9,"name":"Cannon Fodder 668","steam_id":76561199242093570,"connected_time":420000000000,"state":"active","ping":70},{"user_id":10,"name":"Cosmoose","steam_id":76561198120336284,"connected_time":311000000000,"state":"active","ping":65},{"user_id":11,"name":"joe","steam_id":76561198133033006,"connected_time":154000000000,"state":"active","ping":34}]},{"server_id":39,"name":"Uncletopia | Chicago | 8 | Community","name_short":"chi-8","host":"chi-2.us.uncletopia.com","port":27045,"enabled":true,"region":"us-central","cc":"us","latitude":41.881832,"longitude":-87.62318,"reserved":0,"last_update":"0001-01-01T00:00:00Z","name_a2s":"Uncletopia | Chicago | 8 | Community","protocol":17,"map":"workshop/koth_slaughter_rc1.ugc1712845210","folder":"tf","game":"Team Fortress","app_id":440,"player_count":0,"max_players":24,"Bots":0,"server_type":"Dedicated","server_os":"Linux","password":true,"vac":true,"version":"7961495","steam_id":85568392924866365,"keywords":["cp","nocrits","nodmgspread","uncletopia"],"game_id":440,"stv_port":27046,"stv_name":"Uncletopia | Chicago | 8 | Community | STV","players":null},{"server_id":8,"name":"Uncletopia | Dallas | 1 | All Maps","name_short":"dal-1","host":"dal-1.us.uncletopia.com","port":27015,"enabled":true,"region":"us-central","cc":"us","latitude":32.779167,"longitude":-96.80889,"reserved":0,"last_update":"0001-01-01T00:00:00Z","name_a2s":"Uncletopia | Dallas | 1 | All Maps","protocol":17,"map":"pl_pier","folder":"tf","game":"Team Fortress","app_id":440,"player_count":17,"max_players":24,"Bots":0,"server_type":"Dedicated","server_os":"Linux","password":true,"vac":true,"version":"7961495","steam_id":85568392924469986,"keywords":["nocrits","nodmgspread","payload","uncletopia"],"game_id":440,"stv_port":27016,"stv_name":"Uncletopia | Dallas | 1 | All Maps | STV","players":[{"user_id":379,"name":"RusticCarp42989","steam_id":76561198361151865,"connected_time":2140000000000,"state":"active","ping":88},{"user_id":403,"name":"A Low-Hanging Ceiling","steam_id":76561198894586082,"connected_time":389000000000,"state":"active","ping":78},{"user_id":378,"name":"Ray","steam_id":76561198048011618,"connected_time":2287000000000,"state":"active","ping":76},{"user_id":408,"name":"Gregory","steam_id":76561199070901945,"connected_time":8000000000,"state":"spawning","ping":94},{"user_id":349,"name":"ez$ airballer","steam_id":76561198165899125,"connected_time":5082000000000,"state":"active","ping":88},{"user_id":377,"name":"Dude Bronson","steam_id":76561198310453894,"connected_time":2293000000000,"state":"active","ping":67},{"user_id":398,"name":"BlueStar","steam_id":76561198214317468,"connected_time":533000000000,"state":"active","ping":57},{"user_id":386,"name":"vastrobotmax","steam_id":76561198417110724,"connected_time":1507000000000,"state":"active","ping":88},{"user_id":402,"name":"Hound_","steam_id":76561199389781834,"connected_time":440000000000,"state":"active","ping":73},{"user_id":407,"name":"Load-Bearing Wall","steam_id":76561198051598293,"connected_time":199000000000,"state":"active","ping":67},{"user_id":383,"name":"DMM","steam_id":76561198065426171,"connected_time":1557000000000,"state":"active","ping":48},{"user_id":380,"name":"Ricky Dicky Doo Dah Grimes","steam_id":76561198868839264,"connected_time":2073000000000,"state":"active","ping":24},{"user_id":389,"name":"Cassie","steam_id":76561198972619900,"connected_time":1455000000000,"state":"active","ping":43},{"user_id":358,"name":"Tuvok Shakur","steam_id":76561198018875334,"connected_time":4415000000000,"state":"active","ping":86},{"user_id":348,"name":"Pussy Slambasket","steam_id":76561198093694322,"connected_time":5111000000000,"state":"active","ping":76},{"user_id":400,"name":"PickleHater13","steam_id":76561198259380127,"connected_time":508000000000,"state":"active","ping":83},{"user_id":406,"name":"Ethanol Buttchugger","steam_id":76561199127590316,"connected_time":238000000000,"state":"active","ping":75}]},{"server_id":108,"name":"Uncletopia | Dallas | 2 | All Maps","name_short":"dal-2","host":"dal-1.us.uncletopia.com","port":27025,"enabled":true,"region":"us-central","cc":"us","latitude":32.779167,"longitude":-96.80889,"reserved":0,"last_update":"0001-01-01T00:00:00Z","name_a2s":"Uncletopia | Dallas | 2 | All Maps","protocol":17,"map":"pl_borneo","folder":"tf","game":"Team Fortress","app_id":440,"player_count":21,"max_players":24,"Bots":0,"server_type":"Dedicated","server_os":"Linux","password":true,"vac":true,"version":"7961495","steam_id":85568392924469988,"keywords":["nocrits","nodmgspread","payload","uncletopia"],"game_id":440,"stv_port":27026,"stv_name":"Uncletopia | Dallas | 2 | All Maps | STV","players":[{"user_id":47,"name":"cumgoblin","steam_id":76561198113270138,"connected_time":35000000000,"state":"active","ping":36},{"user_id":48,"name":"imma let my nuts hang","steam_id":76561198097544038,"connected_time":5000000000,"state":"spawning","ping":69},{"user_id":43,"name":"Scuba Steve","steam_id":76561198313018251,"connected_time":297000000000,"state":"active","ping":79},{"user_id":44,"name":"ShapedSilver","steam_id":76561199073305310,"connected_time":192000000000,"state":"active","ping":67},{"user_id":18,"name":"kiwi","steam_id":76561198052177917,"connected_time":1610000000000,"state":"active","ping":89},{"user_id":19,"name":"zoinks","steam_id":76561198127238003,"connected_time":1572000000000,"state":"active","ping":71},{"user_id":34,"name":"keffers","steam_id":76561198202338796,"connected_time":1172000000000,"state":"active","ping":91},{"user_id":38,"name":"5ft Powerhouse","steam_id":76561198078040365,"connected_time":882000000000,"state":"active","ping":33},{"user_id":22,"name":"Genetic Komodo (He/Him)","steam_id":76561198174806758,"connected_time":1527000000000,"state":"active","ping":35},{"user_id":23,"name":"thepimaven","steam_id":76561198350022006,"connected_time":1468000000000,"state":"active","ping":88},{"user_id":24,"name":"Jankyo","steam_id":76561198083339492,"connected_time":1398000000000,"state":"active","ping":63},{"user_id":25,"name":"Scrux","steam_id":76561198129763115,"connected_time":1398000000000,"state":"active","ping":70},{"user_id":26,"name":"graffiti","steam_id":76561198044594230,"connected_time":1381000000000,"state":"active","ping":76},{"user_id":27,"name":"smokecloud","steam_id":76561198136296903,"connected_time":1361000000000,"state":"active","ping":105},{"user_id":28,"name":"Versuski","steam_id":76561198085193084,"connected_time":1333000000000,"state":"active","ping":75},{"user_id":45,"name":"playguy carter","steam_id":76561198080679337,"connected_time":156000000000,"state":"active","ping":88},{"user_id":30,"name":"Dwebus","steam_id":76561198086559045,"connected_time":1311000000000,"state":"active","ping":74},{"user_id":31,"name":"Fuk, I miss","steam_id":76561198297223309,"connected_time":1295000000000,"state":"active","ping":86},{"user_id":32,"name":"Timmy The Tyrant","steam_id":76561199156409732,"connected_time":1263000000000,"state":"active","ping":45},{"user_id":46,"name":"dweamy","steam_id":76561198119181880,"connected_time":150000000000,"state":"active","ping":89},{"user_id":40,"name":"cris patt (real)","steam_id":76561199362872879,"connected_time":358000000000,"state":"active","ping":59}]},{"server_id":404,"name":"Uncletopia | Dallas | 3 | All Maps","name_short":"dal-3","host":"dal-1.us.uncletopia.com","port":27035,"enabled":true,"region":"us-central","cc":"us","latitude":32.779167,"longitude":-96.80889,"reserved":0,"last_update":"0001-01-01T00:00:00Z","name_a2s":"Uncletopia | Dallas | 3 | All Maps","protocol":17,"map":"cp_coldfront","folder":"tf","game":"Team Fortress","app_id":440,"player_count":0,"max_players":24,"Bots":0,"server_type":"Dedicated","server_os":"Linux","password":true,"vac":true,"version":"7961495","steam_id":85568392924515219,"keywords":["cp","nocrits","nodmgspread","uncletopia"],"game_id":440,"stv_port":27036,"stv_name":"Uncletopia | Dallas | 3 | All Maps | STV","players":null},{"server_id":405,"name":"Uncletopia | Dallas | 4 | Community","name_short":"dal-4","host":"dal-1.us.uncletopia.com","port":27045,"enabled":true,"region":"us-central","cc":"us","latitude":32.779167,"longitude":-96.80889,"reserved":0,"last_update":"0001-01-01T00:00:00Z","name_a2s":"Uncletopia | Dallas | 4 | Community","protocol":17,"map":"workshop/koth_synthetic_rc6a.ugc1549817316","folder":"tf","game":"Team Fortress","app_id":440,"player_count":0,"max_players":24,"Bots":0,"server_type":"Dedicated","server_os":"Linux","password":true,"vac":true,"version":"7961495","steam_id":85568392924515220,"keywords":["cp","nocrits","nodmgspread","uncletopia"],"game_id":440,"stv_port":27046,"stv_name":"Uncletopia | Dallas | 4 | Community | STV","players":null},{"server_id":5,"name":"Uncletopia | Frankfurt | 1 | All Maps","name_short":"frk-1","host":"frk-1.de.uncletopia.com","port":27015,"enabled":true,"region":"eu","cc":"de","latitude":50.110924,"longitude":8.682127,"reserved":0,"last_update":"0001-01-01T00:00:00Z","name_a2s":"Uncletopia | Frankfurt | 1 | All Maps","protocol":17,"map":"pl_snowycoast","folder":"tf","game":"Team Fortress","app_id":440,"player_count":24,"max_players":24,"Bots":0,"server_type":"Dedicated","server_os":"Linux","password":true,"vac":true,"version":"7961495","steam_id":85568392924469989,"keywords":["nocrits","nodmgspread","payload","uncletopia"],"game_id":440,"stv_port":27016,"stv_name":"Uncletopia | Frankfurt | 1 | All Maps | STV","players":[{"user_id":567,"name":"TJ1212","steam_id":76561199013575313,"connected_time":1390000000000,"state":"active","ping":61},{"user_id":483,"name":"Thundergodstonelate","steam_id":76561198040893623,"connected_time":8418000000000,"state":"active","ping":82},{"user_id":578,"name":"Lucky Number 13","steam_id":76561198043951279,"connected_time":710000000000,"state":"active","ping":74},{"user_id":565,"name":"tallen","steam_id":76561198061708595,"connected_time":1641000000000,"state":"active","ping":92},{"user_id":527,"name":"=OKB= P4NTH3R","steam_id":76561197999204603,"connected_time":4237000000000,"state":"active","ping":53},{"user_id":561,"name":"Zerfesh","steam_id":76561198117534358,"connected_time":1948000000000,"state":"active","ping":73},{"user_id":484,"name":"SaintBonkers","steam_id":76561198043219263,"connected_time":8339000000000,"state":"active","ping":63},{"user_id":558,"name":"FoOzTV","steam_id":76561197998636728,"connected_time":2113000000000,"state":"active","ping":87},{"user_id":580,"name":"Croix","steam_id":76561198059642945,"connected_time":681000000000,"state":"active","ping":46},{"user_id":576,"name":"gunter_funnyman","steam_id":76561198298432099,"connected_time":827000000000,"state":"active","ping":79},{"user_id":522,"name":"Carl","steam_id":76561198045638738,"connected_time":4424000000000,"state":"active","ping":58},{"user_id":572,"name":"romov","steam_id":76561199182288871,"connected_time":914000000000,"state":"active","ping":87},{"user_id":586,"name":"chocy milk addict","steam_id":76561199042178118,"connected_time":202000000000,"state":"active","ping":58},{"user_id":587,"name":"quickfast","steam_id":76561199438900919,"connected_time":153000000000,"state":"active","ping":52},{"user_id":579,"name":"james_bondage","steam_id":76561199476062624,"connected_time":697000000000,"state":"active","ping":151},{"user_id":574,"name":"Sylvain","steam_id":76561198113385271,"connected_time":881000000000,"state":"active","ping":142},{"user_id":591,"name":"DaGeoKat","steam_id":76561198448542023,"connected_time":6000000000,"state":"spawning","ping":61},{"user_id":589,"name":"Swift","steam_id":76561197998799889,"connected_time":101000000000,"state":"active","ping":60},{"user_id":590,"name":"Neeeiks","steam_id":76561198009156801,"connected_time":78000000000,"state":"active","ping":72},{"user_id":582,"name":"★poyo★","steam_id":76561198150078959,"connected_time":626000000000,"state":"active","ping":92},{"user_id":585,"name":"IhateHanzoPlayers","steam_id":76561198377533237,"connected_time":278000000000,"state":"active","ping":70},{"user_id":552,"name":"Bob Sacamano","steam_id":76561198085610701,"connected_time":2591000000000,"state":"active","ping":73},{"user_id":584,"name":"Vazanoir","steam_id":76561198026693990,"connected_time":422000000000,"state":"active","ping":47},{"user_id":554,"name":"cheriberry","steam_id":76561198093577036,"connected_time":2260000000000,"state":"active","ping":53}]},{"server_id":110,"name":"Uncletopia | Frankfurt | 2 | All Maps","name_short":"frk-2","host":"frk-1.de.uncletopia.com","port":27025,"enabled":true,"region":"eu","cc":"de","latitude":50.110924,"longitude":8.682127,"reserved":0,"last_update":"0001-01-01T00:00:00Z","name_a2s":"Uncletopia | Frankfurt | 2 | All Maps","protocol":17,"map":"pl_badwater","folder":"tf","game":"Team Fortress","app_id":440,"player_count":24,"max_players":24,"Bots":0,"server_type":"Dedicated","server_os":"Linux","password":true,"vac":true,"version":"7961495","steam_id":85568392924469990,"keywords":["nocrits","nodmgspread","payload","uncletopia"],"game_id":440,"stv_port":27026,"stv_name":"Uncletopia | Frankfurt | 2 | All Maps | STV","players":[{"user_id":586,"name":"lillunya ♡","steam_id":76561198330418866,"connected_time":2655000000000,"state":"active","ping":45},{"user_id":603,"name":"BriLLz","steam_id":76561198142440806,"connected_time":1152000000000,"state":"active","ping":67},{"user_id":607,"name":"Sebab","steam_id":76561198122706821,"connected_time":473000000000,"state":"active","ping":51},{"user_id":590,"name":"Drojdier","steam_id":76561198080789836,"connected_time":2066000000000,"state":"active","ping":64},{"user_id":583,"name":"L.Ron Hoyabembe","steam_id":76561198009887251,"connected_time":3015000000000,"state":"active","ping":70},{"user_id":580,"name":"Egor Pomidor","steam_id":76561199175688390,"connected_time":3168000000000,"state":"active","ping":76},{"user_id":608,"name":"DrakeTheDuck","steam_id":76561199182279601,"connected_time":470000000000,"state":"active","ping":90},{"user_id":609,"name":"карасик","steam_id":76561197971140507,"connected_time":417000000000,"state":"active","ping":62},{"user_id":559,"name":"GogsCrunchyNuts","steam_id":76561198150599213,"connected_time":4903000000000,"state":"active","ping":96},{"user_id":581,"name":"sinistersnowmans","steam_id":76561198987278531,"connected_time":3167000000000,"state":"active","ping":60},{"user_id":610,"name":"noot","steam_id":76561198148074472,"connected_time":407000000000,"state":"active","ping":38},{"user_id":601,"name":"Doctor Mobius","steam_id":76561197971281806,"connected_time":1375000000000,"state":"active","ping":54},{"user_id":615,"name":"zhunussov_az","steam_id":76561198073148043,"connected_time":141000000000,"state":"active","ping":121},{"user_id":596,"name":"[Thrall891]","steam_id":76561198136402128,"connected_time":1770000000000,"state":"active","ping":79},{"user_id":606,"name":"Zimkor","steam_id":76561198894444717,"connected_time":751000000000,"state":"active","ping":133},{"user_id":612,"name":"raz","steam_id":76561198147277460,"connected_time":388000000000,"state":"active","ping":57},{"user_id":573,"name":"misterwondo","steam_id":76561198187934110,"connected_time":3702000000000,"state":"active","ping":64},{"user_id":604,"name":"Leviticus Cornwall","steam_id":76561197993702685,"connected_time":1133000000000,"state":"active","ping":83},{"user_id":613,"name":"Javier dorsaless","steam_id":76561198179324075,"connected_time":355000000000,"state":"active","ping":75},{"user_id":614,"name":"Spurt","steam_id":76561198078523852,"connected_time":338000000000,"state":"active","ping":51},{"user_id":505,"name":"yush","steam_id":76561198121688934,"connected_time":8195000000000,"state":"active","ping":84},{"user_id":584,"name":"CrazyCherry14","steam_id":76561198047991534,"connected_time":2945000000000,"state":"active","ping":82},{"user_id":598,"name":"TreatFly","steam_id":76561198069707362,"connected_time":1694000000000,"state":"active","ping":57},{"user_id":574,"name":"jorts simp","steam_id":76561198399037367,"connected_time":3280000000000,"state":"active","ping":78}]},{"server_id":308,"name":"Uncletopia | Frankfurt | 3 | All Maps","name_short":"frk-3","host":"frk-1.de.uncletopia.com","port":27035,"enabled":true,"region":"eu","cc":"de","latitude":50.110924,"longitude":8.682127,"reserved":0,"last_update":"0001-01-01T00:00:00Z","name_a2s":"Uncletopia | Frankfurt | 3 | All Maps","protocol":17,"map":"cp_snakewater_final1","folder":"tf","game":"Team Fortress","app_id":440,"player_count":17,"max_players":24,"Bots":0,"server_type":"Dedicated","server_os":"Linux","password":true,"vac":true,"version":"7961495","steam_id":85568392924504274,"keywords":["cp","nocrits","nodmgspread","uncletopia"],"game_id":440,"stv_port":27036,"stv_name":"Uncletopia | Frankfurt | 3 | All Maps | STV","players":[{"user_id":120,"name":"APGE","steam_id":76561198037063136,"connected_time":71000000000,"state":"active","ping":51},{"user_id":105,"name":"Zazou","steam_id":76561198028076362,"connected_time":1402000000000,"state":"active","ping":47},{"user_id":103,"name":"apple","steam_id":76561198350676879,"connected_time":1415000000000,"state":"active","ping":91},{"user_id":122,"name":"kanker","steam_id":76561198231470280,"connected_time":5000000000,"state":"spawning","ping":56},{"user_id":94,"name":"random gaming","steam_id":76561198087970118,"connected_time":2578000000000,"state":"spawning","ping":35},{"user_id":83,"name":"dongy","steam_id":76561198050319619,"connected_time":3025000000000,"state":"active","ping":38},{"user_id":121,"name":"herbal tea","steam_id":76561197980736364,"connected_time":58000000000,"state":"active","ping":70},{"user_id":110,"name":"Froenzi","steam_id":76561198168841723,"connected_time":1040000000000,"state":"active","ping":51},{"user_id":68,"name":"dangergirl99","steam_id":76561198121651564,"connected_time":3522000000000,"state":"active","ping":129},{"user_id":123,"name":"GermanBoy","steam_id":76561199230176650,"connected_time":2000000000,"state":"spawning","ping":85},{"user_id":116,"name":"rhm","steam_id":76561199438126261,"connected_time":721000000000,"state":"active","ping":79},{"user_id":93,"name":"killerdiam","steam_id":76561198806422317,"connected_time":2606000000000,"state":"active","ping":63},{"user_id":117,"name":"Monkey","steam_id":76561199008411791,"connected_time":516000000000,"state":"active","ping":52},{"user_id":92,"name":"Doctor Medic","steam_id":76561198100957443,"connected_time":2824000000000,"state":"active","ping":61},{"user_id":100,"name":"AIEmil","steam_id":76561198013205559,"connected_time":1972000000000,"state":"active","ping":60},{"user_id":98,"name":"unnam3d","steam_id":76561198286257338,"connected_time":2340000000000,"state":"active","ping":57},{"user_id":114,"name":"gaming gamer","steam_id":76561198212488780,"connected_time":1000000000000,"state":"active","ping":58}]},{"server_id":309,"name":"Uncletopia | Frankfurt | 4 | All Maps","name_short":"frk-4","host":"frk-1.de.uncletopia.com","port":27045,"enabled":true,"region":"eu","cc":"de","latitude":50.110924,"longitude":8.682127,"reserved":0,"last_update":"0001-01-01T00:00:00Z","name_a2s":"Uncletopia | Frankfurt | 4 | All Maps","protocol":17,"map":"plr_hightower","folder":"tf","game":"Team Fortress","app_id":440,"player_count":24,"max_players":24,"Bots":0,"server_type":"Dedicated","server_os":"Linux","password":true,"vac":true,"version":"7961495","steam_id":85568392924504275,"keywords":["nocrits","nodmgspread","payload","uncletopia"],"game_id":440,"stv_port":27046,"stv_name":"Uncletopia | Frankfurt | 4 | All Maps | STV","players":[{"user_id":424,"name":"Eric Catman","steam_id":76561198802117294,"connected_time":597000000000,"state":"active","ping":61},{"user_id":383,"name":"Dr. Sex","steam_id":76561198998186161,"connected_time":4590000000000,"state":"active","ping":82},{"user_id":352,"name":"Rez","steam_id":76561198410598772,"connected_time":6763000000000,"state":"active","ping":49},{"user_id":415,"name":"Fofenho","steam_id":76561198436817109,"connected_time":950000000000,"state":"active","ping":70},{"user_id":426,"name":"High-Key Cat","steam_id":76561198012929012,"connected_time":378000000000,"state":"active","ping":47},{"user_id":416,"name":"KutuCola","steam_id":76561199152967880,"connected_time":927000000000,"state":"active","ping":70},{"user_id":425,"name":"Boi","steam_id":76561198387049078,"connected_time":591000000000,"state":"active","ping":90},{"user_id":419,"name":"THERE BE TRESURE","steam_id":76561199090694469,"connected_time":895000000000,"state":"active","ping":96},{"user_id":418,"name":"Hagi","steam_id":76561198011192902,"connected_time":915000000000,"state":"active","ping":89},{"user_id":313,"name":"Nick","steam_id":76561198036109469,"connected_time":9211000000000,"state":"active","ping":76},{"user_id":420,"name":"✯༆C C C R༆✯","steam_id":76561198136962506,"connected_time":875000000000,"state":"active","ping":108},{"user_id":421,"name":"Rock..","steam_id":76561198004641963,"connected_time":856000000000,"state":"active","ping":75},{"user_id":422,"name":"Wellink","steam_id":76561198854204494,"connected_time":839000000000,"state":"active","ping":79},{"user_id":393,"name":"Mastuck","steam_id":76561198014218916,"connected_time":3516000000000,"state":"active","ping":46},{"user_id":394,"name":"Malsi","steam_id":76561199061284165,"connected_time":3155000000000,"state":"active","ping":74},{"user_id":429,"name":"I-I","steam_id":76561198267969436,"connected_time":154000000000,"state":"active","ping":58},{"user_id":427,"name":"DAAS","steam_id":76561198001997578,"connected_time":305000000000,"state":"active","ping":67},{"user_id":409,"name":"8alaazs","steam_id":76561198261667674,"connected_time":1794000000000,"state":"active","ping":54},{"user_id":430,"name":"Kevin","steam_id":76561198021280093,"connected_time":93000000000,"state":"active","ping":100},{"user_id":401,"name":"magnos62564","steam_id":76561198356968225,"connected_time":2442000000000,"state":"active","ping":68},{"user_id":407,"name":"Tenry","steam_id":76561198342782019,"connected_time":2009000000000,"state":"active","ping":89},{"user_id":400,"name":"StarDoc2222","steam_id":76561199389114520,"connected_time":2729000000000,"state":"active","ping":141},{"user_id":411,"name":"HayLeX","steam_id":76561198130997343,"connected_time":1100000000000,"state":"active","ping":76},{"user_id":423,"name":"Commander Pasta","steam_id":76561198045773077,"connected_time":686000000000,"state":"active","ping":44}]},{"server_id":310,"name":"Uncletopia | Frankfurt | 5 | All Maps","name_short":"frk-5","host":"frk-1.de.uncletopia.com","port":27055,"enabled":true,"region":"eu","cc":"de","latitude":50.110924,"longitude":8.682127,"reserved":0,"last_update":"0001-01-01T00:00:00Z","name_a2s":"Uncletopia | Frankfurt | 5 | All Maps","protocol":17,"map":"pl_upward","folder":"tf","game":"Team Fortress","app_id":440,"player_count":24,"max_players":24,"Bots":0,"server_type":"Dedicated","server_os":"Linux","password":true,"vac":true,"version":"7961495","steam_id":85568392924504277,"keywords":["nocrits","nodmgspread","payload","uncletopia"],"game_id":440,"stv_port":27056,"stv_name":"Uncletopia | Frankfurt | 5 | All Maps | STV","players":[{"user_id":388,"name":"ok","steam_id":76561198320042443,"connected_time":3872000000000,"state":"active","ping":99},{"user_id":455,"name":"eevee","steam_id":76561198447072392,"connected_time":500000000000,"state":"active","ping":69},{"user_id":442,"name":"Yodawg","steam_id":76561198261933946,"connected_time":1270000000000,"state":"active","ping":56},{"user_id":464,"name":"CHOP CHOP","steam_id":76561198339634646,"connected_time":296000000000,"state":"active","ping":90},{"user_id":440,"name":"♂ MGE ♂ PUPSIK ♂","steam_id":76561198308302932,"connected_time":1329000000000,"state":"active","ping":95},{"user_id":468,"name":"Don Keigh","steam_id":76561198175935671,"connected_time":71000000000,"state":"active","ping":185},{"user_id":418,"name":"NukePigg","steam_id":76561198131324143,"connected_time":1909000000000,"state":"active","ping":54},{"user_id":456,"name":"Hercules","steam_id":76561198041164170,"connected_time":448000000000,"state":"active","ping":57},{"user_id":445,"name":"YMIR","steam_id":76561198968979836,"connected_time":1011000000000,"state":"active","ping":83},{"user_id":408,"name":"Your Mother.","steam_id":76561198951260354,"connected_time":2462000000000,"state":"active","ping":42},{"user_id":444,"name":"Hogs Sidekick","steam_id":76561198136433205,"connected_time":1171000000000,"state":"active","ping":56},{"user_id":463,"name":"eeeeee","steam_id":76561198017786875,"connected_time":311000000000,"state":"active","ping":55},{"user_id":416,"name":"Tegnerud","steam_id":76561198214185612,"connected_time":1950000000000,"state":"active","ping":100},{"user_id":466,"name":"Carrotcracker","steam_id":76561198034862396,"connected_time":105000000000,"state":"active","ping":59},{"user_id":380,"name":"German Prick","steam_id":76561198181410637,"connected_time":4219000000000,"state":"active","ping":44},{"user_id":458,"name":"Quartermistress","steam_id":76561198140199123,"connected_time":434000000000,"state":"active","ping":60},{"user_id":465,"name":"✚Чыж✚","steam_id":76561198273074492,"connected_time":287000000000,"state":"active","ping":105},{"user_id":398,"name":"Doctor Marijuana","steam_id":76561198288289879,"connected_time":3321000000000,"state":"active","ping":61},{"user_id":423,"name":"MeSeaBass","steam_id":76561198390822393,"connected_time":1852000000000,"state":"active","ping":111},{"user_id":354,"name":"s a i","steam_id":76561197970379754,"connected_time":6161000000000,"state":"active","ping":57},{"user_id":411,"name":"Kriofty","steam_id":76561198811696536,"connected_time":2120000000000,"state":"active","ping":86},{"user_id":448,"name":"w","steam_id":76561198037136870,"connected_time":965000000000,"state":"active","ping":60},{"user_id":460,"name":"rob","steam_id":76561198122211848,"connected_time":390000000000,"state":"active","ping":90},{"user_id":467,"name":"AWP Bodyshot :) ❤","steam_id":76561198029928533,"connected_time":95000000000,"state":"active","ping":47}]},{"server_id":311,"name":"Uncletopia | Frankfurt | 6 | All Maps","name_short":"frk-6","host":"frk-1.de.uncletopia.com","port":27065,"enabled":true,"region":"eu","cc":"de","latitude":50.110924,"longitude":8.682127,"reserved":0,"last_update":"0001-01-01T00:00:00Z","name_a2s":"Uncletopia | Frankfurt | 6 | All Maps","protocol":17,"map":"cp_dustbowl","folder":"tf","game":"Team Fortress","app_id":440,"player_count":14,"max_players":24,"Bots":0,"server_type":"Dedicated","server_os":"Linux","password":true,"vac":true,"version":"7961495","steam_id":85568392924504278,"keywords":["cp","nocrits","nodmgspread","uncletopia"],"game_id":440,"stv_port":27066,"stv_name":"Uncletopia | Frankfurt | 6 | All Maps | STV","players":[{"user_id":466,"name":"Smol","steam_id":76561198805163740,"connected_time":3266000000000,"state":"active","ping":66},{"user_id":517,"name":"kana munn","steam_id":76561198059762111,"connected_time":168000000000,"state":"active","ping":67},{"user_id":496,"name":"KiteNock","steam_id":76561198160622922,"connected_time":1760000000000,"state":"active","ping":66},{"user_id":516,"name":"I.C. Wiener","steam_id":76561197999912254,"connected_time":334000000000,"state":"active","ping":74},{"user_id":492,"name":"Omni","steam_id":76561197964320557,"connected_time":1836000000000,"state":"active","ping":45},{"user_id":493,"name":"..-.|..|.-..|..|.--.|","steam_id":76561198829879386,"connected_time":1824000000000,"state":"active","ping":50},{"user_id":488,"name":"V@nn1e","steam_id":76561199099194994,"connected_time":2048000000000,"state":"active","ping":171},{"user_id":494,"name":"theodorc68","steam_id":76561199250592158,"connected_time":1811000000000,"state":"active","ping":67},{"user_id":450,"name":"Agama","steam_id":76561198867921159,"connected_time":4332000000000,"state":"active","ping":87},{"user_id":507,"name":"minx","steam_id":76561198075551260,"connected_time":902000000000,"state":"active","ping":93},{"user_id":514,"name":"Conan","steam_id":76561198158321202,"connected_time":473000000000,"state":"active","ping":50},{"user_id":498,"name":"seed","steam_id":76561198413807861,"connected_time":1742000000000,"state":"active","ping":67},{"user_id":499,"name":"Calvin","steam_id":76561198037165765,"connected_time":1709000000000,"state":"active","ping":60}]},{"server_id":23,"name":"Uncletopia | Frankfurt | 7 | Stopwatch","name_short":"frk-7","host":"frk-1.de.uncletopia.com","port":27075,"enabled":true,"region":"eu","cc":"de","latitude":50.110924,"longitude":8.682127,"reserved":0,"last_update":"0001-01-01T00:00:00Z","name_a2s":"Uncletopia | Frankfurt | 7 | Stopwatch","protocol":17,"map":"workshop/koth_product_final.ugc454272353","folder":"tf","game":"Team Fortress","app_id":440,"player_count":0,"max_players":24,"Bots":0,"server_type":"Dedicated","server_os":"Linux","password":true,"vac":true,"version":"7961495","steam_id":85568392924742827,"keywords":["cp","nocrits","nodmgspread","uncletopia"],"game_id":440,"stv_port":27076,"stv_name":"Uncletopia | Frankfurt | 7 | Stopwatch | STV","players":null},{"server_id":24,"name":"Uncletopia | Frankfurt | 8 | Community","name_short":"frk-8","host":"frk-1.de.uncletopia.com","port":27085,"enabled":true,"region":"eu","cc":"de","latitude":50.110924,"longitude":8.682127,"reserved":0,"last_update":"0001-01-01T00:00:00Z","name_a2s":"Uncletopia | Frankfurt | 8 | Community","protocol":17,"map":"workshop/koth_slaughter_rc1.ugc1712845210","folder":"tf","game":"Team Fortress","app_id":440,"player_count":0,"max_players":24,"Bots":0,"server_type":"Dedicated","server_os":"Linux","password":true,"vac":true,"version":"7961495","steam_id":85568392924742828,"keywords":["cp","nocrits","nodmgspread","uncletopia"],"game_id":440,"stv_port":27086,"stv_name":"Uncletopia | Frankfurt | 8 | Community | STV","players":null},{"server_id":202,"name":"Uncletopia | Hong Kong | 1 | All Maps","name_short":"hgk-1","host":"hgk-1.hk.uncletopia.com","port":27015,"enabled":true,"region":"asia","cc":"hk","latitude":22.302711,"longitude":114.177216,"reserved":0,"last_update":"0001-01-01T00:00:00Z","name_a2s":"Uncletopia | Hong Kong | 1 | All Maps","protocol":17,"map":"koth_lakeside_final","folder":"tf","game":"Team Fortress","app_id":440,"player_count":0,"max_players":24,"Bots":0,"server_type":"Dedicated","server_os":"Linux","password":true,"vac":true,"version":"7961495","steam_id":85568392924494504,"keywords":["cp","nocrits","nodmgspread","uncletopia"],"game_id":440,"stv_port":27016,"stv_name":"Uncletopia | Hong Kong | 1 | All Maps | STV","players":null},{"server_id":1,"name":"Uncletopia | Los Angeles | 1 | All Maps","name_short":"lax-1","host":"lax-1.us.uncletopia.com","port":27015,"enabled":true,"region":"us-west","cc":"us","latitude":33.94279,"longitude":-118.41004,"reserved":0,"last_update":"0001-01-01T00:00:00Z","name_a2s":"Uncletopia | Los Angeles | 1 | All Maps","protocol":17,"map":"pl_pier","folder":"tf","game":"Team Fortress","app_id":440,"player_count":4,"max_players":24,"Bots":0,"server_type":"Dedicated","server_os":"Linux","password":true,"vac":true,"version":"7961495","steam_id":85568392924469991,"keywords":["nocrits","nodmgspread","payload","uncletopia"],"game_id":440,"stv_port":27016,"stv_name":"Uncletopia | Los Angeles | 1 | All Maps | STV","players":[{"user_id":3,"name":"The Pencil Cunts","steam_id":76561198272606252,"connected_time":805000000000,"state":"active","ping":42},{"user_id":4,"name":"PorgyPork","steam_id":76561198824399078,"connected_time":256000000000,"state":"active","ping":33},{"user_id":5,"name":"tau0976","steam_id":76561199149015168,"connected_time":213000000000,"state":"active","ping":93},{"user_id":6,"name":"Grave Shifter15","steam_id":76561198036381323,"connected_time":207000000000,"state":"active","ping":59}]},{"server_id":112,"name":"Uncletopia | Los Angeles | 2 | All Maps","name_short":"lax-2","host":"lax-1.us.uncletopia.com","port":27025,"enabled":true,"region":"us-west","cc":"us","latitude":33.94279,"longitude":-118.41004,"reserved":0,"last_update":"0001-01-01T00:00:00Z","name_a2s":"Uncletopia | Los Angeles | 2 | All Maps","protocol":17,"map":"koth_cascade","folder":"tf","game":"Team Fortress","app_id":440,"player_count":0,"max_players":24,"Bots":0,"server_type":"Dedicated","server_os":"Linux","password":true,"vac":true,"version":"7961495","steam_id":85568392924469992,"keywords":["cp","nocrits","nodmgspread","uncletopia"],"game_id":440,"stv_port":27026,"stv_name":"Uncletopia | Los Angeles | 2 | All Maps | STV","players":null},{"server_id":324,"name":"Uncletopia | Los Angeles | 3 | All Maps","name_short":"lax-3","host":"lax-1.us.uncletopia.com","port":27035,"enabled":true,"region":"us-west","cc":"us","latitude":33.94279,"longitude":-118.41004,"reserved":0,"last_update":"0001-01-01T00:00:00Z","name_a2s":"Uncletopia | Los Angeles | 3 | All Maps","protocol":17,"map":"pl_hoodoo_final","folder":"tf","game":"Team Fortress","app_id":440,"player_count":0,"max_players":24,"Bots":0,"server_type":"Dedicated","server_os":"Linux","password":true,"vac":true,"version":"7961495","steam_id":85568392924510198,"keywords":["nocrits","nodmgspread","payload","uncletopia"],"game_id":440,"stv_port":27036,"stv_name":"Uncletopia | Los Angeles | 3 | All Maps | STV","players":null},{"server_id":25,"name":"Uncletopia | Los Angeles | 4 | Stopwatch","name_short":"lax-4","host":"lax-1.us.uncletopia.com","port":27045,"enabled":true,"region":"us-west","cc":"us","latitude":33.94279,"longitude":-118.41004,"reserved":0,"last_update":"0001-01-01T00:00:00Z","name_a2s":"Uncletopia | Los Angeles | 4 | Stopwatch","protocol":17,"map":"pl_upward","folder":"tf","game":"Team Fortress","app_id":440,"player_count":0,"max_players":24,"Bots":0,"server_type":"Dedicated","server_os":"Linux","password":true,"vac":true,"version":"7961495","steam_id":85568392924510199,"keywords":["nocrits","nodmgspread","payload","uncletopia"],"game_id":440,"stv_port":27046,"stv_name":"Uncletopia | Los Angeles | 4 | Stopwatch | STV","players":null},{"server_id":11,"name":"Uncletopia | London | 1 | All Maps","name_short":"lon-1","host":"lon-1.uk.uncletopia.com","port":27015,"enabled":true,"region":"eu","cc":"gb","latitude":51.509865,"longitude":-0.118092,"reserved":0,"last_update":"0001-01-01T00:00:00Z","name_a2s":"Uncletopia | London | 1 | All Maps","protocol":17,"map":"cp_foundry","folder":"tf","game":"Team Fortress","app_id":440,"player_count":24,"max_players":24,"Bots":0,"server_type":"Dedicated","server_os":"Linux","password":true,"vac":true,"version":"7961495","steam_id":85568392924367362,"keywords":["cp","nocrits","nodmgspread","uncletopia"],"game_id":440,"stv_port":27016,"stv_name":"Uncletopia | London | 1 | All Maps | STV","players":[{"user_id":364,"name":"Clown :o)","steam_id":76561198074657015,"connected_time":102000000000,"state":"active","ping":56},{"user_id":352,"name":"Purps","steam_id":76561198053886680,"connected_time":434000000000,"state":"active","ping":42},{"user_id":339,"name":"t.tv/whimsybun","steam_id":76561198878171763,"connected_time":2257000000000,"state":"active","ping":48},{"user_id":353,"name":"Cal","steam_id":76561198094515936,"connected_time":372000000000,"state":"active","ping":45},{"user_id":355,"name":"Kahvi","steam_id":76561198723244199,"connected_time":341000000000,"state":"active","ping":83},{"user_id":347,"name":"Christmas Ham","steam_id":76561198119601623,"connected_time":1299000000000,"state":"active","ping":55},{"user_id":356,"name":"Danzen","steam_id":76561198084438672,"connected_time":295000000000,"state":"active","ping":62},{"user_id":326,"name":"Kora","steam_id":76561198343198306,"connected_time":2887000000000,"state":"active","ping":60},{"user_id":357,"name":"Spinosaurus","steam_id":76561199086481600,"connected_time":253000000000,"state":"active","ping":43},{"user_id":307,"name":"ber.","steam_id":76561197993892057,"connected_time":3408000000000,"state":"active","ping":89},{"user_id":335,"name":"trite","steam_id":76561197983765323,"connected_time":2313000000000,"state":"active","ping":40},{"user_id":363,"name":"Laru","steam_id":76561197998838438,"connected_time":157000000000,"state":"active","ping":89},{"user_id":359,"name":"Average Chinese Man","steam_id":76561199076883472,"connected_time":243000000000,"state":"active","ping":60},{"user_id":360,"name":"swag","steam_id":76561197970877171,"connected_time":239000000000,"state":"active","ping":74},{"user_id":322,"name":"⸸aura⸸","steam_id":76561198066258544,"connected_time":3127000000000,"state":"active","ping":61},{"user_id":361,"name":"1couver","steam_id":76561198168553215,"connected_time":215000000000,"state":"active","ping":107},{"user_id":311,"name":"SENSITIVITY OVERDRIVE!!!!","steam_id":76561198163615254,"connected_time":3393000000000,"state":"active","ping":59},{"user_id":362,"name":"The Medic Revolution","steam_id":76561198435297875,"connected_time":188000000000,"state":"active","ping":44},{"user_id":345,"name":"i beat the last giant","steam_id":76561198080524596,"connected_time":1474000000000,"state":"active","ping":79},{"user_id":317,"name":"Torttu","steam_id":76561198013980029,"connected_time":3338000000000,"state":"active","ping":73},{"user_id":221,"name":"flappi","steam_id":76561198072892783,"connected_time":9358000000000,"state":"active","ping":73},{"user_id":297,"name":"nappo","steam_id":76561198060105180,"connected_time":4471000000000,"state":"active","ping":68},{"user_id":351,"name":"Štěpán","steam_id":76561198275742101,"connected_time":442000000000,"state":"active","ping":70},{"user_id":338,"name":"nibs","steam_id":76561198040099538,"connected_time":2272000000000,"state":"active","ping":72}]},{"server_id":114,"name":"Uncletopia | London | 2 | All Maps","name_short":"lon-2","host":"lon-1.uk.uncletopia.com","port":27025,"enabled":true,"region":"eu","cc":"gb","latitude":51.509865,"longitude":-0.118092,"reserved":0,"last_update":"0001-01-01T00:00:00Z","name_a2s":"Uncletopia | London | 2 | All Maps","protocol":17,"map":"ctf_turbine","folder":"tf","game":"Team Fortress","app_id":440,"player_count":23,"max_players":24,"Bots":0,"server_type":"Dedicated","server_os":"Linux","password":true,"vac":true,"version":"7961495","steam_id":85568392924470941,"keywords":["ctf","nocrits","nodmgspread","uncletopia"],"game_id":440,"stv_port":27026,"stv_name":"Uncletopia | London | 2 | All Maps | STV","players":[{"user_id":477,"name":"AidenQG","steam_id":76561198864678536,"connected_time":115000000000,"state":"active","ping":80},{"user_id":464,"name":"𝓹𝓱𝓪𝓷𝓽𝓸𝓶","steam_id":76561199095923041,"connected_time":1331000000000,"state":"active","ping":137},{"user_id":471,"name":"dansal","steam_id":76561197997042510,"connected_time":734000000000,"state":"active","ping":163},{"user_id":478,"name":"azufelt","steam_id":76561199259331226,"connected_time":103000000000,"state":"active","ping":105},{"user_id":479,"name":"nug","steam_id":76561198055396568,"connected_time":54000000000,"state":"active","ping":58},{"user_id":440,"name":"Princess Mel","steam_id":76561198071804982,"connected_time":2600000000000,"state":"active","ping":58},{"user_id":419,"name":"Gormbrain","steam_id":76561198020079511,"connected_time":4407000000000,"state":"active","ping":30},{"user_id":441,"name":"hwleo","steam_id":76561198090848620,"connected_time":2592000000000,"state":"active","ping":86},{"user_id":480,"name":"A Pigeon","steam_id":76561198114090555,"connected_time":53000000000,"state":"active","ping":77},{"user_id":473,"name":"Name","steam_id":76561197990757157,"connected_time":605000000000,"state":"active","ping":72},{"user_id":420,"name":"Slipskip","steam_id":76561198018493540,"connected_time":4404000000000,"state":"active","ping":45},{"user_id":386,"name":"Mono","steam_id":76561198114569493,"connected_time":6403000000000,"state":"active","ping":41},{"user_id":439,"name":"soupalognionycrouton","steam_id":76561199021878433,"connected_time":2628000000000,"state":"active","ping":60},{"user_id":442,"name":"compact disc","steam_id":76561198154677956,"connected_time":2589000000000,"state":"active","ping":61},{"user_id":454,"name":"H the Creator","steam_id":76561198335971475,"connected_time":1828000000000,"state":"active","ping":45},{"user_id":452,"name":"Tavish","steam_id":76561197971486686,"connected_time":2074000000000,"state":"active","ping":46},{"user_id":481,"name":"Pixar Cars on the PS2","steam_id":76561198079386295,"connected_time":24000000000,"state":"active","ping":45},{"user_id":482,"name":"Silver","steam_id":76561198175238807,"connected_time":19000000000,"state":"active","ping":47},{"user_id":423,"name":"Momo","steam_id":76561198815067088,"connected_time":4361000000000,"state":"active","ping":166},{"user_id":457,"name":"Qwertuss","steam_id":76561198026305366,"connected_time":1623000000000,"state":"active","ping":46},{"user_id":472,"name":"TurnaJ","steam_id":76561198189223495,"connected_time":670000000000,"state":"active","ping":56},{"user_id":475,"name":"dumo dumo","steam_id":76561198346638308,"connected_time":204000000000,"state":"active","ping":46},{"user_id":463,"name":"BearJuice","steam_id":76561198999534523,"connected_time":1425000000000,"state":"active","ping":103}]},{"server_id":320,"name":"Uncletopia | London | 3 | All Maps","name_short":"lon-3","host":"lon-1.uk.uncletopia.com","port":27035,"enabled":true,"region":"eu","cc":"gb","latitude":51.509865,"longitude":-0.118092,"reserved":0,"last_update":"0001-01-01T00:00:00Z","name_a2s":"Uncletopia | London | 3 | All Maps","protocol":17,"map":"pl_badwater","folder":"tf","game":"Team Fortress","app_id":440,"player_count":24,"max_players":24,"Bots":0,"server_type":"Dedicated","server_os":"Linux","password":true,"vac":true,"version":"7961495","steam_id":85568392924510192,"keywords":["nocrits","nodmgspread","payload","uncletopia"],"game_id":440,"stv_port":27036,"stv_name":"Uncletopia | London | 3 | All Maps | STV","players":[{"user_id":337,"name":"BIG BOI SPICE","steam_id":76561198194862277,"connected_time":147000000000,"state":"active","ping":66},{"user_id":260,"name":"Just Navlis","steam_id":76561198090479609,"connected_time":7181000000000,"state":"active","ping":60},{"user_id":315,"name":"Red Dynamite","steam_id":76561199073167935,"connected_time":2748000000000,"state":"active","ping":128},{"user_id":306,"name":"Interview D","steam_id":76561199012566222,"connected_time":2915000000000,"state":"active","ping":63},{"user_id":308,"name":"Sir Cauterize","steam_id":76561198047079422,"connected_time":2904000000000,"state":"active","ping":43},{"user_id":318,"name":"Athudanu","steam_id":76561198052881337,"connected_time":2201000000000,"state":"active","ping":59},{"user_id":276,"name":"xavier","steam_id":76561198076494034,"connected_time":5052000000000,"state":"active","ping":52},{"user_id":333,"name":"sniper's kangaroo wife","steam_id":76561198334042273,"connected_time":491000000000,"state":"active","ping":42},{"user_id":320,"name":"Hoss","steam_id":76561198000169123,"connected_time":2187000000000,"state":"active","ping":90},{"user_id":335,"name":"GazerBazer","steam_id":76561198879107565,"connected_time":297000000000,"state":"active","ping":80},{"user_id":326,"name":"Bubbah🐾","steam_id":76561198061730609,"connected_time":1954000000000,"state":"active","ping":79},{"user_id":330,"name":"Summer ♥","steam_id":76561198047723907,"connected_time":1059000000000,"state":"active","ping":45},{"user_id":316,"name":"DidoSquarepants","steam_id":76561198813776572,"connected_time":2701000000000,"state":"active","ping":48},{"user_id":311,"name":"finbar","steam_id":76561198056812396,"connected_time":2878000000000,"state":"active","ping":75},{"user_id":329,"name":"Grim the lemon","steam_id":76561199083433988,"connected_time":1071000000000,"state":"active","ping":48},{"user_id":270,"name":"Bobirulez","steam_id":76561198009125458,"connected_time":6165000000000,"state":"active","ping":75},{"user_id":321,"name":"vicente.eze2","steam_id":76561199153979429,"connected_time":2185000000000,"state":"active","ping":65},{"user_id":338,"name":"Mr. Hunts","steam_id":76561197981910397,"connected_time":107000000000,"state":"active","ping":68},{"user_id":305,"name":"acetamiprid","steam_id":76561198058012525,"connected_time":3075000000000,"state":"active","ping":60},{"user_id":323,"name":"bowchika wowa #SlavaUkraine","steam_id":76561198159564550,"connected_time":2150000000000,"state":"active","ping":61},{"user_id":309,"name":"Oak","steam_id":76561198067315672,"connected_time":2902000000000,"state":"active","ping":51},{"user_id":295,"name":"Aeinzalot","steam_id":76561198195288449,"connected_time":3893000000000,"state":"active","ping":47},{"user_id":334,"name":"TSM Gragas Bomba","steam_id":76561198261795972,"connected_time":455000000000,"state":"active","ping":69},{"user_id":314,"name":"Big Benn","steam_id":76561199024168373,"connected_time":2815000000000,"state":"active","ping":61}]},{"server_id":321,"name":"Uncletopia | London | 4 | All Maps","name_short":"lon-4","host":"lon-1.uk.uncletopia.com","port":27045,"enabled":true,"region":"eu","cc":"gb","latitude":51.509865,"longitude":-0.118092,"reserved":0,"last_update":"0001-01-01T00:00:00Z","name_a2s":"Uncletopia | London | 4 | All Maps","protocol":17,"map":"pl_goldrush","folder":"tf","game":"Team Fortress","app_id":440,"player_count":24,"max_players":24,"Bots":0,"server_type":"Dedicated","server_os":"Linux","password":true,"vac":true,"version":"7961495","steam_id":85568392924510193,"keywords":["nocrits","nodmgspread","payload","uncletopia"],"game_id":440,"stv_port":27046,"stv_name":"Uncletopia | London | 4 | All Maps | STV","players":[{"user_id":115,"name":"GrandMaster(RIP)","steam_id":76561198849545943,"connected_time":1245000000000,"state":"active","ping":137},{"user_id":137,"name":"OKLOLOM3","steam_id":76561199151881507,"connected_time":243000000000,"state":"active","ping":104},{"user_id":139,"name":"James","steam_id":76561198168882012,"connected_time":134000000000,"state":"active","ping":45},{"user_id":135,"name":"D_Ink","steam_id":76561198267716662,"connected_time":310000000000,"state":"active","ping":37},{"user_id":109,"name":"ROX","steam_id":76561198272289320,"connected_time":2562000000000,"state":"active","ping":55},{"user_id":128,"name":"Syppy","steam_id":76561198078273095,"connected_time":524000000000,"state":"active","ping":86},{"user_id":130,"name":"GrumpyGrey","steam_id":76561199504695656,"connected_time":482000000000,"state":"active","ping":45},{"user_id":22,"name":":3","steam_id":76561198169471853,"connected_time":7347000000000,"state":"active","ping":67},{"user_id":103,"name":"Flarp von Karma","steam_id":76561198043855292,"connected_time":2994000000000,"state":"active","ping":46},{"user_id":107,"name":"dopamine overdose","steam_id":76561199032511302,"connected_time":2791000000000,"state":"active","ping":90},{"user_id":124,"name":"The Scoundrel","steam_id":76561199244090814,"connected_time":990000000000,"state":"active","ping":44},{"user_id":110,"name":"cisgender clown","steam_id":76561199469909295,"connected_time":2516000000000,"state":"active","ping":59},{"user_id":111,"name":"say gex","steam_id":76561198265479349,"connected_time":2461000000000,"state":"active","ping":61},{"user_id":140,"name":"the grongle","steam_id":76561198989398023,"connected_time":49000000000,"state":"active","ping":114},{"user_id":94,"name":"Ethee05","steam_id":76561198221013980,"connected_time":3570000000000,"state":"active","ping":46},{"user_id":132,"name":"❤ [HoneyBe_] ❤","steam_id":76561198288930154,"connected_time":408000000000,"state":"active","ping":59},{"user_id":136,"name":"randompixel","steam_id":76561198003941207,"connected_time":277000000000,"state":"active","ping":48},{"user_id":134,"name":"Kamelåså","steam_id":76561198149072785,"connected_time":375000000000,"state":"active","ping":56},{"user_id":118,"name":"Sketchead","steam_id":76561198098034479,"connected_time":1168000000000,"state":"active","ping":49},{"user_id":112,"name":"Jags","steam_id":76561198361725230,"connected_time":2075000000000,"state":"active","ping":54},{"user_id":126,"name":"MISTER SIUUU","steam_id":76561198018330092,"connected_time":728000000000,"state":"active","ping":75},{"user_id":138,"name":"SynthBox3","steam_id":76561199094075745,"connected_time":227000000000,"state":"active","ping":92},{"user_id":72,"name":"Vytuzas","steam_id":76561198012868436,"connected_time":4623000000000,"state":"active","ping":75},{"user_id":123,"name":"soney","steam_id":76561198121177512,"connected_time":1039000000000,"state":"active","ping":70}]},{"server_id":21,"name":"Uncletopia | London | 5 | All Maps","name_short":"lon-5","host":"lon-1.uk.uncletopia.com","port":27055,"enabled":true,"region":"eu","cc":"gb","latitude":51.509865,"longitude":-0.118092,"reserved":0,"last_update":"0001-01-01T00:00:00Z","name_a2s":"Uncletopia | London | 5 | All Maps","protocol":17,"map":"koth_lakeside_final","folder":"tf","game":"Team Fortress","app_id":440,"player_count":0,"max_players":24,"Bots":0,"server_type":"Dedicated","server_os":"Linux","password":true,"vac":true,"version":"7961495","steam_id":85568392924742829,"keywords":["cp","nocrits","nodmgspread","uncletopia"],"game_id":440,"stv_port":27056,"stv_name":"Uncletopia | London | 5 | All Maps | STV","players":null},{"server_id":22,"name":"Uncletopia | London | 6 | All Maps","name_short":"lon-6","host":"lon-1.uk.uncletopia.com","port":27065,"enabled":true,"region":"eu","cc":"gb","latitude":51.509865,"longitude":-0.118092,"reserved":0,"last_update":"0001-01-01T00:00:00Z","name_a2s":"Uncletopia | London | 6 | All Maps","protocol":17,"map":"koth_cascade","folder":"tf","game":"Team Fortress","app_id":440,"player_count":0,"max_players":24,"Bots":0,"server_type":"Dedicated","server_os":"Linux","password":true,"vac":true,"version":"7961495","steam_id":85568392924742830,"keywords":["cp","nocrits","nodmgspread","uncletopia"],"game_id":440,"stv_port":27066,"stv_name":"Uncletopia | London | 6 | All Maps | STV","players":null},{"server_id":40,"name":"Uncletopia | London | 7 | Stopwatch","name_short":"lon-7","host":"lon-1.uk.uncletopia.com","port":27075,"enabled":true,"region":"eu","cc":"gb","latitude":51.509865,"longitude":-0.118092,"reserved":0,"last_update":"0001-01-01T00:00:00Z","name_a2s":"Uncletopia | London | 7 | Stopwatch","protocol":17,"map":"workshop/pl_vigil_rc10.ugc1266210012","folder":"tf","game":"Team Fortress","app_id":440,"player_count":21,"max_players":24,"Bots":0,"server_type":"Dedicated","server_os":"Linux","password":true,"vac":true,"version":"7961495","steam_id":85568392924964314,"keywords":["nocrits","nodmgspread","payload","uncletopia"],"game_id":440,"stv_port":27076,"stv_name":"Uncletopia | London | 7 | Stopwatch | STV","players":[{"user_id":108,"name":"stepbro","steam_id":76561198119607160,"connected_time":60000000000,"state":"active","ping":69},{"user_id":70,"name":"Maneon","steam_id":76561198208386005,"connected_time":2079000000000,"state":"active","ping":40},{"user_id":32,"name":"Demicore","steam_id":76561197976922136,"connected_time":3722000000000,"state":"active","ping":141},{"user_id":69,"name":"Warrior555MainsGanon","steam_id":76561198388627786,"connected_time":2251000000000,"state":"active","ping":58},{"user_id":78,"name":"Reginald the Deceased Gentleman","steam_id":76561198322068512,"connected_time":1283000000000,"state":"active","ping":187},{"user_id":35,"name":"(MAC) [BN] Crazyking","steam_id":76561198001668616,"connected_time":3653000000000,"state":"active","ping":50},{"user_id":86,"name":"HappyHarby","steam_id":76561198056965702,"connected_time":957000000000,"state":"active","ping":121},{"user_id":98,"name":"Gregor Samsa","steam_id":76561198973069177,"connected_time":489000000000,"state":"active","ping":60},{"user_id":107,"name":"Vince","steam_id":76561199103000131,"connected_time":132000000000,"state":"active","ping":45},{"user_id":100,"name":"_Shkoot","steam_id":76561198318170398,"connected_time":461000000000,"state":"active","ping":62},{"user_id":95,"name":"happy + wholesome babs","steam_id":76561198314919758,"connected_time":537000000000,"state":"active","ping":55},{"user_id":102,"name":"Plep","steam_id":76561198840259819,"connected_time":359000000000,"state":"active","ping":59},{"user_id":36,"name":"Sad Potato","steam_id":76561198239654762,"connected_time":3554000000000,"state":"active","ping":44},{"user_id":37,"name":"SpicyBoi","steam_id":76561198137845321,"connected_time":3552000000000,"state":"active","ping":47},{"user_id":54,"name":"silicon based life form","steam_id":76561199127121346,"connected_time":2947000000000,"state":"active","ping":44},{"user_id":71,"name":"Wang of Wall St","steam_id":76561198047460598,"connected_time":2060000000000,"state":"active","ping":111},{"user_id":105,"name":"deflox","steam_id":76561198087450635,"connected_time":256000000000,"state":"active","ping":47},{"user_id":91,"name":"baver","steam_id":76561198135293142,"connected_time":641000000000,"state":"active","ping":83},{"user_id":77,"name":"kenzou","steam_id":76561199180054996,"connected_time":1718000000000,"state":"active","ping":75},{"user_id":74,"name":"toyota tacoma water pump gasket","steam_id":76561198836802899,"connected_time":1895000000000,"state":"active","ping":76},{"user_id":76,"name":"snayke","steam_id":76561198077822932,"connected_time":1824000000000,"state":"active","ping":64}]},{"server_id":41,"name":"Uncletopia | London | 8 | Community","name_short":"lon-8","host":"lon-1.uk.uncletopia.com","port":27085,"enabled":true,"region":"eu","cc":"gb","latitude":51.509865,"longitude":-0.118092,"reserved":0,"last_update":"0001-01-01T00:00:00Z","name_a2s":"Uncletopia | London | 8 | Community","protocol":17,"map":"workshop/rd_asteroid_redux_b1.ugc2154902912","folder":"tf","game":"Team Fortress","app_id":440,"player_count":0,"max_players":24,"Bots":0,"server_type":"Dedicated","server_os":"Linux","password":true,"vac":true,"version":"7961495","steam_id":85568392924964315,"keywords":["beta","nocrits","nodmgspread","rd","uncletopia"],"game_id":440,"stv_port":27086,"stv_name":"Uncletopia | London | 8 | Community | STV","players":null},{"server_id":300,"name":"Uncletopia | Montréal | 1 | One Thousand Uncles","name_short":"mtl-1","host":"mtl-1.ca.uncletopia.com","port":27015,"enabled":true,"region":"us-east","cc":"ca","latitude":45.50889,"longitude":-73.56167,"reserved":0,"last_update":"0001-01-01T00:00:00Z","name_a2s":"Uncletopia | Montréal | 1 | One Thousand Uncles","protocol":17,"map":"pl_upward","folder":"tf","game":"Team Fortress","app_id":440,"player_count":24,"max_players":32,"Bots":16,"server_type":"Dedicated","server_os":"Linux","password":true,"vac":true,"version":"7961495","steam_id":85568392924500087,"keywords":["alltalk","bots","danepve","increased_maxplayers","norespawntime","payload","uncletopia"],"game_id":440,"stv_port":0,"stv_name":"","players":[{"user_id":149,"name":"Crebb 2184","steam_id":76561198323163973,"connected_time":909000000000,"state":"active","ping":115},{"user_id":154,"name":"Jrock","steam_id":76561198045715996,"connected_time":554000000000,"state":"active","ping":80},{"user_id":171,"name":"Yimberly","steam_id":76561199206923109,"connected_time":520000000000,"state":"active","ping":83},{"user_id":128,"name":"Some Guy","steam_id":76561198447348725,"connected_time":5242000000000,"state":"active","ping":127},{"user_id":150,"name":"Kickpuncher","steam_id":76561198121528357,"connected_time":841000000000,"state":"active","ping":56},{"user_id":153,"name":"Pie Eater 9000","steam_id":76561198003791564,"connected_time":599000000000,"state":"active","ping":69},{"user_id":172,"name":"hoos","steam_id":76561198045985910,"connected_time":507000000000,"state":"active","ping":61},{"user_id":173,"name":"GH578","steam_id":76561199493262585,"connected_time":469000000000,"state":"active","ping":112}]},{"server_id":301,"name":"Uncletopia | Montréal | 2 | One Thousand Uncles","name_short":"mtl-2","host":"mtl-1.ca.uncletopia.com","port":27025,"enabled":true,"region":"us-east","cc":"ca","latitude":45.50889,"longitude":-73.56167,"reserved":0,"last_update":"0001-01-01T00:00:00Z","name_a2s":"Uncletopia | Montréal | 2 | One Thousand Uncles","protocol":17,"map":"pl_chilly","folder":"tf","game":"Team Fortress","app_id":440,"player_count":0,"max_players":32,"Bots":0,"server_type":"Dedicated","server_os":"Linux","password":true,"vac":true,"version":"7961495","steam_id":85568392924500088,"keywords":["alltalk","danepve","increased_maxplayers","norespawntime","payload","uncletopia"],"game_id":440,"stv_port":0,"stv_name":"","players":null},{"server_id":302,"name":"Uncletopia | Montréal | 3 | One Thousand Uncles","name_short":"mtl-3","host":"mtl-1.ca.uncletopia.com","port":27035,"enabled":true,"region":"us-east","cc":"ca","latitude":45.50889,"longitude":-73.56167,"reserved":0,"last_update":"0001-01-01T00:00:00Z","name_a2s":"Uncletopia | Montréal | 3 | One Thousand Uncles","protocol":17,"map":"pl_upward","folder":"tf","game":"Team Fortress","app_id":440,"player_count":0,"max_players":32,"Bots":0,"server_type":"Dedicated","server_os":"Linux","password":true,"vac":true,"version":"7961495","steam_id":85568392924500089,"keywords":["alltalk","danepve","increased_maxplayers","norespawntime","payload","uncletopia"],"game_id":440,"stv_port":0,"stv_name":"","players":null},{"server_id":13,"name":"Uncletopia | New York City | 1 | All Maps","name_short":"nyc-1","host":"nyc-1.us.uncletopia.com","port":27015,"enabled":true,"region":"us-east","cc":"us","latitude":40.73061,"longitude":-73.93524,"reserved":0,"last_update":"0001-01-01T00:00:00Z","name_a2s":"Uncletopia | New York City | 1 | All Maps","protocol":17,"map":"cp_snakewater_final1","folder":"tf","game":"Team Fortress","app_id":440,"player_count":0,"max_players":24,"Bots":0,"server_type":"Dedicated","server_os":"Linux","password":true,"vac":true,"version":"7961495","steam_id":85568392924469993,"keywords":["cp","nocrits","nodmgspread","uncletopia"],"game_id":440,"stv_port":27016,"stv_name":"Uncletopia | New York City | 1 | All Maps | STV","players":null},{"server_id":14,"name":"Uncletopia | New York City | 2 | All Maps","name_short":"nyc-2","host":"nyc-1.us.uncletopia.com","port":27025,"enabled":true,"region":"us-east","cc":"us","latitude":40.73061,"longitude":-73.93524,"reserved":0,"last_update":"0001-01-01T00:00:00Z","name_a2s":"Uncletopia | New York City | 2 | All Maps","protocol":17,"map":"koth_highpass","folder":"tf","game":"Team Fortress","app_id":440,"player_count":0,"max_players":24,"Bots":0,"server_type":"Dedicated","server_os":"Linux","password":true,"vac":true,"version":"7961495","steam_id":85568392924469994,"keywords":["cp","nocrits","nodmgspread","uncletopia"],"game_id":440,"stv_port":27026,"stv_name":"Uncletopia | New York City | 2 | All Maps | STV","players":null},{"server_id":15,"name":"Uncletopia | New York City | 3 | Stopwatch","name_short":"nyc-3","host":"nyc-1.us.uncletopia.com","port":27035,"enabled":true,"region":"us-east","cc":"us","latitude":40.73061,"longitude":-73.93524,"reserved":0,"last_update":"0001-01-01T00:00:00Z","name_a2s":"Uncletopia | New York City | 3 | Stopwatch","protocol":17,"map":"cp_granary","folder":"tf","game":"Team Fortress","app_id":440,"player_count":0,"max_players":24,"Bots":0,"server_type":"Dedicated","server_os":"Linux","password":true,"vac":true,"version":"7961495","steam_id":85568392924742820,"keywords":["cp","nocrits","nodmgspread","uncletopia"],"game_id":440,"stv_port":27036,"stv_name":"Uncletopia | New York City | 3 | Stopwatch | STV","players":null},{"server_id":16,"name":"Uncletopia | New York City | 4 | Community","name_short":"nyc-4","host":"nyc-1.us.uncletopia.com","port":27045,"enabled":true,"region":"us-east","cc":"us","latitude":40.73061,"longitude":-73.93524,"reserved":0,"last_update":"0001-01-01T00:00:00Z","name_a2s":"Uncletopia | New York City | 4 | Community","protocol":17,"map":"workshop/cp_indulge.ugc528106646","folder":"tf","game":"Team Fortress","app_id":440,"player_count":0,"max_players":24,"Bots":0,"server_type":"Dedicated","server_os":"Linux","password":true,"vac":true,"version":"7961495","steam_id":85568392924742821,"keywords":["cp","nocrits","nodmgspread","uncletopia"],"game_id":440,"stv_port":27046,"stv_name":"Uncletopia | New York City | 4 | Community | STV","players":null},{"server_id":142,"name":"Uncletopia | São Paulo | 1 | All Maps","name_short":"sao-1","host":"sao-1.br.uncletopia.com","port":27015,"enabled":true,"region":"sa","cc":"br","latitude":-23.533773,"longitude":-46.62529,"reserved":0,"last_update":"0001-01-01T00:00:00Z","name_a2s":"Uncletopia | São Paulo | 1 | All Maps","protocol":17,"map":"koth_highpass","folder":"tf","game":"Team Fortress","app_id":440,"player_count":1,"max_players":24,"Bots":0,"server_type":"Dedicated","server_os":"Linux","password":true,"vac":true,"version":"7961495","steam_id":85568392924469996,"keywords":["cp","nocrits","nodmgspread","uncletopia"],"game_id":440,"stv_port":27016,"stv_name":"Uncletopia | São Paulo | 1 | All Maps | STV","players":[{"user_id":9,"name":"Guaxinim","steam_id":76561199319740519,"connected_time":124000000000,"state":"active","ping":47}]},{"server_id":143,"name":"Uncletopia | São Paulo | 2 | Community","name_short":"sao-2","host":"sao-2.br.uncletopia.com","port":27015,"enabled":true,"region":"sa","cc":"br","latitude":-23.533773,"longitude":-46.62529,"reserved":0,"last_update":"0001-01-01T00:00:00Z","name_a2s":"Uncletopia | São Paulo | 2 | Community","protocol":17,"map":"workshop/cp_croissant_final.ugc458840209","folder":"tf","game":"Team Fortress","app_id":440,"player_count":0,"max_players":24,"Bots":0,"server_type":"Dedicated","server_os":"Linux","password":true,"vac":true,"version":"7961495","steam_id":85568392924485349,"keywords":["cp","nocrits","nodmgspread","uncletopia"],"game_id":440,"stv_port":27016,"stv_name":"Uncletopia | São Paulo | 2 | Community | STV","players":null},{"server_id":7,"name":"Uncletopia | Seattle | 1 | All Maps","name_short":"sea-1","host":"sea-1.us.uncletopia.com","port":27015,"enabled":true,"region":"us-west","cc":"us","latitude":47.608013,"longitude":-122.33517,"reserved":0,"last_update":"0001-01-01T00:00:00Z","name_a2s":"Uncletopia | Seattle | 1 | All Maps","protocol":17,"map":"cp_mountainlab","folder":"tf","game":"Team Fortress","app_id":440,"player_count":24,"max_players":24,"Bots":0,"server_type":"Dedicated","server_os":"Linux","password":true,"vac":true,"version":"7961495","steam_id":85568392924469997,"keywords":["cp","nocrits","nodmgspread","uncletopia"],"game_id":440,"stv_port":27016,"stv_name":"Uncletopia | Seattle | 1 | All Maps | STV","players":[{"user_id":159,"name":"Jeugh","steam_id":76561198073498865,"connected_time":1343000000000,"state":"active","ping":135},{"user_id":104,"name":"Muscle Man","steam_id":76561198248325252,"connected_time":5466000000000,"state":"active","ping":69},{"user_id":96,"name":"bobtheninjaman","steam_id":76561198066424544,"connected_time":6198000000000,"state":"active","ping":67},{"user_id":135,"name":"Puskinti","steam_id":76561198032120688,"connected_time":3146000000000,"state":"active","ping":48},{"user_id":161,"name":"Shit (REAL)","steam_id":76561198206490352,"connected_time":1071000000000,"state":"active","ping":62},{"user_id":170,"name":"mega","steam_id":76561198089520959,"connected_time":68000000000,"state":"active","ping":96},{"user_id":164,"name":"Dottie [She/They]","steam_id":76561198282046179,"connected_time":952000000000,"state":"active","ping":97},{"user_id":63,"name":"wendigo","steam_id":76561197994528974,"connected_time":8550000000000,"state":"active","ping":75},{"user_id":140,"name":"put fentanyl back in pepsi","steam_id":76561198238592900,"connected_time":3113000000000,"state":"active","ping":76},{"user_id":163,"name":"Linusdog","steam_id":76561198343046317,"connected_time":984000000000,"state":"active","ping":81},{"user_id":165,"name":"Monsieur Marley","steam_id":76561198153543927,"connected_time":937000000000,"state":"active","ping":75},{"user_id":119,"name":"Kat-Chan","steam_id":76561198815823728,"connected_time":4370000000000,"state":"active","ping":129},{"user_id":146,"name":"selvhat","steam_id":76561198114225509,"connected_time":2666000000000,"state":"active","ping":68},{"user_id":156,"name":"Jovo","steam_id":76561197993265970,"connected_time":1657000000000,"state":"active","ping":43},{"user_id":145,"name":"november","steam_id":76561198042748172,"connected_time":2715000000000,"state":"active","ping":89},{"user_id":158,"name":"Peppy","steam_id":76561198866629645,"connected_time":1478000000000,"state":"active","ping":58},{"user_id":57,"name":"Imitation Caucasian","steam_id":76561198320536166,"connected_time":9166000000000,"state":"active","ping":80},{"user_id":152,"name":"Shark Sandwich","steam_id":76561198025007938,"connected_time":2013000000000,"state":"active","ping":45},{"user_id":148,"name":"zee","steam_id":76561198148876424,"connected_time":2376000000000,"state":"active","ping":54},{"user_id":169,"name":"slafflow","steam_id":76561199381012350,"connected_time":328000000000,"state":"active","ping":85},{"user_id":166,"name":"tmm (theManMan)","steam_id":76561199488457138,"connected_time":934000000000,"state":"active","ping":59},{"user_id":149,"name":"Flagellant","steam_id":76561198152149679,"connected_time":2336000000000,"state":"active","ping":38},{"user_id":147,"name":"Aardappel","steam_id":76561198030894676,"connected_time":2477000000000,"state":"active","ping":64},{"user_id":155,"name":"Posadist","steam_id":76561198024407472,"connected_time":1735000000000,"state":"active","ping":75}]},{"server_id":119,"name":"Uncletopia | Seattle | 2 | All Maps","name_short":"sea-2","host":"sea-1.us.uncletopia.com","port":27025,"enabled":true,"region":"us-west","cc":"us","latitude":47.608013,"longitude":-122.33517,"reserved":0,"last_update":"0001-01-01T00:00:00Z","name_a2s":"Uncletopia | Seattle | 2 | All Maps","protocol":17,"map":"koth_lakeside_final","folder":"tf","game":"Team Fortress","app_id":440,"player_count":2,"max_players":24,"Bots":0,"server_type":"Dedicated","server_os":"Linux","password":true,"vac":true,"version":"7961495","steam_id":85568392924469998,"keywords":["cp","nocrits","nodmgspread","uncletopia"],"game_id":440,"stv_port":27026,"stv_name":"Uncletopia | Seattle | 2 | All Maps | STV","players":[{"user_id":4,"name":"The Gremlin","steam_id":76561198419066993,"connected_time":29000000000,"state":"spawning","ping":46},{"user_id":5,"name":"asm_ghost","steam_id":76561199205363547,"connected_time":26000000000,"state":"active","ping":60}]},{"server_id":406,"name":"Uncletopia | Seattle | 3 | Stopwatch","name_short":"sea-3","host":"sea-1.us.uncletopia.com","port":27035,"enabled":true,"region":"us-west","cc":"us","latitude":47.608013,"longitude":-122.33517,"reserved":0,"last_update":"0001-01-01T00:00:00Z","name_a2s":"Uncletopia | Seattle | 3 | Stopwatch","protocol":17,"map":"workshop/koth_product_final.ugc454272353","folder":"tf","game":"Team Fortress","app_id":440,"player_count":0,"max_players":24,"Bots":0,"server_type":"Dedicated","server_os":"Linux","password":true,"vac":true,"version":"7961495","steam_id":85568392924515217,"keywords":["cp","nocrits","nodmgspread","uncletopia"],"game_id":440,"stv_port":27036,"stv_name":"Uncletopia | Seattle | 3 | Stopwatch | STV","players":null},{"server_id":17,"name":"Uncletopia | San Francisco | 1 | All Maps","name_short":"sfo-1","host":"sfo-1.us.uncletopia.com","port":27015,"enabled":true,"region":"us-west","cc":"us","latitude":37.77397,"longitude":-122.4313,"reserved":0,"last_update":"0001-01-01T00:00:00Z","name_a2s":"Uncletopia | San Francisco | 1 | All Maps","protocol":17,"map":"cp_altitude","folder":"tf","game":"Team Fortress","app_id":440,"player_count":0,"max_players":24,"Bots":0,"server_type":"Dedicated","server_os":"Linux","password":true,"vac":true,"version":"7961495","steam_id":85568392924469999,"keywords":["cp","nocrits","nodmgspread","uncletopia"],"game_id":440,"stv_port":27016,"stv_name":"Uncletopia | San Francisco | 1 | All Maps | STV","players":null},{"server_id":18,"name":"Uncletopia | San Francisco | 2 | All Maps","name_short":"sfo-2","host":"sfo-1.us.uncletopia.com","port":27025,"enabled":true,"region":"us-west","cc":"us","latitude":37.77397,"longitude":-122.4313,"reserved":0,"last_update":"0001-01-01T00:00:00Z","name_a2s":"Uncletopia | San Francisco | 2 | All Maps","protocol":17,"map":"cp_freight_final1","folder":"tf","game":"Team Fortress","app_id":440,"player_count":0,"max_players":24,"Bots":0,"server_type":"Dedicated","server_os":"Linux","password":true,"vac":true,"version":"7961495","steam_id":85568392924470000,"keywords":["cp","nocrits","nodmgspread","uncletopia"],"game_id":440,"stv_port":27026,"stv_name":"Uncletopia | San Francisco | 2 | All Maps | STV","players":null},{"server_id":19,"name":"Uncletopia | San Francisco | 3 | Stopwatch","name_short":"sfo-3","host":"sfo-1.us.uncletopia.com","port":27035,"enabled":true,"region":"us-west","cc":"us","latitude":37.77397,"longitude":-122.4313,"reserved":0,"last_update":"0001-01-01T00:00:00Z","name_a2s":"Uncletopia | San Francisco | 3 | Stopwatch","protocol":17,"map":"koth_highpass","folder":"tf","game":"Team Fortress","app_id":440,"player_count":0,"max_players":24,"Bots":0,"server_type":"Dedicated","server_os":"Linux","password":true,"vac":true,"version":"7961495","steam_id":85568392924742824,"keywords":["cp","nocrits","nodmgspread","uncletopia"],"game_id":440,"stv_port":27036,"stv_name":"Uncletopia | San Francisco | 3 | Stopwatch | STV","players":null},{"server_id":20,"name":"Uncletopia | San Francisco | 4 | Community","name_short":"sfo-4","host":"sfo-1.us.uncletopia.com","port":27045,"enabled":true,"region":"us-west","cc":"us","latitude":37.77397,"longitude":-122.4313,"reserved":0,"last_update":"0001-01-01T00:00:00Z","name_a2s":"Uncletopia | San Francisco | 4 | Community","protocol":17,"map":"workshop/koth_slaughter_rc1.ugc1712845210","folder":"tf","game":"Team Fortress","app_id":440,"player_count":0,"max_players":24,"Bots":0,"server_type":"Dedicated","server_os":"Linux","password":true,"vac":true,"version":"7961495","steam_id":85568392924742826,"keywords":["cp","nocrits","nodmgspread","uncletopia"],"game_id":440,"stv_port":27046,"stv_name":"Uncletopia | San Francisco | 4 | Community | STV","players":null},{"server_id":141,"name":"Uncletopia | Sydney | 1 | All Maps","name_short":"syd-1","host":"syd-1.au.uncletopia.com","port":27015,"enabled":true,"region":"au","cc":"au","latitude":-33.865143,"longitude":151.2099,"reserved":0,"last_update":"0001-01-01T00:00:00Z","name_a2s":"Uncletopia | Sydney | 1 | All Maps","protocol":17,"map":"koth_lakeside_final","folder":"tf","game":"Team Fortress","app_id":440,"player_count":0,"max_players":24,"Bots":0,"server_type":"Dedicated","server_os":"Linux","password":true,"vac":true,"version":"7961495","steam_id":85568392924470001,"keywords":["cp","nocrits","nodmgspread","uncletopia"],"game_id":440,"stv_port":27016,"stv_name":"Uncletopia | Sydney | 1 | All Maps | STV","players":null},{"server_id":123,"name":"Uncletopia | Sydney | 2 | All Maps","name_short":"syd-2","host":"syd-1.au.uncletopia.com","port":27025,"enabled":true,"region":"au","cc":"au","latitude":-33.865143,"longitude":151.2099,"reserved":0,"last_update":"0001-01-01T00:00:00Z","name_a2s":"Uncletopia | Sydney | 2 | All Maps","protocol":17,"map":"pl_pier","folder":"tf","game":"Team Fortress","app_id":440,"player_count":0,"max_players":24,"Bots":0,"server_type":"Dedicated","server_os":"Linux","password":true,"vac":true,"version":"7961495","steam_id":85568392924470002,"keywords":["nocrits","nodmgspread","payload","uncletopia"],"game_id":440,"stv_port":27026,"stv_name":"Uncletopia | Sydney | 2 | All Maps | STV","players":null},{"server_id":395,"name":"Uncletopia | Sydney | 3 | All Maps","name_short":"syd-3","host":"syd-1.au.uncletopia.com","port":27035,"enabled":true,"region":"au","cc":"au","latitude":-33.865143,"longitude":151.2099,"reserved":0,"last_update":"0001-01-01T00:00:00Z","name_a2s":"Uncletopia | Sydney | 3 | All Maps","protocol":17,"map":"pl_frontier_final","folder":"tf","game":"Team Fortress","app_id":440,"player_count":0,"max_players":24,"Bots":0,"server_type":"Dedicated","server_os":"Linux","password":true,"vac":true,"version":"7961495","steam_id":85568392925194467,"keywords":["nocrits","nodmgspread","payload","uncletopia"],"game_id":440,"stv_port":27036,"stv_name":"Uncletopia | Sydney | 3 | All Maps | STV","players":null},{"server_id":396,"name":"Uncletopia | Sydney | 4 | All Maps","name_short":"syd-4","host":"syd-1.au.uncletopia.com","port":27045,"enabled":true,"region":"au","cc":"au","latitude":-33.865143,"longitude":151.2099,"reserved":0,"last_update":"0001-01-01T00:00:00Z","name_a2s":"Uncletopia | Sydney | 4 | All Maps","protocol":17,"map":"cp_dustbowl","folder":"tf","game":"Team Fortress","app_id":440,"player_count":0,"max_players":24,"Bots":0,"server_type":"Dedicated","server_os":"Linux","password":true,"vac":true,"version":"7961495","steam_id":85568392925397958,"keywords":["cp","nocrits","nodmgspread","uncletopia"],"game_id":440,"stv_port":27046,"stv_name":"Uncletopia | Sydney | 4 | All Maps | STV","players":null},{"server_id":58,"name":"Uncletopia | Sydney | 5 | Stopwatch","name_short":"syd-5","host":"syd-1.au.uncletopia.com","port":27055,"enabled":true,"region":"au","cc":"au","latitude":-33.865143,"longitude":151.2099,"reserved":0,"last_update":"0001-01-01T00:00:00Z","name_a2s":"Uncletopia | Sydney | 5 | Stopwatch","protocol":17,"map":"workshop/pl_badwater_pro_v12.ugc2142942074","folder":"tf","game":"Team Fortress","app_id":440,"player_count":0,"max_players":24,"Bots":0,"server_type":"Dedicated","server_os":"Linux","password":true,"vac":true,"version":"7961495","steam_id":85568392925397959,"keywords":["nocrits","nodmgspread","payload","uncletopia"],"game_id":440,"stv_port":27056,"stv_name":"Uncletopia | Sydney | 5 | Stopwatch | STV","players":null},{"server_id":59,"name":"Uncletopia | Sydney | 6 | Community","name_short":"syd-6","host":"syd-1.au.uncletopia.com","port":27065,"enabled":true,"region":"au","cc":"au","latitude":-33.865143,"longitude":151.2099,"reserved":0,"last_update":"0001-01-01T00:00:00Z","name_a2s":"Uncletopia | Sydney | 6 | Community","protocol":17,"map":"workshop/pl_shoreleave_rc2.ugc1238849347","folder":"tf","game":"Team Fortress","app_id":440,"player_count":0,"max_players":24,"Bots":0,"server_type":"Dedicated","server_os":"Linux","password":true,"vac":true,"version":"7961495","steam_id":85568392925397960,"keywords":["nocrits","nodmgspread","payload","uncletopia"],"game_id":440,"stv_port":27066,"stv_name":"Uncletopia | Sydney | 6 | Community | STV","players":null},{"server_id":49,"name":"Uncletopia | Warsaw | 1 | One Thousand Uncles","name_short":"waw-1","host":"waw-1.pl.uncletopia.com","port":27015,"enabled":true,"region":"eu","cc":"pl","latitude":52.2297,"longitude":21.017532,"reserved":0,"last_update":"0001-01-01T00:00:00Z","name_a2s":"Uncletopia | Warsaw | 1 | One Thousand Uncles","protocol":17,"map":"pl_goldrush","folder":"tf","game":"Team Fortress","app_id":440,"player_count":0,"max_players":32,"Bots":0,"server_type":"Dedicated","server_os":"Linux","password":true,"vac":true,"version":"7961495","steam_id":85568392925397850,"keywords":["alltalk","danepve","increased_maxplayers","norespawntime","payload","uncletopia"],"game_id":440,"stv_port":0,"stv_name":"","players":null},{"server_id":50,"name":"Uncletopia | Warsaw | 2 | One Thousand Uncles","name_short":"waw-2","host":"waw-1.pl.uncletopia.com","port":27025,"enabled":true,"region":"eu","cc":"pl","latitude":52.2297,"longitude":21.017532,"reserved":0,"last_update":"0001-01-01T00:00:00Z","name_a2s":"Uncletopia | Warsaw | 2 | One Thousand Uncles","protocol":17,"map":"pl_thundermountain","folder":"tf","game":"Team Fortress","app_id":440,"player_count":24,"max_players":32,"Bots":16,"server_type":"Dedicated","server_os":"Linux","password":true,"vac":true,"version":"7961495","steam_id":85568392925397851,"keywords":["alltalk","bots","danepve","increased_maxplayers","norespawntime","payload","uncletopia"],"game_id":440,"stv_port":0,"stv_name":"","players":[{"user_id":175,"name":"LVIXX","steam_id":76561198188767928,"connected_time":333000000000,"state":"active","ping":92},{"user_id":169,"name":"SansaKissa326","steam_id":76561199189803939,"connected_time":1722000000000,"state":"active","ping":106},{"user_id":146,"name":"barbecuesteve","steam_id":76561198048819671,"connected_time":4393000000000,"state":"active","ping":163},{"user_id":102,"name":"lisivi","steam_id":76561198365503306,"connected_time":8286000000000,"state":"active","ping":73},{"user_id":150,"name":"Squidiot","steam_id":76561198042754907,"connected_time":2898000000000,"state":"active","ping":94},{"user_id":174,"name":"RacoonGamer","steam_id":76561198100907657,"connected_time":894000000000,"state":"active","ping":150},{"user_id":141,"name":"tealoverr.190","steam_id":76561199028497703,"connected_time":5311000000000,"state":"active","ping":121},{"user_id":178,"name":"monke","steam_id":76561199095477435,"connected_time":247000000000,"state":"active","ping":86}]},{"server_id":51,"name":"Uncletopia | Warsaw | 3 | All Maps","name_short":"waw-3","host":"waw-1.pl.uncletopia.com","port":27035,"enabled":true,"region":"eu","cc":"pl","latitude":52.2297,"longitude":21.017532,"reserved":0,"last_update":"0001-01-01T00:00:00Z","name_a2s":"Uncletopia | Warsaw | 3 | All Maps","protocol":17,"map":"cp_mossrock","folder":"tf","game":"Team Fortress","app_id":440,"player_count":15,"max_players":24,"Bots":0,"server_type":"Dedicated","server_os":"Linux","password":true,"vac":true,"version":"7961495","steam_id":85568392925397852,"keywords":["cp","nocrits","nodmgspread","uncletopia"],"game_id":440,"stv_port":27036,"stv_name":"Uncletopia | Warsaw | 3 | All Maps | STV","players":[{"user_id":54,"name":"L0rd5haggy","steam_id":76561198846175610,"connected_time":419000000000,"state":"active","ping":117},{"user_id":55,"name":"gofer1111  CaseOpening.com","steam_id":76561199226527987,"connected_time":115000000000,"state":"active","ping":37},{"user_id":56,"name":"Duktigafred","steam_id":76561199211222396,"connected_time":96000000000,"state":"spawning","ping":103},{"user_id":58,"name":"fish","steam_id":76561198205475839,"connected_time":26000000000,"state":"active","ping":81},{"user_id":59,"name":"Marie ☘","steam_id":76561198105207050,"connected_time":7000000000,"state":"spawning","ping":63},{"user_id":15,"name":"doomer","steam_id":76561198977420882,"connected_time":2636000000000,"state":"active","ping":68},{"user_id":22,"name":"✪ m_br3","steam_id":76561198044981990,"connected_time":1990000000000,"state":"active","ping":48},{"user_id":53,"name":"armani","steam_id":76561198066367407,"connected_time":475000000000,"state":"active","ping":66},{"user_id":19,"name":"kat","steam_id":76561198319297751,"connected_time":2147000000000,"state":"active","ping":74},{"user_id":25,"name":"Grumtsior","steam_id":76561198043563111,"connected_time":1549000000000,"state":"active","ping":45},{"user_id":51,"name":"https:))","steam_id":76561198023641916,"connected_time":596000000000,"state":"active","ping":78},{"user_id":30,"name":"rabbitface26","steam_id":76561198327540113,"connected_time":1393000000000,"state":"active","ping":61},{"user_id":40,"name":"ZID","steam_id":76561198214099068,"connected_time":1061000000000,"state":"active","ping":113},{"user_id":43,"name":"Spyoru","steam_id":76561199422949621,"connected_time":939000000000,"state":"active","ping":71},{"user_id":44,"name":"uninspired","steam_id":76561199107097373,"connected_time":924000000000,"state":"active","ping":89}]},{"server_id":52,"name":"Uncletopia | Warsaw | 4 | All Maps","name_short":"waw-4","host":"waw-1.pl.uncletopia.com","port":27045,"enabled":true,"region":"eu","cc":"pl","latitude":52.2297,"longitude":21.017532,"reserved":0,"last_update":"0001-01-01T00:00:00Z","name_a2s":"Uncletopia | Warsaw | 4 | All Maps","protocol":17,"map":"cp_snakewater_final1","folder":"tf","game":"Team Fortress","app_id":440,"player_count":0,"max_players":24,"Bots":0,"server_type":"Dedicated","server_os":"Linux","password":true,"vac":true,"version":"7961495","steam_id":85568392925397853,"keywords":["cp","nocrits","nodmgspread","uncletopia"],"game_id":440,"stv_port":27046,"stv_name":"Uncletopia | Warsaw | 4 | All Maps | STV","players":null},{"server_id":53,"name":"Uncletopia | Warsaw | 5 | Stopwatch","name_short":"waw-5","host":"waw-1.pl.uncletopia.com","port":27055,"enabled":true,"region":"eu","cc":"pl","latitude":52.2297,"longitude":21.017532,"reserved":0,"last_update":"0001-01-01T00:00:00Z","name_a2s":"Uncletopia | Warsaw | 5 | Stopwatch","protocol":17,"map":"cp_snakewater_final1","folder":"tf","game":"Team Fortress","app_id":440,"player_count":0,"max_players":24,"Bots":0,"server_type":"Dedicated","server_os":"Linux","password":true,"vac":true,"version":"7961495","steam_id":85568392925397854,"keywords":["cp","nocrits","nodmgspread","uncletopia"],"game_id":440,"stv_port":27056,"stv_name":"Uncletopia | Warsaw | 5 | Stopwatch | STV","players":null},{"server_id":54,"name":"Uncletopia | Warsaw | 6 | Community","name_short":"waw-6","host":"waw-1.pl.uncletopia.com","port":27065,"enabled":true,"region":"eu","cc":"pl","latitude":52.2297,"longitude":21.017532,"reserved":0,"last_update":"0001-01-01T00:00:00Z","name_a2s":"Uncletopia | Warsaw | 6 | Community","protocol":17,"map":"workshop/pl_barnblitz_pro7.ugc582280235","folder":"tf","game":"Team Fortress","app_id":440,"player_count":0,"max_players":24,"Bots":0,"server_type":"Dedicated","server_os":"Linux","password":true,"vac":true,"version":"7961495","steam_id":85568392925397856,"keywords":["nocrits","nodmgspread","payload","uncletopia"],"game_id":440,"stv_port":27066,"stv_name":"Uncletopia | Warsaw | 6 | Community | STV","players":null}]}