{"status":true,"message":"","result":[{"server_id":9,"name":"Uncletopia | Atlanta | 1 | All Maps","name_short":"atl-1","host":"atl-1.us.uncletopia.com","port":27015,"enabled":true,"region":"us-east","cc":"us","latitude":33.753746,"longitude":-84.38633,"reserved":0,"last_update":"0001-01-01T00:00:00Z","name_a2s":"Uncletopia | Atlanta | 1 | All Maps","protocol":17,"map":"pl_barnblitz","folder":"tf","game":"Team Fortress","app_id":440,"player_count":0,"max_players":24,"Bots":0,"server_type":"Dedicated","server_os":"Linux","password":true,"vac":true,"version":"7961495","steam_id":85568392924469982,"keywords":["nocrits","nodmgspread","payload","uncletopia"],"game_id":440,"stv_port":27016,"stv_name":"Uncletopia | Atlanta | 1 | All Maps | STV","players":null},{"server_id":104,"name":"Uncletopia | Atlanta | 2 | All Maps","name_short":"atl-2","host":"atl-1.us.uncletopia.com","port":27025,"enabled":true,"region":"us-east","cc":"us","latitude":33.753746,"longitude":-84.38633,"reserved":0,"last_update":"0001-01-01T00:00:00Z","name_a2s":"Uncletopia | Atlanta | 2 | All Maps","protocol":17,"map":"cp_process_final","folder":"tf","game":"Team Fortress","app_id":440,"player_count":0,"max_players":24,"Bots":0,"server_type":"Dedicated","server_os":"Linux","password":true,"vac":true,"version":"7961495","steam_id":85568392924469983,"keywords":["cp","nocrits","nodmgspread","uncletopia"],"game_id":440,"stv_port":27026,"stv_name":"Uncletopia | Atlanta | 2 | All Maps | STV","players":null},{"server_id":400,"name":"Uncletopia | Atlanta | 3 | Stopwatch","name_short":"atl-3","host":"atl-1.us.uncletopia.com","port":27035,"enabled":true,"region":"us-east","cc":"us","latitude":33.753746,"longitude":-84.38633,"reserved":0,"last_update":"0001-01-01T00:00:00Z","name_a2s":"Uncletopia | Atlanta | 3 | Stopwatch","protocol":17,"map":"koth_lakeside_final","folder":"tf","game":"Team Fortress","app_id":440,"player_count":0,"max_players":24,"Bots":0,"server_type":"Dedicated","server_os":"Linux","password":true,"vac":true,"version":"7961495","steam_id":85568392924515187,"keywords":["cp","nocrits","nodmgspread","uncletopia"],"game_id":440,"stv_port":27036,"stv_name":"Uncletopia | Atlanta | 3 | Stopwatch | STV","players":null},{"server_id":401,"name":"Uncletopia | Atlanta | 4 | Community","name_short":"atl-4","host":"atl-1.us.uncletopia.com","port":27045,"enabled":true,"region":"us-east","cc":"us","latitude":33.753746,"longitude":-84.38633,"reserved":0,"last_update":"0001-01-01T00:00:00Z","name_a2s":"Uncletopia | Atlanta | 4 | Community","protocol":17,"map":"workshop/koth_slaughter_rc1.ugc1712845210","folder":"tf","game":"Team Fortress","app_id":440,"player_count":0,"max_players":24,"Bots":0,"server_type":"Dedicated","server_os":"Linux","password":true,"vac":true,"version":"7961495","steam_id":85568392924515188,"keywords":["cp","nocrits","nodmgspread","uncletopia"],"game_id":440,"stv_port":27046,"stv_name":"Uncletopia | Atlanta | 4 | Community | STV","players":null},{"server_id":2,"name":"Uncletopia | Chicago | 1 | All Maps","name_short":"chi-1","host":"chi-1.us.uncletopia.com","port":27015,"enabled":true,"region":"us-central","cc":"us","latitude":41.881832,"longitude":-87.62318,"reserved":0,"last_update":"0001-01-01T00:00:00Z","name_a2s":"Uncletopia | Chicago | 1 | All Maps","protocol":17,"map":"pl_frontier_final","folder":"tf","game":"Team Fortress","app_id":440,"player_count":8,"max_players":24,"Bots":0,"server_type":"Dedicated","server_os":"Linux","password":true,"vac":true,"version":"7961495","steam_id":85568392924469984,"keywords":["nocrits","nodmgspread","payload","uncletopia"],"game_id":440,"stv_port":27016,"stv_name":"Uncletopia | Chicago | 1 | All Maps | STV","players":[{"user_id":827,"name":"TheWritterMohechok","steam_id":76561198146397164,"connected_time":206000000000,"state":"active","ping":102},{"user_id":826,"name":"yea","steam_id":76561198138186442,"connected_time":454000000000,"state":"active","ping":91},{"user_id":807,"name":"Headshots Se7en","steam_id":76561198020464802,"connected_time":2007000000000,"state":"active","ping":55},{"user_id":829,"name":"Do It Yua Serufu","steam_id":76561198078574114,"connected_time":173000000000,"state":"active","ping":97},{"user_id":830,"name":"I'm so hungy...","steam_id":76561198106313563,"connected_time":78000000000,"state":"active","ping":49},{"user_id":814,"name":"Minin","steam_id":76561198018819047,"connected_time":1561000000000,"state":"active","ping":85},{"user_id":817,"name":"dinkolaw","steam_id":76561198154072948,"connected_time":1531000000000,"state":"active","ping":76},{"user_id":819,"name":"hamilton","steam_id":76561198034096096,"connected_time":1506000000000,"state":"active","ping":74}]},{"server_id":106,"name":"Uncletopia | Chicago | 2 | All Maps","name_short":"chi-2","host":"chi-1.us.uncletopia.com","port":27025,"enabled":true,"region":"us-central","cc":"us","latitude":41.881832,"longitude":-87.62318,"reserved":0,"last_update":"0001-01-01T00:00:00Z","name_a2s":"Uncletopia | Chicago | 2 | All Maps","protocol":17,"map":"koth_cascade","folder":"tf","game":"Team Fortress","app_id":440,"player_count":0,"max_players":24,"Bots":0,"server_type":"Dedicated","server_os":"Linux","password":true,"vac":true,"version":"7961495","steam_id":85568392924469985,"keywords":["cp","nocrits","nodmgspread","uncletopia"],"game_id":440,"stv_port":27026,"stv_name":"Uncletopia | Chicago | 2 | All Maps | STV","players":null},{"server_id":402,"name":"Uncletopia | Chicago | 3 | All Maps","name_short":"chi-3","host":"chi-1.us.uncletopia.com","port":27035,"enabled":true,"region":"us-central","cc":"us","latitude":41.881832,"longitude":-87.62318,"reserved":0,"last_update":"0001-01-01T00:00:00Z","name_a2s":"Uncletopia | Chicago | 3 | All Maps","protocol":17,"map":"cp_snakewater_final1","folder":"tf","game":"Team Fortress","app_id":440,"player_count":16,"max_players":24,"Bots":0,"server_type":"Dedicated","server_os":"Linux","password":true,"vac":true,"version":"7961495","steam_id":85568392924515191,"keywords":["cp","nocrits","nodmgspread","uncletopia"],"game_id":440,"stv_port":27036,"stv_name":"Uncletopia | Chicago | 3 | All Maps | STV","players":[{"user_id":730,"name":"Pez","steam_id":76561198886837464,"connected_time":3722000000000,"state":"active","ping":119},{"user_id":777,"name":"BL√òRG","steam_id":76561198036126673,"connected_time":479000000000,"state":"active","ping":80},{"user_id":729,"name":"zpalmtree","steam_id":76561198134307620,"connected_time":3917000000000,"state":"active","ping":49},{"user_id":771,"name":"Prot4g","steam_id":76561198036164393,"connected_time":645000000000,"state":"active","ping":61},{"user_id":773,"name":"Catscout","steam_id":76561198140893643,"connected_time":600000000000,"state":"active","ping":85},{"user_id":786,"name":"^-^","steam_id":76561198831996918,"connected_time":209000000000,"state":"active","ping":59},{"user_id":774,"name":"Acorn","steam_id":76561198353480153,"connected_time":575000000000,"state":"active","ping":55},{"user_id":675,"name":"¬´D·µÉ ≥·µè.,,.T·µâ·µê·µñ¬ª","steam_id":76561198018185884,"connected_time":7183000000000,"state":"active","ping":93},{"user_id":753,"name":"for the king","steam_id":76561197973488858,"connected_time":2193000000000,"state":"active","ping":47},{"user_id":776,"name":"Oni","steam_id":76561198112066584,"connected_time":519000000000,"state":"active","ping":60},{"user_id":778,"name":"Ember The Femboy","steam_id":76561198139630565,"connected_time":465000000000,"state":"active","ping":150},{"user_id":759,"name":"juxtapositionjared95","steam_id":76561198136846340,"connected_time":1757000000000,"state":"active","ping":81},{"user_id":787,"name":"Rukks","steam_id":76561197993918954,"connected_time":192000000000,"state":"active","ping":89},{"user_id":781,"name":"Cheeseburger","steam_id":76561198044131927,"connected_time":441000000000,"state":"active","ping":60},{"user_id":768,"name":"Female Gamer","steam_id":76561199366482682,"connected_time":1045000000000,"state":"active","ping":101},{"user_id":785,"name":"Rat Bastard","steam_id":76561198153443658,"connected_time":229000000000,"state":"active","ping":86}]},{"server_id":403,"name":"Uncletopia | Chicago | 4 | All Maps","name_short":"chi-4","host":"chi-1.us.uncletopia.com","port":27045,"enabled":true,"region":"us-central","cc":"us","latitude":41.881832,"longitude":-87.62318,"reserved":0,"last_update":"0001-01-01T00:00:00Z","name_a2s":"Uncletopia | Chicago | 4 | All Maps","protocol":17,"map":"koth_highpass","folder":"tf","game":"Team Fortress","app_id":440,"player_count":24,"max_players":24,"Bots":0,"server_type":"Dedicated","server_os":"Linux","password":true,"vac":true,"version":"7961495","steam_id":85568392924515193,"keywords":["cp","nocrits","nodmgspread","uncletopia"],"game_id":440,"stv_port":27046,"stv_name":"Uncletopia | Chicago | 4 | All Maps | STV","players":[{"user_id":569,"name":"OH BOY","steam_id":76561199052273428,"connected_time":4806000000000,"state":"active","ping":56},{"user_id":547,"name":"Chin (SFM Comms Open)","steam_id":76561198953123833,"connected_time":7288000000000,"state":"active","ping":105},{"user_id":535,"name":"cheddar baked ruffles","steam_id":76561198799404824,"connected_time":8100000000000,"state":"active","ping":64},{"user_id":510,"name":"Stealthguy724","steam_id":76561198195961430,"connected_time":9275000000000,"state":"active","ping":67},{"user_id":607,"name":"Intensely Determined Swat Man","steam_id":76561199182450602,"connected_time":1353000000000,"state":"active","ping":120},{"user_id":618,"name":"YeshieSirYesSir","steam_id":76561198080214214,"connected_time":524000000000,"state":"active","ping":42},{"user_id":390,"name":"ItsThatBear","steam_id":76561198169617659,"connected_time":19233000000000,"state":"active","ping":88},{"user_id":608,"name":"Pika","steam_id":76561198068063436,"connected_time":1348000000000,"state":"active","ping":50},{"user_id":610,"name":"Catdog32","steam_id":76561198113364714,"connected_time":1250000000000,"state":"active","ping":55},{"user_id":619,"name":"Beebo, Son of Beebo","steam_id":76561198055948497,"connected_time":182000000000,"state":"active","ping":57},{"user_id":611,"name":"Exalted Finalist","steam_id":76561198192021295,"connected_time":1226000000000,"state":"active","ping":140},{"user_id":612,"name":"playguy carter","steam_id":76561198080679337,"connected_time":1217000000000,"state":"active","ping":46},{"user_id":583,"name":"Goozrat","steam_id":76561198399281848,"connected_time":3331000000000,"state":"active","ping":76},{"user_id":604,"name":"johnny hotcock","steam_id":76561198122943559,"connected_time":1448000000000,"state":"active","ping":60},{"user_id":598,"name":"Nestor","steam_id":76561198070782619,"connected_time":1994000000000,"state":"active","ping":69},{"user_id":594,"name":"bad spy player","steam_id":76561198873699671,"connected_time":2807000000000,"state":"active","ping":102},{"user_id":613,"name":"Castroy","steam_id":76561198108160099,"connected_time":1200000000000,"state":"active","ping":51},{"user_id":595,"name":"Not Giga Chad","steam_id":76561198059785363,"connected_time":2807000000000,"state":"active","ping":79},{"user_id":614,"name":"LynnLantern","steam_id":76561198116326726,"connected_time":1192000000000,"state":"active","ping":59},{"user_id":599,"name":"trans they gender she/her/they/","steam_id":76561198212470305,"connected_time":1968000000000,"state":"active","ping":72},{"user_id":590,"name":"ElixirMan","steam_id":76561199102118368,"connected_time":2952000000000,"state":"active","ping":126},{"user_id":615,"name":"87987974","steam_id":76561198046948758,"connected_time":1167000000000,"state":"active","ping":64},{"user_id":616,"name":"ThatGirlWithaK","steam_id":76561198317602350,"connected_time":1166000000000,"state":"active","ping":81},{"user_id":617,"name":"muck","steam_id":76561198120437909,"connected_time":1132000000000,"state":"active","ping":62}]},{"server_id":36,"name":"Uncletopia | Chicago | 5 | All Maps","name_short":"chi-5","host":"chi-2.us.uncletopia.com","port":27015,"enabled":true,"region":"us-central","cc":"us","latitude":41.881832,"longitude":-87.62318,"reserved":0,"last_update":"0001-01-01T00:00:00Z","name_a2s":"Uncletopia | Chicago | 5 | All Maps","protocol":17,"map":"pl_swiftwater_final1","folder":"tf","game":"Team Fortress","app_id":440,"player_count":19,"max_players":24,"Bots":0,"server_type":"Dedicated","server_os":"Linux","password":true,"vac":true,"version":"7961495","steam_id":85568392924866362,"keywords":["nocrits","nodmgspread","payload","uncletopia"],"game_id":440,"stv_port":27016,"stv_name":"Uncletopia | Chicago | 5 | All Maps | STV","players":[{"user_id":393,"name":"Zebulon","steam_id":76561198025719753,"connected_time":464000000000,"state":"active","ping":86},{"user_id":369,"name":"AvapXia","steam_id":76561198147476096,"connected_time":2670000000000,"state":"active","ping":92},{"user_id":392,"name":"the girl girlkisser","steam_id":76561198438737908,"connected_time":528000000000,"state":"active","ping":84},{"user_id":399,"name":"Maxhaenel","steam_id":76561197986020059,"connected_time":100000000000,"state":"active","ping":142},{"user_id":390,"name":"SKForm","steam_id":76561198381500437,"connected_time":866000000000,"state":"active","ping":51},{"user_id":394,"name":"finman","steam_id":76561198127639913,"connected_time":430000000000,"state":"active","ping":105},{"user_id":357,"name":"Larry T.G","steam_id":76561198140157079,"connected_time":4212000000000,"state":"active","ping":56},{"user_id":395,"name":"ssuurrffiinn","steam_id":76561198100942212,"connected_time":300000000000,"state":"active","ping":77},{"user_id":400,"name":"Pasta","steam_id":76561198057463587,"connected_time":35000000000,"state":"active","ping":58},{"user_id":372,"name":"Michael O","steam_id":76561198071556851,"connected_time":2096000000000,"state":"active","ping":52},{"user_id":389,"name":"Wildmoo","steam_id":76561198074478554,"connected_time":1368000000000,"state":"active","ping":88},{"user_id":397,"name":"Shadoe","steam_id":76561198218577281,"connected_time":288000000000,"state":"active","ping":48},{"user_id":375,"name":"i will do 2 pushups every kill","steam_id":76561198355128010,"connected_time":1934000000000,"state":"active","ping":168},{"user_id":386,"name":"flappyflap2","steam_id":76561198285048973,"connected_time":1596000000000,"state":"active","ping":64},{"user_id":351,"name":"C Papi","steam_id":76561198027779564,"connected_time":4737000000000,"state":"active","ping":58},{"user_id":377,"name":"Monsterjessy","steam_id":76561198035630985,"connected_time":1874000000000,"state":"active","ping":67},{"user_id":285,"name":"chud packer","steam_id":76561198051310816,"connected_time":8870000000000,"state":"active","ping":68},{"user_id":366,"name":"why","steam_id":76561199059732212,"connected_time":3028000000000,"state":"active","ping":73},{"user_id":379,"name":"porz","steam_id":76561198195711453,"connected_time":1743000000000,"state":"active","ping":59}]},{"server_id":37,"name":"Uncletopia | Chicago | 6 | All Maps","name_short":"chi-6","host":"chi-2.us.uncletopia.com","port":27025,"enabled":true,"region":"us-central","cc":"us","latitude":41.881832,"longitude":-87.62318,"reserved":0,"last_update":"0001-01-01T00:00:00Z","name_a2s":"Uncletopia | Chicago | 6 | All Maps","protocol":17,"map":"cp_dustbowl","folder":"tf","game":"Team Fortress","app_id":440,"player_count":24,"max_players":24,"Bots":0,"server_type":"Dedicated","server_os":"Linux","password":true,"vac":true,"version":"7961495","steam_id":85568392924866363,"keywords":["cp","nocrits","nodmgspread","uncletopia"],"game_id":440,"stv_port":27026,"stv_name":"Uncletopia | Chicago | 6 | All Maps | STV","players":[{"user_id":426,"name":"DethSQRL","steam_id":76561199149628610,"connected_time":625000000000,"state":"active","ping":75},{"user_id":413,"name":"Uncle Wizard (They/Them)","steam_id":76561198045008130,"connected_time":1417000000000,"state":"active","ping":71},{"user_id":401,"name":"BARON VON FLUFF AND STUFF","steam_id":76561198036325020,"connected_time":2060000000000,"state":"active","ping":101},{"user_id":433,"name":"berserker_tf2","steam_id":76561198303464488,"connected_time":144000000000,"state":"active","ping":61},{"user_id":414,"name":"XmasterEZ12","steam_id":76561198216207079,"connected_time":1411000000000,"state":"active","ping":114},{"user_id":428,"name":"rubix","steam_id":76561198134710399,"connected_time":429000000000,"state":"active","ping":84},{"user_id":429,"name":"RPGnoob","steam_id":76561198384913758,"connected_time":325000000000,"state":"active","ping":80},{"user_id":415,"name":"Cheshire","steam_id":76561198209836397,"connected_time":1391000000000,"state":"active","ping":102},{"user_id":387,"name":"family-friendly chainsaw man","steam_id":76561198007464245,"connected_time":2986000000000,"state":"active","ping":77},{"user_id":405,"name":"Zombee","steam_id":76561198105367546,"connected_time":1737000000000,"state":"active","ping":80},{"user_id":388,"name":"z0mb1eKiNG710","steam_id":76561198322856103,"connected_time":2975000000000,"state":"active","ping":72},{"user_id":389,"name":"the_horse_mask","steam_id":76561199478244585,"connected_time":2959000000000,"state":"active","ping":90},{"user_id":406,"name":"Tabby!!!!","steam_id":76561198018288153,"connected_time":1721000000000,"state":"active","ping":49},{"user_id":432,"name":"DYGIILYIAHSPJTOS","steam_id":76561198042177809,"connected_time":294000000000,"state":"active","ping":74},{"user_id":390,"name":"tydogzilla","steam_id":76561198054254518,"connected_time":2814000000000,"state":"active","ping":61},{"user_id":336,"name":"BreakfastTacos","steam_id":76561198847620442,"connected_time":7584000000000,"state":"active","ping":99},{"user_id":407,"name":"The Burglar","steam_id":76561198325685937,"connected_time":1626000000000,"state":"active","ping":60},{"user_id":408,"name":"Galactamarx","steam_id":76561198028065755,"connected_time":1618000000000,"state":"active","ping":97},{"user_id":409,"name":"Lj3online, Questing Ronin","steam_id":76561198009960926,"connected_time":1612000000000,"state":"active","ping":103},{"user_id":431,"name":"Fu Qian Qian","steam_id":76561199081837220,"connected_time":307000000000,"state":"active","ping":72},{"user_id":392,"name":"Cocksneed Fartin","steam_id":76561198126675787,"connected_time":2796000000000,"state":"active","ping":77},{"user_id":418,"name":"No.21 - Feral Scent","steam_id":76561198045844070,"connected_time":1346000000000,"state":"active","ping":79},{"user_id":425,"name":"MR SKELTAL","steam_id":76561198031089598,"connected_time":1023000000000,"state":"active","ping":77},{"user_id":424,"name":"Alejandro","steam_id":76561197970051493,"connected_time":1144000000000,"state":"active","ping":121}]},{"server_id":38,"name":"Uncletopia | Chicago | 7 | Stopwatch","name_short":"chi-7","host":"chi-2.us.uncletopia.com","port":27035,"enabled":true,"region":"us-central","cc":"us","latitude":41.881832,"longitude":-87.62318,"reserved":0,"last_update":"0001-01-01T00:00:00Z","name_a2s":"Uncletopia | Chicago | 7 | Stopwatch","protocol":17,"map":"koth_lakeside_final","folder":"tf","game":"Team Fortress","app_id":440,"player_count":0,"max_players":24,"Bots":0,"server_type":"Dedicated","server_os":"Linux","password":true,"vac":true,"version":"7961495","steam_id":85568392924866364,"keywords":["cp","nocrits","nodmgspread","uncletopia"],"game_id":440,"stv_port":27036,"stv_name":"Uncletopia | Chicago | 7 | Stopwatch | STV","players":null},{"server_id":39,"name":"Uncletopia | Chicago | 8 | Community","name_short":"chi-8","host":"chi-2.us.uncletopia.com","port":27045,"enabled":true,"region":"us-central","cc":"us","latitude":41.881832,"longitude":-87.62318,"reserved":0,"last_update":"0001-01-01T00:00:00Z","name_a2s":"Uncletopia | Chicago | 8 | Community","protocol":17,"map":"workshop/cp_bruhstbowl_b6.ugc2878604990","folder":"tf","game":"Team Fortress","app_id":440,"player_count":14,"max_players":24,"Bots":0,"server_type":"Dedicated","server_os":"Linux","password":true,"vac":true,"version":"7961495","steam_id":85568392924866365,"keywords":["cp","nocrits","nodmgspread","uncletopia"],"game_id":440,"stv_port":27046,"stv_name":"Uncletopia | Chicago | 8 | Community | STV","players":[{"user_id":67,"name":"cajun thotsauce","steam_id":76561198101636066,"connected_time":4008000000000,"state":"active","ping":96},{"user_id":123,"name":"Intro Bonito","steam_id":76561198119478838,"connected_time":223000000000,"state":"active","ping":65},{"user_id":94,"name":"Avenging Spirit","steam_id":76561198119572121,"connected_time":2569000000000,"state":"active","ping":55},{"user_id":38,"name":"ZariaGalaxy","steam_id":76561198089441300,"connected_time":7873000000000,"state":"active","ping":68},{"user_id":102,"name":"Punished Shitster","steam_id":76561198150452857,"connected_time":1821000000000,"state":"active","ping":66},{"user_id":75,"name":"Mixed Up","steam_id":76561198042570322,"connected_time":3884000000000,"state":"active","ping":53},{"user_id":109,"name":"vgMaster749","steam_id":76561198205048900,"connected_time":1000000000000,"state":"active","ping":35},{"user_id":110,"name":"kosmo404","steam_id":76561198983163386,"connected_time":958000000000,"state":"active","ping":98},{"user_id":111,"name":"Super Nae Nae Baby 2","steam_id":76561198141802482,"connected_time":948000000000,"state":"active","ping":57},{"user_id":115,"name":"ms. capgras","steam_id":76561199080209996,"connected_time":884000000000,"state":"active","ping":55},{"user_id":121,"name":"[R–Ø] ShibesGoneWow","steam_id":76561198036090516,"connected_time":534000000000,"state":"active","ping":60},{"user_id":119,"name":"Watt Dafuq","steam_id":76561198194402925,"connected_time":674000000000,"state":"active","ping":82},{"user_id":120,"name":"Ethan7704","steam_id":76561198821010606,"connected_time":645000000000,"state":"active","ping":55},{"user_id":103,"name":"AzuriousAlex","steam_id":76561198158026405,"connected_time":1725000000000,"state":"active","ping":84}]},{"server_id":8,"name":"Uncletopia | Dallas | 1 | All Maps","name_short":"dal-1","host":"dal-1.us.uncletopia.com","port":27015,"enabled":true,"region":"us-central","cc":"us","latitude":32.779167,"longitude":-96.80889,"reserved":0,"last_update":"0001-01-01T00:00:00Z","name_a2s":"Uncletopia | Dallas | 1 | All Maps","protocol":17,"map":"cp_sunshine","folder":"tf","game":"Team Fortress","app_id":440,"player_count":24,"max_players":24,"Bots":0,"server_type":"Dedicated","server_os":"Linux","password":true,"vac":true,"version":"7961495","steam_id":85568392924469986,"keywords":["cp","nocrits","nodmgspread","uncletopia"],"game_id":440,"stv_port":27016,"stv_name":"Uncletopia | Dallas | 1 | All Maps | STV","players":[{"user_id":533,"name":"warren","steam_id":76561198136331136,"connected_time":4054000000000,"state":"active","ping":76},{"user_id":562,"name":"NERV","steam_id":76561198111023744,"connected_time":1505000000000,"state":"active","ping":97},{"user_id":548,"name":"The Notorious T.A.F.T.","steam_id":76561198073012352,"connected_time":2190000000000,"state":"active","ping":63},{"user_id":573,"name":"C^a^L","steam_id":76561198241124222,"connected_time":589000000000,"state":"active","ping":86},{"user_id":484,"name":"Lord_Dabbatron","steam_id":76561199058480985,"connected_time":6948000000000,"state":"active","ping":57},{"user_id":547,"name":"Typh","steam_id":76561198315344079,"connected_time":2207000000000,"state":"active","ping":78},{"user_id":564,"name":"Transgender Spider Priestess","steam_id":76561198111286397,"connected_time":1484000000000,"state":"active","ping":102},{"user_id":560,"name":"Luz Luz Luz","steam_id":76561198011442255,"connected_time":1784000000000,"state":"active","ping":75},{"user_id":575,"name":"dobby","steam_id":76561198012274834,"connected_time":5000000000,"state":"spawning","ping":49},{"user_id":574,"name":"arsenicCatnip","steam_id":76561198322969864,"connected_time":443000000000,"state":"active","ping":91},{"user_id":569,"name":"YaBoyUlyssesG","steam_id":76561198042482742,"connected_time":1401000000000,"state":"active","ping":76},{"user_id":550,"name":"JodyMM","steam_id":76561199226496738,"connected_time":2172000000000,"state":"active","ping":78},{"user_id":555,"name":"üåä‚ôíYAKUZA_TRAP$TAR‚ôíüåä","steam_id":76561198354533463,"connected_time":1949000000000,"state":"active","ping":60},{"user_id":552,"name":"Unlicensed Fed","steam_id":76561198166040449,"connected_time":2106000000000,"state":"active","ping":88},{"user_id":570,"name":"Master Lemons","steam_id":76561198272406084,"connected_time":1297000000000,"state":"active","ping":77},{"user_id":556,"name":"OliverOyl","steam_id":76561198273781861,"connected_time":1939000000000,"state":"active","ping":63},{"user_id":511,"name":"TEAM FORTRESS 2","steam_id":76561198819943354,"connected_time":5255000000000,"state":"active","ping":58},{"user_id":513,"name":"Momiji Pop!","steam_id":76561198039869773,"connected_time":5185000000000,"state":"active","ping":73},{"user_id":571,"name":"Rat Bastard","steam_id":76561198236951292,"connected_time":1285000000000,"state":"active","ping":81},{"user_id":566,"name":"Monte","steam_id":76561198097499917,"connected_time":1464000000000,"state":"active","ping":67},{"user_id":500,"name":"AffirmedDrip13","steam_id":76561198241951532,"connected_time":6019000000000,"state":"active","ping":53},{"user_id":572,"name":"Lezabel","steam_id":76561198970753261,"connected_time":1265000000000,"state":"active","ping":72},{"user_id":568,"name":"CWCLONE","steam_id":76561198132459460,"connected_time":1419000000000,"state":"active","ping":85},{"user_id":536,"name":"Ojen","steam_id":76561197998414482,"connected_time":3346000000000,"state":"active","ping":77}]},{"server_id":108,"name":"Uncletopia | Dallas | 2 | All Maps","name_short":"dal-2","host":"dal-1.us.uncletopia.com","port":27025,"enabled":true,"region":"us-central","cc":"us","latitude":32.779167,"longitude":-96.80889,"reserved":0,"last_update":"0001-01-01T00:00:00Z","name_a2s":"Uncletopia | Dallas | 2 | All Maps","protocol":17,"map":"pl_snowycoast","folder":"tf","game":"Team Fortress","app_id":440,"player_count":16,"max_players":24,"Bots":0,"server_type":"Dedicated","server_os":"Linux","password":true,"vac":true,"version":"7961495","steam_id":85568392924469988,"keywords":["nocrits","nodmgspread","payload","uncletopia"],"game_id":440,"stv_port":27026,"stv_name":"Uncletopia | Dallas | 2 | All Maps | STV","players":[{"user_id":582,"name":"Astro","steam_id":76561198035676106,"connected_time":2269000000000,"state":"active","ping":61},{"user_id":591,"name":"plink","steam_id":76561198057829889,"connected_time":1064000000000,"state":"active","ping":46},{"user_id":564,"name":"loser","steam_id":76561198259380127,"connected_time":5158000000000,"state":"active","ping":76},{"user_id":557,"name":"Siats","steam_id":76561198063539885,"connected_time":5403000000000,"state":"active","ping":61},{"user_id":575,"name":"slowdance","steam_id":76561198097427947,"connected_time":3726000000000,"state":"active","ping":115},{"user_id":570,"name":"Shrew","steam_id":76561198085421224,"connected_time":4769000000000,"state":"active","ping":91},{"user_id":541,"name":"Snoopy","steam_id":76561198273735974,"connected_time":6129000000000,"state":"spawning","ping":78},{"user_id":583,"name":"Gkost","steam_id":76561198045553992,"connected_time":2269000000000,"state":"active","ping":176},{"user_id":576,"name":"Irony is pretty cringy","steam_id":76561198120391460,"connected_time":3722000000000,"state":"active","ping":75},{"user_id":589,"name":"Fang","steam_id":76561198071237610,"connected_time":1804000000000,"state":"active","ping":83},{"user_id":544,"name":"Bradz","steam_id":76561198175090085,"connected_time":6071000000000,"state":"active","ping":75},{"user_id":545,"name":"shnowshner","steam_id":76561198066450438,"connected_time":6068000000000,"state":"active","ping":91},{"user_id":546,"name":"·õûNiTr0z","steam_id":76561198080641022,"connected_time":6054000000000,"state":"active","ping":84},{"user_id":547,"name":"ShamroknRoll","steam_id":76561198984165109,"connected_time":6053000000000,"state":"active","ping":74},{"user_id":596,"name":"Gary Busey","steam_id":76561197970096950,"connected_time":50000000000,"state":"active","ping":41},{"user_id":597,"name":"hforce11","steam_id":76561198087647130,"connected_time":48000000000,"state":"active","ping":77}]},{"server_id":404,"name":"Uncletopia | Dallas | 3 | All Maps","name_short":"dal-3","host":"dal-1.us.uncletopia.com","port":27035,"enabled":true,"region":"us-central","cc":"us","latitude":32.779167,"longitude":-96.80889,"reserved":0,"last_update":"0001-01-01T00:00:00Z","name_a2s":"Uncletopia | Dallas | 3 | All Maps","protocol":17,"map":"cp_egypt_final","folder":"tf","game":"Team Fortress","app_id":440,"player_count":0,"max_players":24,"Bots":0,"server_type":"Dedicated","server_os":"Linux","password":true,"vac":true,"version":"7961495","steam_id":85568392924515219,"keywords":["cp","nocrits","nodmgspread","uncletopia"],"game_id":440,"stv_port":27036,"stv_name":"Uncletopia | Dallas | 3 | All Maps | STV","players":null},{"server_id":405,"name":"Uncletopia | Dallas | 4 | Community","name_short":"dal-4","host":"dal-1.us.uncletopia.com","port":27045,"enabled":true,"region":"us-central","cc":"us","latitude":32.779167,"longitude":-96.80889,"reserved":0,"last_update":"0001-01-01T00:00:00Z","name_a2s":"Uncletopia | Dallas | 4 | Community","protocol":17,"map":"workshop/pl_corrode_rc2.ugc546577989","folder":"tf","game":"Team Fortress","app_id":440,"player_count":0,"max_players":24,"Bots":0,"server_type":"Dedicated","server_os":"Linux","password":true,"vac":true,"version":"7961495","steam_id":85568392924515220,"keywords":["nocrits","nodmgspread","payload","uncletopia"],"game_id":440,"stv_port":27046,"stv_name":"Uncletopia | Dallas | 4 | Community | STV","players":null},{"server_id":5,"name":"Uncletopia | Frankfurt | 1 | All Maps","name_short":"frk-1","host":"frk-1.de.uncletopia.com","port":27015,"enabled":true,"region":"eu","cc":"de","latitude":50.110924,"longitude":8.682127,"reserved":0,"last_update":"0001-01-01T00:00:00Z","name_a2s":"Uncletopia | Frankfurt | 1 | All Maps","protocol":17,"map":"koth_highpass","folder":"tf","game":"Team Fortress","app_id":440,"player_count":0,"max_players":24,"Bots":0,"server_type":"Dedicated","server_os":"Linux","password":true,"vac":true,"version":"7961495","steam_id":85568392924469989,"keywords":["cp","nocrits","nodmgspread","uncletopia"],"game_id":440,"stv_port":27016,"stv_name":"Uncletopia | Frankfurt | 1 | All Maps | STV","players":null},{"server_id":110,"name":"Uncletopia | Frankfurt | 2 | All Maps","name_short":"frk-2","host":"frk-1.de.uncletopia.com","port":27025,"enabled":true,"region":"eu","cc":"de","latitude":50.110924,"longitude":8.682127,"reserved":0,"last_update":"0001-01-01T00:00:00Z","name_a2s":"Uncletopia | Frankfurt | 2 | All Maps","protocol":17,"map":"cp_dustbowl","folder":"tf","game":"Team Fortress","app_id":440,"player_count":0,"max_players":24,"Bots":0,"server_type":"Dedicated","server_os":"Linux","password":true,"vac":true,"version":"7961495","steam_id":85568392924469990,"keywords":["cp","nocrits","nodmgspread","uncletopia"],"game_id":440,"stv_port":27026,"stv_name":"Uncletopia | Frankfurt | 2 | All Maps | STV","players":null},{"server_id":308,"name":"Uncletopia | Frankfurt | 3 | All Maps","name_short":"frk-3","host":"frk-1.de.uncletopia.com","port":27035,"enabled":true,"region":"eu","cc":"de","latitude":50.110924,"longitude":8.682127,"reserved":0,"last_update":"0001-01-01T00:00:00Z","name_a2s":"Uncletopia | Frankfurt | 3 | All Maps","protocol":17,"map":"pl_barnblitz","folder":"tf","game":"Team Fortress","app_id":440,"player_count":0,"max_players":24,"Bots":0,"server_type":"Dedicated","server_os":"Linux","password":true,"vac":true,"version":"7961495","steam_id":85568392924504274,"keywords":["nocrits","nodmgspread","payload","uncletopia"],"game_id":440,"stv_port":27036,"stv_name":"Uncletopia | Frankfurt | 3 | All Maps | STV","players":null},{"server_id":309,"name":"Uncletopia | Frankfurt | 4 | All Maps","name_short":"frk-4","host":"frk-1.de.uncletopia.com","port":27045,"enabled":true,"region":"eu","cc":"de","latitude":50.110924,"longitude":8.682127,"reserved":0,"last_update":"0001-01-01T00:00:00Z","name_a2s":"Uncletopia | Frankfurt | 4 | All Maps","protocol":17,"map":"koth_highpass","folder":"tf","game":"Team Fortress","app_id":440,"player_count":0,"max_players":24,"Bots":0,"server_type":"Dedicated","server_os":"Linux","password":true,"vac":true,"version":"7961495","steam_id":85568392924504275,"keywords":["cp","nocrits","nodmgspread","uncletopia"],"game_id":440,"stv_port":27046,"stv_name":"Uncletopia | Frankfurt | 4 | All Maps | STV","players":null},{"server_id":310,"name":"Uncletopia | Frankfurt | 5 | All Maps","name_short":"frk-5","host":"frk-1.de.uncletopia.com","port":27055,"enabled":true,"region":"eu","cc":"de","latitude":50.110924,"longitude":8.682127,"reserved":0,"last_update":"0001-01-01T00:00:00Z","name_a2s":"Uncletopia | Frankfurt | 5 | All Maps","protocol":17,"map":"pl_badwater","folder":"tf","game":"Team Fortress","app_id":440,"player_count":0,"max_players":24,"Bots":0,"server_type":"Dedicated","server_os":"Linux","password":true,"vac":true,"version":"7961495","steam_id":85568392924504277,"keywords":["nocrits","nodmgspread","payload","uncletopia"],"game_id":440,"stv_port":27056,"stv_name":"Uncletopia | Frankfurt | 5 | All Maps | STV","players":null},{"server_id":311,"name":"Uncletopia | Frankfurt | 6 | All Maps","name_short":"frk-6","host":"frk-1.de.uncletopia.com","port":27065,"enabled":true,"region":"eu","cc":"de","latitude":50.110924,"longitude":8.682127,"reserved":0,"last_update":"0001-01-01T00:00:00Z","name_a2s":"Uncletopia | Frankfurt | 6 | All Maps","protocol":17,"map":"cp_altitude","folder":"tf","game":"Team Fortress","app_id":440,"player_count":0,"max_players":24,"Bots":0,"server_type":"Dedicated","server_os":"Linux","password":true,"vac":true,"version":"7961495","steam_id":85568392924504278,"keywords":["cp","nocrits","nodmgspread","uncletopia"],"game_id":440,"stv_port":27066,"stv_name":"Uncletopia | Frankfurt | 6 | All Maps | STV","players":null},{"server_id":23,"name":"Uncletopia | Frankfurt | 7 | Stopwatch","name_short":"frk-7","host":"frk-1.de.uncletopia.com","port":27075,"enabled":true,"region":"eu","cc":"de","latitude":50.110924,"longitude":8.682127,"reserved":0,"last_update":"0001-01-01T00:00:00Z","name_a2s":"Uncletopia | Frankfurt | 7 | Stopwatch","protocol":17,"map":"pl_upward","folder":"tf","game":"Team Fortress","app_id":440,"player_count":0,"max_players":24,"Bots":0,"server_type":"Dedicated","server_os":"Linux","password":true,"vac":true,"version":"7961495","steam_id":85568392924742827,"keywords":["nocrits","nodmgspread","payload","uncletopia"],"game_id":440,"stv_port":27076,"stv_name":"Uncletopia | Frankfurt | 7 | Stopwatch | STV","players":null},{"server_id":24,"name":"Uncletopia | Frankfurt | 8 | Community","name_short":"frk-8","host":"frk-1.de.uncletopia.com","port":27085,"enabled":true,"region":"eu","cc":"de","latitude":50.110924,"longitude":8.682127,"reserved":0,"last_update":"0001-01-01T00:00:00Z","name_a2s":"Uncletopia | Frankfurt | 8 | Community","protocol":17,"map":"workshop/rd_asteroid_redux_b1.ugc2154902912","folder":"tf","game":"Team Fortress","app_id":440,"player_count":0,"max_players":24,"Bots":0,"server_type":"Dedicated","server_os":"Linux","password":true,"vac":true,"version":"7961495","steam_id":85568392924742828,"keywords":["beta","nocrits","nodmgspread","rd","uncletopia"],"game_id":440,"stv_port":27086,"stv_name":"Uncletopia | Frankfurt | 8 | Community | STV","players":null},{"server_id":202,"name":"Uncletopia | Hong Kong | 1 | All Maps","name_short":"hgk-1","host":"hgk-1.hk.uncletopia.com","port":27015,"enabled":true,"region":"asia","cc":"hk","latitude":22.302711,"longitude":114.177216,"reserved":0,"last_update":"0001-01-01T00:00:00Z","name_a2s":"Uncletopia | Hong Kong | 1 | All Maps","protocol":17,"map":"pl_borneo","folder":"tf","game":"Team Fortress","app_id":440,"player_count":23,"max_players":24,"Bots":0,"server_type":"Dedicated","server_os":"Linux","password":true,"vac":true,"version":"7961495","steam_id":85568392924494504,"keywords":["nocrits","nodmgspread","payload","uncletopia"],"game_id":440,"stv_port":27016,"stv_name":"Uncletopia | Hong Kong | 1 | All Maps | STV","players":[{"user_id":47,"name":"LEGS","steam_id":76561199111623890,"connected_time":4967000000000,"state":"active","ping":68},{"user_id":110,"name":"Deg","steam_id":76561198924712072,"connected_time":184000000000,"state":"connecting","ping":0},{"user_id":82,"name":"icryinbed","steam_id":76561198084027826,"connected_time":1159000000000,"state":"active","ping":106},{"user_id":105,"name":"ricepotperson","steam_id":76561199203721557,"connected_time":478000000000,"state":"active","ping":101},{"user_id":109,"name":"protons","steam_id":76561198008307645,"connected_time":238000000000,"state":"active","ping":123},{"user_id":93,"name":"sett.","steam_id":76561199010718657,"connected_time":787000000000,"state":"active","ping":76},{"user_id":95,"name":"coincidence","steam_id":76561198104877130,"connected_time":708000000000,"state":"active","ping":77},{"user_id":74,"name":"Lanz","steam_id":76561198815561855,"connected_time":1769000000000,"state":"active","ping":51},{"user_id":78,"name":"E","steam_id":76561198796342005,"connected_time":1455000000000,"state":"active","ping":110},{"user_id":61,"name":"im_0ff","steam_id":76561198339346695,"connected_time":2954000000000,"state":"active","ping":125},{"user_id":70,"name":"MS PowerPoint","steam_id":76561198369523192,"connected_time":2388000000000,"state":"active","ping":64},{"user_id":97,"name":"RailyTheNeko","steam_id":76561198350453802,"connected_time":680000000000,"state":"active","ping":75},{"user_id":81,"name":"lshleo","steam_id":76561198366975960,"connected_time":1255000000000,"state":"active","ping":75},{"user_id":83,"name":"j_rex","steam_id":76561198132473926,"connected_time":1151000000000,"state":"active","ping":53},{"user_id":84,"name":"Goldy","steam_id":76561199008543001,"connected_time":1108000000000,"state":"active","ping":55},{"user_id":85,"name":"The one who shit on piss","steam_id":76561199254649689,"connected_time":1094000000000,"state":"active","ping":129},{"user_id":90,"name":"fish jenga","steam_id":76561198080108480,"connected_time":892000000000,"state":"active","ping":59},{"user_id":91,"name":"QWQ","steam_id":76561198886731650,"connected_time":872000000000,"state":"active","ping":106},{"user_id":96,"name":"AkiraeShiro","steam_id":76561198288096334,"connected_time":689000000000,"state":"active","ping":78},{"user_id":98,"name":"what in tarnation","steam_id":76561199023360624,"connected_time":644000000000,"state":"active","ping":104},{"user_id":104,"name":"Yoshi | TF2Pugs.com","steam_id":76561198002516729,"connected_time":546000000000,"state":"active","ping":137},{"user_id":108,"name":"thieunanghung27","steam_id":76561199501379163,"connected_time":343000000000,"state":"active","ping":95},{"user_id":103,"name":"Ma, mango is to blowup","steam_id":76561199352285088,"connected_time":585000000000,"state":"active","ping":106}]},{"server_id":1,"name":"Uncletopia | Los Angeles | 1 | All Maps","name_short":"lax-1","host":"lax-1.us.uncletopia.com","port":27015,"enabled":true,"region":"us-west","cc":"us","latitude":33.94279,"longitude":-118.41004,"reserved":0,"last_update":"0001-01-01T00:00:00Z","name_a2s":"Uncletopia | Los Angeles | 1 | All Maps","protocol":17,"map":"pl_borneo","folder":"tf","game":"Team Fortress","app_id":440,"player_count":24,"max_players":24,"Bots":0,"server_type":"Dedicated","server_os":"Linux","password":true,"vac":true,"version":"7961495","steam_id":85568392924469991,"keywords":["nocrits","nodmgspread","payload","uncletopia"],"game_id":440,"stv_port":27016,"stv_name":"Uncletopia | Los Angeles | 1 | All Maps | STV","players":[{"user_id":331,"name":"rilby","steam_id":76561198132755619,"connected_time":669000000000,"state":"active","ping":35},{"user_id":333,"name":"Geight","steam_id":76561197991645292,"connected_time":417000000000,"state":"active","ping":88},{"user_id":337,"name":"Maid 'n' China","steam_id":76561198423392976,"connected_time":183000000000,"state":"active","ping":62},{"user_id":307,"name":"darren","steam_id":76561199050155136,"connected_time":1697000000000,"state":"active","ping":46},{"user_id":263,"name":"allahsdroptop","steam_id":76561198133195238,"connected_time":5281000000000,"state":"active","ping":67},{"user_id":332,"name":"look at me hector","steam_id":76561198168492250,"connected_time":668000000000,"state":"active","ping":48},{"user_id":297,"name":"Holo Jumpscare","steam_id":76561198153908250,"connected_time":2887000000000,"state":"active","ping":62},{"user_id":311,"name":"Whisper!","steam_id":76561198119609795,"connected_time":1666000000000,"state":"active","ping":53},{"user_id":305,"name":"Cave Dweller","steam_id":76561198374825685,"connected_time":1812000000000,"state":"active","ping":73},{"user_id":316,"name":"[DATS‚û°] Sugar Meowth","steam_id":76561197995251793,"connected_time":1571000000000,"state":"active","ping":69},{"user_id":319,"name":"NE–ØO","steam_id":76561197965450216,"connected_time":1505000000000,"state":"active","ping":86},{"user_id":318,"name":"Rick St. Riot","steam_id":76561198058891470,"connected_time":1539000000000,"state":"active","ping":54},{"user_id":232,"name":"(¬∞ Õú   ¬∞)","steam_id":76561198064273568,"connected_time":8017000000000,"state":"active","ping":45},{"user_id":335,"name":"ReDiculous22","steam_id":76561198038391383,"connected_time":286000000000,"state":"active","ping":73},{"user_id":336,"name":"bleach‚Ç™","steam_id":76561198004482768,"connected_time":226000000000,"state":"active","ping":62},{"user_id":308,"name":"EduardoLopez2005","steam_id":76561198188481309,"connected_time":1693000000000,"state":"active","ping":57},{"user_id":328,"name":"Ethanol Buttchugger","steam_id":76561199127590316,"connected_time":1082000000000,"state":"active","ping":54},{"user_id":327,"name":"S O U N D W A V E","steam_id":76561198093417449,"connected_time":1095000000000,"state":"active","ping":48},{"user_id":286,"name":"Apex","steam_id":76561199058954656,"connected_time":4318000000000,"state":"active","ping":56},{"user_id":309,"name":"Ben-Riley_","steam_id":76561198073169199,"connected_time":1687000000000,"state":"active","ping":70},{"user_id":302,"name":"OxOoxen841","steam_id":76561198297981993,"connected_time":2480000000000,"state":"active","ping":121},{"user_id":324,"name":"ColdRamen","steam_id":76561198128945664,"connected_time":1396000000000,"state":"active","ping":64},{"user_id":326,"name":"FROYO b4nny","steam_id":76561197970669109,"connected_time":1274000000000,"state":"active","ping":45},{"user_id":288,"name":"CoolWool","steam_id":76561198128558303,"connected_time":4317000000000,"state":"active","ping":43}]},{"server_id":112,"name":"Uncletopia | Los Angeles | 2 | All Maps","name_short":"lax-2","host":"lax-1.us.uncletopia.com","port":27025,"enabled":true,"region":"us-west","cc":"us","latitude":33.94279,"longitude":-118.41004,"reserved":0,"last_update":"0001-01-01T00:00:00Z","name_a2s":"Uncletopia | Los Angeles | 2 | All Maps","protocol":17,"map":"pl_upward","folder":"tf","game":"Team Fortress","app_id":440,"player_count":24,"max_players":24,"Bots":0,"server_type":"Dedicated","server_os":"Linux","password":true,"vac":true,"version":"7961495","steam_id":85568392924469992,"keywords":["nocrits","nodmgspread","payload","uncletopia"],"game_id":440,"stv_port":27026,"stv_name":"Uncletopia | Los Angeles | 2 | All Maps | STV","players":[{"user_id":309,"name":"TacoMan4Life","steam_id":76561198832562728,"connected_time":4185000000000,"state":"active","ping":60},{"user_id":319,"name":"Torikaesu","steam_id":76561198277813823,"connected_time":3397000000000,"state":"active","ping":57},{"user_id":314,"name":"SanitysEdge","steam_id":76561198130732813,"connected_time":3528000000000,"state":"active","ping":49},{"user_id":331,"name":"panda","steam_id":76561198025214612,"connected_time":2694000000000,"state":"active","ping":78},{"user_id":332,"name":"Mario Barret","steam_id":76561198301353499,"connected_time":2671000000000,"state":"active","ping":48},{"user_id":350,"name":"Username","steam_id":76561198198918781,"connected_time":1539000000000,"state":"active","ping":69},{"user_id":317,"name":"lime is good","steam_id":76561198293313049,"connected_time":3444000000000,"state":"active","ping":65},{"user_id":351,"name":"MadGodJesus","steam_id":76561198876130112,"connected_time":1504000000000,"state":"active","ping":84},{"user_id":352,"name":"Gimme your Teeth","steam_id":76561198240523882,"connected_time":1494000000000,"state":"active","ping":54},{"user_id":369,"name":"Salad and Absinthe","steam_id":76561198169915227,"connected_time":136000000000,"state":"active","ping":58},{"user_id":334,"name":"_cza","steam_id":76561198079793576,"connected_time":2569000000000,"state":"active","ping":75},{"user_id":356,"name":"WillieMakit","steam_id":76561197985391684,"connected_time":1010000000000,"state":"active","ping":66},{"user_id":370,"name":"Whiskey","steam_id":76561198858154667,"connected_time":86000000000,"state":"active","ping":45},{"user_id":336,"name":"Randle of John","steam_id":76561198328210524,"connected_time":2466000000000,"state":"active","ping":49},{"user_id":368,"name":"albert581_gaming","steam_id":76561198219209367,"connected_time":212000000000,"state":"active","ping":61},{"user_id":300,"name":"Wizard02","steam_id":76561198178293623,"connected_time":4935000000000,"state":"active","ping":91},{"user_id":371,"name":"doug dimmadome","steam_id":76561198974533607,"connected_time":85000000000,"state":"active","ping":66},{"user_id":372,"name":"Grassman (Cc)","steam_id":76561198026488532,"connected_time":79000000000,"state":"active","ping":48},{"user_id":365,"name":"meth leppard","steam_id":76561198049947281,"connected_time":287000000000,"state":"active","ping":61},{"user_id":346,"name":"KittySophie","steam_id":76561198072947773,"connected_time":2193000000000,"state":"active","ping":90},{"user_id":373,"name":"goopgrabber","steam_id":76561199029951083,"connected_time":67000000000,"state":"active","ping":57},{"user_id":366,"name":"Birby #banditcamp.com","steam_id":76561198884009768,"connected_time":257000000000,"state":"active","ping":72},{"user_id":374,"name":"nuclear_covenant_admiral74","steam_id":76561198309010627,"connected_time":45000000000,"state":"active","ping":61},{"user_id":376,"name":"‚òÖTC2","steam_id":76561198026985346,"connected_time":35000000000,"state":"spawning","ping":94}]},{"server_id":324,"name":"Uncletopia | Los Angeles | 3 | All Maps","name_short":"lax-3","host":"lax-1.us.uncletopia.com","port":27035,"enabled":true,"region":"us-west","cc":"us","latitude":33.94279,"longitude":-118.41004,"reserved":0,"last_update":"0001-01-01T00:00:00Z","name_a2s":"Uncletopia | Los Angeles | 3 | All Maps","protocol":17,"map":"cp_dustbowl","folder":"tf","game":"Team Fortress","app_id":440,"player_count":16,"max_players":24,"Bots":0,"server_type":"Dedicated","server_os":"Linux","password":true,"vac":true,"version":"7961495","steam_id":85568392924510198,"keywords":["cp","nocrits","nodmgspread","uncletopia"],"game_id":440,"stv_port":27036,"stv_name":"Uncletopia | Los Angeles | 3 | All Maps | STV","players":[{"user_id":271,"name":"The_Pacific_gamer","steam_id":76561198089491446,"connected_time":659000000000,"state":"active","ping":76},{"user_id":273,"name":"Gaming-Sentinel","steam_id":76561198115896873,"connected_time":546000000000,"state":"active","ping":96},{"user_id":279,"name":"TheMiddler","steam_id":76561199254971843,"connected_time":188000000000,"state":"active","ping":115},{"user_id":251,"name":"Joe","steam_id":76561198290315229,"connected_time":3383000000000,"state":"active","ping":59},{"user_id":263,"name":"sleepy‚äπ","steam_id":76561199200969139,"connected_time":1101000000000,"state":"spawning","ping":105},{"user_id":285,"name":"EdxTheFig","steam_id":76561198108650109,"connected_time":29000000000,"state":"active","ping":30},{"user_id":265,"name":"Matches_                       ","steam_id":76561198048925904,"connected_time":991000000000,"state":"active","ping":60},{"user_id":260,"name":"Ide","steam_id":76561198936116083,"connected_time":1280000000000,"state":"active","ping":114},{"user_id":261,"name":"FriskyDemon","steam_id":76561198043684646,"connected_time":1263000000000,"state":"active","ping":72},{"user_id":272,"name":"Green Giller","steam_id":76561198046617830,"connected_time":641000000000,"state":"active","ping":48},{"user_id":267,"name":"Khrono691","steam_id":76561198246227600,"connected_time":864000000000,"state":"active","ping":57},{"user_id":268,"name":"suiseal","steam_id":76561199202850130,"connected_time":847000000000,"state":"active","ping":41},{"user_id":284,"name":"hampter29","steam_id":76561198271191316,"connected_time":49000000000,"state":"active","ping":97},{"user_id":283,"name":"Reisen Udongein Inaba","steam_id":76561198051082314,"connected_time":55000000000,"state":"active","ping":51},{"user_id":280,"name":"jointheinternet","steam_id":76561198003627772,"connected_time":185000000000,"state":"active","ping":62},{"user_id":281,"name":"üéÉBunnyüéÉ","steam_id":76561198074872531,"connected_time":119000000000,"state":"active","ping":78}]},{"server_id":25,"name":"Uncletopia | Los Angeles | 4 | Stopwatch","name_short":"lax-4","host":"lax-1.us.uncletopia.com","port":27045,"enabled":true,"region":"us-west","cc":"us","latitude":33.94279,"longitude":-118.41004,"reserved":0,"last_update":"0001-01-01T00:00:00Z","name_a2s":"Uncletopia | Los Angeles | 4 | Stopwatch","protocol":17,"map":"cp_gullywash_final1","folder":"tf","game":"Team Fortress","app_id":440,"player_count":0,"max_players":24,"Bots":0,"server_type":"Dedicated","server_os":"Linux","password":true,"vac":true,"version":"7961495","steam_id":85568392924510199,"keywords":["cp","nocrits","nodmgspread","uncletopia"],"game_id":440,"stv_port":27046,"stv_name":"Uncletopia | Los Angeles | 4 | Stopwatch | STV","players":null},{"server_id":11,"name":"Uncletopia | London | 1 | All Maps","name_short":"lon-1","host":"lon-1.uk.uncletopia.com","port":27015,"enabled":true,"region":"eu","cc":"gb","latitude":51.509865,"longitude":-0.118092,"reserved":0,"last_update":"0001-01-01T00:00:00Z","name_a2s":"Uncletopia | London | 1 | All Maps","protocol":17,"map":"koth_highpass","folder":"tf","game":"Team Fortress","app_id":440,"player_count":0,"max_players":24,"Bots":0,"server_type":"Dedicated","server_os":"Linux","password":true,"vac":true,"version":"7961495","steam_id":85568392924367362,"keywords":["cp","nocrits","nodmgspread","uncletopia"],"game_id":440,"stv_port":27016,"stv_name":"Uncletopia | London | 1 | All Maps | STV","players":null},{"server_id":114,"name":"Uncletopia | London | 2 | All Maps","name_short":"lon-2","host":"lon-1.uk.uncletopia.com","port":27025,"enabled":true,"region":"eu","cc":"gb","latitude":51.509865,"longitude":-0.118092,"reserved":0,"last_update":"0001-01-01T00:00:00Z","name_a2s":"Uncletopia | London | 2 | All Maps","protocol":17,"map":"koth_lakeside_final","folder":"tf","game":"Team Fortress","app_id":440,"player_count":0,"max_players":24,"Bots":0,"server_type":"Dedicated","server_os":"Linux","password":true,"vac":true,"version":"7961495","steam_id":85568392924470941,"keywords":["cp","nocrits","nodmgspread","uncletopia"],"game_id":440,"stv_port":27026,"stv_name":"Uncletopia | London | 2 | All Maps | STV","players":null},{"server_id":320,"name":"Uncletopia | London | 3 | All Maps","name_short":"lon-3","host":"lon-1.uk.uncletopia.com","port":27035,"enabled":true,"region":"eu","cc":"gb","latitude":51.509865,"longitude":-0.118092,"reserved":0,"last_update":"0001-01-01T00:00:00Z","name_a2s":"Uncletopia | London | 3 | All Maps","protocol":17,"map":"cp_process_final","folder":"tf","game":"Team Fortress","app_id":440,"player_count":0,"max_players":24,"Bots":0,"server_type":"Dedicated","server_os":"Linux","password":true,"vac":true,"version":"7961495","steam_id":85568392924510192,"keywords":["cp","nocrits","nodmgspread","uncletopia"],"game_id":440,"stv_port":27036,"stv_name":"Uncletopia | London | 3 | All Maps | STV","players":null},{"server_id":321,"name":"Uncletopia | London | 4 | All Maps","name_short":"lon-4","host":"lon-1.uk.uncletopia.com","port":27045,"enabled":true,"region":"eu","cc":"gb","latitude":51.509865,"longitude":-0.118092,"reserved":0,"last_update":"0001-01-01T00:00:00Z","name_a2s":"Uncletopia | London | 4 | All Maps","protocol":17,"map":"koth_cascade","folder":"tf","game":"Team Fortress","app_id":440,"player_count":0,"max_players":24,"Bots":0,"server_type":"Dedicated","server_os":"Linux","password":true,"vac":true,"version":"7961495","steam_id":85568392924510193,"keywords":["cp","nocrits","nodmgspread","uncletopia"],"game_id":440,"stv_port":27046,"stv_name":"Uncletopia | London | 4 | All Maps | STV","players":null},{"server_id":21,"name":"Uncletopia | London | 5 | All Maps","name_short":"lon-5","host":"lon-1.uk.uncletopia.com","port":27055,"enabled":true,"region":"eu","cc":"gb","latitude":51.509865,"longitude":-0.118092,"reserved":0,"last_update":"0001-01-01T00:00:00Z","name_a2s":"Uncletopia | London | 5 | All Maps","protocol":17,"map":"koth_lakeside_final","folder":"tf","game":"Team Fortress","app_id":440,"player_count":0,"max_players":24,"Bots":0,"server_type":"Dedicated","server_os":"Linux","password":true,"vac":true,"version":"7961495","steam_id":85568392924742829,"keywords":["cp","nocrits","nodmgspread","uncletopia"],"game_id":440,"stv_port":27056,"stv_name":"Uncletopia | London | 5 | All Maps | STV","players":null},{"server_id":22,"name":"Uncletopia | London | 6 | All Maps","name_short":"lon-6","host":"lon-1.uk.uncletopia.com","port":27065,"enabled":true,"region":"eu","cc":"gb","latitude":51.509865,"longitude":-0.118092,"reserved":0,"last_update":"0001-01-01T00:00:00Z","name_a2s":"Uncletopia | London | 6 | All Maps","protocol":17,"map":"cp_dustbowl","folder":"tf","game":"Team Fortress","app_id":440,"player_count":0,"max_players":24,"Bots":0,"server_type":"Dedicated","server_os":"Linux","password":true,"vac":true,"version":"7961495","steam_id":85568392924742830,"keywords":["cp","nocrits","nodmgspread","uncletopia"],"game_id":440,"stv_port":27066,"stv_name":"Uncletopia | London | 6 | All Maps | STV","players":null},{"server_id":40,"name":"Uncletopia | London | 7 | Stopwatch","name_short":"lon-7","host":"lon-1.uk.uncletopia.com","port":27075,"enabled":true,"region":"eu","cc":"gb","latitude":51.509865,"longitude":-0.118092,"reserved":0,"last_update":"0001-01-01T00:00:00Z","name_a2s":"Uncletopia | London | 7 | Stopwatch","protocol":17,"map":"koth_lakeside_final","folder":"tf","game":"Team Fortress","app_id":440,"player_count":0,"max_players":24,"Bots":0,"server_type":"Dedicated","server_os":"Linux","password":true,"vac":true,"version":"7961495","steam_id":85568392924964314,"keywords":["cp","nocrits","nodmgspread","uncletopia"],"game_id":440,"stv_port":27076,"stv_name":"Uncletopia | London | 7 | Stopwatch | STV","players":null},{"server_id":41,"name":"Uncletopia | London | 8 | Community","name_short":"lon-8","host":"lon-1.uk.uncletopia.com","port":27085,"enabled":true,"region":"eu","cc":"gb","latitude":51.509865,"longitude":-0.118092,"reserved":0,"last_update":"0001-01-01T00:00:00Z","name_a2s":"Uncletopia | London | 8 | Community","protocol":17,"map":"cp_snakewater_final1","folder":"tf","game":"Team Fortress","app_id":440,"player_count":0,"max_players":24,"Bots":0,"server_type":"Dedicated","server_os":"Linux","password":true,"vac":true,"version":"7961495","steam_id":85568392924964315,"keywords":["cp","nocrits","nodmgspread","uncletopia"],"game_id":440,"stv_port":27086,"stv_name":"Uncletopia | London | 8 | Community | STV","players":null},{"server_id":300,"name":"Uncletopia | Montr√©al | 1 | One Thousand Uncles","name_short":"mtl-1","host":"mtl-1.ca.uncletopia.com","port":27015,"enabled":true,"region":"us-east","cc":"ca","latitude":45.50889,"longitude":-73.56167,"reserved":0,"last_update":"0001-01-01T00:00:00Z","name_a2s":"","protocol":0,"map":"","folder":"","game":"","app_id":0,"player_count":0,"max_players":0,"Bots":0,"server_type":"","server_os":"","password":false,"vac":false,"version":"","steam_id":0,"keywords":null,"game_id":0,"stv_port":0,"stv_name":"","players":null},{"server_id":301,"name":"Uncletopia | Montr√©al | 2 | One Thousand Uncles","name_short":"mtl-2","host":"mtl-1.ca.uncletopia.com","port":27025,"enabled":true,"region":"us-east","cc":"ca","latitude":45.50889,"longitude":-73.56167,"reserved":0,"last_update":"0001-01-01T00:00:00Z","name_a2s":"","protocol":0,"map":"","folder":"","game":"","app_id":0,"player_count":0,"max_players":0,"Bots":0,"server_type":"","server_os":"","password":false,"vac":false,"version":"","steam_id":0,"keywords":null,"game_id":0,"stv_port":0,"stv_name":"","players":null},{"server_id":302,"name":"Uncletopia | Montr√©al | 3 | One Thousand Uncles","name_short":"mtl-3","host":"mtl-1.ca.uncletopia.com","port":27035,"enabled":true,"region":"us-east","cc":"ca","latitude":45.50889,"longitude":-73.56167,"reserved":0,"last_update":"0001-01-01T00:00:00Z","name_a2s":"","protocol":0,"map":"","folder":"","game":"","app_id":0,"player_count":0,"max_players":0,"Bots":0,"server_type":"","server_os":"","password":false,"vac":false,"version":"","steam_id":0,"keywords":null,"game_id":0,"stv_port":0,"stv_name":"","players":null},{"server_id":13,"name":"Uncletopia | New York City | 1 | All Maps","name_short":"nyc-1","host":"nyc-1.us.uncletopia.com","port":27015,"enabled":true,"region":"us-east","cc":"us","latitude":40.73061,"longitude":-73.93524,"reserved":0,"last_update":"0001-01-01T00:00:00Z","name_a2s":"Uncletopia | New York City | 1 | All Maps","protocol":17,"map":"pl_barnblitz","folder":"tf","game":"Team Fortress","app_id":440,"player_count":24,"max_players":24,"Bots":0,"server_type":"Dedicated","server_os":"Linux","password":true,"vac":true,"version":"7961495","steam_id":85568392924469993,"keywords":["nocrits","nodmgspread","payload","uncletopia"],"game_id":440,"stv_port":27016,"stv_name":"Uncletopia | New York City | 1 | All Maps | STV","players":[{"user_id":575,"name":"frank n furter","steam_id":76561198308883028,"connected_time":242000000000,"state":"active","ping":115},{"user_id":561,"name":"Femboy Medic Main","steam_id":76561198268225109,"connected_time":1215000000000,"state":"active","ping":104},{"user_id":536,"name":"„ÄêÔº±ÔºµÔº°Ôº£Ôº´„Äë","steam_id":76561198079931245,"connected_time":3307000000000,"state":"active","ping":62},{"user_id":564,"name":"Rotarius","steam_id":76561198109893506,"connected_time":1031000000000,"state":"active","ping":136},{"user_id":572,"name":"CherryPieRed2023","steam_id":76561198998007496,"connected_time":347000000000,"state":"active","ping":136},{"user_id":573,"name":"Coolgoat2005","steam_id":76561198284935250,"connected_time":289000000000,"state":"active","ping":120},{"user_id":523,"name":"kikikikoboy","steam_id":76561198073380271,"connected_time":4278000000000,"state":"active","ping":68},{"user_id":545,"name":"Shystie","steam_id":76561198025371440,"connected_time":2810000000000,"state":"active","ping":98},{"user_id":559,"name":"Voracious Puma","steam_id":76561197963621649,"connected_time":1217000000000,"state":"active","ping":89},{"user_id":549,"name":"ndvr","steam_id":76561199379200102,"connected_time":2667000000000,"state":"active","ping":55},{"user_id":576,"name":"Cooldog","steam_id":76561198080548713,"connected_time":211000000000,"state":"active","ping":60},{"user_id":541,"name":"GimliLOTR","steam_id":76561198163746000,"connected_time":3039000000000,"state":"active","ping":70},{"user_id":577,"name":"Papa Smoke","steam_id":76561198181348206,"connected_time":166000000000,"state":"active","ping":73},{"user_id":566,"name":"rubn","steam_id":76561198119586410,"connected_time":967000000000,"state":"active","ping":140},{"user_id":542,"name":"Kingclinton1","steam_id":76561198052956772,"connected_time":3015000000000,"state":"active","ping":54},{"user_id":567,"name":"TTV hunter","steam_id":76561198115812405,"connected_time":963000000000,"state":"active","ping":74},{"user_id":579,"name":"Vanilla Guerilla","steam_id":76561198027302117,"connected_time":84000000000,"state":"active","ping":45},{"user_id":580,"name":"Ludcmorais","steam_id":76561198359217809,"connected_time":80000000000,"state":"active","ping":169},{"user_id":558,"name":"king julian","steam_id":76561198119651530,"connected_time":1223000000000,"state":"active","ping":60},{"user_id":569,"name":"jade","steam_id":76561198055611029,"connected_time":929000000000,"state":"active","ping":60},{"user_id":581,"name":"Snoopist","steam_id":76561198144023761,"connected_time":72000000000,"state":"active","ping":57},{"user_id":582,"name":"Thingy","steam_id":76561198140161202,"connected_time":51000000000,"state":"active","ping":72},{"user_id":583,"name":"MNKY","steam_id":76561198057125058,"connected_time":37000000000,"state":"active","ping":144},{"user_id":503,"name":"WitheringLeo","steam_id":76561198046722918,"connected_time":6157000000000,"state":"active","ping":76}]},{"server_id":14,"name":"Uncletopia | New York City | 2 | All Maps","name_short":"nyc-2","host":"nyc-1.us.uncletopia.com","port":27025,"enabled":true,"region":"us-east","cc":"us","latitude":40.73061,"longitude":-73.93524,"reserved":0,"last_update":"0001-01-01T00:00:00Z","name_a2s":"Uncletopia | New York City | 2 | All Maps","protocol":17,"map":"cp_sunshine","folder":"tf","game":"Team Fortress","app_id":440,"player_count":0,"max_players":24,"Bots":0,"server_type":"Dedicated","server_os":"Linux","password":true,"vac":true,"version":"7961495","steam_id":85568392924469994,"keywords":["cp","nocrits","nodmgspread","uncletopia"],"game_id":440,"stv_port":27026,"stv_name":"Uncletopia | New York City | 2 | All Maps | STV","players":null},{"server_id":15,"name":"Uncletopia | New York City | 3 | Stopwatch","name_short":"nyc-3","host":"nyc-1.us.uncletopia.com","port":27035,"enabled":true,"region":"us-east","cc":"us","latitude":40.73061,"longitude":-73.93524,"reserved":0,"last_update":"0001-01-01T00:00:00Z","name_a2s":"Uncletopia | New York City | 3 | Stopwatch","protocol":17,"map":"pl_borneo","folder":"tf","game":"Team Fortress","app_id":440,"player_count":0,"max_players":24,"Bots":0,"server_type":"Dedicated","server_os":"Linux","password":true,"vac":true,"version":"7961495","steam_id":85568392924742820,"keywords":["nocrits","nodmgspread","payload","uncletopia"],"game_id":440,"stv_port":27036,"stv_name":"Uncletopia | New York City | 3 | Stopwatch | STV","players":null},{"server_id":16,"name":"Uncletopia | New York City | 4 | Community","name_short":"nyc-4","host":"nyc-1.us.uncletopia.com","port":27045,"enabled":true,"region":"us-east","cc":"us","latitude":40.73061,"longitude":-73.93524,"reserved":0,"last_update":"0001-01-01T00:00:00Z","name_a2s":"Uncletopia | New York City | 4 | Community","protocol":17,"map":"workshop/koth_ramjam_rc1.ugc459778887","folder":"tf","game":"Team Fortress","app_id":440,"player_count":0,"max_players":24,"Bots":0,"server_type":"Dedicated","server_os":"Linux","password":true,"vac":true,"version":"7961495","steam_id":85568392924742821,"keywords":["cp","nocrits","nodmgspread","uncletopia"],"game_id":440,"stv_port":27046,"stv_name":"Uncletopia | New York City | 4 | Community | STV","players":null},{"server_id":142,"name":"Uncletopia | S√£o Paulo | 1 | All Maps","name_short":"sao-1","host":"sao-1.br.uncletopia.com","port":27015,"enabled":true,"region":"sa","cc":"br","latitude":-23.533773,"longitude":-46.62529,"reserved":0,"last_update":"0001-01-01T00:00:00Z","name_a2s":"Uncletopia | S√£o Paulo | 1 | All Maps","protocol":17,"map":"pl_swiftwater_final1","folder":"tf","game":"Team Fortress","app_id":440,"player_count":0,"max_players":24,"Bots":0,"server_type":"Dedicated","server_os":"Linux","password":true,"vac":true,"version":"7961495","steam_id":85568392924469996,"keywords":["nocrits","nodmgspread","payload","uncletopia"],"game_id":440,"stv_port":27016,"stv_name":"Uncletopia | S√£o Paulo | 1 | All Maps | STV","players":null},{"server_id":143,"name":"Uncletopia | S√£o Paulo | 2 | Community","name_short":"sao-2","host":"sao-2.br.uncletopia.com","port":27015,"enabled":true,"region":"sa","cc":"br","latitude":-23.533773,"longitude":-46.62529,"reserved":0,"last_update":"0001-01-01T00:00:00Z","name_a2s":"Uncletopia | S√£o Paulo | 2 | Community","protocol":17,"map":"workshop/koth_product_final.ugc454272353","folder":"tf","game":"Team Fortress","app_id":440,"player_count":0,"max_players":24,"Bots":0,"server_type":"Dedicated","server_os":"Linux","password":true,"vac":true,"version":"7961495","steam_id":85568392924485349,"keywords":["cp","nocrits","nodmgspread","uncletopia"],"game_id":440,"stv_port":27016,"stv_name":"Uncletopia | S√£o Paulo | 2 | Community | STV","players":null},{"server_id":7,"name":"Uncletopia | Seattle | 1 | All Maps","name_short":"sea-1","host":"sea-1.us.uncletopia.com","port":27015,"enabled":true,"region":"us-west","cc":"us","latitude":47.608013,"longitude":-122.33517,"reserved":0,"last_update":"0001-01-01T00:00:00Z","name_a2s":"Uncletopia | Seattle | 1 | All Maps","protocol":17,"map":"koth_harvest_final","folder":"tf","game":"Team Fortress","app_id":440,"player_count":21,"max_players":24,"Bots":0,"server_type":"Dedicated","server_os":"Linux","password":true,"vac":true,"version":"7961495","steam_id":85568392924469997,"keywords":["cp","nocrits","nodmgspread","uncletopia"],"game_id":440,"stv_port":27016,"stv_name":"Uncletopia | Seattle | 1 | All Maps | STV","players":[{"user_id":543,"name":"2 Point Tom","steam_id":76561198087617008,"connected_time":1735000000000,"state":"active","ping":45},{"user_id":530,"name":"I am mentally stable now","steam_id":76561198451812135,"connected_time":2879000000000,"state":"active","ping":56},{"user_id":544,"name":"Lily Thorn","steam_id":76561198305488625,"connected_time":1471000000000,"state":"active","ping":57},{"user_id":529,"name":"Lord Hater","steam_id":76561199158148782,"connected_time":2886000000000,"state":"active","ping":55},{"user_id":551,"name":"cerious","steam_id":76561197994365894,"connected_time":781000000000,"state":"active","ping":31},{"user_id":557,"name":"TommyBoi","steam_id":76561198025528637,"connected_time":133000000000,"state":"active","ping":38},{"user_id":555,"name":"Nom Skirrett","steam_id":76561198014600788,"connected_time":366000000000,"state":"active","ping":52},{"user_id":558,"name":"Pretentious Gunspy","steam_id":76561199241325005,"connected_time":62000000000,"state":"active","ping":116},{"user_id":559,"name":"motherfucker 2.0","steam_id":76561198141189209,"connected_time":43000000000,"state":"active","ping":90},{"user_id":560,"name":"MisterSJK","steam_id":76561198163892060,"connected_time":27000000000,"state":"active","ping":91},{"user_id":561,"name":"El Gato Paranoico","steam_id":76561198116567116,"connected_time":26000000000,"state":"active","ping":100},{"user_id":534,"name":"gorlab","steam_id":76561198025089694,"connected_time":2754000000000,"state":"active","ping":53},{"user_id":552,"name":"[TrC] Dackstrus","steam_id":76561197973518509,"connected_time":686000000000,"state":"active","ping":52},{"user_id":550,"name":"Havi","steam_id":76561198197832829,"connected_time":818000000000,"state":"active","ping":48},{"user_id":536,"name":"Dovey","steam_id":76561198027618612,"connected_time":2342000000000,"state":"active","ping":40},{"user_id":484,"name":"Haven","steam_id":76561198087584756,"connected_time":6862000000000,"state":"active","ping":60},{"user_id":473,"name":"the sneeze of 87","steam_id":76561198062451648,"connected_time":8246000000000,"state":"active","ping":91},{"user_id":456,"name":"Daz","steam_id":76561198041431938,"connected_time":9844000000000,"state":"active","ping":51},{"user_id":541,"name":"Dog","steam_id":76561198041841128,"connected_time":1931000000000,"state":"active","ping":81},{"user_id":554,"name":"TROY","steam_id":76561197983852176,"connected_time":486000000000,"state":"active","ping":75},{"user_id":501,"name":"smeasly","steam_id":76561198028718812,"connected_time":5031000000000,"state":"active","ping":43}]},{"server_id":119,"name":"Uncletopia | Seattle | 2 | All Maps","name_short":"sea-2","host":"sea-1.us.uncletopia.com","port":27025,"enabled":true,"region":"us-west","cc":"us","latitude":47.608013,"longitude":-122.33517,"reserved":0,"last_update":"0001-01-01T00:00:00Z","name_a2s":"Uncletopia | Seattle | 2 | All Maps","protocol":17,"map":"cp_steel","folder":"tf","game":"Team Fortress","app_id":440,"player_count":22,"max_players":24,"Bots":0,"server_type":"Dedicated","server_os":"Linux","password":true,"vac":true,"version":"7961495","steam_id":85568392924469998,"keywords":["cp","nocrits","nodmgspread","uncletopia"],"game_id":440,"stv_port":27026,"stv_name":"Uncletopia | Seattle | 2 | All Maps | STV","players":[{"user_id":328,"name":"roody","steam_id":76561198066260405,"connected_time":3373000000000,"state":"active","ping":44},{"user_id":367,"name":"Everything Is So Small Now","steam_id":76561198167583291,"connected_time":156000000000,"state":"active","ping":91},{"user_id":349,"name":"Jeramosa","steam_id":76561198811000094,"connected_time":1418000000000,"state":"active","ping":79},{"user_id":322,"name":"Escapism","steam_id":76561198045302512,"connected_time":3529000000000,"state":"active","ping":49},{"user_id":368,"name":"The Horny","steam_id":76561198863639459,"connected_time":146000000000,"state":"active","ping":186},{"user_id":363,"name":"clue","steam_id":76561198299379768,"connected_time":343000000000,"state":"active","ping":61},{"user_id":355,"name":"[S]Mr. X [No Monitor]","steam_id":76561197963746035,"connected_time":1017000000000,"state":"active","ping":61},{"user_id":255,"name":"duddlee","steam_id":76561198030052564,"connected_time":8572000000000,"state":"active","ping":59},{"user_id":283,"name":"GalaxyDoug32","steam_id":76561197997126305,"connected_time":7368000000000,"state":"active","ping":61},{"user_id":364,"name":"cracky","steam_id":76561197971365444,"connected_time":325000000000,"state":"active","ping":31},{"user_id":354,"name":"Spicy Chicken","steam_id":76561198074209737,"connected_time":1040000000000,"state":"active","ping":90},{"user_id":331,"name":"Mr8bittripper","steam_id":76561198133894229,"connected_time":3235000000000,"state":"active","ping":46},{"user_id":336,"name":"Hawksgamer","steam_id":76561198152405941,"connected_time":2697000000000,"state":"active","ping":62},{"user_id":369,"name":"james_bondage","steam_id":76561199476062624,"connected_time":133000000000,"state":"active","ping":123},{"user_id":332,"name":"korkskrou","steam_id":76561198422156430,"connected_time":3219000000000,"state":"active","ping":45},{"user_id":345,"name":"mrthugpug1732","steam_id":76561198881200768,"connected_time":1744000000000,"state":"active","ping":83},{"user_id":370,"name":"Cat on the Moon","steam_id":76561198272661627,"connected_time":15000000000,"state":"active","ping":81},{"user_id":371,"name":"Antwan","steam_id":76561198246200638,"connected_time":8000000000,"state":"spawning","ping":204},{"user_id":284,"name":"mo wangs","steam_id":76561198045992418,"connected_time":7348000000000,"state":"active","ping":60},{"user_id":344,"name":"Satori Komeiji","steam_id":76561198158211423,"connected_time":1812000000000,"state":"active","ping":64},{"user_id":348,"name":"K1ng_Terpz #savelight_env","steam_id":76561198094217198,"connected_time":1514000000000,"state":"active","ping":56},{"user_id":326,"name":"ohohaye","steam_id":76561198043911164,"connected_time":3474000000000,"state":"active","ping":61}]},{"server_id":406,"name":"Uncletopia | Seattle | 3 | Stopwatch","name_short":"sea-3","host":"sea-1.us.uncletopia.com","port":27035,"enabled":true,"region":"us-west","cc":"us","latitude":47.608013,"longitude":-122.33517,"reserved":0,"last_update":"0001-01-01T00:00:00Z","name_a2s":"Uncletopia | Seattle | 3 | Stopwatch","protocol":17,"map":"workshop/koth_ashville_final.ugc2130459942","folder":"tf","game":"Team Fortress","app_id":440,"player_count":0,"max_players":24,"Bots":0,"server_type":"Dedicated","server_os":"Linux","password":true,"vac":true,"version":"7961495","steam_id":85568392924515217,"keywords":["cp","nocrits","nodmgspread","uncletopia"],"game_id":440,"stv_port":27036,"stv_name":"Uncletopia | Seattle | 3 | Stopwatch | STV","players":null},{"server_id":17,"name":"Uncletopia | San Francisco | 1 | All Maps","name_short":"sfo-1","host":"sfo-1.us.uncletopia.com","port":27015,"enabled":true,"region":"us-west","cc":"us","latitude":37.77397,"longitude":-122.4313,"reserved":0,"last_update":"0001-01-01T00:00:00Z","name_a2s":"Uncletopia | San Francisco | 1 | All Maps","protocol":17,"map":"pl_barnblitz","folder":"tf","game":"Team Fortress","app_id":440,"player_count":0,"max_players":24,"Bots":0,"server_type":"Dedicated","server_os":"Linux","password":true,"vac":true,"version":"7961495","steam_id":85568392924469999,"keywords":["nocrits","nodmgspread","payload","uncletopia"],"game_id":440,"stv_port":27016,"stv_name":"Uncletopia | San Francisco | 1 | All Maps | STV","players":null},{"server_id":18,"name":"Uncletopia | San Francisco | 2 | All Maps","name_short":"sfo-2","host":"sfo-1.us.uncletopia.com","port":27025,"enabled":true,"region":"us-west","cc":"us","latitude":37.77397,"longitude":-122.4313,"reserved":0,"last_update":"0001-01-01T00:00:00Z","name_a2s":"Uncletopia | San Francisco | 2 | All Maps","protocol":17,"map":"pl_borneo","folder":"tf","game":"Team Fortress","app_id":440,"player_count":24,"max_players":24,"Bots":0,"server_type":"Dedicated","server_os":"Linux","password":true,"vac":true,"version":"7961495","steam_id":85568392924470000,"keywords":["nocrits","nodmgspread","payload","uncletopia"],"game_id":440,"stv_port":27026,"stv_name":"Uncletopia | San Francisco | 2 | All Maps | STV","players":[{"user_id":198,"name":"Be Gay, Do Crimes, Smoke Weed!","steam_id":76561198092419868,"connected_time":6158000000000,"state":"active","ping":88},{"user_id":260,"name":"Sketchdude","steam_id":76561198428554205,"connected_time":2903000000000,"state":"active","ping":94},{"user_id":273,"name":"dANZYYG","steam_id":76561197968179862,"connected_time":1231000000000,"state":"active","ping":89},{"user_id":269,"name":"cool beans","steam_id":76561198045758072,"connected_time":1761000000000,"state":"active","ping":46},{"user_id":192,"name":"Drone #0432 (they/it)","steam_id":76561198027321950,"connected_time":6523000000000,"state":"active","ping":90},{"user_id":247,"name":"Danny Fentanyl","steam_id":76561197970791798,"connected_time":3687000000000,"state":"active","ping":58},{"user_id":204,"name":"Lambchop","steam_id":76561198043900363,"connected_time":5941000000000,"state":"active","ping":60},{"user_id":250,"name":"ExplosiveGamer21","steam_id":76561198132370955,"connected_time":3636000000000,"state":"active","ping":85},{"user_id":251,"name":"Villchip","steam_id":76561198198599982,"connected_time":3627000000000,"state":"active","ping":60},{"user_id":275,"name":"cat","steam_id":76561198302651200,"connected_time":782000000000,"state":"active","ping":102},{"user_id":277,"name":"(TPT) Ghost","steam_id":76561198123262873,"connected_time":480000000000,"state":"active","ping":74},{"user_id":257,"name":"Mapachito Lindo","steam_id":76561198031359995,"connected_time":2988000000000,"state":"active","ping":62},{"user_id":268,"name":"Windows Vista Home Premium","steam_id":76561198043764863,"connected_time":1794000000000,"state":"active","ping":65},{"user_id":246,"name":"Ya_Boi_Clapitao","steam_id":76561198274969584,"connected_time":4196000000000,"state":"active","ping":75},{"user_id":215,"name":"otakugamer","steam_id":76561198278801899,"connected_time":5772000000000,"state":"active","ping":110},{"user_id":266,"name":"Cheetose Intolerant","steam_id":76561198013399809,"connected_time":2151000000000,"state":"active","ping":57},{"user_id":276,"name":"Munderscore","steam_id":76561198029168210,"connected_time":503000000000,"state":"active","ping":77},{"user_id":258,"name":"sincerelymagicmeister","steam_id":76561198393923543,"connected_time":2941000000000,"state":"active","ping":70},{"user_id":278,"name":"ninety9dragonfly","steam_id":76561198363406983,"connected_time":444000000000,"state":"active","ping":64},{"user_id":261,"name":"Madusa0048","steam_id":76561198098022116,"connected_time":2408000000000,"state":"active","ping":85},{"user_id":243,"name":"Schmupp","steam_id":76561198150928115,"connected_time":4663000000000,"state":"active","ping":53},{"user_id":279,"name":"Choctoling","steam_id":76561198351622498,"connected_time":406000000000,"state":"active","ping":61},{"user_id":265,"name":"Daddy-O Dizzy","steam_id":76561198292349348,"connected_time":2227000000000,"state":"active","ping":85},{"user_id":267,"name":"pipebombrater","steam_id":76561199029030831,"connected_time":2072000000000,"state":"active","ping":129}]},{"server_id":19,"name":"Uncletopia | San Francisco | 3 | Stopwatch","name_short":"sfo-3","host":"sfo-1.us.uncletopia.com","port":27035,"enabled":true,"region":"us-west","cc":"us","latitude":37.77397,"longitude":-122.4313,"reserved":0,"last_update":"0001-01-01T00:00:00Z","name_a2s":"Uncletopia | San Francisco | 3 | Stopwatch","protocol":17,"map":"workshop/pl_barnblitz_pro7.ugc582280235","folder":"tf","game":"Team Fortress","app_id":440,"player_count":0,"max_players":24,"Bots":0,"server_type":"Dedicated","server_os":"Linux","password":true,"vac":true,"version":"7961495","steam_id":85568392924742824,"keywords":["nocrits","nodmgspread","payload","uncletopia"],"game_id":440,"stv_port":27036,"stv_name":"Uncletopia | San Francisco | 3 | Stopwatch | STV","players":null},{"server_id":20,"name":"Uncletopia | San Francisco | 4 | Community","name_short":"sfo-4","host":"sfo-1.us.uncletopia.com","port":27045,"enabled":true,"region":"us-west","cc":"us","latitude":37.77397,"longitude":-122.4313,"reserved":0,"last_update":"0001-01-01T00:00:00Z","name_a2s":"Uncletopia | San Francisco | 4 | Community","protocol":17,"map":"workshop/koth_bagel_rc6.ugc2514036946","folder":"tf","game":"Team Fortress","app_id":440,"player_count":0,"max_players":24,"Bots":0,"server_type":"Dedicated","server_os":"Linux","password":true,"vac":true,"version":"7961495","steam_id":85568392924742826,"keywords":["cp","nocrits","nodmgspread","uncletopia"],"game_id":440,"stv_port":27046,"stv_name":"Uncletopia | San Francisco | 4 | Community | STV","players":null},{"server_id":141,"name":"Uncletopia | Sydney | 1 | All Maps","name_short":"syd-1","host":"syd-1.au.uncletopia.com","port":27015,"enabled":true,"region":"au","cc":"au","latitude":-33.865143,"longitude":151.2099,"reserved":0,"last_update":"0001-01-01T00:00:00Z","name_a2s":"Uncletopia | Sydney | 1 | All Maps","protocol":17,"map":"pl_borneo","folder":"tf","game":"Team Fortress","app_id":440,"player_count":0,"max_players":24,"Bots":0,"server_type":"Dedicated","server_os":"Linux","password":true,"vac":true,"version":"7961495","steam_id":85568392924470001,"keywords":["nocrits","nodmgspread","payload","uncletopia"],"game_id":440,"stv_port":27016,"stv_name":"Uncletopia | Sydney | 1 | All Maps | STV","players":null},{"server_id":123,"name":"Uncletopia | Sydney | 2 | All Maps","name_short":"syd-2","host":"syd-1.au.uncletopia.com","port":27025,"enabled":true,"region":"au","cc":"au","latitude":-33.865143,"longitude":151.2099,"reserved":0,"last_update":"0001-01-01T00:00:00Z","name_a2s":"Uncletopia | Sydney | 2 | All Maps","protocol":17,"map":"koth_lakeside_final","folder":"tf","game":"Team Fortress","app_id":440,"player_count":0,"max_players":24,"Bots":0,"server_type":"Dedicated","server_os":"Linux","password":true,"vac":true,"version":"7961495","steam_id":85568392924470002,"keywords":["cp","nocrits","nodmgspread","uncletopia"],"game_id":440,"stv_port":27026,"stv_name":"Uncletopia | Sydney | 2 | All Maps | STV","players":null},{"server_id":395,"name":"Uncletopia | Sydney | 3 | All Maps","name_short":"syd-3","host":"syd-1.au.uncletopia.com","port":27035,"enabled":true,"region":"au","cc":"au","latitude":-33.865143,"longitude":151.2099,"reserved":0,"last_update":"0001-01-01T00:00:00Z","name_a2s":"Uncletopia | Sydney | 3 | All Maps","protocol":17,"map":"cp_sunshine","folder":"tf","game":"Team Fortress","app_id":440,"player_count":0,"max_players":24,"Bots":0,"server_type":"Dedicated","server_os":"Linux","password":true,"vac":true,"version":"7961495","steam_id":85568392925194467,"keywords":["cp","nocrits","nodmgspread","uncletopia"],"game_id":440,"stv_port":27036,"stv_name":"Uncletopia | Sydney | 3 | All Maps | STV","players":null},{"server_id":396,"name":"Uncletopia | Sydney | 4 | All Maps","name_short":"syd-4","host":"syd-1.au.uncletopia.com","port":27045,"enabled":true,"region":"au","cc":"au","latitude":-33.865143,"longitude":151.2099,"reserved":0,"last_update":"0001-01-01T00:00:00Z","name_a2s":"Uncletopia | Sydney | 4 | All Maps","protocol":17,"map":"koth_highpass","folder":"tf","game":"Team Fortress","app_id":440,"player_count":0,"max_players":24,"Bots":0,"server_type":"Dedicated","server_os":"Linux","password":true,"vac":true,"version":"7961495","steam_id":85568392925397958,"keywords":["cp","nocrits","nodmgspread","uncletopia"],"game_id":440,"stv_port":27046,"stv_name":"Uncletopia | Sydney | 4 | All Maps | STV","players":null},{"server_id":58,"name":"Uncletopia | Sydney | 5 | Stopwatch","name_short":"syd-5","host":"syd-1.au.uncletopia.com","port":27055,"enabled":true,"region":"au","cc":"au","latitude":-33.865143,"longitude":151.2099,"reserved":0,"last_update":"0001-01-01T00:00:00Z","name_a2s":"Uncletopia | Sydney | 5 | Stopwatch","protocol":17,"map":"pl_frontier_final","folder":"tf","game":"Team Fortress","app_id":440,"player_count":0,"max_players":24,"Bots":0,"server_type":"Dedicated","server_os":"Linux","password":true,"vac":true,"version":"7961495","steam_id":85568392925397959,"keywords":["nocrits","nodmgspread","payload","uncletopia"],"game_id":440,"stv_port":27056,"stv_name":"Uncletopia | Sydney | 5 | Stopwatch | STV","players":null},{"server_id":59,"name":"Uncletopia | Sydney | 6 | Community","name_short":"syd-6","host":"syd-1.au.uncletopia.com","port":27065,"enabled":true,"region":"au","cc":"au","latitude":-33.865143,"longitude":151.2099,"reserved":0,"last_update":"0001-01-01T00:00:00Z","name_a2s":"Uncletopia | Sydney | 6 | Community","protocol":17,"map":"cp_sunshine","folder":"tf","game":"Team Fortress","app_id":440,"player_count":0,"max_players":24,"Bots":0,"server_type":"Dedicated","server_os":"Linux","password":true,"vac":true,"version":"7961495","steam_id":85568392925397960,"keywords":["cp","nocrits","nodmgspread","uncletopia"],"game_id":440,"stv_port":27066,"stv_name":"Uncletopia | Sydney | 6 | Community | STV","players":null},{"server_id":49,"name":"Uncletopia | Warsaw | 1 | One Thousand Uncles","name_short":"waw-1","host":"waw-1.pl.uncletopia.com","port":27015,"enabled":true,"region":"eu","cc":"pl","latitude":52.2297,"longitude":21.017532,"reserved":0,"last_update":"0001-01-01T00:00:00Z","name_a2s":"Uncletopia | Warsaw | 1 | One Thousand Uncles","protocol":17,"map":"koth_highpass","folder":"tf","game":"Team Fortress","app_id":440,"player_count":0,"max_players":32,"Bots":0,"server_type":"Dedicated","server_os":"Linux","password":true,"vac":true,"version":"7961495","steam_id":85568392925397850,"keywords":["alltalk","cp","danepve","increased_maxplayers","nocrits","norespawntime","uncletopia"],"game_id":440,"stv_port":0,"stv_name":"","players":null},{"server_id":50,"name":"Uncletopia | Warsaw | 2 | One Thousand Uncles","name_short":"waw-2","host":"waw-1.pl.uncletopia.com","port":27025,"enabled":true,"region":"eu","cc":"pl","latitude":52.2297,"longitude":21.017532,"reserved":0,"last_update":"0001-01-01T00:00:00Z","name_a2s":"Uncletopia | Warsaw | 2 | One Thousand Uncles","protocol":17,"map":"pl_goldrush","folder":"tf","game":"Team Fortress","app_id":440,"player_count":0,"max_players":32,"Bots":0,"server_type":"Dedicated","server_os":"Linux","password":true,"vac":true,"version":"7961495","steam_id":85568392925397851,"keywords":["alltalk","danepve","increased_maxplayers","nocrits","norespawntime","payload","uncletopia"],"game_id":440,"stv_port":0,"stv_name":"","players":null},{"server_id":51,"name":"Uncletopia | Warsaw | 3 | All Maps","name_short":"waw-3","host":"waw-1.pl.uncletopia.com","port":27035,"enabled":true,"region":"eu","cc":"pl","latitude":52.2297,"longitude":21.017532,"reserved":0,"last_update":"0001-01-01T00:00:00Z","name_a2s":"Uncletopia | Warsaw | 3 | All Maps","protocol":17,"map":"plr_pipeline","folder":"tf","game":"Team Fortress","app_id":440,"player_count":0,"max_players":24,"Bots":0,"server_type":"Dedicated","server_os":"Linux","password":true,"vac":true,"version":"7961495","steam_id":85568392925397852,"keywords":["nocrits","nodmgspread","payload","uncletopia"],"game_id":440,"stv_port":27036,"stv_name":"Uncletopia | Warsaw | 3 | All Maps | STV","players":null},{"server_id":52,"name":"Uncletopia | Warsaw | 4 | All Maps","name_short":"waw-4","host":"waw-1.pl.uncletopia.com","port":27045,"enabled":true,"region":"eu","cc":"pl","latitude":52.2297,"longitude":21.017532,"reserved":0,"last_update":"0001-01-01T00:00:00Z","name_a2s":"Uncletopia | Warsaw | 4 | All Maps","protocol":17,"map":"cp_coldfront","folder":"tf","game":"Team Fortress","app_id":440,"player_count":0,"max_players":24,"Bots":0,"server_type":"Dedicated","server_os":"Linux","password":true,"vac":true,"version":"7961495","steam_id":85568392925397853,"keywords":["cp","nocrits","nodmgspread","uncletopia"],"game_id":440,"stv_port":27046,"stv_name":"Uncletopia | Warsaw | 4 | All Maps | STV","players":null},{"server_id":53,"name":"Uncletopia | Warsaw | 5 | Stopwatch","name_short":"waw-5","host":"waw-1.pl.uncletopia.com","port":27055,"enabled":true,"region":"eu","cc":"pl","latitude":52.2297,"longitude":21.017532,"reserved":0,"last_update":"0001-01-01T00:00:00Z","name_a2s":"Uncletopia | Warsaw | 5 | Stopwatch","protocol":17,"map":"workshop/koth_bagel_rc6.ugc2514036946","folder":"tf","game":"Team Fortress","app_id":440,"player_count":0,"max_players":24,"Bots":0,"server_type":"Dedicated","server_os":"Linux","password":true,"vac":true,"version":"7961495","steam_id":85568392925397854,"keywords":["cp","nocrits","nodmgspread","uncletopia"],"game_id":440,"stv_port":27056,"stv_name":"Uncletopia | Warsaw | 5 | Stopwatch | STV","players":null},{"server_id":54,"name":"Uncletopia | Warsaw | 6 | Community","name_short":"waw-6","host":"waw-1.pl.uncletopia.com","port":27065,"enabled":true,"region":"eu","cc":"pl","latitude":52.2297,"longitude":21.017532,"reserved":0,"last_update":"0001-01-01T00:00:00Z","name_a2s":"Uncletopia | Warsaw | 6 | Community","protocol":17,"map":"workshop/pl_badwater_pro_v12.ugc2142942074","folder":"tf","game":"Team Fortress","app_id":440,"player_count":0,"max_players":24,"Bots":0,"server_type":"Dedicated","server_os":"Linux","password":true,"vac":true,"version":"7961495","steam_id":85568392925397856,"keywords":["nocrits","nodmgspread","payload","uncletopia"],"game_id":440,"stv_port":27066,"stv_name":"Uncletopia | Warsaw | 6 | Community | STV","players":null}]}