{"status":true,"message":"","result":[{"server_id":9,"name":"Uncletopia | Atlanta | 1 | All Maps","name_short":"atl-1","host":"atl-1.us.uncletopia.com","port":27015,"enabled":true,"region":"us-east","cc":"us","latitude":33.753746,"longitude":-84.38633,"reserved":0,"last_update":"0001-01-01T00:00:00Z","name_a2s":"Uncletopia | Atlanta | 1 | All Maps","protocol":17,"map":"pl_frontier_final","folder":"tf","game":"Team Fortress","app_id":440,"player_count":24,"max_players":24,"Bots":0,"server_type":"Dedicated","server_os":"Linux","password":true,"vac":true,"version":"7757534","steam_id":85568392924469982,"keywords":["nocrits","nodmgspread","payload","uncletopia"],"game_id":440,"stv_port":27016,"stv_name":"Uncletopia | Atlanta | 1 | All Maps | STV","players":[{"user_id":196,"name":"The Caretaker","steam_id":76561198125241411,"connected_time":3462000000000,"state":"active","ping":123},{"user_id":236,"name":"Seru","steam_id":76561199219827214,"connected_time":196000000000,"state":"active","ping":72},{"user_id":235,"name":"26 feral animals","steam_id":76561198116741891,"connected_time":374000000000,"state":"active","ping":57},{"user_id":223,"name":"Moofins","steam_id":76561198050291949,"connected_time":1580000000000,"state":"active","ping":64},{"user_id":83,"name":"gallowsCalibrator","steam_id":76561198404707578,"connected_time":12599000000000,"state":"active","ping":44},{"user_id":234,"name":"SneakySneak","steam_id":76561198064847921,"connected_time":393000000000,"state":"active","ping":74},{"user_id":230,"name":"Chirox","steam_id":76561198034516923,"connected_time":978000000000,"state":"active","ping":61},{"user_id":225,"name":"fudo myoo","steam_id":76561198456258164,"connected_time":1550000000000,"state":"active","ping":59},{"user_id":237,"name":"Casaaterrizador","steam_id":76561199388911950,"connected_time":187000000000,"state":"active","ping":87},{"user_id":238,"name":"Ok then","steam_id":76561198891914787,"connected_time":137000000000,"state":"active","ping":105},{"user_id":228,"name":"new years hooters","steam_id":76561198068022595,"connected_time":1071000000000,"state":"active","ping":63},{"user_id":214,"name":"Jin Gulilo","steam_id":76561198065151242,"connected_time":2186000000000,"state":"active","ping":77},{"user_id":217,"name":".-.","steam_id":76561198820617005,"connected_time":2108000000000,"state":"active","ping":90},{"user_id":171,"name":"Nephs","steam_id":76561198136763403,"connected_time":6423000000000,"state":"active","ping":75},{"user_id":133,"name":"ATL1 | Chance","steam_id":76561198122256825,"connected_time":8334000000000,"state":"active","ping":63},{"user_id":226,"name":"ATL1 | eish","steam_id":76561198089463603,"connected_time":1548000000000,"state":"active","ping":114},{"user_id":239,"name":"Stampdawg","steam_id":76561198050500060,"connected_time":137000000000,"state":"active","ping":76},{"user_id":215,"name":"Goonstar☆","steam_id":76561198054571242,"connected_time":2177000000000,"state":"active","ping":77},{"user_id":195,"name":"ash","steam_id":76561198127890645,"connected_time":3471000000000,"state":"active","ping":71},{"user_id":240,"name":"Knarkle","steam_id":76561198248299906,"connected_time":27000000000,"state":"active","ping":49},{"user_id":200,"name":"Flint","steam_id":76561198066547582,"connected_time":2916000000000,"state":"active","ping":111},{"user_id":241,"name":"Dr. Nobotnik","steam_id":76561198357339092,"connected_time":14000000000,"state":"spawning","ping":71},{"user_id":231,"name":"Spooky Scary","steam_id":76561198195388759,"connected_time":959000000000,"state":"active","ping":56},{"user_id":204,"name":"floofy","steam_id":76561198389769098,"connected_time":2433000000000,"state":"active","ping":75}]},{"server_id":400,"name":"Uncletopia | Atlanta | 3 | Stopwatch Beta","name_short":"atl-3","host":"atl-1.us.uncletopia.com","port":27035,"enabled":true,"region":"us-east","cc":"us","latitude":33.753746,"longitude":-84.38633,"reserved":0,"last_update":"0001-01-01T00:00:00Z","name_a2s":"Uncletopia | Atlanta | 3 | Stopwatch Beta","protocol":17,"map":"koth_highpass","folder":"tf","game":"Team Fortress","app_id":440,"player_count":0,"max_players":24,"Bots":0,"server_type":"Dedicated","server_os":"Linux","password":true,"vac":true,"version":"7757534","steam_id":85568392924515187,"keywords":["cp","nocrits","nodmgspread","uncletopia"],"game_id":440,"stv_port":27036,"stv_name":"Uncletopia | Atlanta | 3 | Stopwatch Beta | STV","players":null},{"server_id":401,"name":"Uncletopia | Atlanta | 4 | No Payload","name_short":"atl-4","host":"atl-1.us.uncletopia.com","port":27045,"enabled":true,"region":"us-east","cc":"us","latitude":33.753746,"longitude":-84.38633,"reserved":0,"last_update":"0001-01-01T00:00:00Z","name_a2s":"Uncletopia | Atlanta | 4 | No Payload","protocol":17,"map":"pl_pier","folder":"tf","game":"Team Fortress","app_id":440,"player_count":0,"max_players":24,"Bots":0,"server_type":"Dedicated","server_os":"Linux","password":true,"vac":true,"version":"7723704","steam_id":85568392924515188,"keywords":["nocrits","nodmgspread","payload","uncletopia"],"game_id":440,"stv_port":27046,"stv_name":"Uncletopia | Atlanta | 4 | No Payload | STV","players":null},{"server_id":2,"name":"Uncletopia | Chicago | 1 | All Maps","name_short":"chi-1","host":"chi-1.us.uncletopia.com","port":27015,"enabled":true,"region":"us-central","cc":"us","latitude":41.881832,"longitude":-87.62318,"reserved":0,"last_update":"0001-01-01T00:00:00Z","name_a2s":"Uncletopia | Chicago | 1 | All Maps","protocol":17,"map":"pl_badwater","folder":"tf","game":"Team Fortress","app_id":440,"player_count":24,"max_players":24,"Bots":0,"server_type":"Dedicated","server_os":"Linux","password":true,"vac":true,"version":"7757534","steam_id":85568392924469984,"keywords":["nocrits","nodmgspread","payload","uncletopia"],"game_id":440,"stv_port":27016,"stv_name":"Uncletopia | Chicago | 1 | All Maps | STV","players":[{"user_id":252,"name":"PKBEAST_7","steam_id":76561198177136537,"connected_time":8389000000000,"state":"active","ping":87},{"user_id":326,"name":"Demonic Cipher","steam_id":76561198066082088,"connected_time":670000000000,"state":"active","ping":60},{"user_id":293,"name":".JIFF","steam_id":76561198045181760,"connected_time":3419000000000,"state":"active","ping":59},{"user_id":295,"name":"Fankik","steam_id":76561198384764077,"connected_time":2972000000000,"state":"active","ping":86},{"user_id":332,"name":"capybara","steam_id":76561198798828328,"connected_time":232000000000,"state":"active","ping":53},{"user_id":331,"name":"The Pig From Bad Piggies","steam_id":76561198929936926,"connected_time":280000000000,"state":"active","ping":88},{"user_id":329,"name":"Derblitz","steam_id":76561198040953176,"connected_time":434000000000,"state":"active","ping":103},{"user_id":272,"name":"fancyfreak","steam_id":76561198326466375,"connected_time":5145000000000,"state":"active","ping":101},{"user_id":321,"name":"Astoriae!","steam_id":76561199090168858,"connected_time":926000000000,"state":"active","ping":75},{"user_id":307,"name":"Holdie","steam_id":76561198070378200,"connected_time":2064000000000,"state":"active","ping":57},{"user_id":303,"name":"fat fuck chicken joe","steam_id":76561198840876723,"connected_time":2116000000000,"state":"active","ping":125},{"user_id":317,"name":"EmeraldCola","steam_id":76561198066663687,"connected_time":1158000000000,"state":"active","ping":69},{"user_id":333,"name":"Ghoulenoir","steam_id":76561198074314573,"connected_time":228000000000,"state":"active","ping":52},{"user_id":327,"name":"Nolan","steam_id":76561198169648081,"connected_time":642000000000,"state":"active","ping":92},{"user_id":328,"name":"snail","steam_id":76561198312155722,"connected_time":595000000000,"state":"active","ping":172},{"user_id":305,"name":"Limasio","steam_id":76561198198176191,"connected_time":2107000000000,"state":"active","ping":68},{"user_id":334,"name":"Gordan Timlothle","steam_id":76561198272013678,"connected_time":116000000000,"state":"active","ping":70},{"user_id":316,"name":"MrSirGent","steam_id":76561199086357213,"connected_time":1220000000000,"state":"active","ping":86},{"user_id":325,"name":"kairOs.fk","steam_id":76561197972421260,"connected_time":779000000000,"state":"active","ping":60},{"user_id":312,"name":"Tom","steam_id":76561198070630154,"connected_time":1499000000000,"state":"active","ping":95},{"user_id":309,"name":"Rocco__","steam_id":76561197992824074,"connected_time":2062000000000,"state":"active","ping":70},{"user_id":259,"name":"Rornir","steam_id":76561198081829615,"connected_time":7349000000000,"state":"active","ping":38},{"user_id":222,"name":"the deadliest pyroshark","steam_id":76561198374227766,"connected_time":10601000000000,"state":"active","ping":77},{"user_id":310,"name":"Good Seed","steam_id":76561198013443319,"connected_time":2062000000000,"state":"active","ping":61}]},{"server_id":106,"name":"Uncletopia | Chicago | 2 | All Maps","name_short":"chi-2","host":"chi-1.us.uncletopia.com","port":27025,"enabled":true,"region":"us-central","cc":"us","latitude":41.881832,"longitude":-87.62318,"reserved":0,"last_update":"0001-01-01T00:00:00Z","name_a2s":"Uncletopia | Chicago | 2 | All Maps","protocol":17,"map":"cp_dustbowl","folder":"tf","game":"Team Fortress","app_id":440,"player_count":20,"max_players":24,"Bots":0,"server_type":"Dedicated","server_os":"Linux","password":true,"vac":true,"version":"7757534","steam_id":85568392924469985,"keywords":["cp","nocrits","nodmgspread","uncletopia"],"game_id":440,"stv_port":27026,"stv_name":"Uncletopia | Chicago | 2 | All Maps | STV","players":[{"user_id":14,"name":"Skeedie","steam_id":76561198268591634,"connected_time":8471000000000,"state":"active","ping":72},{"user_id":15,"name":"Fellow Paisano","steam_id":76561198097847998,"connected_time":8466000000000,"state":"active","ping":52},{"user_id":16,"name":"Malleo777","steam_id":76561198097995505,"connected_time":8456000000000,"state":"active","ping":101},{"user_id":116,"name":"Azula's #1 Fan","steam_id":76561198133111058,"connected_time":2086000000000,"state":"active","ping":65},{"user_id":132,"name":"The Last Thing","steam_id":76561198041402307,"connected_time":176000000000,"state":"active","ping":63},{"user_id":117,"name":"Le","steam_id":76561198817754233,"connected_time":2078000000000,"state":"active","ping":101},{"user_id":135,"name":"Rukks","steam_id":76561197993918954,"connected_time":132000000000,"state":"active","ping":59},{"user_id":134,"name":"nisshin maru","steam_id":76561198047557031,"connected_time":143000000000,"state":"active","ping":54},{"user_id":131,"name":"H.I.M POSITIVE","steam_id":76561198059575962,"connected_time":603000000000,"state":"active","ping":46},{"user_id":133,"name":"Sad Man","steam_id":76561197960857993,"connected_time":166000000000,"state":"active","ping":38},{"user_id":136,"name":"golf (backspin edition)","steam_id":76561198007464245,"connected_time":7000000000,"state":"spawning","ping":84},{"user_id":129,"name":"t(-_-t)","steam_id":76561198193704069,"connected_time":733000000000,"state":"active","ping":45},{"user_id":76,"name":"TheTrashMann","steam_id":76561199174242639,"connected_time":4956000000000,"state":"active","ping":67},{"user_id":125,"name":"primordialheath","steam_id":76561199386942638,"connected_time":1438000000000,"state":"active","ping":57},{"user_id":121,"name":"head crypto bioengineer analyst","steam_id":76561198070635731,"connected_time":1840000000000,"state":"active","ping":61},{"user_id":122,"name":"JustSomeInternetGuy","steam_id":76561199066037843,"connected_time":1683000000000,"state":"active","ping":76},{"user_id":123,"name":"weeb_whacker #Jenius","steam_id":76561198187098041,"connected_time":1489000000000,"state":"active","ping":49},{"user_id":119,"name":"Jill the Owl","steam_id":76561197999210583,"connected_time":2039000000000,"state":"active","ping":69},{"user_id":100,"name":"Hindmost","steam_id":76561199081837220,"connected_time":4007000000000,"state":"active","ping":124},{"user_id":120,"name":"Maniac","steam_id":76561197993729460,"connected_time":2036000000000,"state":"active","ping":110}]},{"server_id":402,"name":"Uncletopia | Chicago | 3 | All Maps","name_short":"chi-3","host":"chi-1.us.uncletopia.com","port":27035,"enabled":true,"region":"us-central","cc":"us","latitude":41.881832,"longitude":-87.62318,"reserved":0,"last_update":"0001-01-01T00:00:00Z","name_a2s":"Uncletopia | Chicago | 3 | All Maps","protocol":17,"map":"cp_process_final","folder":"tf","game":"Team Fortress","app_id":440,"player_count":24,"max_players":24,"Bots":0,"server_type":"Dedicated","server_os":"Linux","password":true,"vac":true,"version":"7757534","steam_id":85568392924515191,"keywords":["cp","nocrits","nodmgspread","uncletopia"],"game_id":440,"stv_port":27036,"stv_name":"Uncletopia | Chicago | 3 | All Maps | STV","players":[{"user_id":179,"name":"Sicko Mode (Chris Pratt Cover)","steam_id":76561198315786174,"connected_time":327000000000,"state":"active","ping":83},{"user_id":123,"name":"Fk it we Ball","steam_id":76561198078421075,"connected_time":4352000000000,"state":"active","ping":68},{"user_id":164,"name":"Mystary Reborn","steam_id":76561199221425966,"connected_time":1101000000000,"state":"active","ping":74},{"user_id":145,"name":"frid","steam_id":76561198005806915,"connected_time":2763000000000,"state":"active","ping":80},{"user_id":141,"name":"tlar","steam_id":76561198060117460,"connected_time":3191000000000,"state":"active","ping":75},{"user_id":180,"name":"Purgatory","steam_id":76561198374795958,"connected_time":310000000000,"state":"active","ping":87},{"user_id":176,"name":"Lucasrio","steam_id":76561198880962360,"connected_time":608000000000,"state":"active","ping":110},{"user_id":177,"name":"neet","steam_id":76561197968115168,"connected_time":604000000000,"state":"active","ping":60},{"user_id":181,"name":"Elena Manetta","steam_id":76561197998344054,"connected_time":187000000000,"state":"active","ping":54},{"user_id":183,"name":"CloudVic","steam_id":76561198118868716,"connected_time":102000000000,"state":"active","ping":77},{"user_id":156,"name":"Tick","steam_id":76561198184161214,"connected_time":2348000000000,"state":"active","ping":45},{"user_id":169,"name":"no vc no c","steam_id":76561197989503095,"connected_time":940000000000,"state":"active","ping":184},{"user_id":170,"name":"Mailpack","steam_id":76561198066186098,"connected_time":904000000000,"state":"active","ping":139},{"user_id":178,"name":"darkjustin54","steam_id":76561198060056280,"connected_time":500000000000,"state":"active","ping":57},{"user_id":137,"name":"ZekeThePlumber","steam_id":76561197995016724,"connected_time":3571000000000,"state":"active","ping":66},{"user_id":134,"name":"leonardo doujinshi","steam_id":76561198025810326,"connected_time":3996000000000,"state":"active","ping":75},{"user_id":172,"name":"dbelow_","steam_id":76561198056148853,"connected_time":835000000000,"state":"active","ping":60},{"user_id":173,"name":"DMM Mac","steam_id":76561198407913964,"connected_time":833000000000,"state":"active","ping":103},{"user_id":160,"name":"DazzlingMaggot","steam_id":76561197972716928,"connected_time":1283000000000,"state":"active","ping":83},{"user_id":78,"name":"rude boi","steam_id":76561198006783260,"connected_time":6871000000000,"state":"active","ping":62},{"user_id":174,"name":"Laura Palmer Gaming","steam_id":76561198282965733,"connected_time":831000000000,"state":"active","ping":60},{"user_id":116,"name":"Lara","steam_id":76561199072612733,"connected_time":4724000000000,"state":"active","ping":62},{"user_id":184,"name":"Mrs.Frizzle","steam_id":76561198117157085,"connected_time":92000000000,"state":"active","ping":64},{"user_id":185,"name":"a table","steam_id":76561198158461279,"connected_time":15000000000,"state":"spawning","ping":98}]},{"server_id":403,"name":"Uncletopia | Chicago | 4 | All Maps","name_short":"chi-4","host":"chi-1.us.uncletopia.com","port":27045,"enabled":true,"region":"us-central","cc":"us","latitude":41.881832,"longitude":-87.62318,"reserved":0,"last_update":"0001-01-01T00:00:00Z","name_a2s":"Uncletopia | Chicago | 4 | All Maps","protocol":17,"map":"pl_upward","folder":"tf","game":"Team Fortress","app_id":440,"player_count":24,"max_players":24,"Bots":0,"server_type":"Dedicated","server_os":"Linux","password":true,"vac":true,"version":"7757534","steam_id":85568392924515193,"keywords":["nocrits","nodmgspread","payload","uncletopia"],"game_id":440,"stv_port":27046,"stv_name":"Uncletopia | Chicago | 4 | All Maps | STV","players":[{"user_id":453,"name":"DDM","steam_id":76561197989699054,"connected_time":430000000000,"state":"active","ping":71},{"user_id":436,"name":"AwakenedLaser","steam_id":76561198881657823,"connected_time":948000000000,"state":"active","ping":114},{"user_id":412,"name":"Rhutebeer","steam_id":76561198018302761,"connected_time":1657000000000,"state":"active","ping":99},{"user_id":440,"name":"Noponz","steam_id":76561198176891054,"connected_time":886000000000,"state":"active","ping":54},{"user_id":455,"name":"Phillip Jeffries","steam_id":76561198064052174,"connected_time":313000000000,"state":"active","ping":60},{"user_id":457,"name":"Chauckles","steam_id":76561197993151595,"connected_time":298000000000,"state":"active","ping":57},{"user_id":430,"name":"Pop Pop","steam_id":76561198211396781,"connected_time":1153000000000,"state":"active","ping":63},{"user_id":402,"name":"Poison Ivy","steam_id":76561198072384574,"connected_time":3120000000000,"state":"active","ping":51},{"user_id":450,"name":"Female Gamer","steam_id":76561199366482682,"connected_time":491000000000,"state":"active","ping":105},{"user_id":410,"name":"The Prankster™","steam_id":76561199123285878,"connected_time":1788000000000,"state":"active","ping":83},{"user_id":426,"name":"Ch4rl33","steam_id":76561198037008621,"connected_time":1200000000000,"state":"active","ping":54},{"user_id":443,"name":"Critscare","steam_id":76561198087712508,"connected_time":801000000000,"state":"active","ping":45},{"user_id":416,"name":"spinz","steam_id":76561198353098481,"connected_time":1582000000000,"state":"active","ping":71},{"user_id":417,"name":"gaylittlemouse","steam_id":76561198819562111,"connected_time":1578000000000,"state":"active","ping":75},{"user_id":451,"name":"ano sono etto","steam_id":76561197965022076,"connected_time":475000000000,"state":"active","ping":54},{"user_id":458,"name":"Tots","steam_id":76561198027485007,"connected_time":213000000000,"state":"active","ping":45},{"user_id":420,"name":"Rugbmilk","steam_id":76561199389283507,"connected_time":1491000000000,"state":"active","ping":68},{"user_id":418,"name":"loser","steam_id":76561198171507451,"connected_time":1526000000000,"state":"active","ping":96},{"user_id":438,"name":"JelloSniffer","steam_id":76561198142770733,"connected_time":917000000000,"state":"active","ping":57},{"user_id":444,"name":"airport alan","steam_id":76561198027337461,"connected_time":760000000000,"state":"active","ping":100},{"user_id":445,"name":"HE'S BACK","steam_id":76561198018146136,"connected_time":751000000000,"state":"active","ping":103},{"user_id":454,"name":"Twan (no vibes plz)","steam_id":76561197991064908,"connected_time":427000000000,"state":"active","ping":63},{"user_id":448,"name":"neffam3","steam_id":76561198074256803,"connected_time":597000000000,"state":"active","ping":132},{"user_id":452,"name":"viscodolante","steam_id":76561198013650292,"connected_time":453000000000,"state":"active","ping":117}]},{"server_id":36,"name":"Uncletopia | Chicago | 5 | All Maps","name_short":"chi-5","host":"chi-2.us.uncletopia.com","port":27015,"enabled":true,"region":"us-central","cc":"us","latitude":41.881832,"longitude":-87.62318,"reserved":0,"last_update":"0001-01-01T00:00:00Z","name_a2s":"Uncletopia | Chicago | 5 | All Maps","protocol":17,"map":"pl_badwater","folder":"tf","game":"Team Fortress","app_id":440,"player_count":23,"max_players":24,"Bots":0,"server_type":"Dedicated","server_os":"Linux","password":true,"vac":true,"version":"7757534","steam_id":85568392924866362,"keywords":["nocrits","nodmgspread","payload","uncletopia"],"game_id":440,"stv_port":27016,"stv_name":"Uncletopia | Chicago | 5 | All Maps | STV","players":[{"user_id":313,"name":"Joocebox","steam_id":76561198259997021,"connected_time":566000000000,"state":"active","ping":70},{"user_id":319,"name":"Garduuk","steam_id":76561198010745965,"connected_time":33000000000,"state":"active","ping":58},{"user_id":314,"name":"Socialism Doesn't Work","steam_id":76561198044115698,"connected_time":535000000000,"state":"active","ping":75},{"user_id":292,"name":"demoknight tf2","steam_id":76561198070393998,"connected_time":1772000000000,"state":"active","ping":75},{"user_id":293,"name":"[DATS➡] Sugar Meowth","steam_id":76561197995251793,"connected_time":1768000000000,"state":"active","ping":91},{"user_id":311,"name":"Otterguy","steam_id":76561198125819283,"connected_time":811000000000,"state":"active","ping":84},{"user_id":301,"name":"LobusHasAIDS","steam_id":76561198932408033,"connected_time":1368000000000,"state":"active","ping":171},{"user_id":295,"name":"Chris","steam_id":76561197970315094,"connected_time":1757000000000,"state":"active","ping":52},{"user_id":309,"name":"Johnny Lawrence #JohnnyMaxxing","steam_id":76561199367141671,"connected_time":984000000000,"state":"active","ping":77},{"user_id":302,"name":"noot noot","steam_id":76561198318446417,"connected_time":1354000000000,"state":"active","ping":81},{"user_id":310,"name":"Samsiel","steam_id":76561198094134951,"connected_time":928000000000,"state":"active","ping":94},{"user_id":277,"name":"stale bread boi","steam_id":76561198879238698,"connected_time":2300000000000,"state":"active","ping":68},{"user_id":298,"name":"jrdoran","steam_id":76561197984753094,"connected_time":1658000000000,"state":"active","ping":57},{"user_id":317,"name":"sky.to16","steam_id":76561199211313763,"connected_time":182000000000,"state":"active","ping":71},{"user_id":312,"name":"rian","steam_id":76561198074707249,"connected_time":725000000000,"state":"active","ping":75},{"user_id":307,"name":"Walruse","steam_id":76561198083844586,"connected_time":1156000000000,"state":"active","ping":69},{"user_id":280,"name":"Ghost Lord","steam_id":76561198088956723,"connected_time":2241000000000,"state":"active","ping":92},{"user_id":316,"name":"oddlyobtuselemon1654","steam_id":76561198877069773,"connected_time":479000000000,"state":"active","ping":85},{"user_id":318,"name":"Sink","steam_id":76561198192420249,"connected_time":176000000000,"state":"active","ping":74},{"user_id":267,"name":"Sunvaar","steam_id":76561198852679851,"connected_time":3331000000000,"state":"active","ping":62},{"user_id":113,"name":"skrt","steam_id":76561198233984300,"connected_time":9487000000000,"state":"active","ping":49},{"user_id":283,"name":"Epicus Lusor","steam_id":76561198271981088,"connected_time":2185000000000,"state":"active","ping":64},{"user_id":211,"name":"real goblin videos","steam_id":76561198119536224,"connected_time":5826000000000,"state":"active","ping":76}]},{"server_id":37,"name":"Uncletopia | Chicago | 6 | All Maps","name_short":"chi-6","host":"chi-2.us.uncletopia.com","port":27025,"enabled":true,"region":"us-central","cc":"us","latitude":41.881832,"longitude":-87.62318,"reserved":0,"last_update":"0001-01-01T00:00:00Z","name_a2s":"Uncletopia | Chicago | 6 | All Maps","protocol":17,"map":"koth_highpass","folder":"tf","game":"Team Fortress","app_id":440,"player_count":0,"max_players":24,"Bots":0,"server_type":"Dedicated","server_os":"Linux","password":true,"vac":true,"version":"7757534","steam_id":85568392924866363,"keywords":["cp","nocrits","nodmgspread","uncletopia"],"game_id":440,"stv_port":27026,"stv_name":"Uncletopia | Chicago | 6 | All Maps | STV","players":null},{"server_id":38,"name":"Uncletopia | Chicago | 7 | Stopwatch Beta","name_short":"chi-7","host":"chi-2.us.uncletopia.com","port":27035,"enabled":true,"region":"us-central","cc":"us","latitude":41.881832,"longitude":-87.62318,"reserved":0,"last_update":"0001-01-01T00:00:00Z","name_a2s":"Uncletopia | Chicago | 7 | Stopwatch Beta","protocol":17,"map":"workshop/koth_bagel_rc5.ugc2514036946","folder":"tf","game":"Team Fortress","app_id":440,"player_count":0,"max_players":24,"Bots":0,"server_type":"Dedicated","server_os":"Linux","password":true,"vac":true,"version":"7757534","steam_id":85568392924866364,"keywords":["cp","nocrits","nodmgspread","uncletopia"],"game_id":440,"stv_port":27036,"stv_name":"Uncletopia | Chicago | 7 | Stopwatch Beta | STV","players":null},{"server_id":39,"name":"Uncletopia | Chicago | 8 | Community","name_short":"chi-8","host":"chi-2.us.uncletopia.com","port":27045,"enabled":true,"region":"us-central","cc":"us","latitude":41.881832,"longitude":-87.62318,"reserved":0,"last_update":"0001-01-01T00:00:00Z","name_a2s":"Uncletopia | Chicago | 8 | Community","protocol":17,"map":"workshop/koth_product_final.ugc454272353","folder":"tf","game":"Team Fortress","app_id":440,"player_count":0,"max_players":24,"Bots":0,"server_type":"Dedicated","server_os":"Linux","password":true,"vac":true,"version":"7757534","steam_id":85568392924866365,"keywords":["cp","nocrits","nodmgspread","uncletopia"],"game_id":440,"stv_port":27046,"stv_name":"Uncletopia | Chicago | 8 | Community | STV","players":null},{"server_id":8,"name":"Uncletopia | Dallas | 1 | All Maps","name_short":"dal-1","host":"dal-1.us.uncletopia.com","port":27015,"enabled":true,"region":"us-central","cc":"us","latitude":32.779167,"longitude":-96.80889,"reserved":0,"last_update":"0001-01-01T00:00:00Z","name_a2s":"Uncletopia | Dallas | 1 | All Maps","protocol":17,"map":"pl_pier","folder":"tf","game":"Team Fortress","app_id":440,"player_count":15,"max_players":24,"Bots":0,"server_type":"Dedicated","server_os":"Linux","password":true,"vac":true,"version":"7757534","steam_id":85568392924469986,"keywords":["nocrits","nodmgspread","payload","uncletopia"],"game_id":440,"stv_port":27016,"stv_name":"Uncletopia | Dallas | 1 | All Maps | STV","players":[{"user_id":316,"name":"baxl","steam_id":76561199467885190,"connected_time":2925000000000,"state":"active","ping":115},{"user_id":292,"name":"Kirbothebrony","steam_id":76561198971911330,"connected_time":5061000000000,"state":"active","ping":68},{"user_id":359,"name":"Duo34","steam_id":76561198000464258,"connected_time":392000000000,"state":"active","ping":100},{"user_id":365,"name":"Late-Night Dog Poker","steam_id":76561198091299589,"connected_time":133000000000,"state":"active","ping":90},{"user_id":358,"name":"Caruso","steam_id":76561198053340414,"connected_time":422000000000,"state":"active","ping":61},{"user_id":355,"name":"KnightOfGames","steam_id":76561198080460659,"connected_time":523000000000,"state":"active","ping":52},{"user_id":344,"name":"BeanieBomber","steam_id":76561198128337215,"connected_time":1125000000000,"state":"active","ping":62},{"user_id":366,"name":"Vestuvian","steam_id":76561199007823355,"connected_time":125000000000,"state":"active","ping":71},{"user_id":356,"name":"MasterGeek.MX","steam_id":76561198063355220,"connected_time":512000000000,"state":"active","ping":89},{"user_id":352,"name":"Smitty Werbenjagermanjensen","steam_id":76561198065782439,"connected_time":675000000000,"state":"active","ping":94},{"user_id":326,"name":"DocDankDandy","steam_id":76561197999440195,"connected_time":2485000000000,"state":"active","ping":63},{"user_id":305,"name":"SmokeyGalaxy","steam_id":76561198118780516,"connected_time":4083000000000,"state":"active","ping":52},{"user_id":364,"name":"Bonniefan712","steam_id":76561199289809788,"connected_time":143000000000,"state":"active","ping":71},{"user_id":363,"name":"sniffy","steam_id":76561198184933255,"connected_time":194000000000,"state":"active","ping":79},{"user_id":340,"name":"egyptiangodcard","steam_id":76561198855935442,"connected_time":1596000000000,"state":"active","ping":104}]},{"server_id":108,"name":"Uncletopia | Dallas | 2 | All Maps","name_short":"dal-2","host":"dal-1.us.uncletopia.com","port":27025,"enabled":true,"region":"us-central","cc":"us","latitude":32.779167,"longitude":-96.80889,"reserved":0,"last_update":"0001-01-01T00:00:00Z","name_a2s":"Uncletopia | Dallas | 2 | All Maps","protocol":17,"map":"pl_badwater","folder":"tf","game":"Team Fortress","app_id":440,"player_count":23,"max_players":24,"Bots":0,"server_type":"Dedicated","server_os":"Linux","password":true,"vac":true,"version":"7757534","steam_id":85568392924469988,"keywords":["nocrits","nodmgspread","payload","uncletopia"],"game_id":440,"stv_port":27026,"stv_name":"Uncletopia | Dallas | 2 | All Maps | STV","players":[{"user_id":254,"name":"Soft Fuzzy Horse","steam_id":76561198005777544,"connected_time":2466000000000,"state":"active","ping":90},{"user_id":212,"name":"Jailbreaker186","steam_id":76561199079970931,"connected_time":4869000000000,"state":"active","ping":159},{"user_id":196,"name":"KaiDuck4348","steam_id":76561199060186538,"connected_time":5466000000000,"state":"active","ping":93},{"user_id":272,"name":"Blixstorm","steam_id":76561198352750870,"connected_time":1076000000000,"state":"active","ping":98},{"user_id":267,"name":"The Skinny One","steam_id":76561198031430046,"connected_time":1465000000000,"state":"active","ping":113},{"user_id":244,"name":"drdoofus123","steam_id":76561198016826181,"connected_time":2951000000000,"state":"active","ping":72},{"user_id":275,"name":"Aleuric","steam_id":76561198246248220,"connected_time":760000000000,"state":"active","ping":81},{"user_id":248,"name":"Go Away","steam_id":76561199213453506,"connected_time":2672000000000,"state":"active","ping":102},{"user_id":256,"name":"Cinnifox","steam_id":76561198068773971,"connected_time":2369000000000,"state":"active","ping":70},{"user_id":276,"name":"Ominous Whir","steam_id":76561198002851724,"connected_time":601000000000,"state":"active","ping":38},{"user_id":250,"name":"Randy \"the Man\" Johnson","steam_id":76561198039124445,"connected_time":2558000000000,"state":"active","ping":102},{"user_id":263,"name":"Charles","steam_id":76561198155322277,"connected_time":1802000000000,"state":"active","ping":90},{"user_id":251,"name":"mumbles","steam_id":76561197994528974,"connected_time":2521000000000,"state":"active","ping":134},{"user_id":273,"name":"webaline","steam_id":76561199052450127,"connected_time":1056000000000,"state":"active","ping":74},{"user_id":279,"name":"Arizona","steam_id":76561198113748347,"connected_time":354000000000,"state":"active","ping":69},{"user_id":278,"name":"Uncle","steam_id":76561197988647705,"connected_time":412000000000,"state":"active","ping":81},{"user_id":277,"name":"wahooka","steam_id":76561197981211922,"connected_time":598000000000,"state":"active","ping":87},{"user_id":274,"name":"young thug weaponry","steam_id":76561198363821364,"connected_time":1029000000000,"state":"active","ping":78},{"user_id":282,"name":"a","steam_id":76561198994761483,"connected_time":19000000000,"state":"active","ping":106},{"user_id":283,"name":"Walmart Employee","steam_id":76561198840373909,"connected_time":1000000000,"state":"spawning","ping":51},{"user_id":226,"name":"Merchant","steam_id":76561199028854247,"connected_time":4121000000000,"state":"active","ping":105},{"user_id":238,"name":"lukamine","steam_id":76561198166827208,"connected_time":3588000000000,"state":"active","ping":102},{"user_id":266,"name":"Plo","steam_id":76561198080689959,"connected_time":1605000000000,"state":"active","ping":71}]},{"server_id":5,"name":"Uncletopia | Frankfurt | 1 | All Maps","name_short":"frk-1","host":"frk-1.de.uncletopia.com","port":27015,"enabled":true,"region":"eu","cc":"de","latitude":50.110924,"longitude":8.682127,"reserved":0,"last_update":"0001-01-01T00:00:00Z","name_a2s":"Uncletopia | Frankfurt | 1 | All Maps","protocol":17,"map":"pl_thundermountain","folder":"tf","game":"Team Fortress","app_id":440,"player_count":24,"max_players":24,"Bots":0,"server_type":"Dedicated","server_os":"Linux","password":true,"vac":true,"version":"7757534","steam_id":85568392924469989,"keywords":["nocrits","nodmgspread","payload","uncletopia"],"game_id":440,"stv_port":27016,"stv_name":"Uncletopia | Frankfurt | 1 | All Maps | STV","players":[{"user_id":584,"name":"Mr_Pulse_","steam_id":76561198095001602,"connected_time":6404000000000,"state":"active","ping":95},{"user_id":635,"name":"GogsCrunchyNuts","steam_id":76561198150599213,"connected_time":1702000000000,"state":"active","ping":103},{"user_id":549,"name":"Bobo","steam_id":76561198052308399,"connected_time":10872000000000,"state":"active","ping":56},{"user_id":623,"name":"Taskyy","steam_id":76561198134901175,"connected_time":3144000000000,"state":"active","ping":80},{"user_id":613,"name":"Loretne","steam_id":76561198351178590,"connected_time":3610000000000,"state":"active","ping":67},{"user_id":637,"name":"Gravity™","steam_id":76561197992193212,"connected_time":1691000000000,"state":"active","ping":64},{"user_id":652,"name":"Burgoo_King","steam_id":76561198133572225,"connected_time":556000000000,"state":"active","ping":76},{"user_id":648,"name":"Sulatejuusto","steam_id":76561198063971856,"connected_time":1338000000000,"state":"active","ping":83},{"user_id":642,"name":"The Stupid Fucking Gamer","steam_id":76561198068213670,"connected_time":1546000000000,"state":"active","ping":44},{"user_id":655,"name":"bugpov","steam_id":76561198104896547,"connected_time":197000000000,"state":"active","ping":67},{"user_id":539,"name":"LarsInABox","steam_id":76561198028329262,"connected_time":11089000000000,"state":"active","ping":75},{"user_id":646,"name":"men snus","steam_id":76561198311864757,"connected_time":1447000000000,"state":"active","ping":71},{"user_id":599,"name":"r06u3","steam_id":76561198254099253,"connected_time":4133000000000,"state":"active","ping":166},{"user_id":627,"name":"EdSuedi","steam_id":76561199387956486,"connected_time":2814000000000,"state":"active","ping":54},{"user_id":644,"name":"Lord Commissar Drac","steam_id":76561198030371218,"connected_time":1503000000000,"state":"active","ping":70},{"user_id":653,"name":"Bilaterial Newt","steam_id":76561198074655679,"connected_time":513000000000,"state":"active","ping":78},{"user_id":647,"name":"Zax","steam_id":76561198311575521,"connected_time":1416000000000,"state":"active","ping":89},{"user_id":651,"name":"|20BB)\u003eMach","steam_id":76561198952487564,"connected_time":1165000000000,"state":"active","ping":73},{"user_id":649,"name":"blue","steam_id":76561198216200092,"connected_time":1283000000000,"state":"active","ping":62},{"user_id":634,"name":"Frazzle","steam_id":76561198262577951,"connected_time":2001000000000,"state":"active","ping":80},{"user_id":629,"name":"AsuX","steam_id":76561197990333289,"connected_time":2747000000000,"state":"active","ping":62},{"user_id":632,"name":"homeinvasion$","steam_id":76561199111905021,"connected_time":2411000000000,"state":"active","ping":114},{"user_id":650,"name":"Néodamode","steam_id":76561197968575924,"connected_time":1279000000000,"state":"active","ping":70},{"user_id":589,"name":"Kappa ඞ","steam_id":76561198000402582,"connected_time":6014000000000,"state":"active","ping":70}]},{"server_id":110,"name":"Uncletopia | Frankfurt | 2 | All Maps","name_short":"frk-2","host":"frk-1.de.uncletopia.com","port":27025,"enabled":true,"region":"eu","cc":"de","latitude":50.110924,"longitude":8.682127,"reserved":0,"last_update":"0001-01-01T00:00:00Z","name_a2s":"Uncletopia | Frankfurt | 2 | All Maps","protocol":17,"map":"pl_swiftwater_final1","folder":"tf","game":"Team Fortress","app_id":440,"player_count":24,"max_players":24,"Bots":0,"server_type":"Dedicated","server_os":"Linux","password":true,"vac":true,"version":"7757534","steam_id":85568392924469990,"keywords":["nocrits","nodmgspread","payload","uncletopia"],"game_id":440,"stv_port":27026,"stv_name":"Uncletopia | Frankfurt | 2 | All Maps | STV","players":[{"user_id":681,"name":"S0LDaTo","steam_id":76561198269413360,"connected_time":2119000000000,"state":"active","ping":68},{"user_id":650,"name":"Wöff","steam_id":76561198327760130,"connected_time":4086000000000,"state":"active","ping":71},{"user_id":685,"name":"KingVoker","steam_id":76561198039602539,"connected_time":2040000000000,"state":"active","ping":63},{"user_id":699,"name":"Mottinen","steam_id":76561198223868928,"connected_time":1640000000000,"state":"active","ping":82},{"user_id":667,"name":"KingPotatoChips","steam_id":76561198035156465,"connected_time":3017000000000,"state":"active","ping":64},{"user_id":698,"name":"Volcyy","steam_id":76561198063979124,"connected_time":1646000000000,"state":"active","ping":41},{"user_id":663,"name":"PuttePossu","steam_id":76561198350078793,"connected_time":3471000000000,"state":"active","ping":104},{"user_id":712,"name":"Clipboard","steam_id":76561198415266145,"connected_time":332000000000,"state":"active","ping":60},{"user_id":638,"name":"♡☠MORPHINE OVERDOSE☠♡","steam_id":76561198312877267,"connected_time":5295000000000,"state":"active","ping":89},{"user_id":693,"name":"DM_Tiz","steam_id":76561198061478257,"connected_time":1804000000000,"state":"active","ping":45},{"user_id":704,"name":"dYnamo","steam_id":76561198448443559,"connected_time":1471000000000,"state":"active","ping":67},{"user_id":694,"name":"cl","steam_id":76561199436640904,"connected_time":1792000000000,"state":"active","ping":62},{"user_id":700,"name":"TidB","steam_id":76561198055342304,"connected_time":1638000000000,"state":"active","ping":49},{"user_id":695,"name":"★poyo★","steam_id":76561198150078959,"connected_time":1762000000000,"state":"active","ping":63},{"user_id":599,"name":"VLADIM:IR","steam_id":76561198070275802,"connected_time":8400000000000,"state":"active","ping":70},{"user_id":705,"name":"Anri Okita's Massive Milkers","steam_id":76561199186352720,"connected_time":1445000000000,"state":"active","ping":69},{"user_id":657,"name":"Kawashim","steam_id":76561198285967281,"connected_time":3679000000000,"state":"active","ping":75},{"user_id":641,"name":"=PB=","steam_id":76561197999146612,"connected_time":5244000000000,"state":"active","ping":61},{"user_id":707,"name":"Nikola","steam_id":76561197993300020,"connected_time":1191000000000,"state":"active","ping":65},{"user_id":692,"name":"Gryoss","steam_id":76561197999837111,"connected_time":1858000000000,"state":"active","ping":103},{"user_id":709,"name":"Dragon","steam_id":76561198163255365,"connected_time":822000000000,"state":"active","ping":103},{"user_id":710,"name":"stonebum","steam_id":76561198057004606,"connected_time":818000000000,"state":"active","ping":59},{"user_id":708,"name":"Stormy 2pointO","steam_id":76561198127638432,"connected_time":1043000000000,"state":"active","ping":46},{"user_id":677,"name":"iAmBack!\u003c3","steam_id":76561198004525276,"connected_time":2350000000000,"state":"active","ping":90}]},{"server_id":308,"name":"Uncletopia | Frankfurt | 3 | All Maps","name_short":"frk-3","host":"frk-1.de.uncletopia.com","port":27035,"enabled":true,"region":"eu","cc":"de","latitude":50.110924,"longitude":8.682127,"reserved":0,"last_update":"0001-01-01T00:00:00Z","name_a2s":"Uncletopia | Frankfurt | 3 | All Maps","protocol":17,"map":"cp_sunshine","folder":"tf","game":"Team Fortress","app_id":440,"player_count":0,"max_players":24,"Bots":0,"server_type":"Dedicated","server_os":"Linux","password":true,"vac":true,"version":"7757534","steam_id":85568392924504274,"keywords":["cp","nocrits","nodmgspread","uncletopia"],"game_id":440,"stv_port":27036,"stv_name":"Uncletopia | Frankfurt | 3 | All Maps | STV","players":null},{"server_id":309,"name":"Uncletopia | Frankfurt | 4 | All Maps","name_short":"frk-4","host":"frk-1.de.uncletopia.com","port":27045,"enabled":true,"region":"eu","cc":"de","latitude":50.110924,"longitude":8.682127,"reserved":0,"last_update":"0001-01-01T00:00:00Z","name_a2s":"Uncletopia | Frankfurt | 4 | All Maps","protocol":17,"map":"cp_sunshine","folder":"tf","game":"Team Fortress","app_id":440,"player_count":22,"max_players":24,"Bots":0,"server_type":"Dedicated","server_os":"Linux","password":true,"vac":true,"version":"7757534","steam_id":85568392924504275,"keywords":["cp","nocrits","nodmgspread","uncletopia"],"game_id":440,"stv_port":27046,"stv_name":"Uncletopia | Frankfurt | 4 | All Maps | STV","players":[{"user_id":729,"name":"USBug999","steam_id":76561199174677820,"connected_time":491000000000,"state":"active","ping":134},{"user_id":715,"name":"Plop_","steam_id":76561198112567921,"connected_time":1030000000000,"state":"active","ping":46},{"user_id":704,"name":"MicardoRilos","steam_id":76561198860205441,"connected_time":1681000000000,"state":"active","ping":62},{"user_id":727,"name":"BELADIT","steam_id":76561198011911501,"connected_time":655000000000,"state":"active","ping":74},{"user_id":695,"name":"mikis","steam_id":76561198000624262,"connected_time":2375000000000,"state":"active","ping":52},{"user_id":705,"name":"That girl put a spell on me","steam_id":76561198154888327,"connected_time":1638000000000,"state":"active","ping":60},{"user_id":730,"name":"Vosteria","steam_id":76561198290253884,"connected_time":329000000000,"state":"active","ping":85},{"user_id":718,"name":"GoodGorilla","steam_id":76561198034356064,"connected_time":902000000000,"state":"active","ping":68},{"user_id":712,"name":"Monster Machine","steam_id":76561198253592133,"connected_time":1219000000000,"state":"active","ping":66},{"user_id":722,"name":"iPhone 4S","steam_id":76561198281913312,"connected_time":742000000000,"state":"active","ping":62},{"user_id":721,"name":"Jaunedice","steam_id":76561198171063246,"connected_time":783000000000,"state":"active","ping":76},{"user_id":699,"name":"Wacht","steam_id":76561199033018467,"connected_time":2105000000000,"state":"active","ping":50},{"user_id":732,"name":"Winter","steam_id":76561198311381234,"connected_time":293000000000,"state":"active","ping":58},{"user_id":711,"name":"Koli","steam_id":76561197992428783,"connected_time":1320000000000,"state":"active","ping":45},{"user_id":738,"name":"darkwater","steam_id":76561197986978738,"connected_time":47000000000,"state":"active","ping":61},{"user_id":659,"name":"RoXeUr-KaMiKaZe","steam_id":76561197998204782,"connected_time":4660000000000,"state":"active","ping":61},{"user_id":735,"name":"triangle","steam_id":76561198046838168,"connected_time":222000000000,"state":"active","ping":47},{"user_id":707,"name":"timothytrombone456","steam_id":76561197995676953,"connected_time":1488000000000,"state":"active","ping":46},{"user_id":709,"name":"onku","steam_id":76561199230709660,"connected_time":1379000000000,"state":"active","ping":45},{"user_id":736,"name":"TNE","steam_id":76561198996635737,"connected_time":218000000000,"state":"active","ping":60},{"user_id":737,"name":"✧ Luigi Time ✧","steam_id":76561198026903673,"connected_time":216000000000,"state":"active","ping":60},{"user_id":653,"name":"waluigi","steam_id":76561198215809251,"connected_time":4998000000000,"state":"active","ping":51}]},{"server_id":310,"name":"Uncletopia | Frankfurt | 5 | All Maps","name_short":"frk-5","host":"frk-1.de.uncletopia.com","port":27055,"enabled":true,"region":"eu","cc":"de","latitude":50.110924,"longitude":8.682127,"reserved":0,"last_update":"0001-01-01T00:00:00Z","name_a2s":"Uncletopia | Frankfurt | 5 | All Maps","protocol":17,"map":"cp_sunshine","folder":"tf","game":"Team Fortress","app_id":440,"player_count":0,"max_players":24,"Bots":0,"server_type":"Dedicated","server_os":"Linux","password":true,"vac":true,"version":"7757534","steam_id":85568392924504277,"keywords":["cp","nocrits","nodmgspread","uncletopia"],"game_id":440,"stv_port":27056,"stv_name":"Uncletopia | Frankfurt | 5 | All Maps | STV","players":null},{"server_id":311,"name":"Uncletopia | Frankfurt | 6 | All Maps","name_short":"frk-6","host":"frk-1.de.uncletopia.com","port":27065,"enabled":true,"region":"eu","cc":"de","latitude":50.110924,"longitude":8.682127,"reserved":0,"last_update":"0001-01-01T00:00:00Z","name_a2s":"Uncletopia | Frankfurt | 6 | All Maps","protocol":17,"map":"koth_lakeside_final","folder":"tf","game":"Team Fortress","app_id":440,"player_count":24,"max_players":24,"Bots":0,"server_type":"Dedicated","server_os":"Linux","password":true,"vac":true,"version":"7757534","steam_id":85568392924504278,"keywords":["cp","nocrits","nodmgspread","uncletopia"],"game_id":440,"stv_port":27066,"stv_name":"Uncletopia | Frankfurt | 6 | All Maps | STV","players":[{"user_id":275,"name":"Mario3ghj","steam_id":76561198069804561,"connected_time":279000000000,"state":"active","ping":88},{"user_id":276,"name":"Baggio","steam_id":76561198841633173,"connected_time":246000000000,"state":"active","ping":93},{"user_id":277,"name":"mohemmedmokhter2005","steam_id":76561199197650506,"connected_time":208000000000,"state":"active","ping":105},{"user_id":285,"name":"peni$","steam_id":76561197993672814,"connected_time":79000000000,"state":"active","ping":89},{"user_id":278,"name":"lai","steam_id":76561199082309685,"connected_time":197000000000,"state":"active","ping":80},{"user_id":279,"name":"Miles","steam_id":76561198084891833,"connected_time":197000000000,"state":"active","ping":59},{"user_id":262,"name":"G(RIZZ)LY","steam_id":76561197973234203,"connected_time":907000000000,"state":"active","ping":63},{"user_id":253,"name":"Onyx Odin - Alcoholic Alchemist","steam_id":76561198044560148,"connected_time":1226000000000,"state":"active","ping":68},{"user_id":280,"name":"Limewere","steam_id":76561198101751967,"connected_time":176000000000,"state":"active","ping":61},{"user_id":251,"name":"historicalpoultry","steam_id":76561198148422688,"connected_time":1315000000000,"state":"active","ping":41},{"user_id":252,"name":"Eskimo","steam_id":76561198154147392,"connected_time":1285000000000,"state":"active","ping":42},{"user_id":270,"name":"Benn0","steam_id":76561198301763622,"connected_time":762000000000,"state":"active","ping":65},{"user_id":281,"name":"Shynii","steam_id":76561198194682105,"connected_time":138000000000,"state":"active","ping":66},{"user_id":255,"name":"Arturias","steam_id":76561198188720263,"connected_time":1125000000000,"state":"active","ping":45},{"user_id":282,"name":"vuggie","steam_id":76561198042227249,"connected_time":130000000000,"state":"active","ping":58},{"user_id":257,"name":"matter","steam_id":76561199394052715,"connected_time":1080000000000,"state":"active","ping":70},{"user_id":258,"name":"CEO of Pen Island","steam_id":76561198037212191,"connected_time":1037000000000,"state":"active","ping":83},{"user_id":259,"name":"Warrez the Emu","steam_id":76561198080840887,"connected_time":1022000000000,"state":"active","ping":79},{"user_id":283,"name":"Industrial Revolution","steam_id":76561198230811124,"connected_time":108000000000,"state":"active","ping":60},{"user_id":261,"name":"bomboclaat","steam_id":76561198057415292,"connected_time":956000000000,"state":"active","ping":80},{"user_id":264,"name":"Volcan7","steam_id":76561198073696038,"connected_time":900000000000,"state":"active","ping":67},{"user_id":284,"name":"maykoosh","steam_id":76561198168376637,"connected_time":88000000000,"state":"active","ping":60},{"user_id":266,"name":"Tarixxiv","steam_id":76561198084365415,"connected_time":873000000000,"state":"active","ping":88},{"user_id":286,"name":"makin' piss","steam_id":76561198052136478,"connected_time":79000000000,"state":"active","ping":63}]},{"server_id":23,"name":"Uncletopia | Frankfurt | 7 | Stopwatch Beta","name_short":"frk-7","host":"frk-1.de.uncletopia.com","port":27075,"enabled":true,"region":"eu","cc":"de","latitude":50.110924,"longitude":8.682127,"reserved":0,"last_update":"0001-01-01T00:00:00Z","name_a2s":"Uncletopia | Frankfurt | 7 | Stopwatch Beta","protocol":17,"map":"workshop/koth_ashville_final.ugc2130459942","folder":"tf","game":"Team Fortress","app_id":440,"player_count":0,"max_players":24,"Bots":0,"server_type":"Dedicated","server_os":"Linux","password":true,"vac":true,"version":"7757534","steam_id":85568392924742827,"keywords":["cp","nocrits","nodmgspread","uncletopia"],"game_id":440,"stv_port":27076,"stv_name":"Uncletopia | Frankfurt | 7 | Stopwatch Beta | STV","players":null},{"server_id":24,"name":"Uncletopia | Frankfurt | 8 | Community","name_short":"frk-8","host":"frk-1.de.uncletopia.com","port":27085,"enabled":true,"region":"eu","cc":"de","latitude":50.110924,"longitude":8.682127,"reserved":0,"last_update":"0001-01-01T00:00:00Z","name_a2s":"Uncletopia | Frankfurt | 8 | Community","protocol":17,"map":"workshop/koth_ashville_final.ugc2130459942","folder":"tf","game":"Team Fortress","app_id":440,"player_count":1,"max_players":24,"Bots":0,"server_type":"Dedicated","server_os":"Linux","password":true,"vac":true,"version":"7757534","steam_id":85568392924742828,"keywords":["cp","nocrits","nodmgspread","uncletopia"],"game_id":440,"stv_port":27086,"stv_name":"Uncletopia | Frankfurt | 8 | Community | STV","players":[{"user_id":117,"name":"Florian_Albers","steam_id":76561198323441117,"connected_time":1774000000000,"state":"spawning","ping":141}]},{"server_id":202,"name":"Uncletopia | Hong Kong | 1 | All Maps","name_short":"hgk-1","host":"hgk-1.hk.uncletopia.com","port":27015,"enabled":true,"region":"asia","cc":"hk","latitude":22.302711,"longitude":114.177216,"reserved":0,"last_update":"0001-01-01T00:00:00Z","name_a2s":"Uncletopia | Hong Kong | 1 | All Maps","protocol":17,"map":"pl_frontier_final","folder":"tf","game":"Team Fortress","app_id":440,"player_count":0,"max_players":24,"Bots":0,"server_type":"Dedicated","server_os":"Linux","password":true,"vac":true,"version":"7757534","steam_id":85568392924494504,"keywords":["nocrits","nodmgspread","payload","uncletopia"],"game_id":440,"stv_port":27016,"stv_name":"Uncletopia | Hong Kong | 1 | All Maps | STV","players":null},{"server_id":1,"name":"Uncletopia | Los Angeles | 1 | All Maps","name_short":"lax-1","host":"lax-1.us.uncletopia.com","port":27015,"enabled":true,"region":"us-west","cc":"us","latitude":33.94279,"longitude":-118.41004,"reserved":0,"last_update":"0001-01-01T00:00:00Z","name_a2s":"Uncletopia | Los Angeles | 1 | All Maps","protocol":17,"map":"koth_viaduct","folder":"tf","game":"Team Fortress","app_id":440,"player_count":0,"max_players":24,"Bots":0,"server_type":"Dedicated","server_os":"Linux","password":true,"vac":true,"version":"7757534","steam_id":85568392924469991,"keywords":["cp","nocrits","nodmgspread","uncletopia"],"game_id":440,"stv_port":27016,"stv_name":"Uncletopia | Los Angeles | 1 | All Maps | STV","players":null},{"server_id":112,"name":"Uncletopia | Los Angeles | 2 | All Maps","name_short":"lax-2","host":"lax-1.us.uncletopia.com","port":27025,"enabled":true,"region":"us-west","cc":"us","latitude":33.94279,"longitude":-118.41004,"reserved":0,"last_update":"0001-01-01T00:00:00Z","name_a2s":"Uncletopia | Los Angeles | 2 | All Maps","protocol":17,"map":"pl_upward","folder":"tf","game":"Team Fortress","app_id":440,"player_count":23,"max_players":24,"Bots":0,"server_type":"Dedicated","server_os":"Linux","password":true,"vac":true,"version":"7757534","steam_id":85568392924469992,"keywords":["nocrits","nodmgspread","payload","uncletopia"],"game_id":440,"stv_port":27026,"stv_name":"Uncletopia | Los Angeles | 2 | All Maps | STV","players":[{"user_id":449,"name":"fuzzorino","steam_id":76561198093146293,"connected_time":614000000000,"state":"active","ping":57},{"user_id":451,"name":"Humus","steam_id":76561198175286355,"connected_time":582000000000,"state":"active","ping":45},{"user_id":411,"name":"rickey rat","steam_id":76561198173107162,"connected_time":3109000000000,"state":"active","ping":75},{"user_id":442,"name":"Merach","steam_id":76561197994544587,"connected_time":1284000000000,"state":"active","ping":46},{"user_id":395,"name":"GardenOfStone","steam_id":76561199069870534,"connected_time":4461000000000,"state":"active","ping":60},{"user_id":365,"name":"nappyzappy","steam_id":76561198095118953,"connected_time":6906000000000,"state":"active","ping":95},{"user_id":434,"name":"UneditedAndy","steam_id":76561198982544947,"connected_time":1595000000000,"state":"active","ping":55},{"user_id":435,"name":"Tanner The Fish Man","steam_id":76561198372696640,"connected_time":1591000000000,"state":"active","ping":57},{"user_id":427,"name":"LJ","steam_id":76561199229551104,"connected_time":2140000000000,"state":"active","ping":100},{"user_id":455,"name":"Grim","steam_id":76561198016978310,"connected_time":274000000000,"state":"active","ping":72},{"user_id":450,"name":"bronk","steam_id":76561198181109553,"connected_time":612000000000,"state":"active","ping":60},{"user_id":416,"name":"aon135","steam_id":76561197966931637,"connected_time":2774000000000,"state":"active","ping":85},{"user_id":439,"name":"Mr. Call You Back","steam_id":76561198025172811,"connected_time":1433000000000,"state":"active","ping":59},{"user_id":396,"name":"Seo Demen","steam_id":76561198004096792,"connected_time":4459000000000,"state":"active","ping":63},{"user_id":440,"name":"some nerd","steam_id":76561198297272878,"connected_time":1391000000000,"state":"active","ping":34},{"user_id":417,"name":"The Squid Gamer™","steam_id":76561198340621517,"connected_time":2716000000000,"state":"active","ping":83},{"user_id":452,"name":"Rich Money McNickelson","steam_id":76561198352427247,"connected_time":520000000000,"state":"active","ping":64},{"user_id":453,"name":"wolfelliza","steam_id":76561199285091999,"connected_time":437000000000,"state":"active","ping":107},{"user_id":444,"name":"Joe Burrow Appreciator","steam_id":76561198142420107,"connected_time":1234000000000,"state":"active","ping":43},{"user_id":428,"name":"fishe enjoyer","steam_id":76561199045901994,"connected_time":2127000000000,"state":"active","ping":62},{"user_id":445,"name":"mango cafe","steam_id":76561198142328193,"connected_time":1222000000000,"state":"active","ping":74},{"user_id":456,"name":"CaptainGold1","steam_id":76561198104967772,"connected_time":101000000000,"state":"active","ping":80},{"user_id":457,"name":"Batso","steam_id":76561198106589452,"connected_time":98000000000,"state":"active","ping":70}]},{"server_id":324,"name":"Uncletopia | Los Angeles | 3 | All Maps","name_short":"lax-3","host":"lax-1.us.uncletopia.com","port":27035,"enabled":true,"region":"us-west","cc":"us","latitude":33.94279,"longitude":-118.41004,"reserved":0,"last_update":"0001-01-01T00:00:00Z","name_a2s":"Uncletopia | Los Angeles | 3 | All Maps","protocol":17,"map":"pl_barnblitz","folder":"tf","game":"Team Fortress","app_id":440,"player_count":0,"max_players":24,"Bots":0,"server_type":"Dedicated","server_os":"Linux","password":true,"vac":true,"version":"7757534","steam_id":85568392924510198,"keywords":["nocrits","nodmgspread","payload","uncletopia"],"game_id":440,"stv_port":27036,"stv_name":"Uncletopia | Los Angeles | 3 | All Maps | STV","players":null},{"server_id":25,"name":"Uncletopia | Los Angeles | 4 | Stopwatch Beta","name_short":"lax-4","host":"lax-1.us.uncletopia.com","port":27045,"enabled":true,"region":"us-west","cc":"us","latitude":33.94279,"longitude":-118.41004,"reserved":0,"last_update":"0001-01-01T00:00:00Z","name_a2s":"Uncletopia | Los Angeles | 4 | Stopwatch Beta","protocol":17,"map":"koth_viaduct","folder":"tf","game":"Team Fortress","app_id":440,"player_count":0,"max_players":24,"Bots":0,"server_type":"Dedicated","server_os":"Linux","password":true,"vac":true,"version":"7757534","steam_id":85568392924510199,"keywords":["cp","nocrits","nodmgspread","uncletopia"],"game_id":440,"stv_port":27046,"stv_name":"Uncletopia | Los Angeles | 4 | Stopwatch Beta | STV","players":null},{"server_id":11,"name":"Uncletopia | London | 1 | All Maps","name_short":"lon-1","host":"lon-1.uk.uncletopia.com","port":27015,"enabled":true,"region":"eu","cc":"gb","latitude":51.509865,"longitude":-0.118092,"reserved":0,"last_update":"0001-01-01T00:00:00Z","name_a2s":"Uncletopia | London | 1 | All Maps","protocol":17,"map":"koth_harvest_final","folder":"tf","game":"Team Fortress","app_id":440,"player_count":24,"max_players":24,"Bots":0,"server_type":"Dedicated","server_os":"Linux","password":true,"vac":true,"version":"7757534","steam_id":85568392924367362,"keywords":["cp","nocrits","nodmgspread","uncletopia"],"game_id":440,"stv_port":27016,"stv_name":"Uncletopia | London | 1 | All Maps | STV","players":[{"user_id":794,"name":"dec","steam_id":76561198009660168,"connected_time":9697000000000,"state":"active","ping":54},{"user_id":874,"name":"latch","steam_id":76561198064878900,"connected_time":437000000000,"state":"active","ping":68},{"user_id":858,"name":"alf","steam_id":76561198060249715,"connected_time":2898000000000,"state":"active","ping":46},{"user_id":784,"name":"LemonIsYellow","steam_id":76561198380771739,"connected_time":10825000000000,"state":"active","ping":86},{"user_id":859,"name":"Hazza","steam_id":76561198220057697,"connected_time":2696000000000,"state":"active","ping":68},{"user_id":848,"name":"donal rump","steam_id":76561198136239861,"connected_time":4346000000000,"state":"active","ping":41},{"user_id":876,"name":"Zombiemops","steam_id":76561198089881293,"connected_time":106000000000,"state":"active","ping":75},{"user_id":811,"name":"Silent Person","steam_id":76561198107763537,"connected_time":7767000000000,"state":"active","ping":72},{"user_id":864,"name":"Lime","steam_id":76561198107113928,"connected_time":1506000000000,"state":"active","ping":67},{"user_id":852,"name":"Aaron","steam_id":76561197990046953,"connected_time":3499000000000,"state":"active","ping":72},{"user_id":863,"name":"RubberNips","steam_id":76561198133538209,"connected_time":1608000000000,"state":"active","ping":44},{"user_id":869,"name":"maS","steam_id":76561198033846407,"connected_time":1091000000000,"state":"active","ping":121},{"user_id":825,"name":"Mr Prince","steam_id":76561199006591691,"connected_time":7257000000000,"state":"active","ping":55},{"user_id":813,"name":"SOPHIIEE","steam_id":76561198443798981,"connected_time":7764000000000,"state":"active","ping":57},{"user_id":872,"name":"Asfreild","steam_id":76561198055901120,"connected_time":781000000000,"state":"active","ping":75},{"user_id":836,"name":"Scutchy","steam_id":76561198104431220,"connected_time":5999000000000,"state":"active","ping":53},{"user_id":862,"name":"Dirty Joe","steam_id":76561198142418870,"connected_time":2210000000000,"state":"active","ping":45},{"user_id":875,"name":"Dr. Le Quack","steam_id":76561197995711176,"connected_time":337000000000,"state":"active","ping":98},{"user_id":834,"name":"Kai","steam_id":76561198800004578,"connected_time":6085000000000,"state":"active","ping":51},{"user_id":865,"name":"The cost of living in the UK","steam_id":76561199000520747,"connected_time":1170000000000,"state":"active","ping":46},{"user_id":842,"name":"Dominus.","steam_id":76561199065917088,"connected_time":5438000000000,"state":"active","ping":68},{"user_id":856,"name":"vosikos","steam_id":76561198298576765,"connected_time":3070000000000,"state":"active","ping":73},{"user_id":870,"name":"Zola","steam_id":76561198103606132,"connected_time":940000000000,"state":"active","ping":61},{"user_id":867,"name":"Scrap","steam_id":76561199159785850,"connected_time":1152000000000,"state":"active","ping":44}]},{"server_id":114,"name":"Uncletopia | London | 2 | All Maps","name_short":"lon-2","host":"lon-1.uk.uncletopia.com","port":27025,"enabled":true,"region":"eu","cc":"gb","latitude":51.509865,"longitude":-0.118092,"reserved":0,"last_update":"0001-01-01T00:00:00Z","name_a2s":"Uncletopia | London | 2 | All Maps","protocol":17,"map":"pl_badwater","folder":"tf","game":"Team Fortress","app_id":440,"player_count":24,"max_players":24,"Bots":0,"server_type":"Dedicated","server_os":"Linux","password":true,"vac":true,"version":"7757534","steam_id":85568392924470941,"keywords":["nocrits","nodmgspread","payload","uncletopia"],"game_id":440,"stv_port":27026,"stv_name":"Uncletopia | London | 2 | All Maps | STV","players":[{"user_id":675,"name":"Bob","steam_id":76561198218200489,"connected_time":1777000000000,"state":"active","ping":50},{"user_id":665,"name":"BrainLacking","steam_id":76561198965574196,"connected_time":2612000000000,"state":"active","ping":55},{"user_id":642,"name":"Yangus","steam_id":76561198147796010,"connected_time":4890000000000,"state":"active","ping":60},{"user_id":682,"name":"punchmypotatoes","steam_id":76561198091255731,"connected_time":847000000000,"state":"active","ping":54},{"user_id":684,"name":"Zdl","steam_id":76561198066015557,"connected_time":721000000000,"state":"active","ping":45},{"user_id":683,"name":"Shlongulator","steam_id":76561198149779201,"connected_time":810000000000,"state":"active","ping":55},{"user_id":680,"name":"sassy the sasquatch","steam_id":76561198844060342,"connected_time":1050000000000,"state":"active","ping":46},{"user_id":668,"name":"engie?","steam_id":76561198331852832,"connected_time":2589000000000,"state":"active","ping":74},{"user_id":685,"name":"Red.","steam_id":76561197960319246,"connected_time":594000000000,"state":"active","ping":40},{"user_id":688,"name":"Lewee","steam_id":76561198058828018,"connected_time":499000000000,"state":"active","ping":52},{"user_id":620,"name":"pepper","steam_id":76561198059782462,"connected_time":6928000000000,"state":"active","ping":61},{"user_id":659,"name":"Darkmaen","steam_id":76561198060543390,"connected_time":3465000000000,"state":"active","ping":56},{"user_id":693,"name":"Whizzo the Clown","steam_id":76561197995910627,"connected_time":122000000000,"state":"active","ping":140},{"user_id":687,"name":"Dragejan","steam_id":76561198010216332,"connected_time":532000000000,"state":"active","ping":80},{"user_id":656,"name":"term.niko","steam_id":76561198111941470,"connected_time":4064000000000,"state":"active","ping":61},{"user_id":669,"name":"FLOU","steam_id":76561198056171993,"connected_time":2584000000000,"state":"active","ping":152},{"user_id":679,"name":"Cabbch","steam_id":76561198045955679,"connected_time":1373000000000,"state":"active","ping":45},{"user_id":692,"name":"Linked","steam_id":76561198069070486,"connected_time":401000000000,"state":"active","ping":85},{"user_id":690,"name":"Germanium_Ge","steam_id":76561198130561775,"connected_time":453000000000,"state":"active","ping":60},{"user_id":671,"name":"XavierSweet","steam_id":76561198091781913,"connected_time":2439000000000,"state":"active","ping":56},{"user_id":674,"name":"wouris","steam_id":76561198876188003,"connected_time":1857000000000,"state":"active","ping":70},{"user_id":585,"name":"Vershal Smershal","steam_id":76561198116223995,"connected_time":10647000000000,"state":"active","ping":59},{"user_id":691,"name":"Ross","steam_id":76561198965967986,"connected_time":435000000000,"state":"active","ping":72}]},{"server_id":320,"name":"Uncletopia | London | 3 | All Maps","name_short":"lon-3","host":"lon-1.uk.uncletopia.com","port":27035,"enabled":true,"region":"eu","cc":"gb","latitude":51.509865,"longitude":-0.118092,"reserved":0,"last_update":"0001-01-01T00:00:00Z","name_a2s":"Uncletopia | London | 3 | All Maps","protocol":17,"map":"cp_badlands","folder":"tf","game":"Team Fortress","app_id":440,"player_count":24,"max_players":24,"Bots":0,"server_type":"Dedicated","server_os":"Linux","password":true,"vac":true,"version":"7757534","steam_id":85568392924510192,"keywords":["cp","nocrits","nodmgspread","uncletopia"],"game_id":440,"stv_port":27036,"stv_name":"Uncletopia | London | 3 | All Maps | STV","players":[{"user_id":664,"name":"opaacic","steam_id":76561199158514501,"connected_time":2122000000000,"state":"active","ping":71},{"user_id":681,"name":"im red","steam_id":76561199087284519,"connected_time":622000000000,"state":"active","ping":79},{"user_id":687,"name":"this cat is cool as fuck","steam_id":76561198333873657,"connected_time":134000000000,"state":"active","ping":73},{"user_id":547,"name":"Goat Enjoyer","steam_id":76561198000054669,"connected_time":12381000000000,"state":"active","ping":63},{"user_id":670,"name":"G.L.O.R.I.","steam_id":76561198134414380,"connected_time":1731000000000,"state":"active","ping":53},{"user_id":621,"name":"Milosz52","steam_id":76561199060940204,"connected_time":5918000000000,"state":"active","ping":84},{"user_id":549,"name":"Wire  Bash","steam_id":76561198033268371,"connected_time":12370000000000,"state":"active","ping":58},{"user_id":649,"name":"Kenny","steam_id":76561198107911141,"connected_time":3754000000000,"state":"active","ping":61},{"user_id":662,"name":"ShoobyDooby","steam_id":76561198118473910,"connected_time":2241000000000,"state":"active","ping":61},{"user_id":641,"name":"Snowmotion","steam_id":76561198075022454,"connected_time":4454000000000,"state":"active","ping":63},{"user_id":682,"name":"Segra blw.tf","steam_id":76561198441974031,"connected_time":578000000000,"state":"active","ping":86},{"user_id":685,"name":"d4yst","steam_id":76561198801165844,"connected_time":375000000000,"state":"active","ping":71},{"user_id":674,"name":"Immovable Gonzalez","steam_id":76561198072233046,"connected_time":1474000000000,"state":"active","ping":76},{"user_id":683,"name":"nedilya","steam_id":76561198039692077,"connected_time":483000000000,"state":"active","ping":60},{"user_id":650,"name":"Up High! Down Low!","steam_id":76561198819871606,"connected_time":3711000000000,"state":"active","ping":93},{"user_id":556,"name":"Boz","steam_id":76561198020297825,"connected_time":12321000000000,"state":"active","ping":119},{"user_id":680,"name":"zak","steam_id":76561197998895428,"connected_time":683000000000,"state":"active","ping":60},{"user_id":676,"name":"🤔","steam_id":76561197990579131,"connected_time":1455000000000,"state":"active","ping":79},{"user_id":552,"name":"rat exterminator","steam_id":76561198101537890,"connected_time":12360000000000,"state":"active","ping":60},{"user_id":661,"name":"8114","steam_id":76561198069214797,"connected_time":2749000000000,"state":"active","ping":70},{"user_id":652,"name":"*","steam_id":76561198095572159,"connected_time":3684000000000,"state":"active","ping":40},{"user_id":686,"name":"LELŐNI MINDENKIT A WESTENDBEN","steam_id":76561198315642032,"connected_time":372000000000,"state":"active","ping":72},{"user_id":668,"name":"fallingpencil","steam_id":76561199230233148,"connected_time":1992000000000,"state":"active","ping":65},{"user_id":654,"name":"Dr. Funkenstein","steam_id":76561197977816210,"connected_time":3629000000000,"state":"active","ping":47}]},{"server_id":321,"name":"Uncletopia | London | 4 | All Maps","name_short":"lon-4","host":"lon-1.uk.uncletopia.com","port":27045,"enabled":true,"region":"eu","cc":"gb","latitude":51.509865,"longitude":-0.118092,"reserved":0,"last_update":"0001-01-01T00:00:00Z","name_a2s":"Uncletopia | London | 4 | All Maps","protocol":17,"map":"pl_frontier_final","folder":"tf","game":"Team Fortress","app_id":440,"player_count":23,"max_players":24,"Bots":0,"server_type":"Dedicated","server_os":"Linux","password":true,"vac":true,"version":"7757534","steam_id":85568392924510193,"keywords":["nocrits","nodmgspread","payload","uncletopia"],"game_id":440,"stv_port":27046,"stv_name":"Uncletopia | London | 4 | All Maps | STV","players":[{"user_id":542,"name":"And Hit It!","steam_id":76561198030956814,"connected_time":767000000000,"state":"active","ping":88},{"user_id":475,"name":"Old Man Winter","steam_id":76561198007653168,"connected_time":5685000000000,"state":"active","ping":59},{"user_id":520,"name":"Dr-je-kill","steam_id":76561198890817226,"connected_time":2741000000000,"state":"active","ping":71},{"user_id":541,"name":"ThatGuyHarvey","steam_id":76561198113776826,"connected_time":786000000000,"state":"active","ping":47},{"user_id":503,"name":"Lethal","steam_id":76561198452042648,"connected_time":3786000000000,"state":"active","ping":64},{"user_id":504,"name":"CalThePal","steam_id":76561198084842126,"connected_time":3751000000000,"state":"active","ping":44},{"user_id":543,"name":"[P-roc] Cmm Bert","steam_id":76561198016658674,"connected_time":744000000000,"state":"active","ping":67},{"user_id":550,"name":"grzybiarz2022","steam_id":76561199409218561,"connected_time":365000000000,"state":"active","ping":103},{"user_id":505,"name":"holykyckling","steam_id":76561198040661615,"connected_time":3734000000000,"state":"active","ping":75},{"user_id":549,"name":"Maikelo","steam_id":76561198065268893,"connected_time":409000000000,"state":"active","ping":107},{"user_id":545,"name":"Cliff Barnes","steam_id":76561198032213783,"connected_time":727000000000,"state":"active","ping":68},{"user_id":546,"name":"D_Ink","steam_id":76561198267716662,"connected_time":698000000000,"state":"active","ping":32},{"user_id":547,"name":"mordecai.nmc","steam_id":76561197997223851,"connected_time":648000000000,"state":"active","ping":45},{"user_id":561,"name":"Breadcrab","steam_id":76561198015924039,"connected_time":53000000000,"state":"active","ping":68},{"user_id":525,"name":"TheKindleTheory","steam_id":76561198010230101,"connected_time":2668000000000,"state":"active","ping":54},{"user_id":551,"name":"Ged","steam_id":76561198079288943,"connected_time":360000000000,"state":"active","ping":140},{"user_id":535,"name":"hupa","steam_id":76561198241901284,"connected_time":1665000000000,"state":"active","ping":60},{"user_id":507,"name":"Thumnder","steam_id":76561198271944544,"connected_time":3710000000000,"state":"active","ping":152},{"user_id":559,"name":"TaiDni","steam_id":76561198087750392,"connected_time":156000000000,"state":"active","ping":57},{"user_id":560,"name":"GodCallsMeDivine","steam_id":76561198326182067,"connected_time":125000000000,"state":"active","ping":54},{"user_id":557,"name":"Milk","steam_id":76561198125876588,"connected_time":200000000000,"state":"active","ping":41},{"user_id":554,"name":"panakid","steam_id":76561198364121077,"connected_time":264000000000,"state":"active","ping":99},{"user_id":555,"name":"HF3643","steam_id":76561198087005652,"connected_time":260000000000,"state":"active","ping":54}]},{"server_id":21,"name":"Uncletopia | London | 5 | All Maps","name_short":"lon-5","host":"lon-1.uk.uncletopia.com","port":27055,"enabled":true,"region":"eu","cc":"gb","latitude":51.509865,"longitude":-0.118092,"reserved":0,"last_update":"0001-01-01T00:00:00Z","name_a2s":"Uncletopia | London | 5 | All Maps","protocol":17,"map":"pl_swiftwater_final1","folder":"tf","game":"Team Fortress","app_id":440,"player_count":24,"max_players":24,"Bots":0,"server_type":"Dedicated","server_os":"Linux","password":true,"vac":true,"version":"7757534","steam_id":85568392924742829,"keywords":["nocrits","nodmgspread","payload","uncletopia"],"game_id":440,"stv_port":27056,"stv_name":"Uncletopia | London | 5 | All Maps | STV","players":[{"user_id":365,"name":"sun","steam_id":76561198190185971,"connected_time":1015000000000,"state":"active","ping":63},{"user_id":293,"name":"Mr.Cupcake","steam_id":76561198152711174,"connected_time":4943000000000,"state":"active","ping":84},{"user_id":308,"name":"america","steam_id":76561199212197300,"connected_time":4436000000000,"state":"active","ping":57},{"user_id":354,"name":"Xoriss","steam_id":76561198045892147,"connected_time":1389000000000,"state":"active","ping":71},{"user_id":350,"name":"Stümpy","steam_id":76561198255904077,"connected_time":2112000000000,"state":"active","ping":77},{"user_id":317,"name":"Swayer","steam_id":76561198056192460,"connected_time":3942000000000,"state":"active","ping":61},{"user_id":376,"name":"erenmkd","steam_id":76561198209068369,"connected_time":207000000000,"state":"active","ping":78},{"user_id":332,"name":"Laurie","steam_id":76561198082951750,"connected_time":3254000000000,"state":"active","ping":43},{"user_id":287,"name":"AWP Bodyshot :) ❤","steam_id":76561198029928533,"connected_time":5573000000000,"state":"active","ping":54},{"user_id":377,"name":"goexo","steam_id":76561198112421389,"connected_time":14000000000,"state":"spawning","ping":56},{"user_id":363,"name":"Troll","steam_id":76561199466152892,"connected_time":1059000000000,"state":"active","ping":72},{"user_id":208,"name":"Annie the ekitten medic :3","steam_id":76561198241529554,"connected_time":9701000000000,"state":"active","ping":83},{"user_id":324,"name":"snowii","steam_id":76561198836246326,"connected_time":3676000000000,"state":"active","ping":47},{"user_id":352,"name":"Steen","steam_id":76561198122992510,"connected_time":1862000000000,"state":"active","ping":51},{"user_id":362,"name":"Mega Man Legends 3","steam_id":76561198014110199,"connected_time":1129000000000,"state":"active","ping":43},{"user_id":347,"name":"JumJim","steam_id":76561198038099760,"connected_time":2183000000000,"state":"active","ping":85},{"user_id":285,"name":"Tsar Bombastic","steam_id":76561198185444307,"connected_time":5784000000000,"state":"active","ping":54},{"user_id":315,"name":"roggzerz","steam_id":76561198056170459,"connected_time":4072000000000,"state":"active","ping":66},{"user_id":329,"name":"intrusive thoughts","steam_id":76561198411107729,"connected_time":3489000000000,"state":"active","ping":88},{"user_id":244,"name":"Onim","steam_id":76561198008057987,"connected_time":7021000000000,"state":"active","ping":61},{"user_id":176,"name":"Loop_Cat","steam_id":76561199045902145,"connected_time":12222000000000,"state":"active","ping":128},{"user_id":355,"name":"Bear","steam_id":76561198259885007,"connected_time":1378000000000,"state":"active","ping":54},{"user_id":375,"name":"Cosmic Gamer","steam_id":76561198027357981,"connected_time":220000000000,"state":"active","ping":98},{"user_id":366,"name":"Prox","steam_id":76561198351490981,"connected_time":996000000000,"state":"active","ping":39}]},{"server_id":22,"name":"Uncletopia | London | 6 | All Maps","name_short":"lon-6","host":"lon-1.uk.uncletopia.com","port":27065,"enabled":true,"region":"eu","cc":"gb","latitude":51.509865,"longitude":-0.118092,"reserved":0,"last_update":"0001-01-01T00:00:00Z","name_a2s":"Uncletopia | London | 6 | All Maps","protocol":17,"map":"pl_swiftwater_final1","folder":"tf","game":"Team Fortress","app_id":440,"player_count":24,"max_players":24,"Bots":0,"server_type":"Dedicated","server_os":"Linux","password":true,"vac":true,"version":"7757534","steam_id":85568392924742830,"keywords":["nocrits","nodmgspread","payload","uncletopia"],"game_id":440,"stv_port":27066,"stv_name":"Uncletopia | London | 6 | All Maps | STV","players":[{"user_id":237,"name":"VoxelTwyst","steam_id":76561198179388166,"connected_time":4062000000000,"state":"active","ping":54},{"user_id":236,"name":"■Sir SC■","steam_id":76561198114638963,"connected_time":4090000000000,"state":"active","ping":52},{"user_id":238,"name":"muttonmaster","steam_id":76561198309257989,"connected_time":3714000000000,"state":"active","ping":55},{"user_id":283,"name":"mespe","steam_id":76561198121530649,"connected_time":660000000000,"state":"active","ping":72},{"user_id":240,"name":"A_Spoopy_Keenkeep1","steam_id":76561198128992159,"connected_time":3214000000000,"state":"active","ping":40},{"user_id":260,"name":"The Phantom of the Opera","steam_id":76561199403298146,"connected_time":2502000000000,"state":"active","ping":48},{"user_id":272,"name":"Raider","steam_id":76561198065444938,"connected_time":1710000000000,"state":"active","ping":67},{"user_id":280,"name":"Adam Sandler","steam_id":76561198310408309,"connected_time":870000000000,"state":"active","ping":59},{"user_id":245,"name":"BeefHammer","steam_id":76561198078426223,"connected_time":3090000000000,"state":"active","ping":91},{"user_id":246,"name":"Ready Rice™","steam_id":76561198091969871,"connected_time":3086000000000,"state":"active","ping":79},{"user_id":247,"name":"FishD.ck_47","steam_id":76561198114773103,"connected_time":3019000000000,"state":"active","ping":83},{"user_id":248,"name":"oscail","steam_id":76561198180640198,"connected_time":2977000000000,"state":"active","ping":72},{"user_id":252,"name":"William","steam_id":76561198135931040,"connected_time":2707000000000,"state":"active","ping":71},{"user_id":273,"name":"binkstug","steam_id":76561198867644865,"connected_time":1702000000000,"state":"active","ping":70},{"user_id":264,"name":"the high amby spy","steam_id":76561198212488780,"connected_time":2400000000000,"state":"active","ping":74},{"user_id":255,"name":"ANCK","steam_id":76561198092506016,"connected_time":2631000000000,"state":"active","ping":105},{"user_id":277,"name":"RIFT","steam_id":76561198991622379,"connected_time":1376000000000,"state":"active","ping":37},{"user_id":258,"name":"Endo","steam_id":76561198130227890,"connected_time":2541000000000,"state":"active","ping":44},{"user_id":271,"name":"frosty","steam_id":76561198094560834,"connected_time":1983000000000,"state":"active","ping":59},{"user_id":286,"name":"Axter","steam_id":76561198118747192,"connected_time":69000000000,"state":"active","ping":91},{"user_id":289,"name":"Borat","steam_id":76561198122226417,"connected_time":18000000000,"state":"active","ping":37},{"user_id":267,"name":"lawrencefishdom","steam_id":76561199190918059,"connected_time":2315000000000,"state":"active","ping":55},{"user_id":268,"name":"YourFriendlyNeighborhoodDemopan","steam_id":76561198180396145,"connected_time":2302000000000,"state":"active","ping":101},{"user_id":284,"name":"Sleepy","steam_id":76561198148030229,"connected_time":242000000000,"state":"active","ping":74}]},{"server_id":40,"name":"Uncletopia | London | 7 | No Payload","name_short":"lon-7","host":"lon-1.uk.uncletopia.com","port":27075,"enabled":true,"region":"eu","cc":"gb","latitude":51.509865,"longitude":-0.118092,"reserved":0,"last_update":"0001-01-01T00:00:00Z","name_a2s":"Uncletopia | London | 7 | No Payload","protocol":17,"map":"plr_bananabay","folder":"tf","game":"Team Fortress","app_id":440,"player_count":18,"max_players":24,"Bots":0,"server_type":"Dedicated","server_os":"Linux","password":true,"vac":true,"version":"7757534","steam_id":85568392924964314,"keywords":["nocrits","nodmgspread","payload","uncletopia"],"game_id":440,"stv_port":27076,"stv_name":"Uncletopia | London | 7 | No Payload | STV","players":[{"user_id":473,"name":"Popbob (notorious griefer)","steam_id":76561198100730234,"connected_time":3735000000000,"state":"active","ping":76},{"user_id":509,"name":"Tezza48","steam_id":76561198024797922,"connected_time":895000000000,"state":"active","ping":58},{"user_id":512,"name":"esshowitz","steam_id":76561198077552529,"connected_time":64000000000,"state":"active","ping":75},{"user_id":471,"name":"bigmama412","steam_id":76561198300870712,"connected_time":3817000000000,"state":"active","ping":106},{"user_id":513,"name":"Explosive Poptart","steam_id":76561198023918830,"connected_time":46000000000,"state":"spawning","ping":40},{"user_id":501,"name":"TumblinTrouble","steam_id":76561199106640153,"connected_time":1258000000000,"state":"active","ping":45},{"user_id":484,"name":"weed dispenser","steam_id":76561199090859842,"connected_time":2056000000000,"state":"active","ping":96},{"user_id":514,"name":"Dave The Sloth","steam_id":76561199135831355,"connected_time":24000000000,"state":"active","ping":59},{"user_id":485,"name":"FireStorm","steam_id":76561198350478325,"connected_time":1985000000000,"state":"active","ping":43},{"user_id":487,"name":"Doc","steam_id":76561198433991203,"connected_time":1950000000000,"state":"active","ping":40},{"user_id":489,"name":"foolproof","steam_id":76561198115801132,"connected_time":1912000000000,"state":"active","ping":56},{"user_id":490,"name":"Green Goblen","steam_id":76561198251997252,"connected_time":1903000000000,"state":"active","ping":90},{"user_id":218,"name":"LasagnaLarry22","steam_id":76561198089478290,"connected_time":24077000000000,"state":"active","ping":39},{"user_id":462,"name":"A Succulent Chinese Meal","steam_id":76561198069472440,"connected_time":5576000000000,"state":"active","ping":60},{"user_id":504,"name":"Bonk my Balls","steam_id":76561198070154445,"connected_time":1194000000000,"state":"active","ping":150},{"user_id":495,"name":"ReflqzTTV","steam_id":76561199080694842,"connected_time":1516000000000,"state":"active","ping":89},{"user_id":208,"name":"Fat Pigeon","steam_id":76561198817940142,"connected_time":25363000000000,"state":"active","ping":49},{"user_id":497,"name":"Adamkriaco","steam_id":76561198410311369,"connected_time":1467000000000,"state":"active","ping":103}]},{"server_id":41,"name":"Uncletopia | London | 8 | Community","name_short":"lon-8","host":"lon-1.uk.uncletopia.com","port":27085,"enabled":true,"region":"eu","cc":"gb","latitude":51.509865,"longitude":-0.118092,"reserved":0,"last_update":"0001-01-01T00:00:00Z","name_a2s":"Uncletopia | London | 8 | Community","protocol":17,"map":"workshop/koth_ashville_final.ugc2130459942","folder":"tf","game":"Team Fortress","app_id":440,"player_count":0,"max_players":24,"Bots":0,"server_type":"Dedicated","server_os":"Linux","password":true,"vac":true,"version":"7757534","steam_id":85568392924964315,"keywords":["cp","nocrits","nodmgspread","uncletopia"],"game_id":440,"stv_port":27086,"stv_name":"Uncletopia | London | 8 | Community | STV","players":null},{"server_id":300,"name":"Uncletopia | Montréal | 1 | All Maps","name_short":"mtl-1","host":"mtl-1.ca.uncletopia.com","port":27015,"enabled":true,"region":"us-east","cc":"ca","latitude":45.50889,"longitude":-73.56167,"reserved":0,"last_update":"0001-01-01T00:00:00Z","name_a2s":"Uncletopia | Montréal | 1 | All Maps","protocol":17,"map":"koth_cascade","folder":"tf","game":"Team Fortress","app_id":440,"player_count":0,"max_players":24,"Bots":0,"server_type":"Dedicated","server_os":"Linux","password":true,"vac":true,"version":"7757534","steam_id":85568392924500087,"keywords":["cp","nocrits","nodmgspread","uncletopia"],"game_id":440,"stv_port":27016,"stv_name":"Uncletopia | Montréal | 1 | All Maps | STV","players":null},{"server_id":301,"name":"Uncletopia | Montréal | 2 | All Maps","name_short":"mtl-2","host":"mtl-1.ca.uncletopia.com","port":27025,"enabled":true,"region":"us-east","cc":"ca","latitude":45.50889,"longitude":-73.56167,"reserved":0,"last_update":"0001-01-01T00:00:00Z","name_a2s":"Uncletopia | Montréal | 2 | All Maps","protocol":17,"map":"koth_lakeside_final","folder":"tf","game":"Team Fortress","app_id":440,"player_count":0,"max_players":24,"Bots":0,"server_type":"Dedicated","server_os":"Linux","password":true,"vac":true,"version":"7757534","steam_id":85568392924500088,"keywords":["cp","nocrits","nodmgspread","uncletopia"],"game_id":440,"stv_port":27026,"stv_name":"Uncletopia | Montréal | 2 | All Maps | STV","players":null},{"server_id":302,"name":"Uncletopia | Montréal | 3 | All Maps","name_short":"mtl-3","host":"mtl-1.ca.uncletopia.com","port":27035,"enabled":true,"region":"us-east","cc":"ca","latitude":45.50889,"longitude":-73.56167,"reserved":0,"last_update":"0001-01-01T00:00:00Z","name_a2s":"Uncletopia | Montréal | 3 | All Maps","protocol":17,"map":"cp_sunshine","folder":"tf","game":"Team Fortress","app_id":440,"player_count":0,"max_players":24,"Bots":0,"server_type":"Dedicated","server_os":"Linux","password":true,"vac":true,"version":"7757534","steam_id":85568392924500089,"keywords":["cp","nocrits","nodmgspread","uncletopia"],"game_id":440,"stv_port":27036,"stv_name":"Uncletopia | Montréal | 3 | All Maps | STV","players":null},{"server_id":303,"name":"Uncletopia | Montréal | 4 | No Payload","name_short":"mtl-4","host":"mtl-1.ca.uncletopia.com","port":27045,"enabled":true,"region":"us-east","cc":"ca","latitude":45.50889,"longitude":-73.56167,"reserved":0,"last_update":"0001-01-01T00:00:00Z","name_a2s":"Uncletopia | Montréal | 4 | No Payload","protocol":17,"map":"koth_lakeside_final","folder":"tf","game":"Team Fortress","app_id":440,"player_count":0,"max_players":24,"Bots":0,"server_type":"Dedicated","server_os":"Linux","password":true,"vac":true,"version":"7757534","steam_id":85568392924500090,"keywords":["cp","nocrits","nodmgspread","uncletopia"],"game_id":440,"stv_port":27046,"stv_name":"Uncletopia | Montréal | 4 | No Payload | STV","players":null},{"server_id":13,"name":"Uncletopia | New York City | 1 | All Maps","name_short":"nyc-1","host":"nyc-1.us.uncletopia.com","port":27015,"enabled":true,"region":"us-east","cc":"us","latitude":40.73061,"longitude":-73.93524,"reserved":0,"last_update":"0001-01-01T00:00:00Z","name_a2s":"Uncletopia | New York City | 1 | All Maps","protocol":17,"map":"pl_thundermountain","folder":"tf","game":"Team Fortress","app_id":440,"player_count":24,"max_players":24,"Bots":0,"server_type":"Dedicated","server_os":"Linux","password":true,"vac":true,"version":"7757534","steam_id":85568392924469993,"keywords":["nocrits","nodmgspread","payload","uncletopia"],"game_id":440,"stv_port":27016,"stv_name":"Uncletopia | New York City | 1 | All Maps | STV","players":[{"user_id":208,"name":"rraymondddh","steam_id":76561198006216337,"connected_time":300000000000,"state":"active","ping":64},{"user_id":155,"name":"Delta_4K","steam_id":76561198878343222,"connected_time":3369000000000,"state":"active","ping":82},{"user_id":201,"name":"nhbiker","steam_id":76561198081277675,"connected_time":525000000000,"state":"active","ping":45},{"user_id":186,"name":"ultra instinct cringe micheal","steam_id":76561198275625984,"connected_time":1767000000000,"state":"active","ping":63},{"user_id":135,"name":"The Funny man","steam_id":76561199053955604,"connected_time":4326000000000,"state":"active","ping":68},{"user_id":209,"name":"CJ_from_Groove","steam_id":76561198889928743,"connected_time":294000000000,"state":"active","ping":175},{"user_id":146,"name":"mxtry599","steam_id":76561199278383267,"connected_time":3778000000000,"state":"active","ping":67},{"user_id":175,"name":"that fat croc from donkey kong","steam_id":76561198159172495,"connected_time":2504000000000,"state":"active","ping":151},{"user_id":188,"name":"ivy","steam_id":76561198131876013,"connected_time":1753000000000,"state":"active","ping":50},{"user_id":189,"name":"Lord Headass","steam_id":76561198182813630,"connected_time":1711000000000,"state":"active","ping":112},{"user_id":161,"name":"Lezduit","steam_id":76561198049201471,"connected_time":2994000000000,"state":"active","ping":99},{"user_id":121,"name":"Laelaps","steam_id":76561198100061416,"connected_time":5266000000000,"state":"active","ping":51},{"user_id":180,"name":"Slazzer","steam_id":76561198404351844,"connected_time":2258000000000,"state":"active","ping":62},{"user_id":172,"name":"unsubtract","steam_id":76561198865158742,"connected_time":2597000000000,"state":"active","ping":66},{"user_id":141,"name":"luminary","steam_id":76561198126358045,"connected_time":4177000000000,"state":"active","ping":60},{"user_id":194,"name":"tsaide","steam_id":76561198384120999,"connected_time":1093000000000,"state":"active","ping":50},{"user_id":212,"name":"HaHa","steam_id":76561197997096301,"connected_time":93000000000,"state":"active","ping":84},{"user_id":93,"name":"Juan Pablo Gonzalez 2022","steam_id":76561199197961413,"connected_time":7049000000000,"state":"active","ping":40},{"user_id":160,"name":"a child","steam_id":76561198803040574,"connected_time":3166000000000,"state":"active","ping":45},{"user_id":213,"name":"CheeseCake488","steam_id":76561199407617942,"connected_time":11000000000,"state":"active","ping":205},{"user_id":210,"name":"sasharudzik","steam_id":76561199126617781,"connected_time":289000000000,"state":"active","ping":74},{"user_id":204,"name":"Lawnmower","steam_id":76561198186680197,"connected_time":490000000000,"state":"active","ping":104},{"user_id":197,"name":"Bush.exe","steam_id":76561198124385307,"connected_time":918000000000,"state":"active","ping":65},{"user_id":179,"name":"Ryptyde","steam_id":76561199017101978,"connected_time":2335000000000,"state":"active","ping":66}]},{"server_id":14,"name":"Uncletopia | New York City | 2 | All Maps","name_short":"nyc-2","host":"nyc-1.us.uncletopia.com","port":27025,"enabled":true,"region":"us-east","cc":"us","latitude":40.73061,"longitude":-73.93524,"reserved":0,"last_update":"0001-01-01T00:00:00Z","name_a2s":"Uncletopia | New York City | 2 | All Maps","protocol":17,"map":"koth_viaduct","folder":"tf","game":"Team Fortress","app_id":440,"player_count":24,"max_players":24,"Bots":0,"server_type":"Dedicated","server_os":"Linux","password":true,"vac":true,"version":"7757534","steam_id":85568392924469994,"keywords":["cp","nocrits","nodmgspread","uncletopia"],"game_id":440,"stv_port":27026,"stv_name":"Uncletopia | New York City | 2 | All Maps | STV","players":[{"user_id":169,"name":"WitheringLeo","steam_id":76561198046722918,"connected_time":3349000000000,"state":"active","ping":56},{"user_id":202,"name":"Roz257","steam_id":76561198842844532,"connected_time":638000000000,"state":"active","ping":69},{"user_id":214,"name":"JoCaleb02","steam_id":76561198272389829,"connected_time":187000000000,"state":"active","ping":62},{"user_id":155,"name":"Infinity","steam_id":76561199134919099,"connected_time":4177000000000,"state":"active","ping":53},{"user_id":209,"name":"Huntpk","steam_id":76561198340591674,"connected_time":292000000000,"state":"active","ping":66},{"user_id":159,"name":"1 zeptosecond no za","steam_id":76561198325549536,"connected_time":3998000000000,"state":"active","ping":79},{"user_id":164,"name":"The Land Admiral","steam_id":76561198159356609,"connected_time":3503000000000,"state":"active","ping":56},{"user_id":188,"name":"FunnyUsernameWow","steam_id":76561198324177635,"connected_time":1521000000000,"state":"active","ping":54},{"user_id":210,"name":"Nihplod_","steam_id":76561199010320094,"connected_time":241000000000,"state":"active","ping":56},{"user_id":144,"name":"Myn","steam_id":76561198055438857,"connected_time":4726000000000,"state":"active","ping":61},{"user_id":212,"name":"Fly_Johnson","steam_id":76561198882285873,"connected_time":231000000000,"state":"active","ping":49},{"user_id":206,"name":"Optional Friday","steam_id":76561199424229712,"connected_time":507000000000,"state":"active","ping":51},{"user_id":126,"name":"Oomitch","steam_id":76561198071702759,"connected_time":5643000000000,"state":"active","ping":114},{"user_id":191,"name":"B","steam_id":76561198015740144,"connected_time":1455000000000,"state":"active","ping":66},{"user_id":151,"name":"Sensitive Shooter","steam_id":76561198041439581,"connected_time":4496000000000,"state":"active","ping":57},{"user_id":113,"name":"-π- BakaD","steam_id":76561197960559169,"connected_time":6348000000000,"state":"active","ping":48},{"user_id":173,"name":"CRAZY engineer","steam_id":76561198887937902,"connected_time":3227000000000,"state":"active","ping":49},{"user_id":213,"name":"Goon Event #3349 (5hrs 22mins)","steam_id":76561198062410522,"connected_time":212000000000,"state":"active","ping":44},{"user_id":192,"name":"Copter_Boy","steam_id":76561198322921312,"connected_time":1428000000000,"state":"active","ping":50},{"user_id":215,"name":"Coltman","steam_id":76561198114267749,"connected_time":180000000000,"state":"active","ping":87},{"user_id":200,"name":"Dan Flashes Rewards Card Holder","steam_id":76561199215811448,"connected_time":750000000000,"state":"active","ping":63},{"user_id":203,"name":"Chechens Spotted","steam_id":76561199028910893,"connected_time":569000000000,"state":"active","ping":85},{"user_id":177,"name":"Nic0","steam_id":76561198305690218,"connected_time":2993000000000,"state":"active","ping":58},{"user_id":218,"name":"Silly Brains","steam_id":76561198179588678,"connected_time":25000000000,"state":"active","ping":99}]},{"server_id":15,"name":"Uncletopia | New York City | 3 | Stopwatch Beta","name_short":"nyc-3","host":"nyc-1.us.uncletopia.com","port":27035,"enabled":true,"region":"us-east","cc":"us","latitude":40.73061,"longitude":-73.93524,"reserved":0,"last_update":"0001-01-01T00:00:00Z","name_a2s":"Uncletopia | New York City | 3 | Stopwatch Beta","protocol":17,"map":"pl_upward","folder":"tf","game":"Team Fortress","app_id":440,"player_count":0,"max_players":24,"Bots":0,"server_type":"Dedicated","server_os":"Linux","password":true,"vac":true,"version":"7757534","steam_id":85568392924742820,"keywords":["nocrits","nodmgspread","payload","uncletopia"],"game_id":440,"stv_port":27036,"stv_name":"Uncletopia | New York City | 3 | Stopwatch Beta | STV","players":null},{"server_id":16,"name":"Uncletopia | New York City | 4 | Community","name_short":"nyc-4","host":"nyc-1.us.uncletopia.com","port":27045,"enabled":true,"region":"us-east","cc":"us","latitude":40.73061,"longitude":-73.93524,"reserved":0,"last_update":"0001-01-01T00:00:00Z","name_a2s":"Uncletopia | New York City | 4 | Community","protocol":17,"map":"pl_borneo","folder":"tf","game":"Team Fortress","app_id":440,"player_count":0,"max_players":24,"Bots":0,"server_type":"Dedicated","server_os":"Linux","password":true,"vac":true,"version":"7757534","steam_id":85568392924742821,"keywords":["nocrits","nodmgspread","payload","uncletopia"],"game_id":440,"stv_port":27046,"stv_name":"Uncletopia | New York City | 4 | Community | STV","players":null},{"server_id":142,"name":"Uncletopia | São Paulo | 1 | All Maps","name_short":"sao-1","host":"sao-1.br.uncletopia.com","port":27015,"enabled":true,"region":"sa","cc":"br","latitude":-23.533773,"longitude":-46.62529,"reserved":0,"last_update":"0001-01-01T00:00:00Z","name_a2s":"Uncletopia | São Paulo | 1 | All Maps","protocol":17,"map":"koth_highpass","folder":"tf","game":"Team Fortress","app_id":440,"player_count":0,"max_players":24,"Bots":0,"server_type":"Dedicated","server_os":"Linux","password":true,"vac":true,"version":"7757534","steam_id":85568392924469996,"keywords":["cp","nocrits","nodmgspread","uncletopia"],"game_id":440,"stv_port":27016,"stv_name":"Uncletopia | São Paulo | 1 | All Maps | STV","players":null},{"server_id":143,"name":"Uncletopia | São Paulo | 2 | All Maps","name_short":"sao-2","host":"sao-2.br.uncletopia.com","port":27015,"enabled":true,"region":"sa","cc":"br","latitude":-23.533773,"longitude":-46.62529,"reserved":0,"last_update":"0001-01-01T00:00:00Z","name_a2s":"Uncletopia | São Paulo | 2 | All Maps","protocol":17,"map":"koth_viaduct","folder":"tf","game":"Team Fortress","app_id":440,"player_count":0,"max_players":24,"Bots":0,"server_type":"Dedicated","server_os":"Linux","password":true,"vac":true,"version":"7757534","steam_id":85568392924485349,"keywords":["cp","nocrits","nodmgspread","uncletopia"],"game_id":440,"stv_port":27016,"stv_name":"Uncletopia | São Paulo | 2 | All Maps | STV","players":null},{"server_id":7,"name":"Uncletopia | Seattle | 1 | All Maps","name_short":"sea-1","host":"sea-1.us.uncletopia.com","port":27015,"enabled":true,"region":"us-west","cc":"us","latitude":47.608013,"longitude":-122.33517,"reserved":0,"last_update":"0001-01-01T00:00:00Z","name_a2s":"Uncletopia | Seattle | 1 | All Maps","protocol":17,"map":"pl_pier","folder":"tf","game":"Team Fortress","app_id":440,"player_count":24,"max_players":24,"Bots":0,"server_type":"Dedicated","server_os":"Linux","password":true,"vac":true,"version":"7757534","steam_id":85568392924469997,"keywords":["nocrits","nodmgspread","payload","uncletopia"],"game_id":440,"stv_port":27016,"stv_name":"Uncletopia | Seattle | 1 | All Maps | STV","players":[{"user_id":277,"name":"icFlow","steam_id":76561199068853190,"connected_time":153000000000,"state":"active","ping":60},{"user_id":275,"name":"Mr.Thirteen","steam_id":76561198047468836,"connected_time":330000000000,"state":"active","ping":63},{"user_id":267,"name":"Y'o","steam_id":76561198098462500,"connected_time":835000000000,"state":"active","ping":75},{"user_id":256,"name":"SlurpyTheDog","steam_id":76561198799733154,"connected_time":1811000000000,"state":"active","ping":133},{"user_id":258,"name":"Sealops","steam_id":76561198126918709,"connected_time":1642000000000,"state":"active","ping":80},{"user_id":245,"name":"SPOON MAN","steam_id":76561199028500370,"connected_time":2238000000000,"state":"active","ping":44},{"user_id":249,"name":"Dovid65","steam_id":76561199277530814,"connected_time":1965000000000,"state":"active","ping":172},{"user_id":204,"name":"shane","steam_id":76561198060491451,"connected_time":5961000000000,"state":"active","ping":92},{"user_id":238,"name":"surrealist neophyte","steam_id":76561198325306660,"connected_time":2883000000000,"state":"active","ping":55},{"user_id":195,"name":"Maxmanlz","steam_id":76561198112057874,"connected_time":6203000000000,"state":"active","ping":98},{"user_id":278,"name":"Trent Reznor","steam_id":76561198029396836,"connected_time":62000000000,"state":"active","ping":45},{"user_id":270,"name":"Goldbug","steam_id":76561198025221202,"connected_time":561000000000,"state":"active","ping":67},{"user_id":183,"name":"luis","steam_id":76561198081341347,"connected_time":6966000000000,"state":"active","ping":75},{"user_id":262,"name":"KingTinkerer","steam_id":76561198226856548,"connected_time":888000000000,"state":"active","ping":75},{"user_id":268,"name":"a crazy hobo","steam_id":76561198289650060,"connected_time":770000000000,"state":"active","ping":75},{"user_id":273,"name":"Aardappel","steam_id":76561198030894676,"connected_time":481000000000,"state":"active","ping":76},{"user_id":234,"name":"mrs. business","steam_id":76561198025454291,"connected_time":3320000000000,"state":"active","ping":35},{"user_id":241,"name":"Buckytr","steam_id":76561198096335025,"connected_time":2664000000000,"state":"active","ping":63},{"user_id":261,"name":"Tom Skirrett","steam_id":76561198014600788,"connected_time":1224000000000,"state":"active","ping":66},{"user_id":271,"name":"rat gets a little more baklava","steam_id":76561198031234032,"connected_time":535000000000,"state":"active","ping":93},{"user_id":263,"name":"Greskrendtregk","steam_id":76561197969553142,"connected_time":872000000000,"state":"active","ping":67},{"user_id":247,"name":"AmyPercent","steam_id":76561198071896932,"connected_time":2115000000000,"state":"active","ping":82},{"user_id":276,"name":"Julien","steam_id":76561199389584938,"connected_time":311000000000,"state":"active","ping":42},{"user_id":274,"name":"arashsmash","steam_id":76561198277649058,"connected_time":402000000000,"state":"active","ping":110}]},{"server_id":119,"name":"Uncletopia | Seattle | 2 | All Maps","name_short":"sea-2","host":"sea-1.us.uncletopia.com","port":27025,"enabled":true,"region":"us-west","cc":"us","latitude":47.608013,"longitude":-122.33517,"reserved":0,"last_update":"0001-01-01T00:00:00Z","name_a2s":"Uncletopia | Seattle | 2 | All Maps","protocol":17,"map":"cp_sunshine","folder":"tf","game":"Team Fortress","app_id":440,"player_count":0,"max_players":24,"Bots":0,"server_type":"Dedicated","server_os":"Linux","password":true,"vac":true,"version":"7757534","steam_id":85568392924469998,"keywords":["cp","nocrits","nodmgspread","uncletopia"],"game_id":440,"stv_port":27026,"stv_name":"Uncletopia | Seattle | 2 | All Maps | STV","players":null},{"server_id":406,"name":"Uncletopia | Seattle | 3 | Stopwatch Beta","name_short":"sea-3","host":"sea-1.us.uncletopia.com","port":27035,"enabled":true,"region":"us-west","cc":"us","latitude":47.608013,"longitude":-122.33517,"reserved":0,"last_update":"0001-01-01T00:00:00Z","name_a2s":"Uncletopia | Seattle | 3 | Stopwatch Beta","protocol":17,"map":"workshop/pl_badwater_pro_v12.ugc2142942074","folder":"tf","game":"Team Fortress","app_id":440,"player_count":0,"max_players":24,"Bots":0,"server_type":"Dedicated","server_os":"Linux","password":true,"vac":true,"version":"7757534","steam_id":85568392924515217,"keywords":["nocrits","nodmgspread","payload","uncletopia"],"game_id":440,"stv_port":27036,"stv_name":"Uncletopia | Seattle | 3 | Stopwatch Beta | STV","players":null},{"server_id":17,"name":"Uncletopia | San Francisco | 1 | All Maps","name_short":"sfo-1","host":"sfo-1.us.uncletopia.com","port":27015,"enabled":true,"region":"us-west","cc":"us","latitude":37.77397,"longitude":-122.4313,"reserved":0,"last_update":"0001-01-01T00:00:00Z","name_a2s":"Uncletopia | San Francisco | 1 | All Maps","protocol":17,"map":"koth_highpass","folder":"tf","game":"Team Fortress","app_id":440,"player_count":4,"max_players":24,"Bots":0,"server_type":"Dedicated","server_os":"Linux","password":true,"vac":true,"version":"7757534","steam_id":85568392924469999,"keywords":["cp","nocrits","nodmgspread","uncletopia"],"game_id":440,"stv_port":27016,"stv_name":"Uncletopia | San Francisco | 1 | All Maps | STV","players":[{"user_id":28,"name":"GargantuanMango","steam_id":76561199136698299,"connected_time":29000000000,"state":"active","ping":71},{"user_id":11,"name":"Hero Smasher","steam_id":76561198150681669,"connected_time":1942000000000,"state":"active","ping":43},{"user_id":18,"name":"Pavvler","steam_id":76561199446614223,"connected_time":1172000000000,"state":"active","ping":90},{"user_id":27,"name":"azureglxy","steam_id":76561198861388315,"connected_time":256000000000,"state":"active","ping":42}]},{"server_id":18,"name":"Uncletopia | San Francisco | 2 | All Maps","name_short":"sfo-2","host":"sfo-1.us.uncletopia.com","port":27025,"enabled":true,"region":"us-west","cc":"us","latitude":37.77397,"longitude":-122.4313,"reserved":0,"last_update":"0001-01-01T00:00:00Z","name_a2s":"Uncletopia | San Francisco | 2 | All Maps","protocol":17,"map":"koth_viaduct","folder":"tf","game":"Team Fortress","app_id":440,"player_count":0,"max_players":24,"Bots":0,"server_type":"Dedicated","server_os":"Linux","password":true,"vac":true,"version":"7757534","steam_id":85568392924470000,"keywords":["cp","nocrits","nodmgspread","uncletopia"],"game_id":440,"stv_port":27026,"stv_name":"Uncletopia | San Francisco | 2 | All Maps | STV","players":null},{"server_id":19,"name":"Uncletopia | San Francisco | 3 | Stopwatch Beta","name_short":"sfo-3","host":"sfo-1.us.uncletopia.com","port":27035,"enabled":true,"region":"us-west","cc":"us","latitude":37.77397,"longitude":-122.4313,"reserved":0,"last_update":"0001-01-01T00:00:00Z","name_a2s":"Uncletopia | San Francisco | 3 | Stopwatch Beta","protocol":17,"map":"koth_viaduct","folder":"tf","game":"Team Fortress","app_id":440,"player_count":0,"max_players":24,"Bots":0,"server_type":"Dedicated","server_os":"Linux","password":true,"vac":true,"version":"7757534","steam_id":85568392924742824,"keywords":["cp","nocrits","nodmgspread","uncletopia"],"game_id":440,"stv_port":27036,"stv_name":"Uncletopia | San Francisco | 3 | Stopwatch Beta | STV","players":null},{"server_id":20,"name":"Uncletopia | San Francisco | 4 | Community","name_short":"sfo-4","host":"sfo-1.us.uncletopia.com","port":27045,"enabled":true,"region":"us-west","cc":"us","latitude":37.77397,"longitude":-122.4313,"reserved":0,"last_update":"0001-01-01T00:00:00Z","name_a2s":"Uncletopia | San Francisco | 4 | Community","protocol":17,"map":"workshop/koth_bagel_rc5.ugc2514036946","folder":"tf","game":"Team Fortress","app_id":440,"player_count":0,"max_players":24,"Bots":0,"server_type":"Dedicated","server_os":"Linux","password":true,"vac":true,"version":"7757534","steam_id":85568392924742826,"keywords":["cp","nocrits","nodmgspread","uncletopia"],"game_id":440,"stv_port":27046,"stv_name":"Uncletopia | San Francisco | 4 | Community | STV","players":null},{"server_id":141,"name":"Uncletopia | Sydney | 1 | All Maps","name_short":"syd-1","host":"syd-1.au.uncletopia.com","port":27015,"enabled":true,"region":"au","cc":"au","latitude":-33.865143,"longitude":151.2099,"reserved":0,"last_update":"0001-01-01T00:00:00Z","name_a2s":"Uncletopia | Sydney | 1 | All Maps","protocol":17,"map":"koth_lakeside_final","folder":"tf","game":"Team Fortress","app_id":440,"player_count":0,"max_players":24,"Bots":0,"server_type":"Dedicated","server_os":"Linux","password":true,"vac":true,"version":"7757534","steam_id":85568392924470001,"keywords":["cp","nocrits","nodmgspread","uncletopia"],"game_id":440,"stv_port":27016,"stv_name":"Uncletopia | Sydney | 1 | All Maps | STV","players":null},{"server_id":123,"name":"Uncletopia | Sydney | 2 | All Maps","name_short":"syd-2","host":"syd-1.au.uncletopia.com","port":27025,"enabled":true,"region":"au","cc":"au","latitude":-33.865143,"longitude":151.2099,"reserved":0,"last_update":"0001-01-01T00:00:00Z","name_a2s":"Uncletopia | Sydney | 2 | All Maps","protocol":17,"map":"cp_dustbowl","folder":"tf","game":"Team Fortress","app_id":440,"player_count":10,"max_players":24,"Bots":0,"server_type":"Dedicated","server_os":"Linux","password":true,"vac":true,"version":"7757534","steam_id":85568392924470002,"keywords":["cp","nocrits","nodmgspread","uncletopia"],"game_id":440,"stv_port":27026,"stv_name":"Uncletopia | Sydney | 2 | All Maps | STV","players":[{"user_id":20,"name":"blaze","steam_id":76561198241303512,"connected_time":1066000000000,"state":"active","ping":59},{"user_id":22,"name":"HellBoy","steam_id":76561198069295430,"connected_time":800000000000,"state":"active","ping":66},{"user_id":8,"name":"internetkittenz13","steam_id":76561198881042979,"connected_time":3530000000000,"state":"active","ping":71},{"user_id":30,"name":"RR D0n","steam_id":76561199171436009,"connected_time":99000000000,"state":"active","ping":55},{"user_id":31,"name":"aCasualBeanCan","steam_id":76561199130107699,"connected_time":55000000000,"state":"active","ping":74},{"user_id":17,"name":"Saint","steam_id":76561198241813158,"connected_time":1493000000000,"state":"active","ping":70},{"user_id":24,"name":"trash","steam_id":76561198110764631,"connected_time":693000000000,"state":"active","ping":51},{"user_id":18,"name":"Toody","steam_id":76561198212656752,"connected_time":1475000000000,"state":"active","ping":50},{"user_id":28,"name":"Neco Arc","steam_id":76561199071574734,"connected_time":424000000000,"state":"active","ping":64},{"user_id":29,"name":"Twelvie","steam_id":76561198164240795,"connected_time":319000000000,"state":"active","ping":50}]},{"server_id":395,"name":"Uncletopia | Sydney | 3 | All Maps","name_short":"syd-3","host":"syd-1.au.uncletopia.com","port":27035,"enabled":true,"region":"au","cc":"au","latitude":-33.865143,"longitude":151.2099,"reserved":0,"last_update":"0001-01-01T00:00:00Z","name_a2s":"Uncletopia | Sydney | 3 | All Maps","protocol":17,"map":"cp_dustbowl","folder":"tf","game":"Team Fortress","app_id":440,"player_count":0,"max_players":24,"Bots":0,"server_type":"Dedicated","server_os":"Linux","password":true,"vac":true,"version":"7757534","steam_id":85568392925194467,"keywords":["cp","nocrits","nodmgspread","uncletopia"],"game_id":440,"stv_port":27036,"stv_name":"Uncletopia | Sydney | 3 | All Maps | STV","players":null},{"server_id":396,"name":"Uncletopia | Sydney | 4 | All Maps","name_short":"syd-4","host":"syd-1.au.uncletopia.com","port":27045,"enabled":true,"region":"au","cc":"au","latitude":-33.865143,"longitude":151.2099,"reserved":0,"last_update":"0001-01-01T00:00:00Z","name_a2s":"Uncletopia | Sydney | 4 | All Maps","protocol":17,"map":"pl_borneo","folder":"tf","game":"Team Fortress","app_id":440,"player_count":0,"max_players":24,"Bots":0,"server_type":"Dedicated","server_os":"Linux","password":true,"vac":true,"version":"7757534","steam_id":85568392925397958,"keywords":["nocrits","nodmgspread","payload","uncletopia"],"game_id":440,"stv_port":27046,"stv_name":"Uncletopia | Sydney | 4 | All Maps | STV","players":null},{"server_id":58,"name":"Uncletopia | Sydney | 5 | Stopwatch Beta","name_short":"syd-5","host":"syd-1.au.uncletopia.com","port":27055,"enabled":true,"region":"au","cc":"au","latitude":-33.865143,"longitude":151.2099,"reserved":0,"last_update":"0001-01-01T00:00:00Z","name_a2s":"Uncletopia | Sydney | 5 | Stopwatch Beta","protocol":17,"map":"pl_barnblitz","folder":"tf","game":"Team Fortress","app_id":440,"player_count":0,"max_players":24,"Bots":0,"server_type":"Dedicated","server_os":"Linux","password":true,"vac":true,"version":"7757534","steam_id":85568392925397959,"keywords":["nocrits","nodmgspread","payload","uncletopia"],"game_id":440,"stv_port":27056,"stv_name":"Uncletopia | Sydney | 5 | Stopwatch Beta | STV","players":null},{"server_id":59,"name":"Uncletopia | Sydney | 6 | Community","name_short":"syd-6","host":"syd-1.au.uncletopia.com","port":27065,"enabled":true,"region":"au","cc":"au","latitude":-33.865143,"longitude":151.2099,"reserved":0,"last_update":"0001-01-01T00:00:00Z","name_a2s":"Uncletopia | Sydney | 6 | Community","protocol":17,"map":"cp_mountainlab","folder":"tf","game":"Team Fortress","app_id":440,"player_count":0,"max_players":24,"Bots":0,"server_type":"Dedicated","server_os":"Linux","password":true,"vac":true,"version":"7757534","steam_id":85568392925397960,"keywords":["cp","nocrits","nodmgspread","uncletopia"],"game_id":440,"stv_port":27066,"stv_name":"Uncletopia | Sydney | 6 | Community | STV","players":null},{"server_id":49,"name":"Uncletopia | Warsaw | 1 | All Maps","name_short":"waw-1","host":"waw-1.pl.uncletopia.com","port":27015,"enabled":true,"region":"eu","cc":"pl","latitude":52.2297,"longitude":21.017532,"reserved":0,"last_update":"0001-01-01T00:00:00Z","name_a2s":"","protocol":0,"map":"","folder":"","game":"","app_id":0,"player_count":0,"max_players":0,"Bots":0,"server_type":"","server_os":"","password":false,"vac":false,"version":"","steam_id":0,"keywords":null,"game_id":0,"stv_port":0,"stv_name":"","players":null},{"server_id":50,"name":"Uncletopia | Warsaw | 2 | All Maps","name_short":"waw-2","host":"waw-1.pl.uncletopia.com","port":27025,"enabled":true,"region":"eu","cc":"pl","latitude":52.2297,"longitude":21.017532,"reserved":0,"last_update":"0001-01-01T00:00:00Z","name_a2s":"Uncletopia | Warsaw | 2 | All Maps","protocol":17,"map":"koth_suijin","folder":"tf","game":"Team Fortress","app_id":440,"player_count":12,"max_players":24,"Bots":0,"server_type":"Dedicated","server_os":"Linux","password":true,"vac":true,"version":"7757534","steam_id":85568392925397851,"keywords":["cp","nocrits","nodmgspread","uncletopia"],"game_id":440,"stv_port":27026,"stv_name":"Uncletopia | Warsaw | 2 | All Maps | STV","players":[{"user_id":188,"name":"Jay","steam_id":76561198148815032,"connected_time":872000000000,"state":"active","ping":86},{"user_id":145,"name":"Nel","steam_id":76561198335891676,"connected_time":5443000000000,"state":"active","ping":119},{"user_id":106,"name":"ChickyCoop","steam_id":76561199072983488,"connected_time":8133000000000,"state":"active","ping":57},{"user_id":172,"name":"Záporák","steam_id":76561198207175503,"connected_time":3232000000000,"state":"active","ping":57},{"user_id":192,"name":"Chaz","steam_id":76561198077292814,"connected_time":733000000000,"state":"active","ping":84},{"user_id":119,"name":"go follow ttv/biofun_","steam_id":76561198097507847,"connected_time":7212000000000,"state":"active","ping":89},{"user_id":182,"name":"Daan77","steam_id":76561198129940468,"connected_time":1203000000000,"state":"active","ping":85},{"user_id":122,"name":"Follow biofun for heals","steam_id":76561198067204908,"connected_time":7054000000000,"state":"active","ping":75},{"user_id":158,"name":"We are in a world of magic","steam_id":76561198104745492,"connected_time":4320000000000,"state":"active","ping":78},{"user_id":165,"name":"Silvan","steam_id":76561198415391988,"connected_time":3904000000000,"state":"active","ping":61},{"user_id":169,"name":"GaySchlatt","steam_id":76561198436817109,"connected_time":3637000000000,"state":"active","ping":76},{"user_id":197,"name":"washed up","steam_id":76561198275742101,"connected_time":280000000000,"state":"active","ping":73}]},{"server_id":51,"name":"Uncletopia | Warsaw | 3 | All Maps","name_short":"waw-3","host":"waw-1.pl.uncletopia.com","port":27035,"enabled":true,"region":"eu","cc":"pl","latitude":52.2297,"longitude":21.017532,"reserved":0,"last_update":"0001-01-01T00:00:00Z","name_a2s":"Uncletopia | Warsaw | 3 | All Maps","protocol":17,"map":"pl_upward","folder":"tf","game":"Team Fortress","app_id":440,"player_count":0,"max_players":24,"Bots":0,"server_type":"Dedicated","server_os":"Linux","password":true,"vac":true,"version":"7757534","steam_id":85568392925397852,"keywords":["nocrits","nodmgspread","payload","uncletopia"],"game_id":440,"stv_port":27036,"stv_name":"Uncletopia | Warsaw | 3 | All Maps | STV","players":null},{"server_id":52,"name":"Uncletopia | Warsaw | 4 | All Maps","name_short":"waw-4","host":"waw-1.pl.uncletopia.com","port":27045,"enabled":true,"region":"eu","cc":"pl","latitude":52.2297,"longitude":21.017532,"reserved":0,"last_update":"0001-01-01T00:00:00Z","name_a2s":"Uncletopia | Warsaw | 4 | All Maps","protocol":17,"map":"koth_highpass","folder":"tf","game":"Team Fortress","app_id":440,"player_count":0,"max_players":24,"Bots":0,"server_type":"Dedicated","server_os":"Linux","password":true,"vac":true,"version":"7757534","steam_id":85568392925397853,"keywords":["cp","nocrits","nodmgspread","uncletopia"],"game_id":440,"stv_port":27046,"stv_name":"Uncletopia | Warsaw | 4 | All Maps | STV","players":null},{"server_id":53,"name":"Uncletopia | Warsaw | 5 | Stopwatch Beta","name_short":"waw-5","host":"waw-1.pl.uncletopia.com","port":27055,"enabled":true,"region":"eu","cc":"pl","latitude":52.2297,"longitude":21.017532,"reserved":0,"last_update":"0001-01-01T00:00:00Z","name_a2s":"Uncletopia | Warsaw | 5 | Stopwatch Beta","protocol":17,"map":"workshop/koth_product_final.ugc454272353","folder":"tf","game":"Team Fortress","app_id":440,"player_count":0,"max_players":24,"Bots":0,"server_type":"Dedicated","server_os":"Linux","password":true,"vac":true,"version":"7757534","steam_id":85568392925397854,"keywords":["cp","nocrits","nodmgspread","uncletopia"],"game_id":440,"stv_port":27056,"stv_name":"Uncletopia | Warsaw | 5 | Stopwatch Beta | STV","players":null},{"server_id":54,"name":"Uncletopia | Warsaw | 6 | Community","name_short":"waw-6","host":"waw-1.pl.uncletopia.com","port":27065,"enabled":true,"region":"eu","cc":"pl","latitude":52.2297,"longitude":21.017532,"reserved":0,"last_update":"0001-01-01T00:00:00Z","name_a2s":"Uncletopia | Warsaw | 6 | Community","protocol":17,"map":"workshop/pl_vigil_rc9.ugc1266210012","folder":"tf","game":"Team Fortress","app_id":440,"player_count":0,"max_players":24,"Bots":0,"server_type":"Dedicated","server_os":"Linux","password":true,"vac":true,"version":"7757534","steam_id":85568392925397856,"keywords":["nocrits","nodmgspread","payload","uncletopia"],"game_id":440,"stv_port":27066,"stv_name":"Uncletopia | Warsaw | 6 | Community | STV","players":null}]}