{"status":true,"message":"","result":[{"server_id":9,"name":"Uncletopia | Atlanta | 1 | All Maps","name_short":"atl-1","host":"atl-1.us.uncletopia.com","port":27015,"enabled":true,"region":"us-east","cc":"us","latitude":33.753746,"longitude":-84.38633,"reserved":0,"last_update":"0001-01-01T00:00:00Z","name_a2s":"Uncletopia | Atlanta | 1 | All Maps","protocol":17,"map":"cp_snakewater_final1","folder":"tf","game":"Team Fortress","app_id":440,"player_count":0,"max_players":24,"Bots":0,"server_type":"Dedicated","server_os":"Linux","password":false,"vac":true,"version":"7961495","steam_id":85568392924469982,"keywords":["cp","nocrits","nodmgspread","uncletopia"],"game_id":440,"stv_port":27016,"stv_name":"Uncletopia | Atlanta | 1 | All Maps | STV","players":null},{"server_id":104,"name":"Uncletopia | Atlanta | 2 | All Maps","name_short":"atl-2","host":"atl-1.us.uncletopia.com","port":27025,"enabled":true,"region":"us-east","cc":"us","latitude":33.753746,"longitude":-84.38633,"reserved":0,"last_update":"0001-01-01T00:00:00Z","name_a2s":"Uncletopia | Atlanta | 2 | All Maps","protocol":17,"map":"cp_mountainlab","folder":"tf","game":"Team Fortress","app_id":440,"player_count":0,"max_players":24,"Bots":0,"server_type":"Dedicated","server_os":"Linux","password":false,"vac":true,"version":"7961495","steam_id":85568392924469983,"keywords":["cp","nocrits","nodmgspread","uncletopia"],"game_id":440,"stv_port":27026,"stv_name":"Uncletopia | Atlanta | 2 | All Maps | STV","players":null},{"server_id":400,"name":"Uncletopia | Atlanta | 3 | All Maps","name_short":"atl-3","host":"atl-1.us.uncletopia.com","port":27035,"enabled":true,"region":"us-east","cc":"us","latitude":33.753746,"longitude":-84.38633,"reserved":0,"last_update":"0001-01-01T00:00:00Z","name_a2s":"Uncletopia | Atlanta | 3 | All Maps","protocol":17,"map":"cp_process_final","folder":"tf","game":"Team Fortress","app_id":440,"player_count":0,"max_players":24,"Bots":0,"server_type":"Dedicated","server_os":"Linux","password":false,"vac":true,"version":"7961495","steam_id":85568392924515187,"keywords":["cp","nocrits","nodmgspread","uncletopia"],"game_id":440,"stv_port":27036,"stv_name":"Uncletopia | Atlanta | 3 | All Maps | STV","players":null},{"server_id":401,"name":"Uncletopia | Atlanta | 4 | Community","name_short":"atl-4","host":"atl-1.us.uncletopia.com","port":27045,"enabled":true,"region":"us-east","cc":"us","latitude":33.753746,"longitude":-84.38633,"reserved":0,"last_update":"0001-01-01T00:00:00Z","name_a2s":"Uncletopia | Atlanta | 4 | Community","protocol":17,"map":"koth_lakeside_final","folder":"tf","game":"Team Fortress","app_id":440,"player_count":0,"max_players":24,"Bots":0,"server_type":"Dedicated","server_os":"Linux","password":false,"vac":true,"version":"7961495","steam_id":85568392924515188,"keywords":["cp","nocrits","nodmgspread","uncletopia"],"game_id":440,"stv_port":27046,"stv_name":"Uncletopia | Atlanta | 4 | Community | STV","players":null},{"server_id":2,"name":"Uncletopia | Chicago | 1 | All Maps","name_short":"chi-1","host":"chi-1.us.uncletopia.com","port":27015,"enabled":true,"region":"us-central","cc":"us","latitude":41.881832,"longitude":-87.62318,"reserved":0,"last_update":"0001-01-01T00:00:00Z","name_a2s":"Uncletopia | Chicago | 1 | All Maps","protocol":17,"map":"pl_badwater","folder":"tf","game":"Team Fortress","app_id":440,"player_count":24,"max_players":24,"Bots":0,"server_type":"Dedicated","server_os":"Linux","password":true,"vac":true,"version":"7961495","steam_id":85568392924469984,"keywords":["nocrits","nodmgspread","payload","uncletopia"],"game_id":440,"stv_port":27016,"stv_name":"Uncletopia | Chicago | 1 | All Maps | STV","players":[{"user_id":59,"name":"Maverick","steam_id":76561198322829814,"connected_time":7684000000000,"state":"active","ping":79},{"user_id":122,"name":"Undertime Slopper","steam_id":76561198396789061,"connected_time":3855000000000,"state":"active","ping":84},{"user_id":120,"name":"Flowers","steam_id":76561198031669899,"connected_time":3929000000000,"state":"active","ping":88},{"user_id":149,"name":"MikeLovesRabbit","steam_id":76561197997742625,"connected_time":1116000000000,"state":"active","ping":67},{"user_id":164,"name":"The_Stomach_Stone_Surgeon","steam_id":76561198044643725,"connected_time":78000000000,"state":"active","ping":83},{"user_id":103,"name":"Obelisk","steam_id":76561198049416866,"connected_time":5152000000000,"state":"active","ping":76},{"user_id":141,"name":"Soladach","steam_id":76561198091616441,"connected_time":1744000000000,"state":"active","ping":74},{"user_id":163,"name":"Doctor Emerald(real)","steam_id":76561199123003872,"connected_time":226000000000,"state":"active","ping":89},{"user_id":154,"name":"Somebodyp36","steam_id":76561198850961948,"connected_time":552000000000,"state":"active","ping":75},{"user_id":91,"name":"Ras","steam_id":76561198123546775,"connected_time":5839000000000,"state":"active","ping":85},{"user_id":133,"name":"Twilight Princess","steam_id":76561198049460281,"connected_time":2739000000000,"state":"active","ping":66},{"user_id":155,"name":"Toblerone","steam_id":76561198057374871,"connected_time":543000000000,"state":"active","ping":62},{"user_id":160,"name":"Glue Gulper","steam_id":76561198158014525,"connected_time":247000000000,"state":"active","ping":60},{"user_id":137,"name":"Mug Moment Gaming","steam_id":76561198233098136,"connected_time":2712000000000,"state":"active","ping":55},{"user_id":136,"name":"Chode Mode","steam_id":76561198353840477,"connected_time":2720000000000,"state":"active","ping":52},{"user_id":150,"name":"Bunt","steam_id":76561198124477567,"connected_time":984000000000,"state":"active","ping":63},{"user_id":76,"name":"Apetometrist","steam_id":76561198045391635,"connected_time":6778000000000,"state":"active","ping":59},{"user_id":151,"name":"Nuts Berserk","steam_id":76561198145709870,"connected_time":981000000000,"state":"active","ping":81},{"user_id":156,"name":"Dullahan","steam_id":76561198119668908,"connected_time":536000000000,"state":"active","ping":93},{"user_id":131,"name":"DinoGoof","steam_id":76561198998427283,"connected_time":2746000000000,"state":"active","ping":71},{"user_id":157,"name":"Cosmos Rogue","steam_id":76561198378791617,"connected_time":529000000000,"state":"active","ping":48},{"user_id":110,"name":"Jango","steam_id":76561198084589742,"connected_time":4900000000000,"state":"active","ping":83},{"user_id":158,"name":"The new day","steam_id":76561198855144603,"connected_time":507000000000,"state":"active","ping":62},{"user_id":130,"name":"Hey All","steam_id":76561198303100290,"connected_time":2827000000000,"state":"active","ping":92}]},{"server_id":106,"name":"Uncletopia | Chicago | 2 | All Maps","name_short":"chi-2","host":"chi-1.us.uncletopia.com","port":27025,"enabled":true,"region":"us-central","cc":"us","latitude":41.881832,"longitude":-87.62318,"reserved":0,"last_update":"0001-01-01T00:00:00Z","name_a2s":"Uncletopia | Chicago | 2 | All Maps","protocol":17,"map":"pl_borneo","folder":"tf","game":"Team Fortress","app_id":440,"player_count":24,"max_players":24,"Bots":0,"server_type":"Dedicated","server_os":"Linux","password":true,"vac":true,"version":"7961495","steam_id":85568392924469985,"keywords":["nocrits","nodmgspread","payload","uncletopia"],"game_id":440,"stv_port":27026,"stv_name":"Uncletopia | Chicago | 2 | All Maps | STV","players":[{"user_id":313,"name":"Brown_Dream","steam_id":76561198975766145,"connected_time":411000000000,"state":"active","ping":83},{"user_id":253,"name":"Mr. Cheesey","steam_id":76561198153462183,"connected_time":5000000000000,"state":"active","ping":62},{"user_id":279,"name":"[NAME-REDACTED]","steam_id":76561198035682975,"connected_time":4202000000000,"state":"active","ping":69},{"user_id":311,"name":"‰Ω†Â•Ω","steam_id":76561198873043242,"connected_time":831000000000,"state":"active","ping":139},{"user_id":211,"name":"NorthStarGamer","steam_id":76561198308866066,"connected_time":6045000000000,"state":"active","ping":74},{"user_id":291,"name":"JamesBlakeFan11","steam_id":76561198440539769,"connected_time":3568000000000,"state":"active","ping":104},{"user_id":315,"name":"Chestnut","steam_id":76561198078198968,"connected_time":368000000000,"state":"active","ping":62},{"user_id":323,"name":"berserker_tf2 yt","steam_id":76561198303464488,"connected_time":75000000000,"state":"active","ping":51},{"user_id":282,"name":"merlin","steam_id":76561199164347838,"connected_time":4146000000000,"state":"active","ping":68},{"user_id":272,"name":"dolph","steam_id":76561198341304816,"connected_time":4745000000000,"state":"active","ping":90},{"user_id":304,"name":"DogsRNice","steam_id":76561198211490864,"connected_time":2368000000000,"state":"active","ping":76},{"user_id":284,"name":"Nibelsnarf","steam_id":76561198137642054,"connected_time":3871000000000,"state":"active","ping":59},{"user_id":280,"name":"Easey","steam_id":76561198230316868,"connected_time":4169000000000,"state":"active","ping":61},{"user_id":324,"name":"Gamba","steam_id":76561198069264650,"connected_time":69000000000,"state":"active","ping":60},{"user_id":316,"name":"Clyde","steam_id":76561198158206236,"connected_time":351000000000,"state":"active","ping":106},{"user_id":321,"name":"vv","steam_id":76561198134813102,"connected_time":166000000000,"state":"active","ping":68},{"user_id":283,"name":"Aster","steam_id":76561198037920420,"connected_time":4012000000000,"state":"active","ping":72},{"user_id":309,"name":"lili","steam_id":76561199391478575,"connected_time":1525000000000,"state":"active","ping":114},{"user_id":310,"name":"Harrier \"Harry\" du Bois","steam_id":76561198435876131,"connected_time":1090000000000,"state":"active","ping":68},{"user_id":307,"name":"Rein","steam_id":76561198300340427,"connected_time":1739000000000,"state":"active","ping":65},{"user_id":305,"name":"Sucsubot","steam_id":76561198106456128,"connected_time":2309000000000,"state":"active","ping":74},{"user_id":299,"name":"ameritech","steam_id":76561198064769089,"connected_time":3128000000000,"state":"active","ping":52},{"user_id":318,"name":"Shenanigan","steam_id":76561198941203517,"connected_time":314000000000,"state":"active","ping":145},{"user_id":314,"name":"bojack from the show bojack hor","steam_id":76561198053006712,"connected_time":383000000000,"state":"active","ping":62}]},{"server_id":402,"name":"Uncletopia | Chicago | 3 | All Maps","name_short":"chi-3","host":"chi-1.us.uncletopia.com","port":27035,"enabled":true,"region":"us-central","cc":"us","latitude":41.881832,"longitude":-87.62318,"reserved":0,"last_update":"0001-01-01T00:00:00Z","name_a2s":"Uncletopia | Chicago | 3 | All Maps","protocol":17,"map":"cp_sunshine","folder":"tf","game":"Team Fortress","app_id":440,"player_count":24,"max_players":24,"Bots":0,"server_type":"Dedicated","server_os":"Linux","password":true,"vac":true,"version":"7961495","steam_id":85568392924515191,"keywords":["cp","nocrits","nodmgspread","uncletopia"],"game_id":440,"stv_port":27036,"stv_name":"Uncletopia | Chicago | 3 | All Maps | STV","players":[{"user_id":609,"name":"viagra addict","steam_id":76561198017705248,"connected_time":1363000000000,"state":"active","ping":49},{"user_id":641,"name":"No Chance of Pearly Gates","steam_id":76561198042570322,"connected_time":830000000000,"state":"active","ping":59},{"user_id":505,"name":"Kritzburgh","steam_id":76561198149466938,"connected_time":3171000000000,"state":"active","ping":64},{"user_id":647,"name":"Arthas Menethil","steam_id":76561198127534492,"connected_time":58000000000,"state":"active","ping":39},{"user_id":354,"name":"i46","steam_id":76561198031675881,"connected_time":11829000000000,"state":"active","ping":40},{"user_id":573,"name":"Bajanga.co","steam_id":76561199122049654,"connected_time":2111000000000,"state":"active","ping":89},{"user_id":646,"name":"A damien","steam_id":76561198174767478,"connected_time":151000000000,"state":"active","ping":92},{"user_id":634,"name":"Clark","steam_id":76561198874839936,"connected_time":883000000000,"state":"active","ping":67},{"user_id":478,"name":"I have no idea what I am doing?","steam_id":76561198093152207,"connected_time":3732000000000,"state":"active","ping":69},{"user_id":632,"name":"Makina","steam_id":76561198057475567,"connected_time":894000000000,"state":"active","ping":71},{"user_id":648,"name":"Jin Mu-Won","steam_id":76561198414122318,"connected_time":23000000000,"state":"active","ping":65},{"user_id":594,"name":"LilDreamer","steam_id":76561198804054102,"connected_time":1646000000000,"state":"active","ping":60},{"user_id":636,"name":"gaming time","steam_id":76561198960683356,"connected_time":867000000000,"state":"active","ping":72},{"user_id":633,"name":"LordOfTheNoobs","steam_id":76561197962697523,"connected_time":894000000000,"state":"active","ping":55},{"user_id":637,"name":"Brisket Cali","steam_id":76561198025549450,"connected_time":865000000000,"state":"active","ping":66},{"user_id":529,"name":"tesagi","steam_id":76561198026664629,"connected_time":2845000000000,"state":"active","ping":50},{"user_id":643,"name":"Stressmelo","steam_id":76561199204445185,"connected_time":765000000000,"state":"active","ping":77},{"user_id":635,"name":"Saggy Haggis Balls","steam_id":76561198047845399,"connected_time":881000000000,"state":"active","ping":72},{"user_id":642,"name":"Karl_Marx_Onlyfans","steam_id":76561198212389613,"connected_time":825000000000,"state":"active","ping":96},{"user_id":639,"name":"‚òÜvalentine‚òÜ","steam_id":76561198413930861,"connected_time":854000000000,"state":"active","ping":63},{"user_id":593,"name":"Thewaffleman141","steam_id":76561198083068694,"connected_time":1662000000000,"state":"active","ping":67},{"user_id":649,"name":"Rudy","steam_id":76561198013456828,"connected_time":22000000000,"state":"active","ping":61},{"user_id":583,"name":"mikey","steam_id":76561198095803763,"connected_time":1891000000000,"state":"active","ping":75},{"user_id":466,"name":"josh","steam_id":76561198077902438,"connected_time":4076000000000,"state":"active","ping":75}]},{"server_id":403,"name":"Uncletopia | Chicago | 4 | All Maps","name_short":"chi-4","host":"chi-1.us.uncletopia.com","port":27045,"enabled":true,"region":"us-central","cc":"us","latitude":41.881832,"longitude":-87.62318,"reserved":0,"last_update":"0001-01-01T00:00:00Z","name_a2s":"Uncletopia | Chicago | 4 | All Maps","protocol":17,"map":"ctf_turbine","folder":"tf","game":"Team Fortress","app_id":440,"player_count":24,"max_players":24,"Bots":0,"server_type":"Dedicated","server_os":"Linux","password":true,"vac":true,"version":"7961495","steam_id":85568392924515193,"keywords":["ctf","nocrits","nodmgspread","uncletopia"],"game_id":440,"stv_port":27046,"stv_name":"Uncletopia | Chicago | 4 | All Maps | STV","players":[{"user_id":550,"name":"Venk","steam_id":76561198251131422,"connected_time":367000000000,"state":"active","ping":71},{"user_id":551,"name":"Jag","steam_id":76561198001220471,"connected_time":290000000000,"state":"active","ping":60},{"user_id":527,"name":"ElephantHydrogen4277882","steam_id":76561198175741741,"connected_time":2043000000000,"state":"active","ping":68},{"user_id":524,"name":"vriska serket","steam_id":76561199345823430,"connected_time":2096000000000,"state":"active","ping":66},{"user_id":528,"name":"Nooblord","steam_id":76561199105123730,"connected_time":2004000000000,"state":"active","ping":100},{"user_id":501,"name":"bobby wasabi","steam_id":76561198380018244,"connected_time":3946000000000,"state":"active","ping":75},{"user_id":537,"name":"BirBinGo","steam_id":76561198356529600,"connected_time":1561000000000,"state":"active","ping":72},{"user_id":548,"name":"jxh300","steam_id":76561199196579894,"connected_time":664000000000,"state":"active","ping":69},{"user_id":557,"name":"blanch","steam_id":76561198850629951,"connected_time":88000000000,"state":"active","ping":73},{"user_id":538,"name":"bobbymcbobington","steam_id":76561199089411172,"connected_time":1498000000000,"state":"active","ping":114},{"user_id":555,"name":"Mung.Choy","steam_id":76561198320493589,"connected_time":212000000000,"state":"active","ping":42},{"user_id":549,"name":"Adum","steam_id":76561198181162382,"connected_time":423000000000,"state":"active","ping":66},{"user_id":539,"name":"Pixel","steam_id":76561198156746320,"connected_time":1483000000000,"state":"active","ping":43},{"user_id":476,"name":"Hindmost","steam_id":76561199081837220,"connected_time":5323000000000,"state":"active","ping":84},{"user_id":547,"name":"Fobby #Savetf2","steam_id":76561198047681469,"connected_time":705000000000,"state":"active","ping":76},{"user_id":541,"name":"88","steam_id":76561198165212575,"connected_time":1402000000000,"state":"active","ping":62},{"user_id":553,"name":"‚ô•Metal.Lee‚ô•","steam_id":76561199141414525,"connected_time":261000000000,"state":"active","ping":55},{"user_id":522,"name":"Polar","steam_id":76561198271964253,"connected_time":2373000000000,"state":"active","ping":75},{"user_id":546,"name":"$0.18","steam_id":76561198360134800,"connected_time":797000000000,"state":"active","ping":73},{"user_id":556,"name":"EririBestGirl","steam_id":76561198200976259,"connected_time":188000000000,"state":"active","ping":59},{"user_id":429,"name":"..!","steam_id":76561198882483441,"connected_time":7693000000000,"state":"active","ping":88},{"user_id":544,"name":"Batman","steam_id":76561198122599533,"connected_time":1288000000000,"state":"active","ping":74},{"user_id":515,"name":"Local Skeleton Pirate Captain","steam_id":76561199387783793,"connected_time":3058000000000,"state":"active","ping":96},{"user_id":521,"name":"breathing meat donut","steam_id":76561198123566649,"connected_time":2768000000000,"state":"active","ping":94}]},{"server_id":36,"name":"Uncletopia | Chicago | 5 | All Maps","name_short":"chi-5","host":"chi-2.us.uncletopia.com","port":27015,"enabled":true,"region":"us-central","cc":"us","latitude":41.881832,"longitude":-87.62318,"reserved":0,"last_update":"0001-01-01T00:00:00Z","name_a2s":"Uncletopia | Chicago | 5 | All Maps","protocol":17,"map":"pl_upward","folder":"tf","game":"Team Fortress","app_id":440,"player_count":22,"max_players":24,"Bots":0,"server_type":"Dedicated","server_os":"Linux","password":true,"vac":true,"version":"7961495","steam_id":85568392924866362,"keywords":["nocrits","nodmgspread","payload","uncletopia"],"game_id":440,"stv_port":27016,"stv_name":"Uncletopia | Chicago | 5 | All Maps | STV","players":[{"user_id":59,"name":"Scorcho","steam_id":76561198071413833,"connected_time":491000000000,"state":"active","ping":92},{"user_id":8,"name":"Rec","steam_id":76561198022813906,"connected_time":3425000000000,"state":"active","ping":47},{"user_id":9,"name":"Mindset","steam_id":76561198107074449,"connected_time":3303000000000,"state":"active","ping":45},{"user_id":11,"name":"Mkwhackertracker","steam_id":76561198128343704,"connected_time":3056000000000,"state":"active","ping":61},{"user_id":12,"name":"Sketch","steam_id":76561198170692678,"connected_time":3029000000000,"state":"active","ping":76},{"user_id":61,"name":"Jetmonkey","steam_id":76561198013652143,"connected_time":155000000000,"state":"active","ping":72},{"user_id":24,"name":"emeraldrhymes","steam_id":76561198842486176,"connected_time":2718000000000,"state":"active","ping":79},{"user_id":62,"name":"Triwq","steam_id":76561198054810406,"connected_time":96000000000,"state":"active","ping":60},{"user_id":52,"name":"corned beef","steam_id":76561199366782761,"connected_time":974000000000,"state":"active","ping":154},{"user_id":30,"name":"Wilhelmktx","steam_id":76561198158102295,"connected_time":2578000000000,"state":"active","ping":45},{"user_id":26,"name":"ChillyJones","steam_id":76561198017658702,"connected_time":2670000000000,"state":"active","ping":83},{"user_id":40,"name":"CoffeeZombee","steam_id":76561198172708053,"connected_time":2432000000000,"state":"active","ping":110},{"user_id":47,"name":"brains","steam_id":76561198197388678,"connected_time":1726000000000,"state":"active","ping":90},{"user_id":63,"name":"jorjor wells","steam_id":76561199073429082,"connected_time":9000000000,"state":"spawning","ping":59},{"user_id":31,"name":"Triple-Edged","steam_id":76561198308472155,"connected_time":2569000000000,"state":"active","ping":57},{"user_id":32,"name":"BEES","steam_id":76561198811545874,"connected_time":2540000000000,"state":"active","ping":63},{"user_id":33,"name":"Extro","steam_id":76561198178908694,"connected_time":2533000000000,"state":"active","ping":58},{"user_id":34,"name":"Lil' Diabeetus","steam_id":76561198330119627,"connected_time":2531000000000,"state":"active","ping":75},{"user_id":42,"name":"Bonibunz","steam_id":76561198878583402,"connected_time":2112000000000,"state":"active","ping":98},{"user_id":37,"name":"marconaples111","steam_id":76561199418673046,"connected_time":2464000000000,"state":"active","ping":66},{"user_id":38,"name":"‚ù§Breadshot (She)‚ù§","steam_id":76561199005756738,"connected_time":2449000000000,"state":"active","ping":59},{"user_id":56,"name":"Grilled Jizo","steam_id":76561199250875340,"connected_time":638000000000,"state":"active","ping":74}]},{"server_id":37,"name":"Uncletopia | Chicago | 6 | All Maps","name_short":"chi-6","host":"chi-2.us.uncletopia.com","port":27025,"enabled":true,"region":"us-central","cc":"us","latitude":41.881832,"longitude":-87.62318,"reserved":0,"last_update":"0001-01-01T00:00:00Z","name_a2s":"Uncletopia | Chicago | 6 | All Maps","protocol":17,"map":"koth_cascade","folder":"tf","game":"Team Fortress","app_id":440,"player_count":0,"max_players":24,"Bots":0,"server_type":"Dedicated","server_os":"Linux","password":true,"vac":true,"version":"7961495","steam_id":85568392924866363,"keywords":["cp","nocrits","nodmgspread","uncletopia"],"game_id":440,"stv_port":27026,"stv_name":"Uncletopia | Chicago | 6 | All Maps | STV","players":null},{"server_id":38,"name":"Uncletopia | Chicago | 7 | Stopwatch Beta","name_short":"chi-7","host":"chi-2.us.uncletopia.com","port":27035,"enabled":true,"region":"us-central","cc":"us","latitude":41.881832,"longitude":-87.62318,"reserved":0,"last_update":"0001-01-01T00:00:00Z","name_a2s":"Uncletopia | Chicago | 7 | Stopwatch Beta","protocol":17,"map":"pl_badwater","folder":"tf","game":"Team Fortress","app_id":440,"player_count":0,"max_players":24,"Bots":0,"server_type":"Dedicated","server_os":"Linux","password":true,"vac":true,"version":"7961495","steam_id":85568392924866364,"keywords":["nocrits","nodmgspread","payload","uncletopia"],"game_id":440,"stv_port":27036,"stv_name":"Uncletopia | Chicago | 7 | Stopwatch Beta | STV","players":null},{"server_id":39,"name":"Uncletopia | Chicago | 8 | Community","name_short":"chi-8","host":"chi-2.us.uncletopia.com","port":27045,"enabled":true,"region":"us-central","cc":"us","latitude":41.881832,"longitude":-87.62318,"reserved":0,"last_update":"0001-01-01T00:00:00Z","name_a2s":"Uncletopia | Chicago | 8 | Community","protocol":17,"map":"workshop/cp_indulge.ugc528106646","folder":"tf","game":"Team Fortress","app_id":440,"player_count":23,"max_players":24,"Bots":0,"server_type":"Dedicated","server_os":"Linux","password":true,"vac":true,"version":"7961495","steam_id":85568392924866365,"keywords":["cp","nocrits","nodmgspread","uncletopia"],"game_id":440,"stv_port":27046,"stv_name":"Uncletopia | Chicago | 8 | Community | STV","players":[{"user_id":79,"name":"mr_random_mr","steam_id":76561199485678347,"connected_time":2307000000000,"state":"active","ping":62},{"user_id":99,"name":"Owl Daddy","steam_id":76561198006250352,"connected_time":1152000000000,"state":"active","ping":61},{"user_id":105,"name":"wawa","steam_id":76561198115556074,"connected_time":908000000000,"state":"active","ping":59},{"user_id":12,"name":"magickxanadu","steam_id":76561199117360103,"connected_time":5979000000000,"state":"active","ping":94},{"user_id":109,"name":"kloada","steam_id":76561198082113271,"connected_time":383000000000,"state":"active","ping":160},{"user_id":74,"name":"Team Fortress","steam_id":76561198058722801,"connected_time":2542000000000,"state":"active","ping":156},{"user_id":101,"name":"TheGrassMan (He/Him)","steam_id":76561198118984048,"connected_time":1088000000000,"state":"active","ping":71},{"user_id":98,"name":"Mr.AAPN","steam_id":76561198073763769,"connected_time":1180000000000,"state":"active","ping":127},{"user_id":112,"name":"[DEEP]able","steam_id":76561198292552182,"connected_time":308000000000,"state":"active","ping":46},{"user_id":106,"name":"Poberl","steam_id":76561198823051158,"connected_time":785000000000,"state":"active","ping":57},{"user_id":82,"name":"Nivet Fox","steam_id":76561198135362867,"connected_time":2170000000000,"state":"active","ping":46},{"user_id":92,"name":"Copland OS","steam_id":76561198041800378,"connected_time":1541000000000,"state":"active","ping":74},{"user_id":107,"name":"Steev Stanman","steam_id":76561198048417796,"connected_time":509000000000,"state":"active","ping":47},{"user_id":63,"name":"Astrozombeez","steam_id":76561198113754079,"connected_time":2778000000000,"state":"active","ping":103},{"user_id":103,"name":"Sollyz","steam_id":76561198081110786,"connected_time":1007000000000,"state":"active","ping":101},{"user_id":96,"name":"primordialheath","steam_id":76561199386942638,"connected_time":1374000000000,"state":"active","ping":60},{"user_id":110,"name":"Mr.Deer","steam_id":76561198967106276,"connected_time":343000000000,"state":"active","ping":73},{"user_id":104,"name":"Large Man","steam_id":76561198880396651,"connected_time":985000000000,"state":"active","ping":76},{"user_id":113,"name":"Node‚ãÑ","steam_id":76561198219359475,"connected_time":304000000000,"state":"active","ping":64},{"user_id":54,"name":"Gluppo","steam_id":76561198379320087,"connected_time":3896000000000,"state":"active","ping":75},{"user_id":55,"name":"Grease Magician","steam_id":76561198285410854,"connected_time":3884000000000,"state":"active","ping":82},{"user_id":115,"name":"JambaJuice","steam_id":76561198806736231,"connected_time":139000000000,"state":"active","ping":78},{"user_id":84,"name":"jon.cinnamon","steam_id":76561198127316418,"connected_time":2134000000000,"state":"active","ping":61}]},{"server_id":8,"name":"Uncletopia | Dallas | 1 | All Maps","name_short":"dal-1","host":"dal-1.us.uncletopia.com","port":27015,"enabled":true,"region":"us-central","cc":"us","latitude":32.779167,"longitude":-96.80889,"reserved":0,"last_update":"0001-01-01T00:00:00Z","name_a2s":"Uncletopia | Dallas | 1 | All Maps","protocol":17,"map":"koth_highpass","folder":"tf","game":"Team Fortress","app_id":440,"player_count":24,"max_players":24,"Bots":0,"server_type":"Dedicated","server_os":"Linux","password":true,"vac":true,"version":"7961495","steam_id":85568392924469986,"keywords":["cp","nocrits","nodmgspread","uncletopia"],"game_id":440,"stv_port":27016,"stv_name":"Uncletopia | Dallas | 1 | All Maps | STV","players":[{"user_id":410,"name":"CORGI.EXE","steam_id":76561198077093432,"connected_time":3147000000000,"state":"active","ping":89},{"user_id":464,"name":"Gyro","steam_id":76561198296034596,"connected_time":246000000000,"state":"active","ping":78},{"user_id":417,"name":"Kaloop5","steam_id":76561198971254775,"connected_time":2439000000000,"state":"active","ping":136},{"user_id":461,"name":"shakoiwa","steam_id":76561199059441773,"connected_time":381000000000,"state":"active","ping":113},{"user_id":424,"name":"BatJet","steam_id":76561198147738441,"connected_time":2169000000000,"state":"active","ping":102},{"user_id":457,"name":"fasterbum","steam_id":76561198142577444,"connected_time":612000000000,"state":"active","ping":73},{"user_id":452,"name":"Johnny Lawrence #JohnnyMaxxing","steam_id":76561199367141671,"connected_time":808000000000,"state":"active","ping":87},{"user_id":451,"name":"narwhal","steam_id":76561198879724555,"connected_time":824000000000,"state":"active","ping":103},{"user_id":448,"name":"aflyingmouse","steam_id":76561198058134934,"connected_time":1002000000000,"state":"active","ping":111},{"user_id":454,"name":"Wahaha hee","steam_id":76561198098017157,"connected_time":671000000000,"state":"active","ping":65},{"user_id":437,"name":"Captain Bong Rips","steam_id":76561198065946939,"connected_time":1747000000000,"state":"active","ping":103},{"user_id":423,"name":"Unk","steam_id":76561198031717617,"connected_time":2181000000000,"state":"active","ping":83},{"user_id":458,"name":"Seller of Waffles","steam_id":76561198296018138,"connected_time":610000000000,"state":"active","ping":75},{"user_id":425,"name":"tonybaloney","steam_id":76561199434233117,"connected_time":2159000000000,"state":"active","ping":53},{"user_id":455,"name":"TheSecretNewbie","steam_id":76561198194671218,"connected_time":665000000000,"state":"active","ping":58},{"user_id":445,"name":"flippercurve","steam_id":76561199238295034,"connected_time":1171000000000,"state":"active","ping":73},{"user_id":465,"name":"Deev","steam_id":76561199066929188,"connected_time":241000000000,"state":"active","ping":78},{"user_id":463,"name":"chanoc","steam_id":76561198026734746,"connected_time":317000000000,"state":"active","ping":90},{"user_id":447,"name":"White_Wizard_Named_Corona","steam_id":76561198055652735,"connected_time":1049000000000,"state":"active","ping":70},{"user_id":460,"name":"Suburban Wolf Dad","steam_id":76561198069234954,"connected_time":439000000000,"state":"active","ping":83},{"user_id":439,"name":"PissJar","steam_id":76561199205120538,"connected_time":1592000000000,"state":"active","ping":89},{"user_id":436,"name":"Peepster","steam_id":76561198297854733,"connected_time":1770000000000,"state":"active","ping":99},{"user_id":428,"name":"Ghoulenoir","steam_id":76561198074314573,"connected_time":1874000000000,"state":"active","ping":71},{"user_id":440,"name":"Anonymous Redneck","steam_id":76561198006140954,"connected_time":1591000000000,"state":"active","ping":94}]},{"server_id":108,"name":"Uncletopia | Dallas | 2 | All Maps","name_short":"dal-2","host":"dal-1.us.uncletopia.com","port":27025,"enabled":true,"region":"us-central","cc":"us","latitude":32.779167,"longitude":-96.80889,"reserved":0,"last_update":"0001-01-01T00:00:00Z","name_a2s":"Uncletopia | Dallas | 2 | All Maps","protocol":17,"map":"pl_barnblitz","folder":"tf","game":"Team Fortress","app_id":440,"player_count":24,"max_players":24,"Bots":0,"server_type":"Dedicated","server_os":"Linux","password":true,"vac":true,"version":"7961495","steam_id":85568392924469988,"keywords":["nocrits","nodmgspread","payload","uncletopia"],"game_id":440,"stv_port":27026,"stv_name":"Uncletopia | Dallas | 2 | All Maps | STV","players":[{"user_id":365,"name":"Skinny pete","steam_id":76561198801608576,"connected_time":3500000000000,"state":"active","ping":47},{"user_id":363,"name":"GlizzLord","steam_id":76561198321010427,"connected_time":3538000000000,"state":"active","ping":84},{"user_id":397,"name":"Echolu","steam_id":76561198158613750,"connected_time":304000000000,"state":"active","ping":90},{"user_id":395,"name":"‚òÜDoggirl Genius‚òÜ","steam_id":76561198083243888,"connected_time":748000000000,"state":"active","ping":84},{"user_id":389,"name":"slowdance","steam_id":76561198097427947,"connected_time":1414000000000,"state":"active","ping":124},{"user_id":396,"name":"Beat-box champ","steam_id":76561198115714484,"connected_time":647000000000,"state":"active","ping":134},{"user_id":390,"name":"Richthegamerguy","steam_id":76561198119595413,"connected_time":1402000000000,"state":"active","ping":88},{"user_id":375,"name":"Liebestr√§ume","steam_id":76561198038862034,"connected_time":3049000000000,"state":"active","ping":71},{"user_id":355,"name":"Gelliterate","steam_id":76561198107233070,"connected_time":4873000000000,"state":"active","ping":57},{"user_id":351,"name":"kermitcreeper(ZAZA)","steam_id":76561199222829972,"connected_time":5171000000000,"state":"active","ping":66},{"user_id":382,"name":"icm2008 #SaveTF2","steam_id":76561199277408836,"connected_time":2309000000000,"state":"active","ping":90},{"user_id":398,"name":"Orange Triangle","steam_id":76561198320498182,"connected_time":257000000000,"state":"active","ping":84},{"user_id":400,"name":"Cheesy","steam_id":76561199229617447,"connected_time":75000000000,"state":"active","ping":79},{"user_id":401,"name":"smooth brain","steam_id":76561198049253541,"connected_time":57000000000,"state":"active","ping":69},{"user_id":393,"name":"2JZ_","steam_id":76561198064027289,"connected_time":1098000000000,"state":"active","ping":74},{"user_id":324,"name":"Deadline","steam_id":76561199079078845,"connected_time":7558000000000,"state":"active","ping":92},{"user_id":394,"name":"giveit5","steam_id":76561198030815437,"connected_time":760000000000,"state":"active","ping":74},{"user_id":391,"name":"Zycron0","steam_id":76561199122983789,"connected_time":1346000000000,"state":"active","ping":102},{"user_id":392,"name":"schmuck","steam_id":76561198143789773,"connected_time":1344000000000,"state":"active","ping":59},{"user_id":354,"name":"Panda Loser","steam_id":76561198828745176,"connected_time":4952000000000,"state":"active","ping":86},{"user_id":402,"name":"NotBob","steam_id":76561199135833086,"connected_time":28000000000,"state":"active","ping":111},{"user_id":370,"name":"Rockhead","steam_id":76561197995196535,"connected_time":3426000000000,"state":"active","ping":96},{"user_id":377,"name":"Els (F2P)","steam_id":76561199129761684,"connected_time":2944000000000,"state":"active","ping":80},{"user_id":325,"name":"[√òWQJ√ò]chubacaalatake","steam_id":76561198136201697,"connected_time":7557000000000,"state":"active","ping":132}]},{"server_id":404,"name":"Uncletopia | Dallas | 3 | All Maps","name_short":"dal-3","host":"dal-1.us.uncletopia.com","port":27035,"enabled":true,"region":"us-central","cc":"us","latitude":32.779167,"longitude":-96.80889,"reserved":0,"last_update":"0001-01-01T00:00:00Z","name_a2s":"Uncletopia | Dallas | 3 | All Maps","protocol":17,"map":"pl_frontier_final","folder":"tf","game":"Team Fortress","app_id":440,"player_count":24,"max_players":24,"Bots":0,"server_type":"Dedicated","server_os":"Linux","password":true,"vac":true,"version":"7961495","steam_id":85568392924515219,"keywords":["nocrits","nodmgspread","payload","uncletopia"],"game_id":440,"stv_port":27036,"stv_name":"Uncletopia | Dallas | 3 | All Maps | STV","players":[{"user_id":217,"name":"CorgiYasu","steam_id":76561198082298201,"connected_time":1683000000000,"state":"active","ping":75},{"user_id":210,"name":"JayRawgTV","steam_id":76561198044402840,"connected_time":2363000000000,"state":"active","ping":43},{"user_id":198,"name":"Missing Minus","steam_id":76561198120822928,"connected_time":2672000000000,"state":"active","ping":62},{"user_id":205,"name":"The Spanked Monkey","steam_id":76561198128293111,"connected_time":2534000000000,"state":"active","ping":84},{"user_id":213,"name":"Voodo133","steam_id":76561198042670351,"connected_time":2046000000000,"state":"active","ping":104},{"user_id":175,"name":"Chunk Stuffer","steam_id":76561198856508573,"connected_time":3693000000000,"state":"active","ping":38},{"user_id":231,"name":"nickname 123","steam_id":76561198080234033,"connected_time":437000000000,"state":"active","ping":85},{"user_id":218,"name":"Meep","steam_id":76561198044645661,"connected_time":1671000000000,"state":"active","ping":97},{"user_id":235,"name":"Colonel Salt","steam_id":76561198207009563,"connected_time":287000000000,"state":"active","ping":59},{"user_id":230,"name":"BlasterPrime","steam_id":76561198084154062,"connected_time":685000000000,"state":"active","ping":45},{"user_id":239,"name":"PizzaFratello","steam_id":76561199059951970,"connected_time":36000000000,"state":"active","ping":113},{"user_id":219,"name":"Prime","steam_id":76561198218218705,"connected_time":1620000000000,"state":"active","ping":91},{"user_id":199,"name":"Mr.Pwesident","steam_id":76561198058114703,"connected_time":2662000000000,"state":"active","ping":95},{"user_id":233,"name":"Xenophile","steam_id":76561198044772435,"connected_time":379000000000,"state":"active","ping":60},{"user_id":234,"name":"Wehttam","steam_id":76561199229493583,"connected_time":364000000000,"state":"active","ping":90},{"user_id":223,"name":"JohnsBriefcase","steam_id":76561198117657002,"connected_time":1356000000000,"state":"active","ping":87},{"user_id":220,"name":"A Fruit","steam_id":76561198951830050,"connected_time":1608000000000,"state":"active","ping":44},{"user_id":164,"name":"Sakura Futaba","steam_id":76561198017153764,"connected_time":4652000000000,"state":"active","ping":89},{"user_id":216,"name":"G‡∂ûMER","steam_id":76561198340389876,"connected_time":2033000000000,"state":"active","ping":89},{"user_id":200,"name":"dog","steam_id":76561198263873491,"connected_time":2657000000000,"state":"active","ping":63},{"user_id":232,"name":"Manofmanybeans","steam_id":76561199213349938,"connected_time":421000000000,"state":"active","ping":118},{"user_id":236,"name":"Spy (I Love spy)","steam_id":76561199138738952,"connected_time":240000000000,"state":"active","ping":71},{"user_id":161,"name":"Prez Pineapple","steam_id":76561198253755258,"connected_time":5319000000000,"state":"active","ping":100},{"user_id":229,"name":"Yoshika","steam_id":76561198036858169,"connected_time":771000000000,"state":"active","ping":88}]},{"server_id":405,"name":"Uncletopia | Dallas | 4 | Community","name_short":"dal-4","host":"dal-1.us.uncletopia.com","port":27045,"enabled":true,"region":"us-central","cc":"us","latitude":32.779167,"longitude":-96.80889,"reserved":0,"last_update":"0001-01-01T00:00:00Z","name_a2s":"Uncletopia | Dallas | 4 | Community","protocol":17,"map":"workshop/cp_croissant_final.ugc458840209","folder":"tf","game":"Team Fortress","app_id":440,"player_count":0,"max_players":24,"Bots":0,"server_type":"Dedicated","server_os":"Linux","password":true,"vac":true,"version":"7961495","steam_id":85568392924515220,"keywords":["cp","nocrits","nodmgspread","uncletopia"],"game_id":440,"stv_port":27046,"stv_name":"Uncletopia | Dallas | 4 | Community | STV","players":null},{"server_id":5,"name":"Uncletopia | Frankfurt | 1 | All Maps","name_short":"frk-1","host":"frk-1.de.uncletopia.com","port":27015,"enabled":true,"region":"eu","cc":"de","latitude":50.110924,"longitude":8.682127,"reserved":0,"last_update":"0001-01-01T00:00:00Z","name_a2s":"Uncletopia | Frankfurt | 1 | All Maps","protocol":17,"map":"cp_snakewater_final1","folder":"tf","game":"Team Fortress","app_id":440,"player_count":0,"max_players":24,"Bots":0,"server_type":"Dedicated","server_os":"Linux","password":true,"vac":true,"version":"7961495","steam_id":85568392924469989,"keywords":["cp","nocrits","nodmgspread","uncletopia"],"game_id":440,"stv_port":27016,"stv_name":"Uncletopia | Frankfurt | 1 | All Maps | STV","players":null},{"server_id":110,"name":"Uncletopia | Frankfurt | 2 | All Maps","name_short":"frk-2","host":"frk-1.de.uncletopia.com","port":27025,"enabled":true,"region":"eu","cc":"de","latitude":50.110924,"longitude":8.682127,"reserved":0,"last_update":"0001-01-01T00:00:00Z","name_a2s":"Uncletopia | Frankfurt | 2 | All Maps","protocol":17,"map":"pl_borneo","folder":"tf","game":"Team Fortress","app_id":440,"player_count":24,"max_players":24,"Bots":0,"server_type":"Dedicated","server_os":"Linux","password":true,"vac":true,"version":"7961495","steam_id":85568392924469990,"keywords":["nocrits","nodmgspread","payload","uncletopia"],"game_id":440,"stv_port":27026,"stv_name":"Uncletopia | Frankfurt | 2 | All Maps | STV","players":[{"user_id":192,"name":"Quantum","steam_id":76561198324439066,"connected_time":1199000000000,"state":"active","ping":153},{"user_id":194,"name":"JeanCorben","steam_id":76561197965133561,"connected_time":1113000000000,"state":"active","ping":46},{"user_id":157,"name":"RedCloud","steam_id":76561198091543759,"connected_time":4336000000000,"state":"active","ping":70},{"user_id":97,"name":"LordTrap.exe","steam_id":76561198318089716,"connected_time":8642000000000,"state":"active","ping":60},{"user_id":151,"name":"Nobody","steam_id":76561198151116796,"connected_time":5060000000000,"state":"active","ping":81},{"user_id":216,"name":"miiq130","steam_id":76561198188010666,"connected_time":55000000000,"state":"active","ping":75},{"user_id":185,"name":"Niemen","steam_id":76561198021559905,"connected_time":1573000000000,"state":"active","ping":72},{"user_id":162,"name":"Broint","steam_id":76561198041658071,"connected_time":3524000000000,"state":"active","ping":71},{"user_id":210,"name":"AgentFTW","steam_id":76561198110941299,"connected_time":547000000000,"state":"active","ping":67},{"user_id":182,"name":"punchmypotatoes","steam_id":76561198091255731,"connected_time":1967000000000,"state":"active","ping":67},{"user_id":212,"name":"anders McFlanders","steam_id":76561198022811995,"connected_time":467000000000,"state":"active","ping":65},{"user_id":195,"name":"Popop","steam_id":76561198004793795,"connected_time":1113000000000,"state":"active","ping":47},{"user_id":202,"name":"–ê–±—Å–æ–ª—é—Ç–Ω–∞—è –≤–æ–¥–∫–∞","steam_id":76561198886250433,"connected_time":1018000000000,"state":"active","ping":74},{"user_id":152,"name":"JoJo","steam_id":76561198067837685,"connected_time":4931000000000,"state":"active","ping":66},{"user_id":189,"name":"why rum gone","steam_id":76561198158484784,"connected_time":1440000000000,"state":"active","ping":56},{"user_id":196,"name":"G.R.E","steam_id":76561197979806514,"connected_time":1110000000000,"state":"active","ping":47},{"user_id":217,"name":"o_o","steam_id":76561198113045011,"connected_time":27000000000,"state":"active","ping":89},{"user_id":167,"name":"YeeterSkeeter","steam_id":76561198015380933,"connected_time":3339000000000,"state":"active","ping":55},{"user_id":181,"name":"domek","steam_id":76561198048447632,"connected_time":2149000000000,"state":"active","ping":71},{"user_id":191,"name":"Jude!","steam_id":76561197983597798,"connected_time":1415000000000,"state":"active","ping":48},{"user_id":199,"name":"hasansaeedifar","steam_id":76561198974563618,"connected_time":1071000000000,"state":"active","ping":163},{"user_id":200,"name":"etc","steam_id":76561197998394797,"connected_time":1052000000000,"state":"active","ping":59},{"user_id":201,"name":"Milk","steam_id":76561198125876588,"connected_time":1043000000000,"state":"active","ping":51},{"user_id":206,"name":"whatwasithinking","steam_id":76561198214848887,"connected_time":753000000000,"state":"active","ping":60}]},{"server_id":308,"name":"Uncletopia | Frankfurt | 3 | All Maps","name_short":"frk-3","host":"frk-1.de.uncletopia.com","port":27035,"enabled":true,"region":"eu","cc":"de","latitude":50.110924,"longitude":8.682127,"reserved":0,"last_update":"0001-01-01T00:00:00Z","name_a2s":"Uncletopia | Frankfurt | 3 | All Maps","protocol":17,"map":"pl_pier","folder":"tf","game":"Team Fortress","app_id":440,"player_count":18,"max_players":24,"Bots":0,"server_type":"Dedicated","server_os":"Linux","password":true,"vac":true,"version":"7961495","steam_id":85568392924504274,"keywords":["nocrits","nodmgspread","payload","uncletopia"],"game_id":440,"stv_port":27036,"stv_name":"Uncletopia | Frankfurt | 3 | All Maps | STV","players":[{"user_id":365,"name":"Cabbch","steam_id":76561198045955679,"connected_time":1343000000000,"state":"active","ping":47},{"user_id":360,"name":"üòà COCKDESTROYER üòà","steam_id":76561198042846999,"connected_time":2281000000000,"state":"active","ping":73},{"user_id":372,"name":"Marquis de Hoto","steam_id":76561198080687708,"connected_time":1069000000000,"state":"active","ping":59},{"user_id":380,"name":"Void Termina","steam_id":76561198322466720,"connected_time":556000000000,"state":"active","ping":68},{"user_id":378,"name":"Urfangonultasadana","steam_id":76561199389286151,"connected_time":639000000000,"state":"active","ping":91},{"user_id":343,"name":"Lyncurion","steam_id":76561199260022725,"connected_time":3794000000000,"state":"active","ping":77},{"user_id":381,"name":"[HOL] Solringen","steam_id":76561198003584681,"connected_time":480000000000,"state":"active","ping":66},{"user_id":375,"name":"OwOHC","steam_id":76561198859407364,"connected_time":1013000000000,"state":"active","ping":144},{"user_id":346,"name":"Just Navlis","steam_id":76561198090479609,"connected_time":3763000000000,"state":"active","ping":45},{"user_id":335,"name":"Toxic_Cicity","steam_id":76561198165753440,"connected_time":4414000000000,"state":"active","ping":101},{"user_id":382,"name":"kaiji_saleh","steam_id":76561199274325425,"connected_time":268000000000,"state":"active","ping":166},{"user_id":379,"name":"VK2124 :D","steam_id":76561198111130688,"connected_time":590000000000,"state":"active","ping":45},{"user_id":364,"name":"Shadow Wizard Chapsticky","steam_id":76561198148185178,"connected_time":1726000000000,"state":"active","ping":85},{"user_id":387,"name":"trans werewolf","steam_id":76561198107235989,"connected_time":22000000000,"state":"active","ping":49},{"user_id":384,"name":"Mike","steam_id":76561198228455736,"connected_time":163000000000,"state":"active","ping":62},{"user_id":385,"name":"gaming gamer","steam_id":76561198212488780,"connected_time":128000000000,"state":"active","ping":60},{"user_id":338,"name":"MatarArg","steam_id":76561198280246498,"connected_time":4357000000000,"state":"active","ping":111},{"user_id":366,"name":"Sezolas","steam_id":76561198305409704,"connected_time":1241000000000,"state":"active","ping":97}]},{"server_id":309,"name":"Uncletopia | Frankfurt | 4 | All Maps","name_short":"frk-4","host":"frk-1.de.uncletopia.com","port":27045,"enabled":true,"region":"eu","cc":"de","latitude":50.110924,"longitude":8.682127,"reserved":0,"last_update":"0001-01-01T00:00:00Z","name_a2s":"Uncletopia | Frankfurt | 4 | All Maps","protocol":17,"map":"pl_snowycoast","folder":"tf","game":"Team Fortress","app_id":440,"player_count":21,"max_players":24,"Bots":0,"server_type":"Dedicated","server_os":"Linux","password":true,"vac":true,"version":"7961495","steam_id":85568392924504275,"keywords":["nocrits","nodmgspread","payload","uncletopia"],"game_id":440,"stv_port":27046,"stv_name":"Uncletopia | Frankfurt | 4 | All Maps | STV","players":[{"user_id":197,"name":"fartj","steam_id":76561198219325255,"connected_time":301000000000,"state":"spawning","ping":78},{"user_id":203,"name":"–æ–Ω","steam_id":76561198172046813,"connected_time":3000000000,"state":"spawning","ping":68},{"user_id":204,"name":"bitkomet","steam_id":76561198058232147,"connected_time":1000000000,"state":"spawning","ping":54},{"user_id":145,"name":"Pepis the smelly","steam_id":76561198191369066,"connected_time":3546000000000,"state":"spawning","ping":108},{"user_id":191,"name":"Sprite790856","steam_id":76561198440389325,"connected_time":912000000000,"state":"spawning","ping":167},{"user_id":184,"name":"Winthworth","steam_id":76561198344675206,"connected_time":1659000000000,"state":"spawning","ping":47},{"user_id":125,"name":"kalid","steam_id":76561198051468640,"connected_time":4240000000000,"state":"spawning","ping":63},{"user_id":194,"name":"Los Trollos","steam_id":76561199094592508,"connected_time":713000000000,"state":"spawning","ping":63},{"user_id":198,"name":"zomis","steam_id":76561198217812789,"connected_time":255000000000,"state":"spawning","ping":83},{"user_id":171,"name":"Middle","steam_id":76561198039147753,"connected_time":2156000000000,"state":"spawning","ping":59},{"user_id":165,"name":"xarks","steam_id":76561198026236701,"connected_time":2794000000000,"state":"spawning","ping":77},{"user_id":199,"name":"Bombilla","steam_id":76561198084281798,"connected_time":236000000000,"state":"spawning","ping":229},{"user_id":192,"name":"TriR–ò–å","steam_id":76561198119622375,"connected_time":904000000000,"state":"spawning","ping":80},{"user_id":200,"name":"Funny Man 625","steam_id":76561198256807474,"connected_time":196000000000,"state":"spawning","ping":58},{"user_id":151,"name":"T-90","steam_id":76561198091109552,"connected_time":3463000000000,"state":"spawning","ping":85},{"user_id":193,"name":"hawkblob","steam_id":76561198803720565,"connected_time":851000000000,"state":"spawning","ping":79},{"user_id":201,"name":"Galleren","steam_id":76561198347887402,"connected_time":186000000000,"state":"spawning","ping":64},{"user_id":179,"name":"Zm4j","steam_id":76561198259465946,"connected_time":1992000000000,"state":"active","ping":346},{"user_id":136,"name":"rob","steam_id":76561198122211848,"connected_time":3910000000000,"state":"spawning","ping":97},{"user_id":202,"name":"Pvt. Prinny","steam_id":76561198030278562,"connected_time":181000000000,"state":"spawning","ping":54},{"user_id":183,"name":"Villdjack","steam_id":76561197999480096,"connected_time":1753000000000,"state":"spawning","ping":104}]},{"server_id":310,"name":"Uncletopia | Frankfurt | 5 | All Maps","name_short":"frk-5","host":"frk-1.de.uncletopia.com","port":27055,"enabled":true,"region":"eu","cc":"de","latitude":50.110924,"longitude":8.682127,"reserved":0,"last_update":"0001-01-01T00:00:00Z","name_a2s":"Uncletopia | Frankfurt | 5 | All Maps","protocol":17,"map":"pl_borneo","folder":"tf","game":"Team Fortress","app_id":440,"player_count":22,"max_players":24,"Bots":0,"server_type":"Dedicated","server_os":"Linux","password":true,"vac":true,"version":"7961495","steam_id":85568392924504277,"keywords":["nocrits","nodmgspread","payload","uncletopia"],"game_id":440,"stv_port":27056,"stv_name":"Uncletopia | Frankfurt | 5 | All Maps | STV","players":[{"user_id":175,"name":"Slavdrew20","steam_id":76561198874638395,"connected_time":1143000000000,"state":"active","ping":65},{"user_id":169,"name":"yush","steam_id":76561198121688934,"connected_time":1343000000000,"state":"active","ping":68},{"user_id":150,"name":"üÉî Katarina","steam_id":76561198065652251,"connected_time":2419000000000,"state":"active","ping":40},{"user_id":181,"name":"generic alias","steam_id":76561198271607226,"connected_time":165000000000,"state":"active","ping":95},{"user_id":180,"name":"anor londo","steam_id":76561198056197307,"connected_time":184000000000,"state":"active","ping":44},{"user_id":142,"name":"Baskin","steam_id":76561198275982976,"connected_time":2563000000000,"state":"active","ping":116},{"user_id":162,"name":"–∏–≥–ª–∞","steam_id":76561198120760515,"connected_time":1705000000000,"state":"active","ping":77},{"user_id":163,"name":"tone","steam_id":76561197975301462,"connected_time":1564000000000,"state":"active","ping":86},{"user_id":170,"name":"Rustyunderscore","steam_id":76561198277177996,"connected_time":1333000000000,"state":"active","ping":62},{"user_id":145,"name":"B≈Å√§ck..","steam_id":76561198300644952,"connected_time":2498000000000,"state":"active","ping":64},{"user_id":184,"name":"Xonrus","steam_id":76561198074717396,"connected_time":10000000000,"state":"spawning","ping":45},{"user_id":166,"name":"Doctor Marijuana","steam_id":76561198288289879,"connected_time":1471000000000,"state":"active","ping":61},{"user_id":174,"name":"Hleno","steam_id":76561198060442619,"connected_time":1281000000000,"state":"active","ping":45},{"user_id":148,"name":"Germanium_Ge","steam_id":76561198130561775,"connected_time":2430000000000,"state":"active","ping":63},{"user_id":130,"name":"I jazzed myself","steam_id":76561198203016603,"connected_time":3265000000000,"state":"active","ping":83},{"user_id":160,"name":"fernandobmwm355555","steam_id":76561198086609447,"connected_time":2172000000000,"state":"active","ping":47},{"user_id":176,"name":"j√π xiƒì","steam_id":76561198096189399,"connected_time":1097000000000,"state":"active","ping":52},{"user_id":152,"name":"void_tech_1234","steam_id":76561198245254406,"connected_time":2398000000000,"state":"active","ping":77},{"user_id":124,"name":"Max Power","steam_id":76561198019269089,"connected_time":3955000000000,"state":"active","ping":51},{"user_id":135,"name":"Dokuro","steam_id":76561198005413903,"connected_time":3155000000000,"state":"active","ping":71},{"user_id":178,"name":"( ¬¥ÔΩ•œâÔΩ• `)","steam_id":76561198118412910,"connected_time":1080000000000,"state":"active","ping":134},{"user_id":154,"name":"jge","steam_id":76561198123186387,"connected_time":2386000000000,"state":"active","ping":60}]},{"server_id":311,"name":"Uncletopia | Frankfurt | 6 | All Maps","name_short":"frk-6","host":"frk-1.de.uncletopia.com","port":27065,"enabled":true,"region":"eu","cc":"de","latitude":50.110924,"longitude":8.682127,"reserved":0,"last_update":"0001-01-01T00:00:00Z","name_a2s":"Uncletopia | Frankfurt | 6 | All Maps","protocol":17,"map":"cp_sunshine","folder":"tf","game":"Team Fortress","app_id":440,"player_count":0,"max_players":24,"Bots":0,"server_type":"Dedicated","server_os":"Linux","password":true,"vac":true,"version":"7961495","steam_id":85568392924504278,"keywords":["cp","nocrits","nodmgspread","uncletopia"],"game_id":440,"stv_port":27066,"stv_name":"Uncletopia | Frankfurt | 6 | All Maps | STV","players":null},{"server_id":23,"name":"Uncletopia | Frankfurt | 7 | Stopwatch Beta","name_short":"frk-7","host":"frk-1.de.uncletopia.com","port":27075,"enabled":true,"region":"eu","cc":"de","latitude":50.110924,"longitude":8.682127,"reserved":0,"last_update":"0001-01-01T00:00:00Z","name_a2s":"Uncletopia | Frankfurt | 7 | Stopwatch Beta","protocol":17,"map":"workshop/koth_bagel_rc6.ugc2514036946","folder":"tf","game":"Team Fortress","app_id":440,"player_count":0,"max_players":24,"Bots":0,"server_type":"Dedicated","server_os":"Linux","password":true,"vac":true,"version":"7961495","steam_id":85568392924742827,"keywords":["cp","nocrits","nodmgspread","uncletopia"],"game_id":440,"stv_port":27076,"stv_name":"Uncletopia | Frankfurt | 7 | Stopwatch Beta | STV","players":null},{"server_id":24,"name":"Uncletopia | Frankfurt | 8 | Community","name_short":"frk-8","host":"frk-1.de.uncletopia.com","port":27085,"enabled":true,"region":"eu","cc":"de","latitude":50.110924,"longitude":8.682127,"reserved":0,"last_update":"0001-01-01T00:00:00Z","name_a2s":"Uncletopia | Frankfurt | 8 | Community","protocol":17,"map":"workshop/koth_ashville_final.ugc2130459942","folder":"tf","game":"Team Fortress","app_id":440,"player_count":0,"max_players":24,"Bots":0,"server_type":"Dedicated","server_os":"Linux","password":true,"vac":true,"version":"7961495","steam_id":85568392924742828,"keywords":["cp","nocrits","nodmgspread","uncletopia"],"game_id":440,"stv_port":27086,"stv_name":"Uncletopia | Frankfurt | 8 | Community | STV","players":null},{"server_id":202,"name":"Uncletopia | Hong Kong | 1 | All Maps","name_short":"hgk-1","host":"hgk-1.hk.uncletopia.com","port":27015,"enabled":true,"region":"asia","cc":"hk","latitude":22.302711,"longitude":114.177216,"reserved":0,"last_update":"0001-01-01T00:00:00Z","name_a2s":"Uncletopia | Hong Kong | 1 | All Maps","protocol":17,"map":"koth_viaduct","folder":"tf","game":"Team Fortress","app_id":440,"player_count":0,"max_players":24,"Bots":0,"server_type":"Dedicated","server_os":"Linux","password":true,"vac":true,"version":"7961495","steam_id":85568392924494504,"keywords":["cp","nocrits","nodmgspread","uncletopia"],"game_id":440,"stv_port":27016,"stv_name":"Uncletopia | Hong Kong | 1 | All Maps | STV","players":null},{"server_id":1,"name":"Uncletopia | Los Angeles | 1 | All Maps","name_short":"lax-1","host":"lax-1.us.uncletopia.com","port":27015,"enabled":true,"region":"us-west","cc":"us","latitude":33.94279,"longitude":-118.41004,"reserved":0,"last_update":"0001-01-01T00:00:00Z","name_a2s":"Uncletopia | Los Angeles | 1 | All Maps","protocol":17,"map":"cp_dustbowl","folder":"tf","game":"Team Fortress","app_id":440,"player_count":24,"max_players":24,"Bots":0,"server_type":"Dedicated","server_os":"Linux","password":true,"vac":true,"version":"7961495","steam_id":85568392924469991,"keywords":["cp","nocrits","nodmgspread","uncletopia"],"game_id":440,"stv_port":27016,"stv_name":"Uncletopia | Los Angeles | 1 | All Maps | STV","players":[{"user_id":6,"name":"Imnotnuggets","steam_id":76561198886670414,"connected_time":6126000000000,"state":"active","ping":69},{"user_id":79,"name":"pinkacrash","steam_id":76561198110723576,"connected_time":280000000000,"state":"active","ping":43},{"user_id":63,"name":"Maxmind24","steam_id":76561198859888778,"connected_time":2344000000000,"state":"active","ping":84},{"user_id":51,"name":"BurdBrain","steam_id":76561197962097737,"connected_time":3026000000000,"state":"active","ping":59},{"user_id":12,"name":"Jimmy","steam_id":76561198857959855,"connected_time":5071000000000,"state":"active","ping":38},{"user_id":81,"name":"noceof","steam_id":76561198043656816,"connected_time":266000000000,"state":"active","ping":169},{"user_id":69,"name":"Bonky","steam_id":76561198965756070,"connected_time":1304000000000,"state":"active","ping":60},{"user_id":70,"name":"Ralph Kramden (Slim Charles)","steam_id":76561197981687895,"connected_time":1299000000000,"state":"active","ping":61},{"user_id":49,"name":"D.Porter","steam_id":76561198396340174,"connected_time":3241000000000,"state":"active","ping":113},{"user_id":54,"name":"KlassicLoL","steam_id":76561198081815303,"connected_time":2609000000000,"state":"active","ping":44},{"user_id":64,"name":"pumpkin patch","steam_id":76561198381020239,"connected_time":2319000000000,"state":"active","ping":54},{"user_id":71,"name":"andyiscolorless","steam_id":76561199239870921,"connected_time":1240000000000,"state":"active","ping":168},{"user_id":22,"name":"tazifer","steam_id":76561198111070843,"connected_time":4151000000000,"state":"active","ping":95},{"user_id":82,"name":"2framespersec","steam_id":76561198994004371,"connected_time":211000000000,"state":"active","ping":128},{"user_id":58,"name":"ShadowZiki","steam_id":76561198145930013,"connected_time":2501000000000,"state":"active","ping":45},{"user_id":65,"name":"Kiilys","steam_id":76561198326068377,"connected_time":2274000000000,"state":"active","ping":70},{"user_id":72,"name":"John McCain","steam_id":76561198052496567,"connected_time":1224000000000,"state":"active","ping":81},{"user_id":73,"name":"thatguywhoalwaysdies","steam_id":76561198824724631,"connected_time":1206000000000,"state":"active","ping":110},{"user_id":32,"name":"Superman123389","steam_id":76561198267472539,"connected_time":3887000000000,"state":"active","ping":117},{"user_id":74,"name":"CrazyKermitRubes","steam_id":76561198009065204,"connected_time":1202000000000,"state":"active","ping":120},{"user_id":75,"name":"Alyx","steam_id":76561198046526130,"connected_time":1200000000000,"state":"active","ping":153},{"user_id":78,"name":"Jasmine Rice","steam_id":76561198163163590,"connected_time":808000000000,"state":"active","ping":75},{"user_id":76,"name":"Papillon","steam_id":76561198049725849,"connected_time":1193000000000,"state":"active","ping":119},{"user_id":83,"name":"ApexHunter36","steam_id":76561199209756164,"connected_time":60000000000,"state":"active","ping":90}]},{"server_id":112,"name":"Uncletopia | Los Angeles | 2 | All Maps","name_short":"lax-2","host":"lax-1.us.uncletopia.com","port":27025,"enabled":true,"region":"us-west","cc":"us","latitude":33.94279,"longitude":-118.41004,"reserved":0,"last_update":"0001-01-01T00:00:00Z","name_a2s":"Uncletopia | Los Angeles | 2 | All Maps","protocol":17,"map":"pl_upward","folder":"tf","game":"Team Fortress","app_id":440,"player_count":0,"max_players":24,"Bots":0,"server_type":"Dedicated","server_os":"Linux","password":true,"vac":true,"version":"7961495","steam_id":85568392924469992,"keywords":["nocrits","nodmgspread","payload","uncletopia"],"game_id":440,"stv_port":27026,"stv_name":"Uncletopia | Los Angeles | 2 | All Maps | STV","players":null},{"server_id":324,"name":"Uncletopia | Los Angeles | 3 | All Maps","name_short":"lax-3","host":"lax-1.us.uncletopia.com","port":27035,"enabled":true,"region":"us-west","cc":"us","latitude":33.94279,"longitude":-118.41004,"reserved":0,"last_update":"0001-01-01T00:00:00Z","name_a2s":"Uncletopia | Los Angeles | 3 | All Maps","protocol":17,"map":"pl_upward","folder":"tf","game":"Team Fortress","app_id":440,"player_count":18,"max_players":24,"Bots":0,"server_type":"Dedicated","server_os":"Linux","password":true,"vac":true,"version":"7961495","steam_id":85568392924510198,"keywords":["nocrits","nodmgspread","payload","uncletopia"],"game_id":440,"stv_port":27036,"stv_name":"Uncletopia | Los Angeles | 3 | All Maps | STV","players":[{"user_id":15,"name":"BarrowBaron","steam_id":76561198013633236,"connected_time":775000000000,"state":"active","ping":106},{"user_id":20,"name":"GrungiestCow","steam_id":76561198170192279,"connected_time":469000000000,"state":"active","ping":103},{"user_id":9,"name":"Dreamzapp","steam_id":76561199084936632,"connected_time":1657000000000,"state":"active","ping":67},{"user_id":11,"name":"purpledrake08","steam_id":76561199155657280,"connected_time":1467000000000,"state":"active","ping":104},{"user_id":12,"name":"GJDon","steam_id":76561199026755019,"connected_time":1058000000000,"state":"active","ping":98},{"user_id":13,"name":"alpha1zer0ready","steam_id":76561199206731331,"connected_time":950000000000,"state":"active","ping":52},{"user_id":19,"name":"Thing 2","steam_id":76561199127118961,"connected_time":519000000000,"state":"active","ping":47},{"user_id":21,"name":"theally105","steam_id":76561199171663406,"connected_time":434000000000,"state":"active","ping":146},{"user_id":18,"name":"BoyKisser","steam_id":76561199200969139,"connected_time":645000000000,"state":"active","ping":129},{"user_id":22,"name":"Kamin","steam_id":76561198255299559,"connected_time":377000000000,"state":"active","ping":97},{"user_id":24,"name":"buckydargon","steam_id":76561197991480502,"connected_time":242000000000,"state":"active","ping":94},{"user_id":30,"name":"In-N-Out Double Double","steam_id":76561198104086771,"connected_time":90000000000,"state":"active","ping":44},{"user_id":26,"name":"B.Beat","steam_id":76561199011485095,"connected_time":183000000000,"state":"active","ping":48},{"user_id":27,"name":"dad?","steam_id":76561198200856777,"connected_time":125000000000,"state":"active","ping":97},{"user_id":28,"name":"Oopsie","steam_id":76561198091824067,"connected_time":120000000000,"state":"active","ping":97},{"user_id":29,"name":"Ulrich Stern","steam_id":76561198101739682,"connected_time":105000000000,"state":"active","ping":107},{"user_id":32,"name":"weedfucker09","steam_id":76561198338739253,"connected_time":59000000000,"state":"active","ping":44},{"user_id":33,"name":"bAlls","steam_id":76561198976282224,"connected_time":37000000000,"state":"active","ping":102}]},{"server_id":25,"name":"Uncletopia | Los Angeles | 4 | Stopwatch Beta","name_short":"lax-4","host":"lax-1.us.uncletopia.com","port":27045,"enabled":true,"region":"us-west","cc":"us","latitude":33.94279,"longitude":-118.41004,"reserved":0,"last_update":"0001-01-01T00:00:00Z","name_a2s":"Uncletopia | Los Angeles | 4 | Stopwatch Beta","protocol":17,"map":"pl_upward","folder":"tf","game":"Team Fortress","app_id":440,"player_count":0,"max_players":24,"Bots":0,"server_type":"Dedicated","server_os":"Linux","password":true,"vac":true,"version":"7961495","steam_id":85568392924510199,"keywords":["nocrits","nodmgspread","payload","uncletopia"],"game_id":440,"stv_port":27046,"stv_name":"Uncletopia | Los Angeles | 4 | Stopwatch Beta | STV","players":null},{"server_id":11,"name":"Uncletopia | London | 1 | All Maps","name_short":"lon-1","host":"lon-1.uk.uncletopia.com","port":27015,"enabled":true,"region":"eu","cc":"gb","latitude":51.509865,"longitude":-0.118092,"reserved":0,"last_update":"0001-01-01T00:00:00Z","name_a2s":"Uncletopia | London | 1 | All Maps","protocol":17,"map":"cp_5gorge","folder":"tf","game":"Team Fortress","app_id":440,"player_count":24,"max_players":24,"Bots":0,"server_type":"Dedicated","server_os":"Linux","password":true,"vac":true,"version":"7961495","steam_id":85568392924367362,"keywords":["cp","nocrits","nodmgspread","uncletopia"],"game_id":440,"stv_port":27016,"stv_name":"Uncletopia | London | 1 | All Maps | STV","players":[{"user_id":536,"name":"joni","steam_id":76561197997323419,"connected_time":24000000000,"state":"active","ping":75},{"user_id":524,"name":"teddy","steam_id":76561198007436837,"connected_time":1605000000000,"state":"active","ping":30},{"user_id":519,"name":"Minimi","steam_id":76561198873850443,"connected_time":1915000000000,"state":"active","ping":58},{"user_id":482,"name":"Kphi(i)","steam_id":76561198970587061,"connected_time":5302000000000,"state":"active","ping":56},{"user_id":529,"name":"Welder","steam_id":76561198355300561,"connected_time":1046000000000,"state":"active","ping":68},{"user_id":530,"name":"Saul Goodman","steam_id":76561199182988206,"connected_time":987000000000,"state":"active","ping":117},{"user_id":515,"name":"Son Goku","steam_id":76561199383437138,"connected_time":2420000000000,"state":"active","ping":108},{"user_id":507,"name":"BreadBubbles","steam_id":76561198174332826,"connected_time":3263000000000,"state":"active","ping":55},{"user_id":527,"name":"Pantroglodytestherapy","steam_id":76561198236015392,"connected_time":1224000000000,"state":"active","ping":119},{"user_id":537,"name":"trill","steam_id":76561198059598696,"connected_time":22000000000,"state":"active","ping":61},{"user_id":533,"name":"ein'd","steam_id":76561198152162834,"connected_time":531000000000,"state":"active","ping":92},{"user_id":525,"name":"CheekiBreekiBoi","steam_id":76561198089977062,"connected_time":1384000000000,"state":"active","ping":60},{"user_id":472,"name":"Average Medic Enjoyer","steam_id":76561198048867302,"connected_time":5999000000000,"state":"active","ping":60},{"user_id":521,"name":"owo","steam_id":76561198158209651,"connected_time":1880000000000,"state":"active","ping":63},{"user_id":531,"name":"flappi","steam_id":76561198072892783,"connected_time":983000000000,"state":"active","ping":60},{"user_id":538,"name":"ashley","steam_id":76561198448551449,"connected_time":15000000000,"state":"spawning","ping":45},{"user_id":532,"name":"AWildTamim","steam_id":76561198048060652,"connected_time":640000000000,"state":"active","ping":45},{"user_id":458,"name":"killer of noob, winner of game","steam_id":76561198190583242,"connected_time":7669000000000,"state":"active","ping":82},{"user_id":520,"name":"sora","steam_id":76561198096547662,"connected_time":1914000000000,"state":"active","ping":49},{"user_id":435,"name":"Snake-chan","steam_id":76561199044755854,"connected_time":9463000000000,"state":"active","ping":76},{"user_id":314,"name":"halow","steam_id":76561198061505163,"connected_time":15353000000000,"state":"active","ping":91},{"user_id":502,"name":"Illy","steam_id":76561198045537823,"connected_time":3725000000000,"state":"active","ping":55},{"user_id":438,"name":"Lyra","steam_id":76561198043601838,"connected_time":9113000000000,"state":"active","ping":70},{"user_id":489,"name":"krayy (she/her)","steam_id":76561198035037830,"connected_time":4712000000000,"state":"active","ping":59}]},{"server_id":114,"name":"Uncletopia | London | 2 | All Maps","name_short":"lon-2","host":"lon-1.uk.uncletopia.com","port":27025,"enabled":true,"region":"eu","cc":"gb","latitude":51.509865,"longitude":-0.118092,"reserved":0,"last_update":"0001-01-01T00:00:00Z","name_a2s":"Uncletopia | London | 2 | All Maps","protocol":17,"map":"pl_barnblitz","folder":"tf","game":"Team Fortress","app_id":440,"player_count":0,"max_players":24,"Bots":0,"server_type":"Dedicated","server_os":"Linux","password":true,"vac":true,"version":"7961495","steam_id":85568392924470941,"keywords":["nocrits","nodmgspread","payload","uncletopia"],"game_id":440,"stv_port":27026,"stv_name":"Uncletopia | London | 2 | All Maps | STV","players":null},{"server_id":320,"name":"Uncletopia | London | 3 | All Maps","name_short":"lon-3","host":"lon-1.uk.uncletopia.com","port":27035,"enabled":true,"region":"eu","cc":"gb","latitude":51.509865,"longitude":-0.118092,"reserved":0,"last_update":"0001-01-01T00:00:00Z","name_a2s":"Uncletopia | London | 3 | All Maps","protocol":17,"map":"pl_upward","folder":"tf","game":"Team Fortress","app_id":440,"player_count":23,"max_players":24,"Bots":0,"server_type":"Dedicated","server_os":"Linux","password":true,"vac":true,"version":"7961495","steam_id":85568392924510192,"keywords":["nocrits","nodmgspread","payload","uncletopia"],"game_id":440,"stv_port":27036,"stv_name":"Uncletopia | London | 3 | All Maps | STV","players":[{"user_id":410,"name":"BD[PL]","steam_id":76561198115995871,"connected_time":1828000000000,"state":"active","ping":89},{"user_id":397,"name":"Sir William Gaming","steam_id":76561198037676472,"connected_time":2921000000000,"state":"active","ping":68},{"user_id":340,"name":"Lord Lem0ns!","steam_id":76561198323174893,"connected_time":6480000000000,"state":"active","ping":72},{"user_id":329,"name":"flamingosaurus","steam_id":76561198051455397,"connected_time":7400000000000,"state":"active","ping":43},{"user_id":420,"name":"bluecheesemints","steam_id":76561199490357988,"connected_time":868000000000,"state":"active","ping":64},{"user_id":421,"name":"Mish","steam_id":76561198302973642,"connected_time":855000000000,"state":"active","ping":90},{"user_id":407,"name":"Spik√†","steam_id":76561197999582114,"connected_time":2283000000000,"state":"active","ping":74},{"user_id":417,"name":"Random Gibus Sniper","steam_id":76561199186496740,"connected_time":1169000000000,"state":"active","ping":153},{"user_id":406,"name":"–ó–∞–¥–Ω–µ–ø—Ä–æ—Ö–æ–¥–µ—Ü","steam_id":76561198059741978,"connected_time":2557000000000,"state":"active","ping":86},{"user_id":392,"name":"nivlemo :)","steam_id":76561198963784884,"connected_time":3099000000000,"state":"active","ping":76},{"user_id":430,"name":"insanitY","steam_id":76561198055666742,"connected_time":307000000000,"state":"active","ping":108},{"user_id":393,"name":"bowchika wowa #SlavaUkraine","steam_id":76561198159564550,"connected_time":3082000000000,"state":"active","ping":71},{"user_id":358,"name":"Elon Musk's Last Braincell","steam_id":76561198846784757,"connected_time":4810000000000,"state":"active","ping":60},{"user_id":418,"name":"Silvestro","steam_id":76561198021660066,"connected_time":1120000000000,"state":"active","ping":94},{"user_id":349,"name":"James","steam_id":76561198168882012,"connected_time":6152000000000,"state":"active","ping":54},{"user_id":403,"name":"tired","steam_id":76561198046838168,"connected_time":2742000000000,"state":"active","ping":60},{"user_id":423,"name":"a single slightly peeled banana","steam_id":76561198088228092,"connected_time":808000000000,"state":"active","ping":45},{"user_id":401,"name":"sike","steam_id":76561199011053186,"connected_time":2870000000000,"state":"active","ping":52},{"user_id":424,"name":"Mullet","steam_id":76561198032803657,"connected_time":771000000000,"state":"active","ping":51},{"user_id":425,"name":"padillacampos","steam_id":76561198161923970,"connected_time":751000000000,"state":"active","ping":74},{"user_id":426,"name":"Toa LightMakuta","steam_id":76561198212178104,"connected_time":738000000000,"state":"active","ping":49},{"user_id":419,"name":"a perfectly fine dog","steam_id":76561198000890796,"connected_time":949000000000,"state":"active","ping":76},{"user_id":428,"name":"zak","steam_id":76561197998895428,"connected_time":670000000000,"state":"active","ping":60}]},{"server_id":321,"name":"Uncletopia | London | 4 | All Maps","name_short":"lon-4","host":"lon-1.uk.uncletopia.com","port":27045,"enabled":true,"region":"eu","cc":"gb","latitude":51.509865,"longitude":-0.118092,"reserved":0,"last_update":"0001-01-01T00:00:00Z","name_a2s":"Uncletopia | London | 4 | All Maps","protocol":17,"map":"pl_borneo","folder":"tf","game":"Team Fortress","app_id":440,"player_count":22,"max_players":24,"Bots":0,"server_type":"Dedicated","server_os":"Linux","password":true,"vac":true,"version":"7961495","steam_id":85568392924510193,"keywords":["nocrits","nodmgspread","payload","uncletopia"],"game_id":440,"stv_port":27046,"stv_name":"Uncletopia | London | 4 | All Maps | STV","players":[{"user_id":524,"name":"pabbott123110","steam_id":76561199231739796,"connected_time":7000000000,"state":"spawning","ping":324},{"user_id":510,"name":"SaltyPig","steam_id":76561198213643013,"connected_time":1105000000000,"state":"active","ping":68},{"user_id":478,"name":"ToonFood","steam_id":76561198038594124,"connected_time":2424000000000,"state":"active","ping":52},{"user_id":480,"name":"SuperCeleste‚ù§Ô∏èTrans Rights","steam_id":76561198167207053,"connected_time":2162000000000,"state":"active","ping":157},{"user_id":517,"name":"sam-","steam_id":76561198013770973,"connected_time":398000000000,"state":"active","ping":69},{"user_id":523,"name":"[T]aKer","steam_id":76561198001778013,"connected_time":178000000000,"state":"active","ping":43},{"user_id":520,"name":"Orange :3","steam_id":76561198963378933,"connected_time":284000000000,"state":"active","ping":45},{"user_id":485,"name":"cr√®me fatale","steam_id":76561198106455841,"connected_time":1820000000000,"state":"active","ping":70},{"user_id":465,"name":"Girlboy Theenie","steam_id":76561198029025500,"connected_time":4051000000000,"state":"active","ping":67},{"user_id":487,"name":"Aspartus","steam_id":76561198101385763,"connected_time":1714000000000,"state":"active","ping":44},{"user_id":501,"name":"big heavy is heavy heavy","steam_id":76561198300059652,"connected_time":1451000000000,"state":"active","ping":69},{"user_id":490,"name":"luckyastroman","steam_id":76561199027500574,"connected_time":1641000000000,"state":"active","ping":86},{"user_id":492,"name":"a leaf","steam_id":76561198242599168,"connected_time":1631000000000,"state":"active","ping":34},{"user_id":493,"name":"fart poo penis","steam_id":76561199008015028,"connected_time":1615000000000,"state":"active","ping":45},{"user_id":505,"name":"Lilliputt","steam_id":76561198090146457,"connected_time":1287000000000,"state":"active","ping":41},{"user_id":519,"name":"disc0rd","steam_id":76561197985965776,"connected_time":287000000000,"state":"active","ping":69},{"user_id":521,"name":"havoc","steam_id":76561198315371425,"connected_time":279000000000,"state":"active","ping":45},{"user_id":498,"name":"outlaw","steam_id":76561198323805289,"connected_time":1554000000000,"state":"active","ping":30},{"user_id":499,"name":"Colingaffney","steam_id":76561198197984574,"connected_time":1548000000000,"state":"active","ping":66},{"user_id":502,"name":"Neb","steam_id":76561198829937839,"connected_time":1446000000000,"state":"active","ping":62},{"user_id":467,"name":"Twingo","steam_id":76561198207042812,"connected_time":3989000000000,"state":"active","ping":81},{"user_id":516,"name":"Brian","steam_id":76561198077756206,"connected_time":489000000000,"state":"active","ping":42}]},{"server_id":21,"name":"Uncletopia | London | 5 | All Maps","name_short":"lon-5","host":"lon-1.uk.uncletopia.com","port":27055,"enabled":true,"region":"eu","cc":"gb","latitude":51.509865,"longitude":-0.118092,"reserved":0,"last_update":"0001-01-01T00:00:00Z","name_a2s":"Uncletopia | London | 5 | All Maps","protocol":17,"map":"cp_snakewater_final1","folder":"tf","game":"Team Fortress","app_id":440,"player_count":19,"max_players":24,"Bots":0,"server_type":"Dedicated","server_os":"Linux","password":true,"vac":true,"version":"7961495","steam_id":85568392924742829,"keywords":["cp","nocrits","nodmgspread","uncletopia"],"game_id":440,"stv_port":27056,"stv_name":"Uncletopia | London | 5 | All Maps | STV","players":[{"user_id":267,"name":"dansal","steam_id":76561197997042510,"connected_time":12000000000,"state":"active","ping":162},{"user_id":255,"name":"Granny","steam_id":76561198335585737,"connected_time":656000000000,"state":"active","ping":46},{"user_id":265,"name":"Ozzie","steam_id":76561197992915315,"connected_time":129000000000,"state":"active","ping":74},{"user_id":257,"name":"\u003e:(","steam_id":76561199233979726,"connected_time":639000000000,"state":"active","ping":91},{"user_id":254,"name":"Liko","steam_id":76561197994660517,"connected_time":742000000000,"state":"active","ping":90},{"user_id":262,"name":"Hoxton","steam_id":76561198129209505,"connected_time":212000000000,"state":"active","ping":75},{"user_id":266,"name":"Borat","steam_id":76561198122226417,"connected_time":118000000000,"state":"active","ping":44},{"user_id":260,"name":"Gubbly Bubbins","steam_id":76561198101451654,"connected_time":434000000000,"state":"active","ping":46},{"user_id":244,"name":"UltimateSlayer","steam_id":76561198384109309,"connected_time":1350000000000,"state":"active","ping":46},{"user_id":159,"name":"DelaNo","steam_id":76561199125086655,"connected_time":6251000000000,"state":"active","ping":41},{"user_id":263,"name":"Joe","steam_id":76561198061717026,"connected_time":196000000000,"state":"active","ping":42},{"user_id":247,"name":"Chicken pot pie","steam_id":76561198084997090,"connected_time":1193000000000,"state":"active","ping":47},{"user_id":228,"name":"C.H.E.R.E.P.","steam_id":76561198026938595,"connected_time":2164000000000,"state":"active","ping":75},{"user_id":264,"name":"Jack","steam_id":76561198107539027,"connected_time":176000000000,"state":"active","ping":65},{"user_id":162,"name":"Eterneon","steam_id":76561198354080949,"connected_time":6166000000000,"state":"active","ping":60},{"user_id":253,"name":"Ceiling fan enthusiast","steam_id":76561197989214268,"connected_time":827000000000,"state":"active","ping":63},{"user_id":250,"name":"Puss in Boots","steam_id":76561198211599767,"connected_time":1119000000000,"state":"active","ping":47},{"user_id":251,"name":"Huskey","steam_id":76561198152392309,"connected_time":1116000000000,"state":"active","ping":59},{"user_id":229,"name":"Lorenzo Lovers","steam_id":76561198073973581,"connected_time":2159000000000,"state":"active","ping":89}]},{"server_id":22,"name":"Uncletopia | London | 6 | All Maps","name_short":"lon-6","host":"lon-1.uk.uncletopia.com","port":27065,"enabled":true,"region":"eu","cc":"gb","latitude":51.509865,"longitude":-0.118092,"reserved":0,"last_update":"0001-01-01T00:00:00Z","name_a2s":"Uncletopia | London | 6 | All Maps","protocol":17,"map":"koth_lakeside_final","folder":"tf","game":"Team Fortress","app_id":440,"player_count":0,"max_players":24,"Bots":0,"server_type":"Dedicated","server_os":"Linux","password":true,"vac":true,"version":"7961495","steam_id":85568392924742830,"keywords":["cp","nocrits","nodmgspread","uncletopia"],"game_id":440,"stv_port":27066,"stv_name":"Uncletopia | London | 6 | All Maps | STV","players":null},{"server_id":40,"name":"Uncletopia | London | 7 | No Payload","name_short":"lon-7","host":"lon-1.uk.uncletopia.com","port":27075,"enabled":true,"region":"eu","cc":"gb","latitude":51.509865,"longitude":-0.118092,"reserved":0,"last_update":"0001-01-01T00:00:00Z","name_a2s":"Uncletopia | London | 7 | No Payload","protocol":17,"map":"ctf_landfall","folder":"tf","game":"Team Fortress","app_id":440,"player_count":12,"max_players":24,"Bots":0,"server_type":"Dedicated","server_os":"Linux","password":true,"vac":true,"version":"7961495","steam_id":85568392924964314,"keywords":["ctf","nocrits","nodmgspread","uncletopia"],"game_id":440,"stv_port":27076,"stv_name":"Uncletopia | London | 7 | No Payload | STV","players":[{"user_id":28,"name":"Mobster Tortoise","steam_id":76561199036837091,"connected_time":3794000000000,"state":"active","ping":86},{"user_id":29,"name":"Moon","steam_id":76561198808108594,"connected_time":3787000000000,"state":"active","ping":93},{"user_id":31,"name":"Spectre","steam_id":76561198163819482,"connected_time":2125000000000,"state":"active","ping":67},{"user_id":32,"name":"Raine","steam_id":76561198098860903,"connected_time":2098000000000,"state":"active","ping":57},{"user_id":42,"name":"trashedribs","steam_id":76561198354735240,"connected_time":591000000000,"state":"active","ping":60},{"user_id":34,"name":"Banatical Bean","steam_id":76561198122356617,"connected_time":2013000000000,"state":"active","ping":55},{"user_id":35,"name":"ran is running","steam_id":76561199443185667,"connected_time":1680000000000,"state":"active","ping":132},{"user_id":37,"name":"God's Goofiest Goober","steam_id":76561198103175187,"connected_time":1514000000000,"state":"active","ping":70},{"user_id":38,"name":"Lessoz","steam_id":76561199211572036,"connected_time":997000000000,"state":"active","ping":84},{"user_id":40,"name":"Heisenbones (real)","steam_id":76561198097519748,"connected_time":700000000000,"state":"active","ping":34},{"user_id":41,"name":"‚ô•ImWithMilk","steam_id":76561198269577569,"connected_time":602000000000,"state":"active","ping":54},{"user_id":43,"name":"anjejdjadel","steam_id":76561199438400427,"connected_time":330000000000,"state":"active","ping":99}]},{"server_id":41,"name":"Uncletopia | London | 8 | Community","name_short":"lon-8","host":"lon-1.uk.uncletopia.com","port":27085,"enabled":true,"region":"eu","cc":"gb","latitude":51.509865,"longitude":-0.118092,"reserved":0,"last_update":"0001-01-01T00:00:00Z","name_a2s":"Uncletopia | London | 8 | Community","protocol":17,"map":"workshop/cp_croissant_final.ugc458840209","folder":"tf","game":"Team Fortress","app_id":440,"player_count":0,"max_players":24,"Bots":0,"server_type":"Dedicated","server_os":"Linux","password":true,"vac":true,"version":"7961495","steam_id":85568392924964315,"keywords":["cp","nocrits","nodmgspread","uncletopia"],"game_id":440,"stv_port":27086,"stv_name":"Uncletopia | London | 8 | Community | STV","players":null},{"server_id":300,"name":"Uncletopia | Montr√©al | 1 | All Maps","name_short":"mtl-1","host":"mtl-1.ca.uncletopia.com","port":27015,"enabled":true,"region":"us-east","cc":"ca","latitude":45.50889,"longitude":-73.56167,"reserved":0,"last_update":"0001-01-01T00:00:00Z","name_a2s":"Uncletopia | Montr√©al | 1 | All Maps","protocol":17,"map":"pl_pier","folder":"tf","game":"Team Fortress","app_id":440,"player_count":0,"max_players":24,"Bots":0,"server_type":"Dedicated","server_os":"Linux","password":true,"vac":true,"version":"7961495","steam_id":85568392924500087,"keywords":["nocrits","nodmgspread","payload","uncletopia"],"game_id":440,"stv_port":27016,"stv_name":"Uncletopia | Montr√©al | 1 | All Maps | STV","players":null},{"server_id":301,"name":"Uncletopia | Montr√©al | 2 | All Maps","name_short":"mtl-2","host":"mtl-1.ca.uncletopia.com","port":27025,"enabled":true,"region":"us-east","cc":"ca","latitude":45.50889,"longitude":-73.56167,"reserved":0,"last_update":"0001-01-01T00:00:00Z","name_a2s":"Uncletopia | Montr√©al | 2 | All Maps","protocol":17,"map":"cp_process_final","folder":"tf","game":"Team Fortress","app_id":440,"player_count":0,"max_players":24,"Bots":0,"server_type":"Dedicated","server_os":"Linux","password":true,"vac":true,"version":"7961495","steam_id":85568392924500088,"keywords":["cp","nocrits","nodmgspread","uncletopia"],"game_id":440,"stv_port":27026,"stv_name":"Uncletopia | Montr√©al | 2 | All Maps | STV","players":null},{"server_id":302,"name":"Uncletopia | Montr√©al | 3 | All Maps","name_short":"mtl-3","host":"mtl-1.ca.uncletopia.com","port":27035,"enabled":true,"region":"us-east","cc":"ca","latitude":45.50889,"longitude":-73.56167,"reserved":0,"last_update":"0001-01-01T00:00:00Z","name_a2s":"Uncletopia | Montr√©al | 3 | All Maps","protocol":17,"map":"koth_cascade","folder":"tf","game":"Team Fortress","app_id":440,"player_count":0,"max_players":24,"Bots":0,"server_type":"Dedicated","server_os":"Linux","password":true,"vac":true,"version":"7961495","steam_id":85568392924500089,"keywords":["cp","nocrits","nodmgspread","uncletopia"],"game_id":440,"stv_port":27036,"stv_name":"Uncletopia | Montr√©al | 3 | All Maps | STV","players":null},{"server_id":303,"name":"Uncletopia | Montr√©al | 4 | No Payload","name_short":"mtl-4","host":"mtl-1.ca.uncletopia.com","port":27045,"enabled":true,"region":"us-east","cc":"ca","latitude":45.50889,"longitude":-73.56167,"reserved":0,"last_update":"0001-01-01T00:00:00Z","name_a2s":"Uncletopia | Montr√©al | 4 | No Payload","protocol":17,"map":"koth_lakeside_final","folder":"tf","game":"Team Fortress","app_id":440,"player_count":0,"max_players":24,"Bots":0,"server_type":"Dedicated","server_os":"Linux","password":true,"vac":true,"version":"7961495","steam_id":85568392924500090,"keywords":["cp","nocrits","nodmgspread","uncletopia"],"game_id":440,"stv_port":27046,"stv_name":"Uncletopia | Montr√©al | 4 | No Payload | STV","players":null},{"server_id":13,"name":"Uncletopia | New York City | 1 | All Maps","name_short":"nyc-1","host":"nyc-1.us.uncletopia.com","port":27015,"enabled":true,"region":"us-east","cc":"us","latitude":40.73061,"longitude":-73.93524,"reserved":0,"last_update":"0001-01-01T00:00:00Z","name_a2s":"Uncletopia | New York City | 1 | All Maps","protocol":17,"map":"ctf_2fort","folder":"tf","game":"Team Fortress","app_id":440,"player_count":24,"max_players":24,"Bots":0,"server_type":"Dedicated","server_os":"Linux","password":true,"vac":true,"version":"7961495","steam_id":85568392924469993,"keywords":["ctf","nocrits","nodmgspread","uncletopia"],"game_id":440,"stv_port":27016,"stv_name":"Uncletopia | New York City | 1 | All Maps | STV","players":[{"user_id":66,"name":"Biden Blast","steam_id":76561198366729030,"connected_time":3884000000000,"state":"active","ping":120},{"user_id":112,"name":"freedom staff","steam_id":76561199123218315,"connected_time":215000000000,"state":"active","ping":111},{"user_id":114,"name":"juanjoesc","steam_id":76561198186368430,"connected_time":120000000000,"state":"active","ping":131},{"user_id":113,"name":"papa john from pizza","steam_id":76561198035669814,"connected_time":187000000000,"state":"active","ping":61},{"user_id":57,"name":"peppermint weed","steam_id":76561198813707044,"connected_time":4763000000000,"state":"active","ping":87},{"user_id":91,"name":"frid","steam_id":76561198005806915,"connected_time":1088000000000,"state":"active","ping":70},{"user_id":92,"name":"wolf_71","steam_id":76561198963570945,"connected_time":1083000000000,"state":"active","ping":88},{"user_id":87,"name":"More Freedomer Staff","steam_id":76561199126802590,"connected_time":1126000000000,"state":"active","ping":113},{"user_id":115,"name":"cat food","steam_id":76561198905911729,"connected_time":86000000000,"state":"active","ping":130},{"user_id":116,"name":"1996 Chrysler Town and Country","steam_id":76561199147039906,"connected_time":85000000000,"state":"active","ping":54},{"user_id":106,"name":"Nassu","steam_id":76561198147367577,"connected_time":436000000000,"state":"active","ping":84},{"user_id":103,"name":"Green Icicle","steam_id":76561198069624529,"connected_time":535000000000,"state":"active","ping":113},{"user_id":73,"name":"Wahooka","steam_id":76561197962240925,"connected_time":3375000000000,"state":"active","ping":47},{"user_id":117,"name":"breathingtrees","steam_id":76561198118931690,"connected_time":11000000000,"state":"spawning","ping":51},{"user_id":104,"name":"Aeront","steam_id":76561198072032723,"connected_time":534000000000,"state":"active","ping":82},{"user_id":88,"name":"Jamie Hyneman","steam_id":76561199196036481,"connected_time":1111000000000,"state":"active","ping":95},{"user_id":98,"name":"TheGhostThatWas","steam_id":76561198055836483,"connected_time":804000000000,"state":"active","ping":45},{"user_id":107,"name":"HOODOO_LOVER_2007","steam_id":76561199087691214,"connected_time":401000000000,"state":"active","ping":97},{"user_id":45,"name":"Darkish Souls","steam_id":76561198095982312,"connected_time":5354000000000,"state":"active","ping":42},{"user_id":76,"name":"1-800-GHOST-DANCE","steam_id":76561198835430429,"connected_time":2963000000000,"state":"active","ping":66},{"user_id":108,"name":"Ask Me For Random Trivia!","steam_id":76561198087065165,"connected_time":371000000000,"state":"active","ping":54},{"user_id":72,"name":"TheSnowGhost","steam_id":76561198271967286,"connected_time":3391000000000,"state":"active","ping":56},{"user_id":52,"name":"Sapphire03","steam_id":76561199251563743,"connected_time":5228000000000,"state":"active","ping":65},{"user_id":86,"name":"FLORAL COMPUTING","steam_id":76561199056492130,"connected_time":1306000000000,"state":"active","ping":58}]},{"server_id":14,"name":"Uncletopia | New York City | 2 | All Maps","name_short":"nyc-2","host":"nyc-1.us.uncletopia.com","port":27025,"enabled":true,"region":"us-east","cc":"us","latitude":40.73061,"longitude":-73.93524,"reserved":0,"last_update":"0001-01-01T00:00:00Z","name_a2s":"Uncletopia | New York City | 2 | All Maps","protocol":17,"map":"cp_mercenarypark","folder":"tf","game":"Team Fortress","app_id":440,"player_count":24,"max_players":24,"Bots":0,"server_type":"Dedicated","server_os":"Linux","password":true,"vac":true,"version":"7961495","steam_id":85568392924469994,"keywords":["cp","nocrits","nodmgspread","uncletopia"],"game_id":440,"stv_port":27026,"stv_name":"Uncletopia | New York City | 2 | All Maps | STV","players":[{"user_id":339,"name":"Corrupted_Egg","steam_id":76561199014348513,"connected_time":1691000000000,"state":"active","ping":67},{"user_id":357,"name":"MioAnarchy","steam_id":76561198237106136,"connected_time":525000000000,"state":"active","ping":90},{"user_id":351,"name":"Shawkcore","steam_id":76561198067851557,"connected_time":1204000000000,"state":"active","ping":54},{"user_id":367,"name":"Sekt Mafia","steam_id":76561198084334538,"connected_time":107000000000,"state":"active","ping":58},{"user_id":343,"name":"Lemur","steam_id":76561198065300466,"connected_time":1542000000000,"state":"active","ping":56},{"user_id":338,"name":"Pango","steam_id":76561198069811545,"connected_time":2115000000000,"state":"active","ping":65},{"user_id":362,"name":"Bench-Kun","steam_id":76561198815264672,"connected_time":467000000000,"state":"active","ping":60},{"user_id":356,"name":"phfez","steam_id":76561198046150386,"connected_time":771000000000,"state":"active","ping":82},{"user_id":333,"name":"Albino Jellyfish","steam_id":76561198208561097,"connected_time":3410000000000,"state":"active","ping":56},{"user_id":361,"name":"Luis wid a mic","steam_id":76561198349570006,"connected_time":472000000000,"state":"active","ping":45},{"user_id":365,"name":"Bronze Age Furvert","steam_id":76561198859118263,"connected_time":393000000000,"state":"active","ping":82},{"user_id":322,"name":"stink","steam_id":76561198099318923,"connected_time":4062000000000,"state":"active","ping":73},{"user_id":345,"name":"BigBubble42","steam_id":76561198136286123,"connected_time":1523000000000,"state":"active","ping":68},{"user_id":355,"name":"Infinity","steam_id":76561199134919099,"connected_time":790000000000,"state":"active","ping":59},{"user_id":346,"name":"Yee McGee","steam_id":76561198350041162,"connected_time":1475000000000,"state":"active","ping":58},{"user_id":273,"name":"ÔºîÔºê Ôº¶Ôº∞Ôº≥","steam_id":76561198272394965,"connected_time":7965000000000,"state":"active","ping":154},{"user_id":326,"name":"REALLINUSJEWTIP.","steam_id":76561198056647983,"connected_time":4018000000000,"state":"active","ping":72},{"user_id":327,"name":"pai-sano","steam_id":76561198065575472,"connected_time":4015000000000,"state":"active","ping":47},{"user_id":352,"name":"Lexabyte","steam_id":76561198065032237,"connected_time":1140000000000,"state":"active","ping":70},{"user_id":360,"name":"meth ape","steam_id":76561199110579692,"connected_time":482000000000,"state":"active","ping":82},{"user_id":366,"name":"Special","steam_id":76561198070380404,"connected_time":261000000000,"state":"active","ping":46},{"user_id":363,"name":"Thedarkdot","steam_id":76561199200787877,"connected_time":449000000000,"state":"active","ping":55},{"user_id":353,"name":"golf","steam_id":76561198398918486,"connected_time":1062000000000,"state":"active","ping":79},{"user_id":295,"name":"Gravity","steam_id":76561198066875223,"connected_time":6402000000000,"state":"active","ping":104}]},{"server_id":15,"name":"Uncletopia | New York City | 3 | Stopwatch Beta","name_short":"nyc-3","host":"nyc-1.us.uncletopia.com","port":27035,"enabled":true,"region":"us-east","cc":"us","latitude":40.73061,"longitude":-73.93524,"reserved":0,"last_update":"0001-01-01T00:00:00Z","name_a2s":"Uncletopia | New York City | 3 | Stopwatch Beta","protocol":17,"map":"pl_upward","folder":"tf","game":"Team Fortress","app_id":440,"player_count":0,"max_players":24,"Bots":0,"server_type":"Dedicated","server_os":"Linux","password":true,"vac":true,"version":"7961495","steam_id":85568392924742820,"keywords":["nocrits","nodmgspread","payload","uncletopia"],"game_id":440,"stv_port":27036,"stv_name":"Uncletopia | New York City | 3 | Stopwatch Beta | STV","players":null},{"server_id":16,"name":"Uncletopia | New York City | 4 | Community","name_short":"nyc-4","host":"nyc-1.us.uncletopia.com","port":27045,"enabled":true,"region":"us-east","cc":"us","latitude":40.73061,"longitude":-73.93524,"reserved":0,"last_update":"0001-01-01T00:00:00Z","name_a2s":"Uncletopia | New York City | 4 | Community","protocol":17,"map":"koth_lakeside_final","folder":"tf","game":"Team Fortress","app_id":440,"player_count":0,"max_players":24,"Bots":0,"server_type":"Dedicated","server_os":"Linux","password":true,"vac":true,"version":"7961495","steam_id":85568392924742821,"keywords":["cp","nocrits","nodmgspread","uncletopia"],"game_id":440,"stv_port":27046,"stv_name":"Uncletopia | New York City | 4 | Community | STV","players":null},{"server_id":142,"name":"Uncletopia | S√£o Paulo | 1 | All Maps","name_short":"sao-1","host":"sao-1.br.uncletopia.com","port":27015,"enabled":true,"region":"sa","cc":"br","latitude":-23.533773,"longitude":-46.62529,"reserved":0,"last_update":"0001-01-01T00:00:00Z","name_a2s":"Uncletopia | S√£o Paulo | 1 | All Maps","protocol":17,"map":"koth_highpass","folder":"tf","game":"Team Fortress","app_id":440,"player_count":0,"max_players":24,"Bots":0,"server_type":"Dedicated","server_os":"Linux","password":true,"vac":true,"version":"7961495","steam_id":85568392924469996,"keywords":["cp","nocrits","nodmgspread","uncletopia"],"game_id":440,"stv_port":27016,"stv_name":"Uncletopia | S√£o Paulo | 1 | All Maps | STV","players":null},{"server_id":143,"name":"Uncletopia | S√£o Paulo | 2 | Community","name_short":"sao-2","host":"sao-2.br.uncletopia.com","port":27015,"enabled":true,"region":"sa","cc":"br","latitude":-23.533773,"longitude":-46.62529,"reserved":0,"last_update":"0001-01-01T00:00:00Z","name_a2s":"Uncletopia | S√£o Paulo | 2 | Community","protocol":17,"map":"workshop/pl_barnblitz_pro7.ugc582280235","folder":"tf","game":"Team Fortress","app_id":440,"player_count":0,"max_players":24,"Bots":0,"server_type":"Dedicated","server_os":"Linux","password":true,"vac":true,"version":"7961495","steam_id":85568392924485349,"keywords":["nocrits","nodmgspread","payload","uncletopia"],"game_id":440,"stv_port":27016,"stv_name":"Uncletopia | S√£o Paulo | 2 | Community | STV","players":null},{"server_id":7,"name":"Uncletopia | Seattle | 1 | All Maps","name_short":"sea-1","host":"sea-1.us.uncletopia.com","port":27015,"enabled":true,"region":"us-west","cc":"us","latitude":47.608013,"longitude":-122.33517,"reserved":0,"last_update":"0001-01-01T00:00:00Z","name_a2s":"Uncletopia | Seattle | 1 | All Maps","protocol":17,"map":"pl_swiftwater_final1","folder":"tf","game":"Team Fortress","app_id":440,"player_count":23,"max_players":24,"Bots":0,"server_type":"Dedicated","server_os":"Linux","password":true,"vac":true,"version":"7961495","steam_id":85568392924469997,"keywords":["nocrits","nodmgspread","payload","uncletopia"],"game_id":440,"stv_port":27016,"stv_name":"Uncletopia | Seattle | 1 | All Maps | STV","players":[{"user_id":277,"name":"Rat Smoker","steam_id":76561198090419068,"connected_time":4791000000000,"state":"active","ping":70},{"user_id":329,"name":"nippleballs","steam_id":76561199088693762,"connected_time":645000000000,"state":"active","ping":63},{"user_id":331,"name":"lil boogie","steam_id":76561198064059721,"connected_time":613000000000,"state":"active","ping":45},{"user_id":315,"name":"crunchy obama","steam_id":76561198044485217,"connected_time":1840000000000,"state":"active","ping":83},{"user_id":279,"name":"Empyrean","steam_id":76561198116398716,"connected_time":4672000000000,"state":"active","ping":86},{"user_id":284,"name":"Finkly","steam_id":76561198049828110,"connected_time":4333000000000,"state":"active","ping":43},{"user_id":335,"name":"McDonald","steam_id":76561199028533497,"connected_time":353000000000,"state":"active","ping":78},{"user_id":334,"name":"Giant","steam_id":76561198851536991,"connected_time":394000000000,"state":"active","ping":81},{"user_id":323,"name":"ùñãùñëùñéùñïùñâùñîùñå","steam_id":76561197999648153,"connected_time":1632000000000,"state":"active","ping":86},{"user_id":243,"name":"mega","steam_id":76561198089520959,"connected_time":7108000000000,"state":"active","ping":98},{"user_id":311,"name":"Confirmed Bachelor","steam_id":76561198441041496,"connected_time":2066000000000,"state":"active","ping":56},{"user_id":286,"name":"Coowil","steam_id":76561198070985437,"connected_time":4180000000000,"state":"active","ping":44},{"user_id":270,"name":"Crustacean Daddy","steam_id":76561198993807061,"connected_time":5272000000000,"state":"active","ping":79},{"user_id":321,"name":"dodecadron","steam_id":76561198027397222,"connected_time":1661000000000,"state":"active","ping":68},{"user_id":320,"name":"fwoov","steam_id":76561198129166260,"connected_time":1687000000000,"state":"active","ping":79},{"user_id":336,"name":"[chef] iron","steam_id":76561197970888616,"connected_time":293000000000,"state":"active","ping":79},{"user_id":337,"name":"Garrett","steam_id":76561199215798445,"connected_time":286000000000,"state":"active","ping":99},{"user_id":309,"name":"Skip Hop Doo Bop","steam_id":76561199161571849,"connected_time":2485000000000,"state":"active","ping":62},{"user_id":298,"name":"NeonBean","steam_id":76561198088335827,"connected_time":3030000000000,"state":"active","ping":118},{"user_id":310,"name":"lavender","steam_id":76561199069518286,"connected_time":2403000000000,"state":"active","ping":75},{"user_id":318,"name":"GaySkitarii","steam_id":76561198403829714,"connected_time":1778000000000,"state":"active","ping":44},{"user_id":322,"name":"ms. anthrope","steam_id":76561198063533082,"connected_time":1639000000000,"state":"active","ping":45},{"user_id":325,"name":"Translucent‡´Æ‚Çç ‚Ä¢ ·¥• ‚Ä¢","steam_id":76561199212057076,"connected_time":1245000000000,"state":"active","ping":76}]},{"server_id":119,"name":"Uncletopia | Seattle | 2 | All Maps","name_short":"sea-2","host":"sea-1.us.uncletopia.com","port":27025,"enabled":true,"region":"us-west","cc":"us","latitude":47.608013,"longitude":-122.33517,"reserved":0,"last_update":"0001-01-01T00:00:00Z","name_a2s":"Uncletopia | Seattle | 2 | All Maps","protocol":17,"map":"cp_metalworks","folder":"tf","game":"Team Fortress","app_id":440,"player_count":23,"max_players":24,"Bots":0,"server_type":"Dedicated","server_os":"Linux","password":true,"vac":true,"version":"7961495","steam_id":85568392924469998,"keywords":["cp","nocrits","nodmgspread","uncletopia"],"game_id":440,"stv_port":27026,"stv_name":"Uncletopia | Seattle | 2 | All Maps | STV","players":[{"user_id":51,"name":"‚í∑‚ì™‚ì™‚ì£‚ì®‚ìí‚ìê‚ìö‚ìî‚ì¢","steam_id":76561198088776421,"connected_time":2024000000000,"state":"active","ping":107},{"user_id":9,"name":"spiderland","steam_id":76561198335992132,"connected_time":5736000000000,"state":"active","ping":43},{"user_id":69,"name":"Wendigo","steam_id":76561197994528974,"connected_time":1316000000000,"state":"active","ping":87},{"user_id":76,"name":"Byte The Protogen","steam_id":76561199229871383,"connected_time":829000000000,"state":"active","ping":87},{"user_id":12,"name":"K2f","steam_id":76561198049600563,"connected_time":4979000000000,"state":"active","ping":77},{"user_id":50,"name":"Angela :3","steam_id":76561198991101353,"connected_time":2175000000000,"state":"active","ping":47},{"user_id":43,"name":"El Bozo","steam_id":76561198010370396,"connected_time":3193000000000,"state":"active","ping":102},{"user_id":48,"name":"‚ô¶Benji‚ô¶","steam_id":76561198313529973,"connected_time":2626000000000,"state":"active","ping":37},{"user_id":55,"name":"Dura","steam_id":76561198081086998,"connected_time":1891000000000,"state":"active","ping":59},{"user_id":28,"name":"JollyVG","steam_id":76561198044919633,"connected_time":3565000000000,"state":"active","ping":115},{"user_id":78,"name":"‚ôú‚ô•Serious Pisces‚ô•‚ôú","steam_id":76561198096129873,"connected_time":550000000000,"state":"active","ping":86},{"user_id":56,"name":"Mr. Carfox","steam_id":76561198041664428,"connected_time":1793000000000,"state":"active","ping":61},{"user_id":87,"name":"Shark Sandwich","steam_id":76561198025007938,"connected_time":81000000000,"state":"active","ping":56},{"user_id":83,"name":"tf_weapon_sniperrifle","steam_id":76561198040415947,"connected_time":267000000000,"state":"active","ping":72},{"user_id":59,"name":"Gerbias","steam_id":76561198001002427,"connected_time":1643000000000,"state":"active","ping":62},{"user_id":37,"name":"asm_ghost","steam_id":76561199205363547,"connected_time":3317000000000,"state":"active","ping":85},{"user_id":85,"name":"Dandelo","steam_id":76561197960363656,"connected_time":176000000000,"state":"active","ping":135},{"user_id":64,"name":"SnazzyCelestial","steam_id":76561198328763813,"connected_time":1553000000000,"state":"active","ping":130},{"user_id":63,"name":"Phozumi","steam_id":76561198054068499,"connected_time":1576000000000,"state":"active","ping":83},{"user_id":57,"name":"sadlaxx","steam_id":76561198061354919,"connected_time":1770000000000,"state":"active","ping":98},{"user_id":66,"name":"craftylongsword","steam_id":76561198340102940,"connected_time":1492000000000,"state":"active","ping":68},{"user_id":45,"name":"Spectre","steam_id":76561198025652246,"connected_time":3160000000000,"state":"active","ping":103},{"user_id":67,"name":"McSpazatron","steam_id":76561198955942148,"connected_time":1436000000000,"state":"active","ping":68}]},{"server_id":406,"name":"Uncletopia | Seattle | 3 | Stopwatch Beta","name_short":"sea-3","host":"sea-1.us.uncletopia.com","port":27035,"enabled":true,"region":"us-west","cc":"us","latitude":47.608013,"longitude":-122.33517,"reserved":0,"last_update":"0001-01-01T00:00:00Z","name_a2s":"Uncletopia | Seattle | 3 | Stopwatch Beta","protocol":17,"map":"workshop/cp_reckoner_rc6.ugc674719999","folder":"tf","game":"Team Fortress","app_id":440,"player_count":0,"max_players":24,"Bots":0,"server_type":"Dedicated","server_os":"Linux","password":true,"vac":true,"version":"7961495","steam_id":85568392924515217,"keywords":["cp","nocrits","nodmgspread","uncletopia"],"game_id":440,"stv_port":27036,"stv_name":"Uncletopia | Seattle | 3 | Stopwatch Beta | STV","players":null},{"server_id":17,"name":"Uncletopia | San Francisco | 1 | All Maps","name_short":"sfo-1","host":"sfo-1.us.uncletopia.com","port":27015,"enabled":true,"region":"us-west","cc":"us","latitude":37.77397,"longitude":-122.4313,"reserved":0,"last_update":"0001-01-01T00:00:00Z","name_a2s":"Uncletopia | San Francisco | 1 | All Maps","protocol":17,"map":"koth_viaduct","folder":"tf","game":"Team Fortress","app_id":440,"player_count":0,"max_players":24,"Bots":0,"server_type":"Dedicated","server_os":"Linux","password":true,"vac":true,"version":"7961495","steam_id":85568392924469999,"keywords":["cp","nocrits","nodmgspread","uncletopia"],"game_id":440,"stv_port":27016,"stv_name":"Uncletopia | San Francisco | 1 | All Maps | STV","players":null},{"server_id":18,"name":"Uncletopia | San Francisco | 2 | All Maps","name_short":"sfo-2","host":"sfo-1.us.uncletopia.com","port":27025,"enabled":true,"region":"us-west","cc":"us","latitude":37.77397,"longitude":-122.4313,"reserved":0,"last_update":"0001-01-01T00:00:00Z","name_a2s":"Uncletopia | San Francisco | 2 | All Maps","protocol":17,"map":"cp_sunshine","folder":"tf","game":"Team Fortress","app_id":440,"player_count":0,"max_players":24,"Bots":0,"server_type":"Dedicated","server_os":"Linux","password":true,"vac":true,"version":"7961495","steam_id":85568392924470000,"keywords":["cp","nocrits","nodmgspread","uncletopia"],"game_id":440,"stv_port":27026,"stv_name":"Uncletopia | San Francisco | 2 | All Maps | STV","players":null},{"server_id":19,"name":"Uncletopia | San Francisco | 3 | Stopwatch Beta","name_short":"sfo-3","host":"sfo-1.us.uncletopia.com","port":27035,"enabled":true,"region":"us-west","cc":"us","latitude":37.77397,"longitude":-122.4313,"reserved":0,"last_update":"0001-01-01T00:00:00Z","name_a2s":"Uncletopia | San Francisco | 3 | Stopwatch Beta","protocol":17,"map":"pl_borneo","folder":"tf","game":"Team Fortress","app_id":440,"player_count":0,"max_players":24,"Bots":0,"server_type":"Dedicated","server_os":"Linux","password":true,"vac":true,"version":"7961495","steam_id":85568392924742824,"keywords":["nocrits","nodmgspread","payload","uncletopia"],"game_id":440,"stv_port":27036,"stv_name":"Uncletopia | San Francisco | 3 | Stopwatch Beta | STV","players":null},{"server_id":20,"name":"Uncletopia | San Francisco | 4 | Community","name_short":"sfo-4","host":"sfo-1.us.uncletopia.com","port":27045,"enabled":true,"region":"us-west","cc":"us","latitude":37.77397,"longitude":-122.4313,"reserved":0,"last_update":"0001-01-01T00:00:00Z","name_a2s":"Uncletopia | San Francisco | 4 | Community","protocol":17,"map":"koth_viaduct","folder":"tf","game":"Team Fortress","app_id":440,"player_count":0,"max_players":24,"Bots":0,"server_type":"Dedicated","server_os":"Linux","password":true,"vac":true,"version":"7961495","steam_id":85568392924742826,"keywords":["cp","nocrits","nodmgspread","uncletopia"],"game_id":440,"stv_port":27046,"stv_name":"Uncletopia | San Francisco | 4 | Community | STV","players":null},{"server_id":141,"name":"Uncletopia | Sydney | 1 | All Maps","name_short":"syd-1","host":"syd-1.au.uncletopia.com","port":27015,"enabled":true,"region":"au","cc":"au","latitude":-33.865143,"longitude":151.2099,"reserved":0,"last_update":"0001-01-01T00:00:00Z","name_a2s":"Uncletopia | Sydney | 1 | All Maps","protocol":17,"map":"pl_swiftwater_final1","folder":"tf","game":"Team Fortress","app_id":440,"player_count":0,"max_players":24,"Bots":0,"server_type":"Dedicated","server_os":"Linux","password":true,"vac":true,"version":"7961495","steam_id":85568392924470001,"keywords":["nocrits","nodmgspread","payload","uncletopia"],"game_id":440,"stv_port":27016,"stv_name":"Uncletopia | Sydney | 1 | All Maps | STV","players":null},{"server_id":123,"name":"Uncletopia | Sydney | 2 | All Maps","name_short":"syd-2","host":"syd-1.au.uncletopia.com","port":27025,"enabled":true,"region":"au","cc":"au","latitude":-33.865143,"longitude":151.2099,"reserved":0,"last_update":"0001-01-01T00:00:00Z","name_a2s":"Uncletopia | Sydney | 2 | All Maps","protocol":17,"map":"pl_snowycoast","folder":"tf","game":"Team Fortress","app_id":440,"player_count":0,"max_players":24,"Bots":0,"server_type":"Dedicated","server_os":"Linux","password":true,"vac":true,"version":"7961495","steam_id":85568392924470002,"keywords":["nocrits","nodmgspread","payload","uncletopia"],"game_id":440,"stv_port":27026,"stv_name":"Uncletopia | Sydney | 2 | All Maps | STV","players":null},{"server_id":395,"name":"Uncletopia | Sydney | 3 | All Maps","name_short":"syd-3","host":"syd-1.au.uncletopia.com","port":27035,"enabled":true,"region":"au","cc":"au","latitude":-33.865143,"longitude":151.2099,"reserved":0,"last_update":"0001-01-01T00:00:00Z","name_a2s":"Uncletopia | Sydney | 3 | All Maps","protocol":17,"map":"cp_dustbowl","folder":"tf","game":"Team Fortress","app_id":440,"player_count":0,"max_players":24,"Bots":0,"server_type":"Dedicated","server_os":"Linux","password":true,"vac":true,"version":"7961495","steam_id":85568392925194467,"keywords":["cp","nocrits","nodmgspread","uncletopia"],"game_id":440,"stv_port":27036,"stv_name":"Uncletopia | Sydney | 3 | All Maps | STV","players":null},{"server_id":396,"name":"Uncletopia | Sydney | 4 | All Maps","name_short":"syd-4","host":"syd-1.au.uncletopia.com","port":27045,"enabled":true,"region":"au","cc":"au","latitude":-33.865143,"longitude":151.2099,"reserved":0,"last_update":"0001-01-01T00:00:00Z","name_a2s":"Uncletopia | Sydney | 4 | All Maps","protocol":17,"map":"cp_dustbowl","folder":"tf","game":"Team Fortress","app_id":440,"player_count":0,"max_players":24,"Bots":0,"server_type":"Dedicated","server_os":"Linux","password":true,"vac":true,"version":"7961495","steam_id":85568392925397958,"keywords":["cp","nocrits","nodmgspread","uncletopia"],"game_id":440,"stv_port":27046,"stv_name":"Uncletopia | Sydney | 4 | All Maps | STV","players":null},{"server_id":58,"name":"Uncletopia | Sydney | 5 | Stopwatch Beta","name_short":"syd-5","host":"syd-1.au.uncletopia.com","port":27055,"enabled":true,"region":"au","cc":"au","latitude":-33.865143,"longitude":151.2099,"reserved":0,"last_update":"0001-01-01T00:00:00Z","name_a2s":"Uncletopia | Sydney | 5 | Stopwatch Beta","protocol":17,"map":"koth_viaduct","folder":"tf","game":"Team Fortress","app_id":440,"player_count":0,"max_players":24,"Bots":0,"server_type":"Dedicated","server_os":"Linux","password":true,"vac":true,"version":"7961495","steam_id":85568392925397959,"keywords":["cp","nocrits","nodmgspread","uncletopia"],"game_id":440,"stv_port":27056,"stv_name":"Uncletopia | Sydney | 5 | Stopwatch Beta | STV","players":null},{"server_id":59,"name":"Uncletopia | Sydney | 6 | Community","name_short":"syd-6","host":"syd-1.au.uncletopia.com","port":27065,"enabled":true,"region":"au","cc":"au","latitude":-33.865143,"longitude":151.2099,"reserved":0,"last_update":"0001-01-01T00:00:00Z","name_a2s":"Uncletopia | Sydney | 6 | Community","protocol":17,"map":"koth_cascade","folder":"tf","game":"Team Fortress","app_id":440,"player_count":0,"max_players":24,"Bots":0,"server_type":"Dedicated","server_os":"Linux","password":true,"vac":true,"version":"7961495","steam_id":85568392925397960,"keywords":["cp","nocrits","nodmgspread","uncletopia"],"game_id":440,"stv_port":27066,"stv_name":"Uncletopia | Sydney | 6 | Community | STV","players":null},{"server_id":49,"name":"Uncletopia | Warsaw | 1 | All Maps","name_short":"waw-1","host":"waw-1.pl.uncletopia.com","port":27015,"enabled":true,"region":"eu","cc":"pl","latitude":52.2297,"longitude":21.017532,"reserved":0,"last_update":"0001-01-01T00:00:00Z","name_a2s":"Uncletopia | Warsaw | 1 | All Maps","protocol":17,"map":"koth_highpass","folder":"tf","game":"Team Fortress","app_id":440,"player_count":0,"max_players":24,"Bots":0,"server_type":"Dedicated","server_os":"Linux","password":true,"vac":true,"version":"7961495","steam_id":85568392925397850,"keywords":["cp","nocrits","nodmgspread","uncletopia"],"game_id":440,"stv_port":27016,"stv_name":"Uncletopia | Warsaw | 1 | All Maps | STV","players":null},{"server_id":50,"name":"Uncletopia | Warsaw | 2 | All Maps","name_short":"waw-2","host":"waw-1.pl.uncletopia.com","port":27025,"enabled":true,"region":"eu","cc":"pl","latitude":52.2297,"longitude":21.017532,"reserved":0,"last_update":"0001-01-01T00:00:00Z","name_a2s":"Uncletopia | Warsaw | 2 | All Maps","protocol":17,"map":"cp_process_final","folder":"tf","game":"Team Fortress","app_id":440,"player_count":0,"max_players":24,"Bots":0,"server_type":"Dedicated","server_os":"Linux","password":true,"vac":true,"version":"7961495","steam_id":85568392925397851,"keywords":["cp","nocrits","nodmgspread","uncletopia"],"game_id":440,"stv_port":27026,"stv_name":"Uncletopia | Warsaw | 2 | All Maps | STV","players":null},{"server_id":51,"name":"Uncletopia | Warsaw | 3 | All Maps","name_short":"waw-3","host":"waw-1.pl.uncletopia.com","port":27035,"enabled":true,"region":"eu","cc":"pl","latitude":52.2297,"longitude":21.017532,"reserved":0,"last_update":"0001-01-01T00:00:00Z","name_a2s":"Uncletopia | Warsaw | 3 | All Maps","protocol":17,"map":"cp_snakewater_final1","folder":"tf","game":"Team Fortress","app_id":440,"player_count":0,"max_players":24,"Bots":0,"server_type":"Dedicated","server_os":"Linux","password":true,"vac":true,"version":"7961495","steam_id":85568392925397852,"keywords":["cp","nocrits","nodmgspread","uncletopia"],"game_id":440,"stv_port":27036,"stv_name":"Uncletopia | Warsaw | 3 | All Maps | STV","players":null},{"server_id":52,"name":"Uncletopia | Warsaw | 4 | All Maps","name_short":"waw-4","host":"waw-1.pl.uncletopia.com","port":27045,"enabled":true,"region":"eu","cc":"pl","latitude":52.2297,"longitude":21.017532,"reserved":0,"last_update":"0001-01-01T00:00:00Z","name_a2s":"Uncletopia | Warsaw | 4 | All Maps","protocol":17,"map":"pl_pier","folder":"tf","game":"Team Fortress","app_id":440,"player_count":0,"max_players":24,"Bots":0,"server_type":"Dedicated","server_os":"Linux","password":true,"vac":true,"version":"7961495","steam_id":85568392925397853,"keywords":["nocrits","nodmgspread","payload","uncletopia"],"game_id":440,"stv_port":27046,"stv_name":"Uncletopia | Warsaw | 4 | All Maps | STV","players":null},{"server_id":53,"name":"Uncletopia | Warsaw | 5 | Stopwatch Beta","name_short":"waw-5","host":"waw-1.pl.uncletopia.com","port":27055,"enabled":true,"region":"eu","cc":"pl","latitude":52.2297,"longitude":21.017532,"reserved":0,"last_update":"0001-01-01T00:00:00Z","name_a2s":"Uncletopia | Warsaw | 5 | Stopwatch Beta","protocol":17,"map":"workshop/pl_barnblitz_pro7.ugc582280235","folder":"tf","game":"Team Fortress","app_id":440,"player_count":0,"max_players":24,"Bots":0,"server_type":"Dedicated","server_os":"Linux","password":true,"vac":true,"version":"7961495","steam_id":85568392925397854,"keywords":["nocrits","nodmgspread","payload","uncletopia"],"game_id":440,"stv_port":27056,"stv_name":"Uncletopia | Warsaw | 5 | Stopwatch Beta | STV","players":null},{"server_id":54,"name":"Uncletopia | Warsaw | 6 | Community","name_short":"waw-6","host":"waw-1.pl.uncletopia.com","port":27065,"enabled":true,"region":"eu","cc":"pl","latitude":52.2297,"longitude":21.017532,"reserved":0,"last_update":"0001-01-01T00:00:00Z","name_a2s":"Uncletopia | Warsaw | 6 | Community","protocol":17,"map":"workshop/koth_synthetic_rc6a.ugc1549817316","folder":"tf","game":"Team Fortress","app_id":440,"player_count":0,"max_players":24,"Bots":0,"server_type":"Dedicated","server_os":"Linux","password":true,"vac":true,"version":"7961495","steam_id":85568392925397856,"keywords":["cp","nocrits","nodmgspread","uncletopia"],"game_id":440,"stv_port":27066,"stv_name":"Uncletopia | Warsaw | 6 | Community | STV","players":null}]}