{"status":true,"message":"","result":[{"server_id":9,"name":"Uncletopia | Atlanta | 1 | All Maps","name_short":"atl-1","host":"atl-1.us.uncletopia.com","port":27015,"enabled":true,"region":"us-east","cc":"us","latitude":33.753746,"longitude":-84.38633,"reserved":0,"last_update":"0001-01-01T00:00:00Z","name_a2s":"Uncletopia | Atlanta | 1 | All Maps","protocol":17,"map":"pl_barnblitz","folder":"tf","game":"Team Fortress","app_id":440,"player_count":24,"max_players":24,"Bots":0,"server_type":"Dedicated","server_os":"Linux","password":true,"vac":true,"version":"7757534","steam_id":85568392924469982,"keywords":["nocrits","nodmgspread","payload","uncletopia"],"game_id":440,"stv_port":27016,"stv_name":"Uncletopia | Atlanta | 1 | All Maps | STV","players":[{"user_id":760,"name":"Crystal Mongoose","steam_id":76561198001585325,"connected_time":960000000000,"state":"active","ping":46},{"user_id":761,"name":"Gustavo","steam_id":76561198310387331,"connected_time":959000000000,"state":"active","ping":46},{"user_id":747,"name":"nomad","steam_id":76561197998740399,"connected_time":3766000000000,"state":"active","ping":68},{"user_id":764,"name":"5CentNickel","steam_id":76561198174662485,"connected_time":371000000000,"state":"active","ping":58},{"user_id":762,"name":"[txc] milk","steam_id":76561198127457787,"connected_time":735000000000,"state":"active","ping":76},{"user_id":744,"name":"eish","steam_id":76561198089463603,"connected_time":3814000000000,"state":"active","ping":117},{"user_id":756,"name":"DFR Le4n!!!","steam_id":76561198045522596,"connected_time":2372000000000,"state":"active","ping":85},{"user_id":766,"name":"Toonice","steam_id":76561198402994885,"connected_time":128000000000,"state":"active","ping":83},{"user_id":754,"name":"ATL1 | Lylith!!!","steam_id":76561198386687546,"connected_time":2821000000000,"state":"active","ping":52},{"user_id":666,"name":"Moonglass Kaiju","steam_id":76561198043431819,"connected_time":12246000000000,"state":"active","ping":69},{"user_id":742,"name":"DDayFilms","steam_id":76561198352986491,"connected_time":4192000000000,"state":"active","ping":90},{"user_id":763,"name":"Jin Gulilo","steam_id":76561198065151242,"connected_time":493000000000,"state":"active","ping":71},{"user_id":741,"name":"stink sauce","steam_id":76561198012149619,"connected_time":4210000000000,"state":"active","ping":65},{"user_id":722,"name":"ATL 1 | Save your wifi","steam_id":76561198286147372,"connected_time":6547000000000,"state":"active","ping":52},{"user_id":750,"name":"Yoshimelon","steam_id":76561198253054325,"connected_time":3317000000000,"state":"active","ping":64},{"user_id":759,"name":"General Mischief","steam_id":76561198163825955,"connected_time":1397000000000,"state":"active","ping":101},{"user_id":748,"name":"Kugi","steam_id":76561198053608417,"connected_time":3749000000000,"state":"active","ping":102},{"user_id":758,"name":"Sophie","steam_id":76561198170408057,"connected_time":1461000000000,"state":"active","ping":47},{"user_id":686,"name":"Sm0ky","steam_id":76561198418262145,"connected_time":9726000000000,"state":"active","ping":111},{"user_id":642,"name":"Nox(She/They)","steam_id":76561198141950842,"connected_time":15079000000000,"state":"active","ping":47},{"user_id":697,"name":"xX_HimboSwallower_Xx","steam_id":76561198016029965,"connected_time":8838000000000,"state":"active","ping":62},{"user_id":682,"name":"Intro Bonito","steam_id":76561198119478838,"connected_time":9761000000000,"state":"active","ping":48},{"user_id":694,"name":"Albino Jellyfish","steam_id":76561198208561097,"connected_time":8885000000000,"state":"active","ping":71},{"user_id":752,"name":"bkiller","steam_id":76561198029265697,"connected_time":3152000000000,"state":"active","ping":61}]},{"server_id":104,"name":"Uncletopia | Atlanta | 2 | All Maps","name_short":"atl-2","host":"atl-1.us.uncletopia.com","port":27025,"enabled":true,"region":"us-east","cc":"us","latitude":33.753746,"longitude":-84.38633,"reserved":0,"last_update":"0001-01-01T00:00:00Z","name_a2s":"Uncletopia | Atlanta | 2 | All Maps","protocol":17,"map":"pl_snowycoast","folder":"tf","game":"Team Fortress","app_id":440,"player_count":23,"max_players":24,"Bots":0,"server_type":"Dedicated","server_os":"Linux","password":true,"vac":true,"version":"7757534","steam_id":85568392924469983,"keywords":["nocrits","nodmgspread","payload","uncletopia"],"game_id":440,"stv_port":27026,"stv_name":"Uncletopia | Atlanta | 2 | All Maps | STV","players":[{"user_id":585,"name":"Aniz","steam_id":76561199226665024,"connected_time":2454000000000,"state":"active","ping":155},{"user_id":578,"name":"Nobody","steam_id":76561198160544586,"connected_time":3406000000000,"state":"active","ping":84},{"user_id":588,"name":"Mongkoot","steam_id":76561198033125093,"connected_time":1641000000000,"state":"active","ping":53},{"user_id":601,"name":"Dreamy Sweat from 2hu","steam_id":76561198094602446,"connected_time":485000000000,"state":"active","ping":92},{"user_id":602,"name":"Buffy","steam_id":76561198083222227,"connected_time":440000000000,"state":"active","ping":99},{"user_id":598,"name":"tighty walter whities","steam_id":76561199122915452,"connected_time":1141000000000,"state":"active","ping":110},{"user_id":603,"name":"Scum F*ck Flower Boi","steam_id":76561198397009880,"connected_time":320000000000,"state":"active","ping":46},{"user_id":605,"name":"ethanf","steam_id":76561198103930234,"connected_time":257000000000,"state":"active","ping":73},{"user_id":600,"name":"Shamrock Shake Oct.10.2020 @8pm","steam_id":76561198833313201,"connected_time":890000000000,"state":"active","ping":116},{"user_id":591,"name":"Pringles","steam_id":76561197997137971,"connected_time":1590000000000,"state":"active","ping":102},{"user_id":592,"name":"Dreadnaught","steam_id":76561198029232533,"connected_time":1564000000000,"state":"active","ping":76},{"user_id":609,"name":"Belvidere","steam_id":76561198121336953,"connected_time":59000000000,"state":"active","ping":102},{"user_id":607,"name":"RectalExam","steam_id":76561197970502312,"connected_time":200000000000,"state":"active","ping":92},{"user_id":593,"name":"CH33ZUS","steam_id":76561198065722148,"connected_time":1554000000000,"state":"active","ping":151},{"user_id":577,"name":"get ethernet","steam_id":76561198056434055,"connected_time":3721000000000,"state":"active","ping":54},{"user_id":554,"name":"Satori Komeiji","steam_id":76561198158211423,"connected_time":4761000000000,"state":"active","ping":99},{"user_id":555,"name":"Steve Burns","steam_id":76561198069968316,"connected_time":4758000000000,"state":"active","ping":115},{"user_id":556,"name":"Pizza Party Planner","steam_id":76561198054647777,"connected_time":4755000000000,"state":"active","ping":55},{"user_id":557,"name":"Wyes_","steam_id":76561198085002695,"connected_time":4746000000000,"state":"active","ping":73},{"user_id":594,"name":"Doritos","steam_id":76561197987286488,"connected_time":1550000000000,"state":"active","ping":129},{"user_id":608,"name":"G00D G00GLY M00GLY!!","steam_id":76561199177310566,"connected_time":162000000000,"state":"active","ping":81},{"user_id":599,"name":"Manic","steam_id":76561198128149670,"connected_time":979000000000,"state":"active","ping":70},{"user_id":576,"name":"phoebe formerly pat","steam_id":76561198233058324,"connected_time":3759000000000,"state":"active","ping":84}]},{"server_id":400,"name":"Uncletopia | Atlanta | 3 | Community","name_short":"atl-3","host":"atl-1.us.uncletopia.com","port":27035,"enabled":true,"region":"us-east","cc":"us","latitude":33.753746,"longitude":-84.38633,"reserved":0,"last_update":"0001-01-01T00:00:00Z","name_a2s":"Uncletopia | Atlanta | 3 | Community","protocol":17,"map":"workshop/cp_sulfur_rc2.ugc619869471","folder":"tf","game":"Team Fortress","app_id":440,"player_count":0,"max_players":24,"Bots":0,"server_type":"Dedicated","server_os":"Linux","password":true,"vac":true,"version":"7757534","steam_id":85568392924515187,"keywords":["cp","nocrits","nodmgspread","uncletopia"],"game_id":440,"stv_port":27036,"stv_name":"Uncletopia | Atlanta | 3 | Community | STV","players":null},{"server_id":401,"name":"Uncletopia | Atlanta | 4 | No Payload","name_short":"atl-4","host":"atl-1.us.uncletopia.com","port":27045,"enabled":true,"region":"us-east","cc":"us","latitude":33.753746,"longitude":-84.38633,"reserved":0,"last_update":"0001-01-01T00:00:00Z","name_a2s":"","protocol":0,"map":"","folder":"","game":"","app_id":0,"player_count":0,"max_players":0,"Bots":0,"server_type":"","server_os":"","password":false,"vac":false,"version":"","steam_id":0,"keywords":null,"game_id":0,"stv_port":0,"stv_name":"","players":null},{"server_id":2,"name":"Uncletopia | Chicago | 1 | All Maps","name_short":"chi-1","host":"chi-1.us.uncletopia.com","port":27015,"enabled":true,"region":"us-central","cc":"us","latitude":41.881832,"longitude":-87.62318,"reserved":0,"last_update":"0001-01-01T00:00:00Z","name_a2s":"Uncletopia | Chicago | 1 | All Maps","protocol":17,"map":"pl_frontier_final","folder":"tf","game":"Team Fortress","app_id":440,"player_count":24,"max_players":24,"Bots":0,"server_type":"Dedicated","server_os":"Linux","password":true,"vac":true,"version":"7757534","steam_id":85568392924469984,"keywords":["nocrits","nodmgspread","payload","uncletopia"],"game_id":440,"stv_port":27016,"stv_name":"Uncletopia | Chicago | 1 | All Maps | STV","players":[{"user_id":857,"name":"uhooter","steam_id":76561198007829078,"connected_time":1762000000000,"state":"active","ping":48},{"user_id":878,"name":"playguy carter","steam_id":76561198080679337,"connected_time":346000000000,"state":"active","ping":55},{"user_id":860,"name":"dirty30","steam_id":76561198021226566,"connected_time":1588000000000,"state":"active","ping":95},{"user_id":880,"name":"MEGATRON","steam_id":76561198820480684,"connected_time":215000000000,"state":"active","ping":62},{"user_id":881,"name":"Invisible Cheese","steam_id":76561198046942778,"connected_time":117000000000,"state":"active","ping":90},{"user_id":870,"name":"Loleo","steam_id":76561198348132374,"connected_time":1027000000000,"state":"active","ping":58},{"user_id":847,"name":"Metapod","steam_id":76561198008725465,"connected_time":2382000000000,"state":"active","ping":77},{"user_id":841,"name":"Yarn","steam_id":76561199227148369,"connected_time":2494000000000,"state":"active","ping":88},{"user_id":873,"name":"NotHughesy","steam_id":76561198113064655,"connected_time":870000000000,"state":"active","ping":50},{"user_id":874,"name":"Harold of the Rocks","steam_id":76561198055891429,"connected_time":870000000000,"state":"active","ping":58},{"user_id":871,"name":"scooterre","steam_id":76561198055068182,"connected_time":981000000000,"state":"active","ping":62},{"user_id":863,"name":"salt","steam_id":76561198072214979,"connected_time":1492000000000,"state":"active","ping":68},{"user_id":830,"name":"vareh","steam_id":76561197993190926,"connected_time":2834000000000,"state":"active","ping":105},{"user_id":875,"name":"Whisp","steam_id":76561197990148121,"connected_time":857000000000,"state":"active","ping":97},{"user_id":858,"name":"Lil' Achiever","steam_id":76561197970450546,"connected_time":1677000000000,"state":"active","ping":106},{"user_id":859,"name":"Unlock The Shock (She/They)","steam_id":76561198823616667,"connected_time":1661000000000,"state":"active","ping":82},{"user_id":882,"name":"raidlps","steam_id":76561199208003679,"connected_time":46000000000,"state":"active","ping":79},{"user_id":833,"name":"boof^","steam_id":76561198087074444,"connected_time":2769000000000,"state":"active","ping":73},{"user_id":877,"name":"Lore","steam_id":76561198098407538,"connected_time":409000000000,"state":"active","ping":54},{"user_id":866,"name":"Jaded","steam_id":76561198272575611,"connected_time":1336000000000,"state":"active","ping":83},{"user_id":876,"name":"debin","steam_id":76561198070711217,"connected_time":789000000000,"state":"active","ping":55},{"user_id":867,"name":"Pestilence","steam_id":76561198272327629,"connected_time":1331000000000,"state":"active","ping":99},{"user_id":804,"name":"23‚Ñ¢","steam_id":76561198314951185,"connected_time":5192000000000,"state":"active","ping":96},{"user_id":868,"name":"Ayylmao","steam_id":76561198104780147,"connected_time":1299000000000,"state":"active","ping":45}]},{"server_id":106,"name":"Uncletopia | Chicago | 2 | All Maps","name_short":"chi-2","host":"chi-1.us.uncletopia.com","port":27025,"enabled":true,"region":"us-central","cc":"us","latitude":41.881832,"longitude":-87.62318,"reserved":0,"last_update":"0001-01-01T00:00:00Z","name_a2s":"Uncletopia | Chicago | 2 | All Maps","protocol":17,"map":"pl_upward","folder":"tf","game":"Team Fortress","app_id":440,"player_count":3,"max_players":24,"Bots":0,"server_type":"Dedicated","server_os":"Linux","password":true,"vac":true,"version":"7757534","steam_id":85568392924469985,"keywords":["nocrits","nodmgspread","payload","uncletopia"],"game_id":440,"stv_port":27026,"stv_name":"Uncletopia | Chicago | 2 | All Maps | STV","players":[{"user_id":870,"name":"Bottom feeder","steam_id":76561198181298169,"connected_time":3747000000000,"state":"active","ping":46},{"user_id":888,"name":"Glacier","steam_id":76561198966817492,"connected_time":2283000000000,"state":"active","ping":87},{"user_id":879,"name":"Six Piece Chicken McNobody","steam_id":76561198129848222,"connected_time":2903000000000,"state":"active","ping":58}]},{"server_id":402,"name":"Uncletopia | Chicago | 3 | All Maps","name_short":"chi-3","host":"chi-1.us.uncletopia.com","port":27035,"enabled":true,"region":"us-central","cc":"us","latitude":41.881832,"longitude":-87.62318,"reserved":0,"last_update":"0001-01-01T00:00:00Z","name_a2s":"Uncletopia | Chicago | 3 | All Maps","protocol":17,"map":"pl_upward","folder":"tf","game":"Team Fortress","app_id":440,"player_count":2,"max_players":24,"Bots":0,"server_type":"Dedicated","server_os":"Linux","password":true,"vac":true,"version":"7757534","steam_id":85568392924515191,"keywords":["nocrits","nodmgspread","payload","uncletopia"],"game_id":440,"stv_port":27036,"stv_name":"Uncletopia | Chicago | 3 | All Maps | STV","players":[{"user_id":520,"name":"Chillin Turt","steam_id":76561198025796849,"connected_time":996000000000,"state":"active","ping":61},{"user_id":516,"name":"Ludcmorais","steam_id":76561198359217809,"connected_time":1444000000000,"state":"active","ping":185}]},{"server_id":403,"name":"Uncletopia | Chicago | 4 | All Maps","name_short":"chi-4","host":"chi-1.us.uncletopia.com","port":27045,"enabled":true,"region":"us-central","cc":"us","latitude":41.881832,"longitude":-87.62318,"reserved":0,"last_update":"0001-01-01T00:00:00Z","name_a2s":"Uncletopia | Chicago | 4 | All Maps","protocol":17,"map":"pl_swiftwater_final1","folder":"tf","game":"Team Fortress","app_id":440,"player_count":21,"max_players":24,"Bots":0,"server_type":"Dedicated","server_os":"Linux","password":true,"vac":true,"version":"7757534","steam_id":85568392924515193,"keywords":["nocrits","nodmgspread","payload","uncletopia"],"game_id":440,"stv_port":27046,"stv_name":"Uncletopia | Chicago | 4 | All Maps | STV","players":[{"user_id":276,"name":"mohamy_19","steam_id":76561198075833698,"connected_time":827000000000,"state":"active","ping":70},{"user_id":196,"name":"Angry Crab","steam_id":76561198055350230,"connected_time":7542000000000,"state":"active","ping":70},{"user_id":287,"name":"Muffin","steam_id":76561198050715053,"connected_time":157000000000,"state":"active","ping":74},{"user_id":281,"name":"eggo","steam_id":76561198028147388,"connected_time":330000000000,"state":"active","ping":74},{"user_id":282,"name":"Nuts","steam_id":76561198373596269,"connected_time":313000000000,"state":"active","ping":65},{"user_id":283,"name":"Zizen","steam_id":76561199011832069,"connected_time":298000000000,"state":"active","ping":102},{"user_id":258,"name":"raya","steam_id":76561198051504581,"connected_time":2005000000000,"state":"active","ping":65},{"user_id":284,"name":"brain big okay?","steam_id":76561198102681457,"connected_time":290000000000,"state":"active","ping":72},{"user_id":250,"name":"twitch.tv/Yoshi21 | TF2Pugs.com","steam_id":76561198002516729,"connected_time":3558000000000,"state":"active","ping":60},{"user_id":266,"name":"noah","steam_id":76561198173310157,"connected_time":1221000000000,"state":"active","ping":53},{"user_id":265,"name":"BigDeac","steam_id":76561198091237274,"connected_time":1228000000000,"state":"active","ping":61},{"user_id":286,"name":"nyxia-","steam_id":76561198174415170,"connected_time":217000000000,"state":"active","ping":48},{"user_id":288,"name":"krispin wah","steam_id":76561198027052378,"connected_time":99000000000,"state":"active","ping":68},{"user_id":289,"name":"Sprinklingmydoughnut","steam_id":76561198168009092,"connected_time":35000000000,"state":"active","ping":85},{"user_id":267,"name":"Ace Chromatica","steam_id":76561198042211131,"connected_time":1196000000000,"state":"active","ping":54},{"user_id":197,"name":"Kirino Toesucka","steam_id":76561198056684863,"connected_time":7533000000000,"state":"active","ping":71},{"user_id":290,"name":"ARegularJohnDoe","steam_id":76561198015020139,"connected_time":14000000000,"state":"active","ping":80},{"user_id":260,"name":"ae","steam_id":76561198012945016,"connected_time":1793000000000,"state":"active","ping":45},{"user_id":277,"name":"duneblaster0","steam_id":76561198040364680,"connected_time":757000000000,"state":"active","ping":45},{"user_id":280,"name":"amedei porcelana","steam_id":76561198150382695,"connected_time":639000000000,"state":"active","ping":75},{"user_id":275,"name":"TweetTweet17","steam_id":76561198994956859,"connected_time":950000000000,"state":"active","ping":85}]},{"server_id":36,"name":"Uncletopia | Chicago | 5 | All Maps","name_short":"chi-5","host":"chi-2.us.uncletopia.com","port":27015,"enabled":true,"region":"us-central","cc":"us","latitude":41.881832,"longitude":-87.62318,"reserved":0,"last_update":"0001-01-01T00:00:00Z","name_a2s":"Uncletopia | Chicago | 5 | All Maps","protocol":17,"map":"koth_cascade","folder":"tf","game":"Team Fortress","app_id":440,"player_count":0,"max_players":24,"Bots":0,"server_type":"Dedicated","server_os":"Linux","password":true,"vac":true,"version":"7757534","steam_id":85568392924866362,"keywords":["cp","nocrits","nodmgspread","uncletopia"],"game_id":440,"stv_port":27016,"stv_name":"Uncletopia | Chicago | 5 | All Maps | STV","players":null},{"server_id":37,"name":"Uncletopia | Chicago | 6 | All Maps","name_short":"chi-6","host":"chi-2.us.uncletopia.com","port":27025,"enabled":true,"region":"us-central","cc":"us","latitude":41.881832,"longitude":-87.62318,"reserved":0,"last_update":"0001-01-01T00:00:00Z","name_a2s":"Uncletopia | Chicago | 6 | All Maps","protocol":17,"map":"pl_badwater","folder":"tf","game":"Team Fortress","app_id":440,"player_count":24,"max_players":24,"Bots":0,"server_type":"Dedicated","server_os":"Linux","password":true,"vac":true,"version":"7757534","steam_id":85568392924866363,"keywords":["nocrits","nodmgspread","payload","uncletopia"],"game_id":440,"stv_port":27026,"stv_name":"Uncletopia | Chicago | 6 | All Maps | STV","players":[{"user_id":395,"name":"Better Call Saul TF2 (Real)","steam_id":76561198347286009,"connected_time":1142000000000,"state":"active","ping":78},{"user_id":392,"name":"Ket","steam_id":76561198241951244,"connected_time":1590000000000,"state":"active","ping":69},{"user_id":407,"name":"RazzBerry","steam_id":76561198964741034,"connected_time":542000000000,"state":"active","ping":80},{"user_id":394,"name":"herb","steam_id":76561198185980055,"connected_time":1301000000000,"state":"active","ping":57},{"user_id":397,"name":"Spooky Pyo","steam_id":76561198451361157,"connected_time":816000000000,"state":"active","ping":78},{"user_id":381,"name":"vector 116-5016-12 C","steam_id":76561197975540289,"connected_time":2377000000000,"state":"active","ping":48},{"user_id":398,"name":"tuna","steam_id":76561198128164970,"connected_time":746000000000,"state":"active","ping":108},{"user_id":411,"name":"Jezzus","steam_id":76561199289676387,"connected_time":374000000000,"state":"active","ping":90},{"user_id":406,"name":"pcakes","steam_id":76561198073397293,"connected_time":611000000000,"state":"active","ping":65},{"user_id":348,"name":"SnaggzHaki","steam_id":76561198065282605,"connected_time":4160000000000,"state":"active","ping":73},{"user_id":382,"name":"Coinclever","steam_id":76561198099972692,"connected_time":2366000000000,"state":"active","ping":59},{"user_id":349,"name":"SWANG","steam_id":76561198269180990,"connected_time":4155000000000,"state":"active","ping":72},{"user_id":409,"name":"Gogobeebabee","steam_id":76561198083175190,"connected_time":489000000000,"state":"active","ping":57},{"user_id":361,"name":"Avem","steam_id":76561198058763710,"connected_time":3670000000000,"state":"active","ping":94},{"user_id":412,"name":"Dullahan","steam_id":76561198119668908,"connected_time":225000000000,"state":"active","ping":97},{"user_id":350,"name":"Beno","steam_id":76561198164251467,"connected_time":4155000000000,"state":"active","ping":77},{"user_id":403,"name":"Ryan","steam_id":76561198099422957,"connected_time":664000000000,"state":"active","ping":105},{"user_id":404,"name":"kittycitte","steam_id":76561198310931053,"connected_time":660000000000,"state":"active","ping":61},{"user_id":413,"name":"cheetaz","steam_id":76561198224614084,"connected_time":208000000000,"state":"active","ping":60},{"user_id":385,"name":"Gian","steam_id":76561198041434512,"connected_time":2228000000000,"state":"active","ping":115},{"user_id":414,"name":"onsen episode","steam_id":76561197979960008,"connected_time":206000000000,"state":"active","ping":59},{"user_id":408,"name":"Alice in Rubberland","steam_id":76561198087328346,"connected_time":504000000000,"state":"active","ping":44},{"user_id":410,"name":"OG Bird Jesus","steam_id":76561198090957312,"connected_time":452000000000,"state":"active","ping":74},{"user_id":371,"name":"hashmap","steam_id":76561198043794014,"connected_time":3039000000000,"state":"active","ping":54}]},{"server_id":38,"name":"Uncletopia | Chicago | 7 | Stopwatch Beta","name_short":"chi-7","host":"chi-2.us.uncletopia.com","port":27035,"enabled":true,"region":"us-central","cc":"us","latitude":41.881832,"longitude":-87.62318,"reserved":0,"last_update":"0001-01-01T00:00:00Z","name_a2s":"Uncletopia | Chicago | 7 | Stopwatch Beta","protocol":17,"map":"workshop/koth_ramjam_rc1.ugc459778887","folder":"tf","game":"Team Fortress","app_id":440,"player_count":0,"max_players":24,"Bots":0,"server_type":"Dedicated","server_os":"Linux","password":true,"vac":true,"version":"7757534","steam_id":85568392924866364,"keywords":["cp","nocrits","nodmgspread","uncletopia"],"game_id":440,"stv_port":27036,"stv_name":"Uncletopia | Chicago | 7 | Stopwatch Beta | STV","players":null},{"server_id":39,"name":"Uncletopia | Chicago | 8 | Community","name_short":"chi-8","host":"chi-2.us.uncletopia.com","port":27045,"enabled":true,"region":"us-central","cc":"us","latitude":41.881832,"longitude":-87.62318,"reserved":0,"last_update":"0001-01-01T00:00:00Z","name_a2s":"Uncletopia | Chicago | 8 | Community","protocol":17,"map":"workshop/pl_cashworks_final1.ugc2904065412","folder":"tf","game":"Team Fortress","app_id":440,"player_count":23,"max_players":24,"Bots":0,"server_type":"Dedicated","server_os":"Linux","password":true,"vac":true,"version":"7757534","steam_id":85568392924866365,"keywords":["nocrits","nodmgspread","payload","uncletopia"],"game_id":440,"stv_port":27046,"stv_name":"Uncletopia | Chicago | 8 | Community | STV","players":[{"user_id":338,"name":"Kaluka","steam_id":76561198036861445,"connected_time":3583000000000,"state":"active","ping":75},{"user_id":322,"name":"Underqualified Gunman","steam_id":76561198111061367,"connected_time":4437000000000,"state":"active","ping":63},{"user_id":358,"name":"Kered13","steam_id":76561197985666167,"connected_time":608000000000,"state":"active","ping":57},{"user_id":286,"name":"Bryguy","steam_id":76561198092096120,"connected_time":6570000000000,"state":"active","ping":42},{"user_id":359,"name":"[DEEP]able","steam_id":76561198292552182,"connected_time":548000000000,"state":"active","ping":50},{"user_id":339,"name":"Big kahuna","steam_id":76561198142024812,"connected_time":3572000000000,"state":"active","ping":80},{"user_id":360,"name":"HE‚ÄôS IN THE GODDAMN WALLS","steam_id":76561198363267009,"connected_time":395000000000,"state":"active","ping":74},{"user_id":355,"name":"Kyle H. McCloud","steam_id":76561198025050432,"connected_time":1293000000000,"state":"active","ping":92},{"user_id":352,"name":"DerpFamous","steam_id":76561198046167888,"connected_time":2523000000000,"state":"active","ping":58},{"user_id":356,"name":"J O S H¬≥¬≤","steam_id":76561198122603779,"connected_time":1198000000000,"state":"active","ping":94},{"user_id":354,"name":"GuyGoom","steam_id":76561198254522178,"connected_time":1702000000000,"state":"active","ping":57},{"user_id":357,"name":"robot with human hair","steam_id":76561198018691308,"connected_time":1168000000000,"state":"active","ping":77},{"user_id":172,"name":"The Pencil Cunts","steam_id":76561198272606252,"connected_time":14830000000000,"state":"active","ping":66},{"user_id":361,"name":"üÖúüÖîüÖîüÖöüÖ¢üÖ£üÖî\ufffd\ufffd\ufffd","steam_id":76561197999748343,"connected_time":232000000000,"state":"active","ping":62},{"user_id":295,"name":"Le0901","steam_id":76561198372891244,"connected_time":6027000000000,"state":"active","ping":60},{"user_id":344,"name":"Enemy Infant Tree","steam_id":76561198027175418,"connected_time":3018000000000,"state":"active","ping":70},{"user_id":365,"name":"Prof. Leafeon","steam_id":76561198123549027,"connected_time":62000000000,"state":"active","ping":67},{"user_id":342,"name":"BoX_hEaD101","steam_id":76561198200875467,"connected_time":3349000000000,"state":"active","ping":121},{"user_id":299,"name":"laszlo","steam_id":76561198141198352,"connected_time":5944000000000,"state":"active","ping":48},{"user_id":331,"name":"Hexx","steam_id":76561198272446874,"connected_time":4130000000000,"state":"active","ping":91},{"user_id":363,"name":"MrPoisionousLabs","steam_id":76561199184552915,"connected_time":209000000000,"state":"active","ping":113},{"user_id":364,"name":"Knight","steam_id":76561198154529952,"connected_time":149000000000,"state":"active","ping":95},{"user_id":366,"name":"Salt","steam_id":76561198418001135,"connected_time":58000000000,"state":"active","ping":72}]},{"server_id":8,"name":"Uncletopia | Dallas | 1 | All Maps","name_short":"dal-1","host":"dal-1.us.uncletopia.com","port":27015,"enabled":true,"region":"us-central","cc":"us","latitude":32.779167,"longitude":-96.80889,"reserved":0,"last_update":"0001-01-01T00:00:00Z","name_a2s":"Uncletopia | Dallas | 1 | All Maps","protocol":17,"map":"cp_dustbowl","folder":"tf","game":"Team Fortress","app_id":440,"player_count":24,"max_players":24,"Bots":0,"server_type":"Dedicated","server_os":"Linux","password":true,"vac":true,"version":"7757534","steam_id":85568392924469986,"keywords":["cp","nocrits","nodmgspread","uncletopia"],"game_id":440,"stv_port":27016,"stv_name":"Uncletopia | Dallas | 1 | All Maps | STV","players":[{"user_id":863,"name":"Ms Chatmen","steam_id":76561198309567814,"connected_time":1757000000000,"state":"active","ping":46},{"user_id":841,"name":"QueenPinharam","steam_id":76561199015626409,"connected_time":2703000000000,"state":"active","ping":56},{"user_id":843,"name":"Kohaku","steam_id":76561198358814557,"connected_time":2658000000000,"state":"active","ping":70},{"user_id":864,"name":"Reaper","steam_id":76561198435826103,"connected_time":1462000000000,"state":"active","ping":61},{"user_id":880,"name":"joelygoat","steam_id":76561198949565555,"connected_time":193000000000,"state":"active","ping":116},{"user_id":865,"name":"Flaccid Snake (little boss)","steam_id":76561198211454440,"connected_time":1165000000000,"state":"active","ping":109},{"user_id":826,"name":"jumbert","steam_id":76561198355231658,"connected_time":4551000000000,"state":"active","ping":61},{"user_id":883,"name":"YHH face","steam_id":76561198035629877,"connected_time":75000000000,"state":"active","ping":60},{"user_id":855,"name":"\u003cBLAH\u003e","steam_id":76561198094826838,"connected_time":2099000000000,"state":"active","ping":73},{"user_id":814,"name":"Gilded_Warrior","steam_id":76561199055082197,"connected_time":5662000000000,"state":"active","ping":90},{"user_id":872,"name":"bolainassr0","steam_id":76561199079078845,"connected_time":774000000000,"state":"active","ping":102},{"user_id":867,"name":"sqgly","steam_id":76561198105508955,"connected_time":972000000000,"state":"active","ping":71},{"user_id":868,"name":"miscellaneous","steam_id":76561199436642954,"connected_time":961000000000,"state":"active","ping":110},{"user_id":851,"name":"TheEmeraldLiker","steam_id":76561198323926464,"connected_time":2276000000000,"state":"active","ping":110},{"user_id":852,"name":"girl smell","steam_id":76561198118962168,"connected_time":2193000000000,"state":"active","ping":73},{"user_id":876,"name":"sc67","steam_id":76561199302471485,"connected_time":427000000000,"state":"active","ping":72},{"user_id":856,"name":"Princeofwales","steam_id":76561198027021225,"connected_time":2089000000000,"state":"active","ping":71},{"user_id":882,"name":"plink","steam_id":76561198057829889,"connected_time":160000000000,"state":"active","ping":72},{"user_id":774,"name":"*_*","steam_id":76561198937717599,"connected_time":8759000000000,"state":"active","ping":46},{"user_id":884,"name":"‚úøRally‚úø","steam_id":76561198280843401,"connected_time":68000000000,"state":"active","ping":111},{"user_id":877,"name":"SEX0 gt_blur","steam_id":76561198033033884,"connected_time":399000000000,"state":"active","ping":94},{"user_id":861,"name":"Rafl","steam_id":76561198055222756,"connected_time":1833000000000,"state":"active","ping":44},{"user_id":830,"name":"gibus expert","steam_id":76561197961740794,"connected_time":4500000000000,"state":"active","ping":164},{"user_id":878,"name":"jaruz","steam_id":76561198159447698,"connected_time":384000000000,"state":"active","ping":86}]},{"server_id":108,"name":"Uncletopia | Dallas | 2 | All Maps","name_short":"dal-2","host":"dal-1.us.uncletopia.com","port":27025,"enabled":true,"region":"us-central","cc":"us","latitude":32.779167,"longitude":-96.80889,"reserved":0,"last_update":"0001-01-01T00:00:00Z","name_a2s":"Uncletopia | Dallas | 2 | All Maps","protocol":17,"map":"pl_upward","folder":"tf","game":"Team Fortress","app_id":440,"player_count":15,"max_players":24,"Bots":0,"server_type":"Dedicated","server_os":"Linux","password":true,"vac":true,"version":"7757534","steam_id":85568392924469988,"keywords":["nocrits","nodmgspread","payload","uncletopia"],"game_id":440,"stv_port":27026,"stv_name":"Uncletopia | Dallas | 2 | All Maps | STV","players":[{"user_id":422,"name":"Emperor Dankatine","steam_id":76561198044741086,"connected_time":225000000000,"state":"active","ping":85},{"user_id":405,"name":"catface","steam_id":76561198096347625,"connected_time":1520000000000,"state":"active","ping":72},{"user_id":390,"name":"MeMyBongusAndTheGreatOutdoors","steam_id":76561198097708978,"connected_time":2635000000000,"state":"active","ping":46},{"user_id":391,"name":"Superman123389","steam_id":76561198267472539,"connected_time":2594000000000,"state":"active","ping":85},{"user_id":416,"name":"Gr8alex #KILLTF2","steam_id":76561198227675960,"connected_time":937000000000,"state":"active","ping":85},{"user_id":421,"name":"ü§®","steam_id":76561199365672047,"connected_time":332000000000,"state":"active","ping":100},{"user_id":423,"name":"idiot (she/her) | trade.tf","steam_id":76561199366682904,"connected_time":220000000000,"state":"active","ping":108},{"user_id":408,"name":"Burny Sanders","steam_id":76561197961879048,"connected_time":1351000000000,"state":"active","ping":39},{"user_id":373,"name":"xZackAttack27x","steam_id":76561198035446639,"connected_time":5093000000000,"state":"active","ping":34},{"user_id":425,"name":"Witch!","steam_id":76561198062763756,"connected_time":39000000000,"state":"active","ping":68},{"user_id":394,"name":"reatardhole","steam_id":76561198141217941,"connected_time":2541000000000,"state":"active","ping":86},{"user_id":385,"name":"Pika","steam_id":76561198068063436,"connected_time":3039000000000,"state":"active","ping":57},{"user_id":403,"name":"Shmish","steam_id":76561197966078491,"connected_time":1839000000000,"state":"active","ping":102},{"user_id":417,"name":"Project_Counter","steam_id":76561198152786076,"connected_time":876000000000,"state":"active","ping":77},{"user_id":415,"name":"Entreezy","steam_id":76561198271093809,"connected_time":957000000000,"state":"active","ping":101}]},{"server_id":5,"name":"Uncletopia | Frankfurt | 1 | All Maps","name_short":"frk-1","host":"frk-1.de.uncletopia.com","port":27015,"enabled":true,"region":"eu","cc":"de","latitude":50.110924,"longitude":8.682127,"reserved":0,"last_update":"0001-01-01T00:00:00Z","name_a2s":"Uncletopia | Frankfurt | 1 | All Maps","protocol":17,"map":"pl_snowycoast","folder":"tf","game":"Team Fortress","app_id":440,"player_count":0,"max_players":24,"Bots":0,"server_type":"Dedicated","server_os":"Linux","password":true,"vac":true,"version":"7757534","steam_id":85568392924469989,"keywords":["nocrits","nodmgspread","payload","uncletopia"],"game_id":440,"stv_port":27016,"stv_name":"Uncletopia | Frankfurt | 1 | All Maps | STV","players":null},{"server_id":110,"name":"Uncletopia | Frankfurt | 2 | All Maps","name_short":"frk-2","host":"frk-1.de.uncletopia.com","port":27025,"enabled":true,"region":"eu","cc":"de","latitude":50.110924,"longitude":8.682127,"reserved":0,"last_update":"0001-01-01T00:00:00Z","name_a2s":"Uncletopia | Frankfurt | 2 | All Maps","protocol":17,"map":"cp_snakewater_final1","folder":"tf","game":"Team Fortress","app_id":440,"player_count":0,"max_players":24,"Bots":0,"server_type":"Dedicated","server_os":"Linux","password":true,"vac":true,"version":"7757534","steam_id":85568392924469990,"keywords":["cp","nocrits","nodmgspread","uncletopia"],"game_id":440,"stv_port":27026,"stv_name":"Uncletopia | Frankfurt | 2 | All Maps | STV","players":null},{"server_id":308,"name":"Uncletopia | Frankfurt | 3 | All Maps","name_short":"frk-3","host":"frk-1.de.uncletopia.com","port":27035,"enabled":true,"region":"eu","cc":"de","latitude":50.110924,"longitude":8.682127,"reserved":0,"last_update":"0001-01-01T00:00:00Z","name_a2s":"Uncletopia | Frankfurt | 3 | All Maps","protocol":17,"map":"pl_swiftwater_final1","folder":"tf","game":"Team Fortress","app_id":440,"player_count":0,"max_players":24,"Bots":0,"server_type":"Dedicated","server_os":"Linux","password":true,"vac":true,"version":"7757534","steam_id":85568392924504274,"keywords":["nocrits","nodmgspread","payload","uncletopia"],"game_id":440,"stv_port":27036,"stv_name":"Uncletopia | Frankfurt | 3 | All Maps | STV","players":null},{"server_id":309,"name":"Uncletopia | Frankfurt | 4 | All Maps","name_short":"frk-4","host":"frk-1.de.uncletopia.com","port":27045,"enabled":true,"region":"eu","cc":"de","latitude":50.110924,"longitude":8.682127,"reserved":0,"last_update":"0001-01-01T00:00:00Z","name_a2s":"Uncletopia | Frankfurt | 4 | All Maps","protocol":17,"map":"pl_barnblitz","folder":"tf","game":"Team Fortress","app_id":440,"player_count":24,"max_players":24,"Bots":0,"server_type":"Dedicated","server_os":"Linux","password":true,"vac":true,"version":"7757534","steam_id":85568392924504275,"keywords":["nocrits","nodmgspread","payload","uncletopia"],"game_id":440,"stv_port":27046,"stv_name":"Uncletopia | Frankfurt | 4 | All Maps | STV","players":[{"user_id":12,"name":"dorak","steam_id":76561198818037965,"connected_time":2866000000000,"state":"active","ping":109},{"user_id":41,"name":"Citrus","steam_id":76561198090650837,"connected_time":609000000000,"state":"active","ping":66},{"user_id":42,"name":"MagicalKimmie","steam_id":76561198041364775,"connected_time":544000000000,"state":"active","ping":58},{"user_id":6,"name":"–Ø—Å–æ—Å –£–±–∏–±—É","steam_id":76561198291861707,"connected_time":4678000000000,"state":"active","ping":131},{"user_id":14,"name":"man-made horrors","steam_id":76561199480942903,"connected_time":2791000000000,"state":"active","ping":71},{"user_id":15,"name":"Westlyroots","steam_id":76561198170431198,"connected_time":2437000000000,"state":"active","ping":149},{"user_id":16,"name":"ja","steam_id":76561199228540618,"connected_time":2348000000000,"state":"active","ping":66},{"user_id":44,"name":"Chaffy2125","steam_id":76561198232839260,"connected_time":358000000000,"state":"active","ping":68},{"user_id":46,"name":"Dizzies","steam_id":76561198856577762,"connected_time":287000000000,"state":"active","ping":168},{"user_id":19,"name":"minn","steam_id":76561198099101232,"connected_time":2187000000000,"state":"active","ping":67},{"user_id":20,"name":"Cookies and Bakies","steam_id":76561198017442928,"connected_time":2187000000000,"state":"active","ping":81},{"user_id":30,"name":"Nirney","steam_id":76561198025959059,"connected_time":1547000000000,"state":"active","ping":96},{"user_id":49,"name":"neriah","steam_id":76561198115617236,"connected_time":67000000000,"state":"active","ping":88},{"user_id":23,"name":"AVR1H.COM","steam_id":76561199000829228,"connected_time":2060000000000,"state":"active","ping":97},{"user_id":24,"name":"ASS?!?!?!?!?","steam_id":76561199159262388,"connected_time":2015000000000,"state":"active","ping":87},{"user_id":25,"name":"trans werewolf","steam_id":76561198107235989,"connected_time":1899000000000,"state":"active","ping":62},{"user_id":38,"name":"MINUS-","steam_id":76561199000623263,"connected_time":977000000000,"state":"active","ping":138},{"user_id":27,"name":"duplicated","steam_id":76561198344952248,"connected_time":1747000000000,"state":"active","ping":65},{"user_id":32,"name":"bap","steam_id":76561198828611418,"connected_time":1404000000000,"state":"active","ping":60},{"user_id":34,"name":"‡ºº‡ºó KEHHS ‡ºó‡ºΩ","steam_id":76561198350237463,"connected_time":1257000000000,"state":"active","ping":77},{"user_id":45,"name":"DarkWra1th","steam_id":76561199081266709,"connected_time":322000000000,"state":"active","ping":73},{"user_id":39,"name":"—Å–∞—à–∞ –±—É—Ä–≥–µ—Ä","steam_id":76561199149307190,"connected_time":849000000000,"state":"active","ping":75},{"user_id":47,"name":"Ely.tf Kono","steam_id":76561198842087547,"connected_time":258000000000,"state":"active","ping":97},{"user_id":50,"name":"Ham enjoyer","steam_id":76561199152959064,"connected_time":36000000000,"state":"active","ping":84}]},{"server_id":310,"name":"Uncletopia | Frankfurt | 5 | All Maps","name_short":"frk-5","host":"frk-1.de.uncletopia.com","port":27055,"enabled":true,"region":"eu","cc":"de","latitude":50.110924,"longitude":8.682127,"reserved":0,"last_update":"0001-01-01T00:00:00Z","name_a2s":"Uncletopia | Frankfurt | 5 | All Maps","protocol":17,"map":"koth_lakeside_final","folder":"tf","game":"Team Fortress","app_id":440,"player_count":0,"max_players":24,"Bots":0,"server_type":"Dedicated","server_os":"Linux","password":true,"vac":true,"version":"7757534","steam_id":85568392924504277,"keywords":["cp","nocrits","nodmgspread","uncletopia"],"game_id":440,"stv_port":27056,"stv_name":"Uncletopia | Frankfurt | 5 | All Maps | STV","players":null},{"server_id":311,"name":"Uncletopia | Frankfurt | 6 | All Maps","name_short":"frk-6","host":"frk-1.de.uncletopia.com","port":27065,"enabled":true,"region":"eu","cc":"de","latitude":50.110924,"longitude":8.682127,"reserved":0,"last_update":"0001-01-01T00:00:00Z","name_a2s":"Uncletopia | Frankfurt | 6 | All Maps","protocol":17,"map":"pl_frontier_final","folder":"tf","game":"Team Fortress","app_id":440,"player_count":0,"max_players":24,"Bots":0,"server_type":"Dedicated","server_os":"Linux","password":true,"vac":true,"version":"7757534","steam_id":85568392924504278,"keywords":["nocrits","nodmgspread","payload","uncletopia"],"game_id":440,"stv_port":27066,"stv_name":"Uncletopia | Frankfurt | 6 | All Maps | STV","players":null},{"server_id":23,"name":"Uncletopia | Frankfurt | 7 | Stopwatch Beta","name_short":"frk-7","host":"frk-1.de.uncletopia.com","port":27075,"enabled":true,"region":"eu","cc":"de","latitude":50.110924,"longitude":8.682127,"reserved":0,"last_update":"0001-01-01T00:00:00Z","name_a2s":"Uncletopia | Frankfurt | 7 | Stopwatch Beta","protocol":17,"map":"cp_sunshine","folder":"tf","game":"Team Fortress","app_id":440,"player_count":0,"max_players":24,"Bots":0,"server_type":"Dedicated","server_os":"Linux","password":true,"vac":true,"version":"7757534","steam_id":85568392924742827,"keywords":["cp","nocrits","nodmgspread","uncletopia"],"game_id":440,"stv_port":27076,"stv_name":"Uncletopia | Frankfurt | 7 | Stopwatch Beta | STV","players":null},{"server_id":24,"name":"Uncletopia | Frankfurt | 8 | Community","name_short":"frk-8","host":"frk-1.de.uncletopia.com","port":27085,"enabled":true,"region":"eu","cc":"de","latitude":50.110924,"longitude":8.682127,"reserved":0,"last_update":"0001-01-01T00:00:00Z","name_a2s":"Uncletopia | Frankfurt | 8 | Community","protocol":17,"map":"koth_lakeside_final","folder":"tf","game":"Team Fortress","app_id":440,"player_count":0,"max_players":24,"Bots":0,"server_type":"Dedicated","server_os":"Linux","password":true,"vac":true,"version":"7757534","steam_id":85568392924742828,"keywords":["cp","nocrits","nodmgspread","uncletopia"],"game_id":440,"stv_port":27086,"stv_name":"Uncletopia | Frankfurt | 8 | Community | STV","players":null},{"server_id":202,"name":"Uncletopia | Hong Kong | 1 | All Maps","name_short":"hgk-1","host":"hgk-1.hk.uncletopia.com","port":27015,"enabled":true,"region":"asia","cc":"hk","latitude":22.302711,"longitude":114.177216,"reserved":0,"last_update":"0001-01-01T00:00:00Z","name_a2s":"Uncletopia | Hong Kong | 1 | All Maps","protocol":17,"map":"koth_viaduct","folder":"tf","game":"Team Fortress","app_id":440,"player_count":0,"max_players":24,"Bots":0,"server_type":"Dedicated","server_os":"Linux","password":true,"vac":true,"version":"7757534","steam_id":85568392924494504,"keywords":["cp","nocrits","nodmgspread","uncletopia"],"game_id":440,"stv_port":27016,"stv_name":"Uncletopia | Hong Kong | 1 | All Maps | STV","players":null},{"server_id":1,"name":"Uncletopia | Los Angeles | 1 | All Maps","name_short":"lax-1","host":"lax-1.us.uncletopia.com","port":27015,"enabled":true,"region":"us-west","cc":"us","latitude":33.94279,"longitude":-118.41004,"reserved":0,"last_update":"0001-01-01T00:00:00Z","name_a2s":"Uncletopia | Los Angeles | 1 | All Maps","protocol":17,"map":"pl_borneo","folder":"tf","game":"Team Fortress","app_id":440,"player_count":24,"max_players":24,"Bots":0,"server_type":"Dedicated","server_os":"Linux","password":true,"vac":true,"version":"7757534","steam_id":85568392924469991,"keywords":["nocrits","nodmgspread","payload","uncletopia"],"game_id":440,"stv_port":27016,"stv_name":"Uncletopia | Los Angeles | 1 | All Maps | STV","players":[{"user_id":258,"name":"gods drunkest driver","steam_id":76561198293857963,"connected_time":3708000000000,"state":"active","ping":64},{"user_id":291,"name":"crankshaft","steam_id":76561197992798282,"connected_time":1039000000000,"state":"active","ping":46},{"user_id":299,"name":"Mom","steam_id":76561198207936000,"connected_time":351000000000,"state":"active","ping":45},{"user_id":297,"name":"Mana (She/Her)","steam_id":76561198804360021,"connected_time":404000000000,"state":"active","ping":89},{"user_id":274,"name":"TheDogeIsReal","steam_id":76561199331300024,"connected_time":1886000000000,"state":"active","ping":92},{"user_id":234,"name":"Moshi Man","steam_id":76561198038249762,"connected_time":4224000000000,"state":"active","ping":107},{"user_id":255,"name":"a cat plushie","steam_id":76561198080046542,"connected_time":3830000000000,"state":"active","ping":72},{"user_id":286,"name":"littengamer1112","steam_id":76561198992690060,"connected_time":1458000000000,"state":"active","ping":69},{"user_id":271,"name":"eau:","steam_id":76561198110020262,"connected_time":2158000000000,"state":"active","ping":40},{"user_id":227,"name":"27 blends","steam_id":76561197997100185,"connected_time":5006000000000,"state":"active","ping":56},{"user_id":275,"name":"Nero","steam_id":76561198162875889,"connected_time":1849000000000,"state":"active","ping":57},{"user_id":218,"name":"squid","steam_id":76561198070236972,"connected_time":5570000000000,"state":"active","ping":60},{"user_id":276,"name":"Gruntic","steam_id":76561198170396647,"connected_time":1824000000000,"state":"active","ping":58},{"user_id":300,"name":"boosh","steam_id":76561198034218020,"connected_time":329000000000,"state":"active","ping":67},{"user_id":289,"name":"Whatty","steam_id":76561198211729296,"connected_time":1264000000000,"state":"active","ping":59},{"user_id":267,"name":"werolat","steam_id":76561197960544784,"connected_time":2413000000000,"state":"active","ping":50},{"user_id":301,"name":"BigBubble42","steam_id":76561198136286123,"connected_time":327000000000,"state":"active","ping":60},{"user_id":302,"name":"Adawnby","steam_id":76561198103057295,"connected_time":318000000000,"state":"active","ping":78},{"user_id":296,"name":"themadlad67","steam_id":76561199309554436,"connected_time":515000000000,"state":"active","ping":76},{"user_id":303,"name":"moe","steam_id":76561198929586245,"connected_time":314000000000,"state":"active","ping":56},{"user_id":304,"name":"Livin' Like Larry","steam_id":76561198313360974,"connected_time":307000000000,"state":"active","ping":53},{"user_id":281,"name":"incredirocks","steam_id":76561198061079993,"connected_time":1634000000000,"state":"active","ping":105},{"user_id":283,"name":"ragnarok","steam_id":76561198273579889,"connected_time":1570000000000,"state":"active","ping":66},{"user_id":295,"name":"chowdah908","steam_id":76561198075858535,"connected_time":769000000000,"state":"active","ping":115}]},{"server_id":112,"name":"Uncletopia | Los Angeles | 2 | All Maps","name_short":"lax-2","host":"lax-1.us.uncletopia.com","port":27025,"enabled":true,"region":"us-west","cc":"us","latitude":33.94279,"longitude":-118.41004,"reserved":0,"last_update":"0001-01-01T00:00:00Z","name_a2s":"Uncletopia | Los Angeles | 2 | All Maps","protocol":17,"map":"pl_thundermountain","folder":"tf","game":"Team Fortress","app_id":440,"player_count":24,"max_players":24,"Bots":0,"server_type":"Dedicated","server_os":"Linux","password":true,"vac":true,"version":"7757534","steam_id":85568392924469992,"keywords":["nocrits","nodmgspread","payload","uncletopia"],"game_id":440,"stv_port":27026,"stv_name":"Uncletopia | Los Angeles | 2 | All Maps | STV","players":[{"user_id":455,"name":"Scoron","steam_id":76561198062099305,"connected_time":1247000000000,"state":"active","ping":67},{"user_id":441,"name":"Psychobanana","steam_id":76561199142143339,"connected_time":2017000000000,"state":"active","ping":66},{"user_id":466,"name":"Dr_Nuclear","steam_id":76561198288223534,"connected_time":236000000000,"state":"active","ping":61},{"user_id":324,"name":"i wish i were a bird","steam_id":76561199224976982,"connected_time":11753000000000,"state":"active","ping":97},{"user_id":464,"name":"mu","steam_id":76561197997530228,"connected_time":314000000000,"state":"active","ping":82},{"user_id":442,"name":"ChocoCrispChunks","steam_id":76561198881926539,"connected_time":2010000000000,"state":"active","ping":53},{"user_id":462,"name":"party tim","steam_id":76561198034876389,"connected_time":538000000000,"state":"active","ping":59},{"user_id":468,"name":"Drakon","steam_id":76561198078210822,"connected_time":165000000000,"state":"active","ping":69},{"user_id":463,"name":"Titocheeto","steam_id":76561198994684924,"connected_time":326000000000,"state":"active","ping":109},{"user_id":467,"name":"Denim","steam_id":76561198035786964,"connected_time":210000000000,"state":"active","ping":101},{"user_id":425,"name":"Grungus","steam_id":76561198047700230,"connected_time":4196000000000,"state":"active","ping":60},{"user_id":465,"name":"Camaleon","steam_id":76561198041329791,"connected_time":304000000000,"state":"active","ping":47},{"user_id":432,"name":"Jules","steam_id":76561198044358370,"connected_time":3824000000000,"state":"active","ping":105},{"user_id":453,"name":"listening to carti, FULLY ERECT","steam_id":76561198357132470,"connected_time":1291000000000,"state":"active","ping":62},{"user_id":424,"name":"Bomb Squirtle‚Ñ¢","steam_id":76561197998931145,"connected_time":4319000000000,"state":"active","ping":132},{"user_id":450,"name":"mechanicvirus","steam_id":76561198038161480,"connected_time":1651000000000,"state":"active","ping":69},{"user_id":459,"name":"bloodhail","steam_id":76561198121633820,"connected_time":883000000000,"state":"active","ping":73},{"user_id":452,"name":"Sakisano","steam_id":76561198245814880,"connected_time":1616000000000,"state":"active","ping":123},{"user_id":339,"name":"Natalie (she/her)","steam_id":76561198048848289,"connected_time":10344000000000,"state":"active","ping":57},{"user_id":422,"name":"Antwan","steam_id":76561198246200638,"connected_time":4554000000000,"state":"active","ping":72},{"user_id":470,"name":"Dr. Bubs","steam_id":76561198011696595,"connected_time":162000000000,"state":"active","ping":51},{"user_id":404,"name":"LeBron James Ferraro","steam_id":76561197995200743,"connected_time":5248000000000,"state":"active","ping":30},{"user_id":386,"name":"bigman1","steam_id":76561198050225055,"connected_time":7090000000000,"state":"active","ping":45},{"user_id":440,"name":"Thunder","steam_id":76561198795676044,"connected_time":2204000000000,"state":"active","ping":46}]},{"server_id":324,"name":"Uncletopia | Los Angeles | 3 | All Maps","name_short":"lax-3","host":"lax-1.us.uncletopia.com","port":27035,"enabled":true,"region":"us-west","cc":"us","latitude":33.94279,"longitude":-118.41004,"reserved":0,"last_update":"0001-01-01T00:00:00Z","name_a2s":"Uncletopia | Los Angeles | 3 | All Maps","protocol":17,"map":"pl_upward","folder":"tf","game":"Team Fortress","app_id":440,"player_count":21,"max_players":24,"Bots":0,"server_type":"Dedicated","server_os":"Linux","password":true,"vac":true,"version":"7757534","steam_id":85568392924510198,"keywords":["nocrits","nodmgspread","payload","uncletopia"],"game_id":440,"stv_port":27036,"stv_name":"Uncletopia | Los Angeles | 3 | All Maps | STV","players":[{"user_id":248,"name":"Nugakku","steam_id":76561198082346219,"connected_time":219000000000,"state":"active","ping":59},{"user_id":235,"name":"Carte","steam_id":76561198077424488,"connected_time":1372000000000,"state":"active","ping":45},{"user_id":195,"name":"a chicken","steam_id":76561198313121580,"connected_time":4648000000000,"state":"active","ping":49},{"user_id":252,"name":"delight","steam_id":76561197980280272,"connected_time":145000000000,"state":"active","ping":73},{"user_id":234,"name":"whiteout","steam_id":76561198049017271,"connected_time":1540000000000,"state":"active","ping":49},{"user_id":244,"name":"[PINGU‚Ñ¢] Tiny Tuna","steam_id":76561198193611579,"connected_time":638000000000,"state":"active","ping":118},{"user_id":200,"name":"RING DONG DORINGOS","steam_id":76561198043558709,"connected_time":3659000000000,"state":"active","ping":78},{"user_id":210,"name":"Balengu Deez","steam_id":76561198217680027,"connected_time":3142000000000,"state":"active","ping":88},{"user_id":211,"name":"WeedleDeedle","steam_id":76561198197088079,"connected_time":3135000000000,"state":"active","ping":80},{"user_id":256,"name":"Rain","steam_id":76561198032318897,"connected_time":12000000000,"state":"active","ping":81},{"user_id":253,"name":"Aequalis747","steam_id":76561199456589841,"connected_time":118000000000,"state":"active","ping":63},{"user_id":257,"name":"PINGAS","steam_id":76561198966488979,"connected_time":2000000000,"state":"spawning","ping":57},{"user_id":240,"name":"Medic Pocket Girlfriend","steam_id":76561198378587138,"connected_time":993000000000,"state":"active","ping":60},{"user_id":214,"name":"Hakase","steam_id":76561198066844816,"connected_time":3061000000000,"state":"active","ping":54},{"user_id":242,"name":"srmoore 103","steam_id":76561198300291415,"connected_time":900000000000,"state":"active","ping":75},{"user_id":246,"name":"Randy \"the Man\" Johnson","steam_id":76561198039124445,"connected_time":631000000000,"state":"active","ping":90},{"user_id":228,"name":"Crunchy","steam_id":76561198240523882,"connected_time":1886000000000,"state":"active","ping":46},{"user_id":155,"name":"nathanxbox2","steam_id":76561198046874088,"connected_time":7505000000000,"state":"active","ping":79},{"user_id":233,"name":"blue of days","steam_id":76561199113013688,"connected_time":1701000000000,"state":"active","ping":51},{"user_id":247,"name":"HAT-WEARING‚Ñ¢ Maggot Gamer Cat","steam_id":76561197973992705,"connected_time":227000000000,"state":"active","ping":73},{"user_id":222,"name":"tempor","steam_id":76561198329202325,"connected_time":2664000000000,"state":"active","ping":71}]},{"server_id":25,"name":"Uncletopia | Los Angeles | 4 | Stopwatch Beta","name_short":"lax-4","host":"lax-1.us.uncletopia.com","port":27045,"enabled":true,"region":"us-west","cc":"us","latitude":33.94279,"longitude":-118.41004,"reserved":0,"last_update":"0001-01-01T00:00:00Z","name_a2s":"Uncletopia | Los Angeles | 4 | Stopwatch Beta","protocol":17,"map":"workshop/pl_barnblitz_pro7.ugc582280235","folder":"tf","game":"Team Fortress","app_id":440,"player_count":0,"max_players":24,"Bots":0,"server_type":"Dedicated","server_os":"Linux","password":true,"vac":true,"version":"7757534","steam_id":85568392924510199,"keywords":["nocrits","nodmgspread","payload","uncletopia"],"game_id":440,"stv_port":27046,"stv_name":"Uncletopia | Los Angeles | 4 | Stopwatch Beta | STV","players":null},{"server_id":11,"name":"Uncletopia | London | 1 | All Maps","name_short":"lon-1","host":"lon-1.uk.uncletopia.com","port":27015,"enabled":true,"region":"eu","cc":"gb","latitude":51.509865,"longitude":-0.118092,"reserved":0,"last_update":"0001-01-01T00:00:00Z","name_a2s":"Uncletopia | London | 1 | All Maps","protocol":17,"map":"koth_highpass","folder":"tf","game":"Team Fortress","app_id":440,"player_count":0,"max_players":24,"Bots":0,"server_type":"Dedicated","server_os":"Linux","password":true,"vac":true,"version":"7757534","steam_id":85568392924367362,"keywords":["cp","nocrits","nodmgspread","uncletopia"],"game_id":440,"stv_port":27016,"stv_name":"Uncletopia | London | 1 | All Maps | STV","players":null},{"server_id":114,"name":"Uncletopia | London | 2 | All Maps","name_short":"lon-2","host":"lon-1.uk.uncletopia.com","port":27025,"enabled":true,"region":"eu","cc":"gb","latitude":51.509865,"longitude":-0.118092,"reserved":0,"last_update":"0001-01-01T00:00:00Z","name_a2s":"Uncletopia | London | 2 | All Maps","protocol":17,"map":"koth_viaduct","folder":"tf","game":"Team Fortress","app_id":440,"player_count":0,"max_players":24,"Bots":0,"server_type":"Dedicated","server_os":"Linux","password":true,"vac":true,"version":"7757534","steam_id":85568392924470941,"keywords":["cp","nocrits","nodmgspread","uncletopia"],"game_id":440,"stv_port":27026,"stv_name":"Uncletopia | London | 2 | All Maps | STV","players":null},{"server_id":320,"name":"Uncletopia | London | 3 | All Maps","name_short":"lon-3","host":"lon-1.uk.uncletopia.com","port":27035,"enabled":true,"region":"eu","cc":"gb","latitude":51.509865,"longitude":-0.118092,"reserved":0,"last_update":"0001-01-01T00:00:00Z","name_a2s":"Uncletopia | London | 3 | All Maps","protocol":17,"map":"cp_dustbowl","folder":"tf","game":"Team Fortress","app_id":440,"player_count":0,"max_players":24,"Bots":0,"server_type":"Dedicated","server_os":"Linux","password":true,"vac":true,"version":"7757534","steam_id":85568392924510192,"keywords":["cp","nocrits","nodmgspread","uncletopia"],"game_id":440,"stv_port":27036,"stv_name":"Uncletopia | London | 3 | All Maps | STV","players":null},{"server_id":321,"name":"Uncletopia | London | 4 | All Maps","name_short":"lon-4","host":"lon-1.uk.uncletopia.com","port":27045,"enabled":true,"region":"eu","cc":"gb","latitude":51.509865,"longitude":-0.118092,"reserved":0,"last_update":"0001-01-01T00:00:00Z","name_a2s":"Uncletopia | London | 4 | All Maps","protocol":17,"map":"cp_dustbowl","folder":"tf","game":"Team Fortress","app_id":440,"player_count":0,"max_players":24,"Bots":0,"server_type":"Dedicated","server_os":"Linux","password":true,"vac":true,"version":"7757534","steam_id":85568392924510193,"keywords":["cp","nocrits","nodmgspread","uncletopia"],"game_id":440,"stv_port":27046,"stv_name":"Uncletopia | London | 4 | All Maps | STV","players":null},{"server_id":21,"name":"Uncletopia | London | 5 | All Maps","name_short":"lon-5","host":"lon-1.uk.uncletopia.com","port":27055,"enabled":true,"region":"eu","cc":"gb","latitude":51.509865,"longitude":-0.118092,"reserved":0,"last_update":"0001-01-01T00:00:00Z","name_a2s":"Uncletopia | London | 5 | All Maps","protocol":17,"map":"cp_altitude","folder":"tf","game":"Team Fortress","app_id":440,"player_count":0,"max_players":24,"Bots":0,"server_type":"Dedicated","server_os":"Linux","password":true,"vac":true,"version":"7757534","steam_id":85568392924742829,"keywords":["cp","nocrits","nodmgspread","uncletopia"],"game_id":440,"stv_port":27056,"stv_name":"Uncletopia | London | 5 | All Maps | STV","players":null},{"server_id":22,"name":"Uncletopia | London | 6 | All Maps","name_short":"lon-6","host":"lon-1.uk.uncletopia.com","port":27065,"enabled":true,"region":"eu","cc":"gb","latitude":51.509865,"longitude":-0.118092,"reserved":0,"last_update":"0001-01-01T00:00:00Z","name_a2s":"Uncletopia | London | 6 | All Maps","protocol":17,"map":"cp_mountainlab","folder":"tf","game":"Team Fortress","app_id":440,"player_count":0,"max_players":24,"Bots":0,"server_type":"Dedicated","server_os":"Linux","password":true,"vac":true,"version":"7757534","steam_id":85568392924742830,"keywords":["cp","nocrits","nodmgspread","uncletopia"],"game_id":440,"stv_port":27066,"stv_name":"Uncletopia | London | 6 | All Maps | STV","players":null},{"server_id":40,"name":"Uncletopia | London | 7 | No Payload","name_short":"lon-7","host":"lon-1.uk.uncletopia.com","port":27075,"enabled":true,"region":"eu","cc":"gb","latitude":51.509865,"longitude":-0.118092,"reserved":0,"last_update":"0001-01-01T00:00:00Z","name_a2s":"Uncletopia | London | 7 | No Payload","protocol":17,"map":"pl_badwater","folder":"tf","game":"Team Fortress","app_id":440,"player_count":0,"max_players":24,"Bots":0,"server_type":"Dedicated","server_os":"Linux","password":true,"vac":true,"version":"7757534","steam_id":85568392924964314,"keywords":["nocrits","nodmgspread","payload","uncletopia"],"game_id":440,"stv_port":27076,"stv_name":"Uncletopia | London | 7 | No Payload | STV","players":null},{"server_id":41,"name":"Uncletopia | London | 8 | Community","name_short":"lon-8","host":"lon-1.uk.uncletopia.com","port":27085,"enabled":true,"region":"eu","cc":"gb","latitude":51.509865,"longitude":-0.118092,"reserved":0,"last_update":"0001-01-01T00:00:00Z","name_a2s":"Uncletopia | London | 8 | Community","protocol":17,"map":"pl_barnblitz","folder":"tf","game":"Team Fortress","app_id":440,"player_count":0,"max_players":24,"Bots":0,"server_type":"Dedicated","server_os":"Linux","password":true,"vac":true,"version":"7757534","steam_id":85568392924964315,"keywords":["nocrits","nodmgspread","payload","uncletopia"],"game_id":440,"stv_port":27086,"stv_name":"Uncletopia | London | 8 | Community | STV","players":null},{"server_id":300,"name":"Uncletopia | Montr√©al | 1 | All Maps","name_short":"mtl-1","host":"mtl-1.ca.uncletopia.com","port":27015,"enabled":true,"region":"us-east","cc":"ca","latitude":45.50889,"longitude":-73.56167,"reserved":0,"last_update":"0001-01-01T00:00:00Z","name_a2s":"Uncletopia | Montr√©al | 1 | All Maps","protocol":17,"map":"cp_dustbowl","folder":"tf","game":"Team Fortress","app_id":440,"player_count":0,"max_players":24,"Bots":0,"server_type":"Dedicated","server_os":"Linux","password":true,"vac":true,"version":"7757534","steam_id":85568392924500087,"keywords":["cp","nocrits","nodmgspread","uncletopia"],"game_id":440,"stv_port":27016,"stv_name":"Uncletopia | Montr√©al | 1 | All Maps | STV","players":null},{"server_id":301,"name":"Uncletopia | Montr√©al | 2 | All Maps","name_short":"mtl-2","host":"mtl-1.ca.uncletopia.com","port":27025,"enabled":true,"region":"us-east","cc":"ca","latitude":45.50889,"longitude":-73.56167,"reserved":0,"last_update":"0001-01-01T00:00:00Z","name_a2s":"Uncletopia | Montr√©al | 2 | All Maps","protocol":17,"map":"cp_process_final","folder":"tf","game":"Team Fortress","app_id":440,"player_count":0,"max_players":24,"Bots":0,"server_type":"Dedicated","server_os":"Linux","password":true,"vac":true,"version":"7757534","steam_id":85568392924500088,"keywords":["cp","nocrits","nodmgspread","uncletopia"],"game_id":440,"stv_port":27026,"stv_name":"Uncletopia | Montr√©al | 2 | All Maps | STV","players":null},{"server_id":302,"name":"Uncletopia | Montr√©al | 3 | All Maps","name_short":"mtl-3","host":"mtl-1.ca.uncletopia.com","port":27035,"enabled":true,"region":"us-east","cc":"ca","latitude":45.50889,"longitude":-73.56167,"reserved":0,"last_update":"0001-01-01T00:00:00Z","name_a2s":"Uncletopia | Montr√©al | 3 | All Maps","protocol":17,"map":"pl_borneo","folder":"tf","game":"Team Fortress","app_id":440,"player_count":0,"max_players":24,"Bots":0,"server_type":"Dedicated","server_os":"Linux","password":true,"vac":true,"version":"7757534","steam_id":85568392924500089,"keywords":["nocrits","nodmgspread","payload","uncletopia"],"game_id":440,"stv_port":27036,"stv_name":"Uncletopia | Montr√©al | 3 | All Maps | STV","players":null},{"server_id":303,"name":"Uncletopia | Montr√©al | 4 | No Payload","name_short":"mtl-4","host":"mtl-1.ca.uncletopia.com","port":27045,"enabled":true,"region":"us-east","cc":"ca","latitude":45.50889,"longitude":-73.56167,"reserved":0,"last_update":"0001-01-01T00:00:00Z","name_a2s":"Uncletopia | Montr√©al | 4 | No Payload","protocol":17,"map":"koth_harvest_final","folder":"tf","game":"Team Fortress","app_id":440,"player_count":0,"max_players":24,"Bots":0,"server_type":"Dedicated","server_os":"Linux","password":true,"vac":true,"version":"7757534","steam_id":85568392924500090,"keywords":["cp","nocrits","nodmgspread","uncletopia"],"game_id":440,"stv_port":27046,"stv_name":"Uncletopia | Montr√©al | 4 | No Payload | STV","players":null},{"server_id":13,"name":"Uncletopia | New York City | 1 | All Maps","name_short":"nyc-1","host":"nyc-1.us.uncletopia.com","port":27015,"enabled":true,"region":"us-east","cc":"us","latitude":40.73061,"longitude":-73.93524,"reserved":0,"last_update":"0001-01-01T00:00:00Z","name_a2s":"Uncletopia | New York City | 1 | All Maps","protocol":17,"map":"koth_lakeside_final","folder":"tf","game":"Team Fortress","app_id":440,"player_count":24,"max_players":24,"Bots":0,"server_type":"Dedicated","server_os":"Linux","password":true,"vac":true,"version":"7757534","steam_id":85568392924469993,"keywords":["cp","nocrits","nodmgspread","uncletopia"],"game_id":440,"stv_port":27016,"stv_name":"Uncletopia | New York City | 1 | All Maps | STV","players":[{"user_id":797,"name":"Master John Thursday","steam_id":76561197987593154,"connected_time":856000000000,"state":"active","ping":75},{"user_id":727,"name":"Thunderous","steam_id":76561198192752793,"connected_time":6090000000000,"state":"active","ping":51},{"user_id":800,"name":".trashbin","steam_id":76561197994492154,"connected_time":461000000000,"state":"active","ping":149},{"user_id":801,"name":"Suck Her Dick Sunday","steam_id":76561198029274581,"connected_time":441000000000,"state":"active","ping":61},{"user_id":721,"name":"Lily","steam_id":76561198348941784,"connected_time":6828000000000,"state":"active","ping":87},{"user_id":798,"name":"Day","steam_id":76561198346908503,"connected_time":805000000000,"state":"active","ping":45},{"user_id":792,"name":"IMYS","steam_id":76561198096223200,"connected_time":1564000000000,"state":"active","ping":54},{"user_id":659,"name":"Mario","steam_id":76561198321794277,"connected_time":11520000000000,"state":"active","ping":72},{"user_id":802,"name":"pigswill","steam_id":76561197999081865,"connected_time":358000000000,"state":"active","ping":64},{"user_id":769,"name":"Flowers","steam_id":76561198031669899,"connected_time":3699000000000,"state":"active","ping":73},{"user_id":793,"name":"Shoomsie","steam_id":76561198047405791,"connected_time":1556000000000,"state":"active","ping":73},{"user_id":803,"name":"Elena Manetta","steam_id":76561197998344054,"connected_time":339000000000,"state":"active","ping":44},{"user_id":761,"name":"TheRealMrGutsy","steam_id":76561198085395848,"connected_time":4382000000000,"state":"active","ping":87},{"user_id":789,"name":"st","steam_id":76561198173047169,"connected_time":2007000000000,"state":"active","ping":46},{"user_id":779,"name":"Shady Shopkeep","steam_id":76561198025307628,"connected_time":3137000000000,"state":"active","ping":99},{"user_id":794,"name":"Thot Patrol","steam_id":76561198138713736,"connected_time":1487000000000,"state":"active","ping":69},{"user_id":773,"name":"AJTarcza","steam_id":76561198070800190,"connected_time":3606000000000,"state":"active","ping":72},{"user_id":720,"name":"Hugh can prevent Florist Friars","steam_id":76561198124311404,"connected_time":6849000000000,"state":"active","ping":71},{"user_id":807,"name":"thatbedrockblock","steam_id":76561199069286524,"connected_time":89000000000,"state":"active","ping":127},{"user_id":805,"name":"lost in spaaaaace","steam_id":76561199085974120,"connected_time":337000000000,"state":"active","ping":79},{"user_id":764,"name":"Bow_","steam_id":76561198109608134,"connected_time":4302000000000,"state":"active","ping":72},{"user_id":765,"name":"Smokey","steam_id":76561198071523590,"connected_time":4296000000000,"state":"active","ping":93},{"user_id":788,"name":"CRAZY engineer","steam_id":76561198887937902,"connected_time":2092000000000,"state":"active","ping":58},{"user_id":774,"name":"Dastardly","steam_id":76561198028351509,"connected_time":3598000000000,"state":"active","ping":157}]},{"server_id":14,"name":"Uncletopia | New York City | 2 | All Maps","name_short":"nyc-2","host":"nyc-1.us.uncletopia.com","port":27025,"enabled":true,"region":"us-east","cc":"us","latitude":40.73061,"longitude":-73.93524,"reserved":0,"last_update":"0001-01-01T00:00:00Z","name_a2s":"Uncletopia | New York City | 2 | All Maps","protocol":17,"map":"pl_borneo","folder":"tf","game":"Team Fortress","app_id":440,"player_count":11,"max_players":24,"Bots":0,"server_type":"Dedicated","server_os":"Linux","password":true,"vac":true,"version":"7757534","steam_id":85568392924469994,"keywords":["nocrits","nodmgspread","payload","uncletopia"],"game_id":440,"stv_port":27026,"stv_name":"Uncletopia | New York City | 2 | All Maps | STV","players":[{"user_id":510,"name":"MetaKrakalaka","steam_id":76561199095316646,"connected_time":1400000000000,"state":"active","ping":59},{"user_id":511,"name":"The Final Terminus","steam_id":76561197964985183,"connected_time":1257000000000,"state":"active","ping":44},{"user_id":514,"name":"FS Jorda (She/Her)","steam_id":76561198071421459,"connected_time":936000000000,"state":"active","ping":30},{"user_id":515,"name":"goldgardian","steam_id":76561198319471339,"connected_time":905000000000,"state":"active","ping":124},{"user_id":506,"name":"THE BURGER","steam_id":76561198311704368,"connected_time":2296000000000,"state":"active","ping":47},{"user_id":459,"name":"Horrizan","steam_id":76561197965028480,"connected_time":5599000000000,"state":"active","ping":86},{"user_id":480,"name":"retinz","steam_id":76561198135563495,"connected_time":4040000000000,"state":"active","ping":55},{"user_id":520,"name":"Dattallguy","steam_id":76561198873155093,"connected_time":705000000000,"state":"active","ping":74},{"user_id":504,"name":"Feleeg","steam_id":76561198452866612,"connected_time":2365000000000,"state":"active","ping":45},{"user_id":488,"name":"OptiCxmShot","steam_id":76561198049019578,"connected_time":3847000000000,"state":"active","ping":130},{"user_id":489,"name":"Narwhal","steam_id":76561198132448838,"connected_time":3840000000000,"state":"active","ping":47}]},{"server_id":15,"name":"Uncletopia | New York City | 3 | Stopwatch Beta","name_short":"nyc-3","host":"nyc-1.us.uncletopia.com","port":27035,"enabled":true,"region":"us-east","cc":"us","latitude":40.73061,"longitude":-73.93524,"reserved":0,"last_update":"0001-01-01T00:00:00Z","name_a2s":"Uncletopia | New York City | 3 | Stopwatch Beta","protocol":17,"map":"cp_metalworks","folder":"tf","game":"Team Fortress","app_id":440,"player_count":0,"max_players":24,"Bots":0,"server_type":"Dedicated","server_os":"Linux","password":true,"vac":true,"version":"7757534","steam_id":85568392924742820,"keywords":["cp","nocrits","nodmgspread","uncletopia"],"game_id":440,"stv_port":27036,"stv_name":"Uncletopia | New York City | 3 | Stopwatch Beta | STV","players":null},{"server_id":16,"name":"Uncletopia | New York City | 4 | Community","name_short":"nyc-4","host":"nyc-1.us.uncletopia.com","port":27045,"enabled":true,"region":"us-east","cc":"us","latitude":40.73061,"longitude":-73.93524,"reserved":0,"last_update":"0001-01-01T00:00:00Z","name_a2s":"Uncletopia | New York City | 4 | Community","protocol":17,"map":"workshop/cp_glacier_rc6.ugc2905735376","folder":"tf","game":"Team Fortress","app_id":440,"player_count":0,"max_players":24,"Bots":0,"server_type":"Dedicated","server_os":"Linux","password":true,"vac":true,"version":"7757534","steam_id":85568392924742821,"keywords":["cp","nocrits","nodmgspread","uncletopia"],"game_id":440,"stv_port":27046,"stv_name":"Uncletopia | New York City | 4 | Community | STV","players":null},{"server_id":142,"name":"Uncletopia | S√£o Paulo | 1 | All Maps","name_short":"sao-1","host":"sao-1.br.uncletopia.com","port":27015,"enabled":true,"region":"sa","cc":"br","latitude":-23.533773,"longitude":-46.62529,"reserved":0,"last_update":"0001-01-01T00:00:00Z","name_a2s":"Uncletopia | S√£o Paulo | 1 | All Maps","protocol":17,"map":"koth_highpass","folder":"tf","game":"Team Fortress","app_id":440,"player_count":0,"max_players":24,"Bots":0,"server_type":"Dedicated","server_os":"Linux","password":true,"vac":true,"version":"7757534","steam_id":85568392924469996,"keywords":["cp","nocrits","nodmgspread","uncletopia"],"game_id":440,"stv_port":27016,"stv_name":"Uncletopia | S√£o Paulo | 1 | All Maps | STV","players":null},{"server_id":143,"name":"Uncletopia | S√£o Paulo | 2 | All Maps","name_short":"sao-2","host":"sao-2.br.uncletopia.com","port":27015,"enabled":true,"region":"sa","cc":"br","latitude":-23.533773,"longitude":-46.62529,"reserved":0,"last_update":"0001-01-01T00:00:00Z","name_a2s":"Uncletopia | S√£o Paulo | 2 | All Maps","protocol":17,"map":"koth_viaduct","folder":"tf","game":"Team Fortress","app_id":440,"player_count":0,"max_players":24,"Bots":0,"server_type":"Dedicated","server_os":"Linux","password":true,"vac":true,"version":"7757534","steam_id":85568392924485349,"keywords":["cp","nocrits","nodmgspread","uncletopia"],"game_id":440,"stv_port":27016,"stv_name":"Uncletopia | S√£o Paulo | 2 | All Maps | STV","players":null},{"server_id":7,"name":"Uncletopia | Seattle | 1 | All Maps","name_short":"sea-1","host":"sea-1.us.uncletopia.com","port":27015,"enabled":true,"region":"us-west","cc":"us","latitude":47.608013,"longitude":-122.33517,"reserved":0,"last_update":"0001-01-01T00:00:00Z","name_a2s":"Uncletopia | Seattle | 1 | All Maps","protocol":17,"map":"pl_pier","folder":"tf","game":"Team Fortress","app_id":440,"player_count":24,"max_players":24,"Bots":0,"server_type":"Dedicated","server_os":"Linux","password":true,"vac":true,"version":"7757534","steam_id":85568392924469997,"keywords":["nocrits","nodmgspread","payload","uncletopia"],"game_id":440,"stv_port":27016,"stv_name":"Uncletopia | Seattle | 1 | All Maps | STV","players":[{"user_id":707,"name":"mae","steam_id":76561198116842967,"connected_time":183000000000,"state":"active","ping":127},{"user_id":672,"name":"glue...","steam_id":76561198243695590,"connected_time":3699000000000,"state":"active","ping":58},{"user_id":695,"name":"Aura","steam_id":76561198080033152,"connected_time":1180000000000,"state":"active","ping":45},{"user_id":668,"name":"Tom Skirrett","steam_id":76561198014600788,"connected_time":4580000000000,"state":"active","ping":60},{"user_id":691,"name":"Cheezbeargur","steam_id":76561198164702899,"connected_time":1666000000000,"state":"active","ping":63},{"user_id":676,"name":"May_","steam_id":76561198169490517,"connected_time":3208000000000,"state":"active","ping":101},{"user_id":705,"name":"seats","steam_id":76561197998756039,"connected_time":211000000000,"state":"active","ping":69},{"user_id":709,"name":"I killed my parents","steam_id":76561199215943081,"connected_time":18000000000,"state":"active","ping":94},{"user_id":696,"name":"henroo_d","steam_id":76561198197540475,"connected_time":1166000000000,"state":"active","ping":65},{"user_id":679,"name":"makeshift_burrito","steam_id":76561198042510825,"connected_time":2660000000000,"state":"active","ping":71},{"user_id":690,"name":"G0DK1LLER777","steam_id":76561198100614981,"connected_time":1913000000000,"state":"active","ping":45},{"user_id":706,"name":"Lazy-assed Prophet","steam_id":76561198214400452,"connected_time":206000000000,"state":"active","ping":68},{"user_id":708,"name":"Thexx ‚ù§","steam_id":76561198113823050,"connected_time":123000000000,"state":"active","ping":46},{"user_id":637,"name":"J U K I E","steam_id":76561197962841151,"connected_time":7066000000000,"state":"active","ping":51},{"user_id":686,"name":"Inflight","steam_id":76561198920049475,"connected_time":2617000000000,"state":"active","ping":111},{"user_id":688,"name":"At0m1x","steam_id":76561198241192420,"connected_time":2210000000000,"state":"active","ping":51},{"user_id":697,"name":"‚ô•haunti","steam_id":76561199235580556,"connected_time":1142000000000,"state":"active","ping":49},{"user_id":703,"name":"Pesky Bee","steam_id":76561198042679485,"connected_time":872000000000,"state":"active","ping":68},{"user_id":701,"name":"Quarter Cheese","steam_id":76561198115814588,"connected_time":994000000000,"state":"active","ping":42},{"user_id":680,"name":"imtoofadedicantevendapuup","steam_id":76561198180372310,"connected_time":2660000000000,"state":"active","ping":60},{"user_id":640,"name":"smeasly","steam_id":76561198028718812,"connected_time":5825000000000,"state":"active","ping":44},{"user_id":683,"name":"Luca","steam_id":76561198125087140,"connected_time":2651000000000,"state":"active","ping":49},{"user_id":700,"name":"The Pepsi¬Æ Superbowl¬Æ!","steam_id":76561198080828981,"connected_time":1032000000000,"state":"active","ping":79},{"user_id":704,"name":"Quietsharp","steam_id":76561198277968438,"connected_time":782000000000,"state":"active","ping":89}]},{"server_id":119,"name":"Uncletopia | Seattle | 2 | All Maps","name_short":"sea-2","host":"sea-1.us.uncletopia.com","port":27025,"enabled":true,"region":"us-west","cc":"us","latitude":47.608013,"longitude":-122.33517,"reserved":0,"last_update":"0001-01-01T00:00:00Z","name_a2s":"Uncletopia | Seattle | 2 | All Maps","protocol":17,"map":"koth_viaduct","folder":"tf","game":"Team Fortress","app_id":440,"player_count":20,"max_players":24,"Bots":0,"server_type":"Dedicated","server_os":"Linux","password":true,"vac":true,"version":"7757534","steam_id":85568392924469998,"keywords":["cp","nocrits","nodmgspread","uncletopia"],"game_id":440,"stv_port":27026,"stv_name":"Uncletopia | Seattle | 2 | All Maps | STV","players":[{"user_id":540,"name":"mrhazman","steam_id":76561198040467069,"connected_time":1885000000000,"state":"active","ping":45},{"user_id":555,"name":"Algibruh","steam_id":76561199221599415,"connected_time":737000000000,"state":"active","ping":45},{"user_id":538,"name":"BIGWELDFROMROBOTS","steam_id":76561199275349806,"connected_time":2065000000000,"state":"active","ping":100},{"user_id":533,"name":"Sinn","steam_id":76561199013434543,"connected_time":2299000000000,"state":"active","ping":74},{"user_id":541,"name":"Hqmmie","steam_id":76561199071213094,"connected_time":1870000000000,"state":"active","ping":65},{"user_id":557,"name":"dlatgirp","steam_id":76561198417137724,"connected_time":712000000000,"state":"active","ping":66},{"user_id":556,"name":"oil","steam_id":76561198099980149,"connected_time":734000000000,"state":"active","ping":76},{"user_id":544,"name":"Fire_box41238","steam_id":76561199185673650,"connected_time":1832000000000,"state":"active","ping":51},{"user_id":567,"name":"Sir Nope (TSS)","steam_id":76561198035935649,"connected_time":370000000000,"state":"active","ping":75},{"user_id":569,"name":"vermin4pres","steam_id":76561198046073848,"connected_time":224000000000,"state":"active","ping":50},{"user_id":558,"name":"Lentil Soup","steam_id":76561198051834684,"connected_time":704000000000,"state":"active","ping":60},{"user_id":559,"name":"Ôºº ï ‚Ä¢·¥•‚Ä¢ îÔºè","steam_id":76561198147833204,"connected_time":688000000000,"state":"active","ping":89},{"user_id":560,"name":"Chunk","steam_id":76561198204275251,"connected_time":664000000000,"state":"active","ping":87},{"user_id":564,"name":"Matches *‚ô•‚Äß‚ÇäÀö           ","steam_id":76561198048925904,"connected_time":502000000000,"state":"active","ping":90},{"user_id":551,"name":"Lotusberry","steam_id":76561198058506867,"connected_time":1442000000000,"state":"active","ping":54},{"user_id":565,"name":"Vimh","steam_id":76561198384938589,"connected_time":483000000000,"state":"active","ping":45},{"user_id":554,"name":"laggy mcstab","steam_id":76561198106379962,"connected_time":1008000000000,"state":"active","ping":60},{"user_id":545,"name":"Wheaties","steam_id":76561198060909578,"connected_time":1814000000000,"state":"active","ping":57},{"user_id":529,"name":"Tommy Pickles (Very Cool)","steam_id":76561198391261463,"connected_time":2801000000000,"state":"active","ping":97},{"user_id":537,"name":"mub","steam_id":76561197961943948,"connected_time":2239000000000,"state":"active","ping":47}]},{"server_id":406,"name":"Uncletopia | Seattle | 3 | Stopwatch Beta","name_short":"sea-3","host":"sea-1.us.uncletopia.com","port":27035,"enabled":true,"region":"us-west","cc":"us","latitude":47.608013,"longitude":-122.33517,"reserved":0,"last_update":"0001-01-01T00:00:00Z","name_a2s":"Uncletopia | Seattle | 3 | Stopwatch Beta","protocol":17,"map":"koth_lakeside_final","folder":"tf","game":"Team Fortress","app_id":440,"player_count":0,"max_players":24,"Bots":0,"server_type":"Dedicated","server_os":"Linux","password":true,"vac":true,"version":"7757534","steam_id":85568392924515217,"keywords":["cp","nocrits","nodmgspread","uncletopia"],"game_id":440,"stv_port":27036,"stv_name":"Uncletopia | Seattle | 3 | Stopwatch Beta | STV","players":null},{"server_id":17,"name":"Uncletopia | San Francisco | 1 | All Maps","name_short":"sfo-1","host":"sfo-1.us.uncletopia.com","port":27015,"enabled":true,"region":"us-west","cc":"us","latitude":37.77397,"longitude":-122.4313,"reserved":0,"last_update":"0001-01-01T00:00:00Z","name_a2s":"Uncletopia | San Francisco | 1 | All Maps","protocol":17,"map":"pl_snowycoast","folder":"tf","game":"Team Fortress","app_id":440,"player_count":24,"max_players":24,"Bots":0,"server_type":"Dedicated","server_os":"Linux","password":true,"vac":true,"version":"7757534","steam_id":85568392924469999,"keywords":["nocrits","nodmgspread","payload","uncletopia"],"game_id":440,"stv_port":27016,"stv_name":"Uncletopia | San Francisco | 1 | All Maps | STV","players":[{"user_id":574,"name":"ttv/californjoe","steam_id":76561197965047795,"connected_time":2466000000000,"state":"active","ping":57},{"user_id":601,"name":"Born 2 shit Forced 2 wipe","steam_id":76561199438197886,"connected_time":201000000000,"state":"active","ping":91},{"user_id":569,"name":"Kuudere","steam_id":76561198075028016,"connected_time":2690000000000,"state":"active","ping":86},{"user_id":594,"name":"The Moon","steam_id":76561198082926682,"connected_time":956000000000,"state":"active","ping":47},{"user_id":545,"name":"Pantaloons","steam_id":76561198073071139,"connected_time":4927000000000,"state":"active","ping":87},{"user_id":554,"name":"Chimpanzee","steam_id":76561198850387282,"connected_time":3885000000000,"state":"active","ping":114},{"user_id":586,"name":"Tele Co","steam_id":76561198041909269,"connected_time":1518000000000,"state":"active","ping":73},{"user_id":560,"name":"AweStruckEXP","steam_id":76561198820920580,"connected_time":3781000000000,"state":"active","ping":88},{"user_id":587,"name":"the forbidden one","steam_id":76561198844273999,"connected_time":1414000000000,"state":"active","ping":67},{"user_id":551,"name":"perc 10","steam_id":76561198116471653,"connected_time":4139000000000,"state":"active","ping":34},{"user_id":577,"name":"Summer's Snowman","steam_id":76561198057140854,"connected_time":2233000000000,"state":"active","ping":61},{"user_id":568,"name":"Drizzt","steam_id":76561198048671173,"connected_time":2727000000000,"state":"active","ping":131},{"user_id":595,"name":"YungRichJr","steam_id":76561198250810964,"connected_time":940000000000,"state":"active","ping":51},{"user_id":556,"name":"CamZGamer7","steam_id":76561199405045529,"connected_time":3868000000000,"state":"active","ping":72},{"user_id":588,"name":"naturia","steam_id":76561198092317849,"connected_time":1403000000000,"state":"active","ping":58},{"user_id":602,"name":"Squirrel","steam_id":76561198010113101,"connected_time":129000000000,"state":"active","ping":57},{"user_id":597,"name":"Perididdle","steam_id":76561198056864606,"connected_time":299000000000,"state":"active","ping":78},{"user_id":598,"name":"noellehound","steam_id":76561198108844158,"connected_time":286000000000,"state":"active","ping":69},{"user_id":599,"name":"vertice","steam_id":76561199117182718,"connected_time":271000000000,"state":"active","ping":59},{"user_id":571,"name":"HOG RIDER","steam_id":76561198298589502,"connected_time":2604000000000,"state":"active","ping":57},{"user_id":572,"name":"Johnson, Navin R.","steam_id":76561197961107982,"connected_time":2596000000000,"state":"active","ping":103},{"user_id":596,"name":"‡∏∏","steam_id":76561199140164173,"connected_time":731000000000,"state":"active","ping":45},{"user_id":559,"name":"AniMaL","steam_id":76561198044422572,"connected_time":3841000000000,"state":"active","ping":83},{"user_id":570,"name":"bad spy player","steam_id":76561198873699671,"connected_time":2690000000000,"state":"active","ping":73}]},{"server_id":18,"name":"Uncletopia | San Francisco | 2 | All Maps","name_short":"sfo-2","host":"sfo-1.us.uncletopia.com","port":27025,"enabled":true,"region":"us-west","cc":"us","latitude":37.77397,"longitude":-122.4313,"reserved":0,"last_update":"0001-01-01T00:00:00Z","name_a2s":"Uncletopia | San Francisco | 2 | All Maps","protocol":17,"map":"pl_pier","folder":"tf","game":"Team Fortress","app_id":440,"player_count":2,"max_players":24,"Bots":0,"server_type":"Dedicated","server_os":"Linux","password":true,"vac":true,"version":"7757534","steam_id":85568392924470000,"keywords":["nocrits","nodmgspread","payload","uncletopia"],"game_id":440,"stv_port":27026,"stv_name":"Uncletopia | San Francisco | 2 | All Maps | STV","players":[{"user_id":411,"name":"drink enjoyer","steam_id":76561199078359629,"connected_time":1180000000000,"state":"active","ping":51},{"user_id":360,"name":"Zero","steam_id":76561199383267408,"connected_time":4794000000000,"state":"active","ping":88}]},{"server_id":19,"name":"Uncletopia | San Francisco | 3 | Stopwatch Beta","name_short":"sfo-3","host":"sfo-1.us.uncletopia.com","port":27035,"enabled":true,"region":"us-west","cc":"us","latitude":37.77397,"longitude":-122.4313,"reserved":0,"last_update":"0001-01-01T00:00:00Z","name_a2s":"Uncletopia | San Francisco | 3 | Stopwatch Beta","protocol":17,"map":"pl_swiftwater_final1","folder":"tf","game":"Team Fortress","app_id":440,"player_count":0,"max_players":24,"Bots":0,"server_type":"Dedicated","server_os":"Linux","password":true,"vac":true,"version":"7757534","steam_id":85568392924742824,"keywords":["nocrits","nodmgspread","payload","uncletopia"],"game_id":440,"stv_port":27036,"stv_name":"Uncletopia | San Francisco | 3 | Stopwatch Beta | STV","players":null},{"server_id":20,"name":"Uncletopia | San Francisco | 4 | Community","name_short":"sfo-4","host":"sfo-1.us.uncletopia.com","port":27045,"enabled":true,"region":"us-west","cc":"us","latitude":37.77397,"longitude":-122.4313,"reserved":0,"last_update":"0001-01-01T00:00:00Z","name_a2s":"Uncletopia | San Francisco | 4 | Community","protocol":17,"map":"workshop/rd_asteroid_redux_b1.ugc2154902912","folder":"tf","game":"Team Fortress","app_id":440,"player_count":0,"max_players":24,"Bots":0,"server_type":"Dedicated","server_os":"Linux","password":true,"vac":true,"version":"7757534","steam_id":85568392924742826,"keywords":["beta","nocrits","nodmgspread","rd","uncletopia"],"game_id":440,"stv_port":27046,"stv_name":"Uncletopia | San Francisco | 4 | Community | STV","players":null},{"server_id":141,"name":"Uncletopia | Sydney | 1 | All Maps","name_short":"syd-1","host":"syd-1.au.uncletopia.com","port":27015,"enabled":true,"region":"au","cc":"au","latitude":-33.865143,"longitude":151.2099,"reserved":0,"last_update":"0001-01-01T00:00:00Z","name_a2s":"Uncletopia | Sydney | 1 | All Maps","protocol":17,"map":"cp_process_final","folder":"tf","game":"Team Fortress","app_id":440,"player_count":0,"max_players":24,"Bots":0,"server_type":"Dedicated","server_os":"Linux","password":true,"vac":true,"version":"7757534","steam_id":85568392924470001,"keywords":["cp","nocrits","nodmgspread","uncletopia"],"game_id":440,"stv_port":27016,"stv_name":"Uncletopia | Sydney | 1 | All Maps | STV","players":null},{"server_id":123,"name":"Uncletopia | Sydney | 2 | All Maps","name_short":"syd-2","host":"syd-1.au.uncletopia.com","port":27025,"enabled":true,"region":"au","cc":"au","latitude":-33.865143,"longitude":151.2099,"reserved":0,"last_update":"0001-01-01T00:00:00Z","name_a2s":"Uncletopia | Sydney | 2 | All Maps","protocol":17,"map":"koth_highpass","folder":"tf","game":"Team Fortress","app_id":440,"player_count":20,"max_players":24,"Bots":0,"server_type":"Dedicated","server_os":"Linux","password":true,"vac":true,"version":"7757534","steam_id":85568392924470002,"keywords":["cp","nocrits","nodmgspread","uncletopia"],"game_id":440,"stv_port":27026,"stv_name":"Uncletopia | Sydney | 2 | All Maps | STV","players":[{"user_id":93,"name":"Jodelk√∂nig Franzl Lang","steam_id":76561198007667830,"connected_time":5696000000000,"state":"active","ping":58},{"user_id":116,"name":"CypressFluff (She/Her)","steam_id":76561198174667818,"connected_time":3473000000000,"state":"active","ping":55},{"user_id":49,"name":"Rashid Of The Dank Memes","steam_id":76561198281398078,"connected_time":8232000000000,"state":"active","ping":60},{"user_id":140,"name":"snooty123","steam_id":76561199055258276,"connected_time":425000000000,"state":"active","ping":47},{"user_id":103,"name":"juusha","steam_id":76561198911542330,"connected_time":4914000000000,"state":"active","ping":72},{"user_id":149,"name":"Doctor Estonia","steam_id":76561198057365089,"connected_time":54000000000,"state":"active","ping":97},{"user_id":143,"name":"Mooty","steam_id":76561198301293435,"connected_time":371000000000,"state":"active","ping":51},{"user_id":144,"name":"Blob","steam_id":76561199039436834,"connected_time":309000000000,"state":"active","ping":75},{"user_id":86,"name":"Atner","steam_id":76561198442934454,"connected_time":5911000000000,"state":"active","ping":89},{"user_id":147,"name":"smite","steam_id":76561198845304189,"connected_time":151000000000,"state":"active","ping":74},{"user_id":132,"name":"sf/k","steam_id":76561198047758776,"connected_time":1528000000000,"state":"active","ping":41},{"user_id":139,"name":"old chunk of coal","steam_id":76561197990537324,"connected_time":431000000000,"state":"active","ping":109},{"user_id":121,"name":"Morgenstein","steam_id":76561198253080474,"connected_time":2992000000000,"state":"active","ping":65},{"user_id":122,"name":"Zoey","steam_id":76561198126153554,"connected_time":2917000000000,"state":"active","ping":81},{"user_id":150,"name":"saudi ambassador messi","steam_id":76561198031293430,"connected_time":25000000000,"state":"spawning","ping":83},{"user_id":123,"name":"Matt","steam_id":76561198006791420,"connected_time":2790000000000,"state":"active","ping":99},{"user_id":148,"name":"yarbinator","steam_id":76561198204678828,"connected_time":144000000000,"state":"active","ping":49},{"user_id":130,"name":"Mr Doctor","steam_id":76561198081415999,"connected_time":2082000000000,"state":"active","ping":51},{"user_id":138,"name":"Zieria","steam_id":76561199261811388,"connected_time":956000000000,"state":"active","ping":31},{"user_id":128,"name":"AzureFox","steam_id":76561198108179408,"connected_time":2112000000000,"state":"active","ping":88}]},{"server_id":395,"name":"Uncletopia | Sydney | 3 | All Maps","name_short":"syd-3","host":"syd-1.au.uncletopia.com","port":27035,"enabled":true,"region":"au","cc":"au","latitude":-33.865143,"longitude":151.2099,"reserved":0,"last_update":"0001-01-01T00:00:00Z","name_a2s":"Uncletopia | Sydney | 3 | All Maps","protocol":17,"map":"pl_borneo","folder":"tf","game":"Team Fortress","app_id":440,"player_count":0,"max_players":24,"Bots":0,"server_type":"Dedicated","server_os":"Linux","password":true,"vac":true,"version":"7757534","steam_id":85568392925194467,"keywords":["nocrits","nodmgspread","payload","uncletopia"],"game_id":440,"stv_port":27036,"stv_name":"Uncletopia | Sydney | 3 | All Maps | STV","players":null},{"server_id":396,"name":"Uncletopia | Sydney | 4 | All Maps","name_short":"syd-4","host":"syd-1.au.uncletopia.com","port":27045,"enabled":true,"region":"au","cc":"au","latitude":-33.865143,"longitude":151.2099,"reserved":0,"last_update":"0001-01-01T00:00:00Z","name_a2s":"Uncletopia | Sydney | 4 | All Maps","protocol":17,"map":"koth_highpass","folder":"tf","game":"Team Fortress","app_id":440,"player_count":3,"max_players":24,"Bots":0,"server_type":"Dedicated","server_os":"Linux","password":true,"vac":true,"version":"7757534","steam_id":85568392925397958,"keywords":["cp","nocrits","nodmgspread","uncletopia"],"game_id":440,"stv_port":27046,"stv_name":"Uncletopia | Sydney | 4 | All Maps | STV","players":[{"user_id":10,"name":"toaster","steam_id":76561198402898375,"connected_time":476000000000,"state":"active","ping":49},{"user_id":8,"name":"[insert edgey name here]","steam_id":76561198271186746,"connected_time":791000000000,"state":"active","ping":52},{"user_id":9,"name":"redditHaver","steam_id":76561198170727659,"connected_time":755000000000,"state":"active","ping":62}]},{"server_id":58,"name":"Uncletopia | Sydney | 5 | Stopwatch Beta","name_short":"syd-5","host":"syd-1.au.uncletopia.com","port":27055,"enabled":true,"region":"au","cc":"au","latitude":-33.865143,"longitude":151.2099,"reserved":0,"last_update":"0001-01-01T00:00:00Z","name_a2s":"Uncletopia | Sydney | 5 | Stopwatch Beta","protocol":17,"map":"koth_cascade","folder":"tf","game":"Team Fortress","app_id":440,"player_count":0,"max_players":24,"Bots":0,"server_type":"Dedicated","server_os":"Linux","password":true,"vac":true,"version":"7757534","steam_id":85568392925397959,"keywords":["cp","nocrits","nodmgspread","uncletopia"],"game_id":440,"stv_port":27056,"stv_name":"Uncletopia | Sydney | 5 | Stopwatch Beta | STV","players":null},{"server_id":59,"name":"Uncletopia | Sydney | 6 | Community","name_short":"syd-6","host":"syd-1.au.uncletopia.com","port":27065,"enabled":true,"region":"au","cc":"au","latitude":-33.865143,"longitude":151.2099,"reserved":0,"last_update":"0001-01-01T00:00:00Z","name_a2s":"Uncletopia | Sydney | 6 | Community","protocol":17,"map":"workshop/pl_vigil_rc9.ugc1266210012","folder":"tf","game":"Team Fortress","app_id":440,"player_count":0,"max_players":24,"Bots":0,"server_type":"Dedicated","server_os":"Linux","password":true,"vac":true,"version":"7757534","steam_id":85568392925397960,"keywords":["nocrits","nodmgspread","payload","uncletopia"],"game_id":440,"stv_port":27066,"stv_name":"Uncletopia | Sydney | 6 | Community | STV","players":null},{"server_id":49,"name":"Uncletopia | Warsaw | 1 | All Maps","name_short":"waw-1","host":"waw-1.pl.uncletopia.com","port":27015,"enabled":true,"region":"eu","cc":"pl","latitude":52.2297,"longitude":21.017532,"reserved":0,"last_update":"0001-01-01T00:00:00Z","name_a2s":"","protocol":0,"map":"","folder":"","game":"","app_id":0,"player_count":0,"max_players":0,"Bots":0,"server_type":"","server_os":"","password":false,"vac":false,"version":"","steam_id":0,"keywords":null,"game_id":0,"stv_port":0,"stv_name":"","players":null},{"server_id":50,"name":"Uncletopia | Warsaw | 2 | All Maps","name_short":"waw-2","host":"waw-1.pl.uncletopia.com","port":27025,"enabled":true,"region":"eu","cc":"pl","latitude":52.2297,"longitude":21.017532,"reserved":0,"last_update":"0001-01-01T00:00:00Z","name_a2s":"Uncletopia | Warsaw | 2 | All Maps","protocol":17,"map":"koth_viaduct","folder":"tf","game":"Team Fortress","app_id":440,"player_count":0,"max_players":24,"Bots":0,"server_type":"Dedicated","server_os":"Linux","password":true,"vac":true,"version":"7757534","steam_id":85568392925397851,"keywords":["cp","nocrits","nodmgspread","uncletopia"],"game_id":440,"stv_port":27026,"stv_name":"Uncletopia | Warsaw | 2 | All Maps | STV","players":null},{"server_id":51,"name":"Uncletopia | Warsaw | 3 | All Maps","name_short":"waw-3","host":"waw-1.pl.uncletopia.com","port":27035,"enabled":true,"region":"eu","cc":"pl","latitude":52.2297,"longitude":21.017532,"reserved":0,"last_update":"0001-01-01T00:00:00Z","name_a2s":"Uncletopia | Warsaw | 3 | All Maps","protocol":17,"map":"pl_badwater","folder":"tf","game":"Team Fortress","app_id":440,"player_count":0,"max_players":24,"Bots":0,"server_type":"Dedicated","server_os":"Linux","password":true,"vac":true,"version":"7757534","steam_id":85568392925397852,"keywords":["nocrits","nodmgspread","payload","uncletopia"],"game_id":440,"stv_port":27036,"stv_name":"Uncletopia | Warsaw | 3 | All Maps | STV","players":null},{"server_id":52,"name":"Uncletopia | Warsaw | 4 | All Maps","name_short":"waw-4","host":"waw-1.pl.uncletopia.com","port":27045,"enabled":true,"region":"eu","cc":"pl","latitude":52.2297,"longitude":21.017532,"reserved":0,"last_update":"0001-01-01T00:00:00Z","name_a2s":"Uncletopia | Warsaw | 4 | All Maps","protocol":17,"map":"koth_lakeside_final","folder":"tf","game":"Team Fortress","app_id":440,"player_count":0,"max_players":24,"Bots":0,"server_type":"Dedicated","server_os":"Linux","password":true,"vac":true,"version":"7757534","steam_id":85568392925397853,"keywords":["cp","nocrits","nodmgspread","uncletopia"],"game_id":440,"stv_port":27046,"stv_name":"Uncletopia | Warsaw | 4 | All Maps | STV","players":null},{"server_id":53,"name":"Uncletopia | Warsaw | 5 | Stopwatch Beta","name_short":"waw-5","host":"waw-1.pl.uncletopia.com","port":27055,"enabled":true,"region":"eu","cc":"pl","latitude":52.2297,"longitude":21.017532,"reserved":0,"last_update":"0001-01-01T00:00:00Z","name_a2s":"Uncletopia | Warsaw | 5 | Stopwatch Beta","protocol":17,"map":"pl_borneo","folder":"tf","game":"Team Fortress","app_id":440,"player_count":0,"max_players":24,"Bots":0,"server_type":"Dedicated","server_os":"Linux","password":true,"vac":true,"version":"7757534","steam_id":85568392925397854,"keywords":["nocrits","nodmgspread","payload","uncletopia"],"game_id":440,"stv_port":27056,"stv_name":"Uncletopia | Warsaw | 5 | Stopwatch Beta | STV","players":null},{"server_id":54,"name":"Uncletopia | Warsaw | 6 | Community","name_short":"waw-6","host":"waw-1.pl.uncletopia.com","port":27065,"enabled":true,"region":"eu","cc":"pl","latitude":52.2297,"longitude":21.017532,"reserved":0,"last_update":"0001-01-01T00:00:00Z","name_a2s":"Uncletopia | Warsaw | 6 | Community","protocol":17,"map":"koth_lakeside_final","folder":"tf","game":"Team Fortress","app_id":440,"player_count":0,"max_players":24,"Bots":0,"server_type":"Dedicated","server_os":"Linux","password":true,"vac":true,"version":"7757534","steam_id":85568392925397856,"keywords":["cp","nocrits","nodmgspread","uncletopia"],"game_id":440,"stv_port":27066,"stv_name":"Uncletopia | Warsaw | 6 | Community | STV","players":null}]}