{"status":true,"message":"","result":[{"server_id":9,"name":"Uncletopia | Atlanta | 1 | All Maps","name_short":"atl-1","host":"atl-1.us.uncletopia.com","port":27015,"enabled":true,"region":"us-east","cc":"us","latitude":33.753746,"longitude":-84.38633,"reserved":0,"last_update":"0001-01-01T00:00:00Z","name_a2s":"Uncletopia | Atlanta | 1 | All Maps","protocol":17,"map":"pl_barnblitz","folder":"tf","game":"Team Fortress","app_id":440,"player_count":8,"max_players":24,"Bots":0,"server_type":"Dedicated","server_os":"Linux","password":true,"vac":true,"version":"7695204","steam_id":85568392924469982,"keywords":["nocrits","nodmgspread","payload","uncletopia"],"game_id":440,"stv_port":27016,"stv_name":"Uncletopia | Atlanta | 1 | All Maps | STV","players":[{"user_id":9,"name":"ATL1 | Kramer","steam_id":76561198083595936,"connected_time":1483000000000,"state":"active","ping":61},{"user_id":10,"name":"KrashBoomBang","steam_id":76561199002978777,"connected_time":1291000000000,"state":"active","ping":69},{"user_id":13,"name":"Princessie Matifina","steam_id":76561198060498180,"connected_time":1025000000000,"state":"active","ping":56},{"user_id":14,"name":"✪ Kiba ✪ #saveTF2","steam_id":76561198300981872,"connected_time":778000000000,"state":"active","ping":113},{"user_id":18,"name":"Chaotic Rushu","steam_id":76561198170054407,"connected_time":325000000000,"state":"active","ping":81},{"user_id":17,"name":"Sapient Corn","steam_id":76561198879829490,"connected_time":446000000000,"state":"active","ping":48},{"user_id":19,"name":"Abbashea","steam_id":76561199182136969,"connected_time":319000000000,"state":"active","ping":89},{"user_id":20,"name":"froyo banny","steam_id":76561198331245460,"connected_time":97000000000,"state":"active","ping":69}]},{"server_id":400,"name":"Uncletopia | Atlanta | 3 | All Maps","name_short":"atl-3","host":"atl-1.us.uncletopia.com","port":27035,"enabled":true,"region":"us-east","cc":"us","latitude":33.753746,"longitude":-84.38633,"reserved":0,"last_update":"0001-01-01T00:00:00Z","name_a2s":"Uncletopia | Atlanta | 3 | All Maps","protocol":17,"map":"pl_frontier_final","folder":"tf","game":"Team Fortress","app_id":440,"player_count":0,"max_players":24,"Bots":0,"server_type":"Dedicated","server_os":"Linux","password":true,"vac":true,"version":"7695204","steam_id":85568392924515187,"keywords":["nocrits","nodmgspread","payload","uncletopia"],"game_id":440,"stv_port":0,"stv_name":"","players":null},{"server_id":401,"name":"Uncletopia | Atlanta | 4 | No Payload","name_short":"atl-4","host":"atl-1.us.uncletopia.com","port":27045,"enabled":true,"region":"us-east","cc":"us","latitude":33.753746,"longitude":-84.38633,"reserved":0,"last_update":"0001-01-01T00:00:00Z","name_a2s":"Uncletopia | Atlanta | 4 | No Payload","protocol":17,"map":"koth_harvest_final","folder":"tf","game":"Team Fortress","app_id":440,"player_count":0,"max_players":24,"Bots":0,"server_type":"Dedicated","server_os":"Linux","password":true,"vac":true,"version":"7695204","steam_id":85568392924515188,"keywords":["cp","nocrits","nodmgspread","uncletopia"],"game_id":440,"stv_port":27046,"stv_name":"Uncletopia | Atlanta | 4 | No Payload | STV","players":null},{"server_id":2,"name":"Uncletopia | Chicago | 1 | All Maps","name_short":"chi-1","host":"chi-1.us.uncletopia.com","port":27015,"enabled":true,"region":"us-central","cc":"us","latitude":41.881832,"longitude":-87.62318,"reserved":0,"last_update":"0001-01-01T00:00:00Z","name_a2s":"Uncletopia | Chicago | 1 | All Maps","protocol":17,"map":"pl_upward","folder":"tf","game":"Team Fortress","app_id":440,"player_count":24,"max_players":24,"Bots":0,"server_type":"Dedicated","server_os":"Linux","password":true,"vac":true,"version":"7695204","steam_id":85568392924469984,"keywords":["nocrits","nodmgspread","payload","uncletopia"],"game_id":440,"stv_port":27016,"stv_name":"Uncletopia | Chicago | 1 | All Maps | STV","players":[{"user_id":26,"name":"gen","steam_id":76561199118569153,"connected_time":5433000000000,"state":"active","ping":65},{"user_id":74,"name":"Im High","steam_id":76561198049954886,"connected_time":1924000000000,"state":"active","ping":56},{"user_id":93,"name":"tiana","steam_id":76561198999674529,"connected_time":589000000000,"state":"active","ping":90},{"user_id":67,"name":"tingle shitmouth","steam_id":76561198055109192,"connected_time":2947000000000,"state":"active","ping":71},{"user_id":80,"name":"Gordan Timlothle","steam_id":76561198272013678,"connected_time":1559000000000,"state":"active","ping":64},{"user_id":87,"name":"Mochi","steam_id":76561198043454768,"connected_time":1465000000000,"state":"active","ping":93},{"user_id":11,"name":"beta central","steam_id":76561198301876831,"connected_time":5961000000000,"state":"active","ping":59},{"user_id":44,"name":"Eye","steam_id":76561198065844668,"connected_time":4967000000000,"state":"active","ping":59},{"user_id":66,"name":"jenny ☆","steam_id":76561198190106735,"connected_time":3191000000000,"state":"active","ping":60},{"user_id":94,"name":"shadow6","steam_id":76561197979807910,"connected_time":488000000000,"state":"active","ping":78},{"user_id":54,"name":"stop","steam_id":76561198268686419,"connected_time":4173000000000,"state":"active","ping":49},{"user_id":85,"name":"Sir Loincloth","steam_id":76561198033073991,"connected_time":1522000000000,"state":"active","ping":68},{"user_id":76,"name":"Jesus Loves You57","steam_id":76561199058833769,"connected_time":1584000000000,"state":"active","ping":87},{"user_id":77,"name":"ZeN","steam_id":76561199098746585,"connected_time":1583000000000,"state":"active","ping":51},{"user_id":91,"name":"blehh :3","steam_id":76561198398383076,"connected_time":602000000000,"state":"active","ping":85},{"user_id":86,"name":"Big Tiddy Serperior","steam_id":76561198114808144,"connected_time":1522000000000,"state":"active","ping":128},{"user_id":90,"name":"ManHandledLemons","steam_id":76561198119547375,"connected_time":756000000000,"state":"active","ping":50},{"user_id":39,"name":"vλughn","steam_id":76561198144165856,"connected_time":5127000000000,"state":"active","ping":79},{"user_id":78,"name":"AkimboAoki","steam_id":76561198158323058,"connected_time":1573000000000,"state":"active","ping":86},{"user_id":89,"name":"BudTuggly","steam_id":76561198026873580,"connected_time":1104000000000,"state":"active","ping":49},{"user_id":73,"name":"Karrot","steam_id":76561198058970903,"connected_time":1976000000000,"state":"active","ping":63},{"user_id":79,"name":"Otium and Negotium","steam_id":76561198167894050,"connected_time":1572000000000,"state":"active","ping":49},{"user_id":92,"name":"ZM","steam_id":76561198143340983,"connected_time":602000000000,"state":"active","ping":64},{"user_id":71,"name":"lostos","steam_id":76561197983869145,"connected_time":2231000000000,"state":"active","ping":126}]},{"server_id":106,"name":"Uncletopia | Chicago | 2 | All Maps","name_short":"chi-2","host":"chi-1.us.uncletopia.com","port":27025,"enabled":true,"region":"us-central","cc":"us","latitude":41.881832,"longitude":-87.62318,"reserved":0,"last_update":"0001-01-01T00:00:00Z","name_a2s":"Uncletopia | Chicago | 2 | All Maps","protocol":17,"map":"cp_altitude","folder":"tf","game":"Team Fortress","app_id":440,"player_count":1,"max_players":24,"Bots":0,"server_type":"Dedicated","server_os":"Linux","password":true,"vac":true,"version":"7695204","steam_id":85568392924469985,"keywords":["cp","nocrits","nodmgspread","uncletopia"],"game_id":440,"stv_port":27026,"stv_name":"Uncletopia | Chicago | 2 | All Maps | STV","players":[{"user_id":4,"name":"Rornir","steam_id":76561198081829615,"connected_time":341000000000,"state":"active","ping":31}]},{"server_id":402,"name":"Uncletopia | Chicago | 3 | All Maps","name_short":"chi-3","host":"chi-1.us.uncletopia.com","port":27035,"enabled":true,"region":"us-central","cc":"us","latitude":41.881832,"longitude":-87.62318,"reserved":0,"last_update":"0001-01-01T00:00:00Z","name_a2s":"Uncletopia | Chicago | 3 | All Maps","protocol":17,"map":"pl_badwater","folder":"tf","game":"Team Fortress","app_id":440,"player_count":0,"max_players":24,"Bots":0,"server_type":"Dedicated","server_os":"Linux","password":true,"vac":true,"version":"7695204","steam_id":85568392924515191,"keywords":["nocrits","nodmgspread","payload","uncletopia"],"game_id":440,"stv_port":27036,"stv_name":"Uncletopia | Chicago | 3 | All Maps | STV","players":null},{"server_id":403,"name":"Uncletopia | Chicago | 4 | All Maps","name_short":"chi-4","host":"chi-1.us.uncletopia.com","port":27045,"enabled":true,"region":"us-central","cc":"us","latitude":41.881832,"longitude":-87.62318,"reserved":0,"last_update":"0001-01-01T00:00:00Z","name_a2s":"Uncletopia | Chicago | 4 | All Maps","protocol":17,"map":"koth_highpass","folder":"tf","game":"Team Fortress","app_id":440,"player_count":0,"max_players":24,"Bots":0,"server_type":"Dedicated","server_os":"Linux","password":true,"vac":true,"version":"7695204","steam_id":85568392924515193,"keywords":["cp","nocrits","nodmgspread","uncletopia"],"game_id":440,"stv_port":0,"stv_name":"","players":null},{"server_id":36,"name":"Uncletopia | Chicago | 5 | All Maps","name_short":"chi-5","host":"chi-2.us.uncletopia.com","port":27015,"enabled":true,"region":"us-central","cc":"us","latitude":41.881832,"longitude":-87.62318,"reserved":0,"last_update":"0001-01-01T00:00:00Z","name_a2s":"Uncletopia | Chicago | 5 | All Maps","protocol":17,"map":"cp_altitude","folder":"tf","game":"Team Fortress","app_id":440,"player_count":0,"max_players":24,"Bots":0,"server_type":"Dedicated","server_os":"Linux","password":true,"vac":true,"version":"7695204","steam_id":85568392924866362,"keywords":["cp","nocrits","nodmgspread","uncletopia"],"game_id":440,"stv_port":0,"stv_name":"","players":null},{"server_id":37,"name":"Uncletopia | Chicago | 6 | All Maps","name_short":"chi-6","host":"chi-2.us.uncletopia.com","port":27025,"enabled":true,"region":"us-central","cc":"us","latitude":41.881832,"longitude":-87.62318,"reserved":0,"last_update":"0001-01-01T00:00:00Z","name_a2s":"Uncletopia | Chicago | 6 | All Maps","protocol":17,"map":"cp_snakewater_final1","folder":"tf","game":"Team Fortress","app_id":440,"player_count":0,"max_players":24,"Bots":0,"server_type":"Dedicated","server_os":"Linux","password":true,"vac":true,"version":"7695204","steam_id":85568392924866363,"keywords":["cp","nocrits","nodmgspread","uncletopia"],"game_id":440,"stv_port":0,"stv_name":"","players":null},{"server_id":38,"name":"Uncletopia | Chicago | 7 | No Payload","name_short":"chi-7","host":"chi-2.us.uncletopia.com","port":27035,"enabled":true,"region":"us-central","cc":"us","latitude":41.881832,"longitude":-87.62318,"reserved":0,"last_update":"0001-01-01T00:00:00Z","name_a2s":"Uncletopia | Chicago | 7 | No Payload","protocol":17,"map":"cp_altitude","folder":"tf","game":"Team Fortress","app_id":440,"player_count":0,"max_players":24,"Bots":0,"server_type":"Dedicated","server_os":"Linux","password":true,"vac":true,"version":"7695204","steam_id":85568392924866364,"keywords":["cp","nocrits","nodmgspread","uncletopia"],"game_id":440,"stv_port":0,"stv_name":"","players":null},{"server_id":39,"name":"Uncletopia | Chicago | 8 | Community","name_short":"chi-8","host":"chi-2.us.uncletopia.com","port":27045,"enabled":true,"region":"us-central","cc":"us","latitude":41.881832,"longitude":-87.62318,"reserved":0,"last_update":"0001-01-01T00:00:00Z","name_a2s":"Uncletopia | Chicago | 8 | Community","protocol":17,"map":"cp_altitude","folder":"tf","game":"Team Fortress","app_id":440,"player_count":0,"max_players":24,"Bots":0,"server_type":"Dedicated","server_os":"Linux","password":true,"vac":true,"version":"7695204","steam_id":85568392924866365,"keywords":["cp","nocrits","nodmgspread","uncletopia"],"game_id":440,"stv_port":0,"stv_name":"","players":null},{"server_id":8,"name":"Uncletopia | Dallas | 1 | All Maps","name_short":"dal-1","host":"dal-1.us.uncletopia.com","port":27015,"enabled":true,"region":"us-central","cc":"us","latitude":32.779167,"longitude":-96.80889,"reserved":0,"last_update":"0001-01-01T00:00:00Z","name_a2s":"Uncletopia | Dallas | 1 | All Maps","protocol":17,"map":"pl_borneo","folder":"tf","game":"Team Fortress","app_id":440,"player_count":24,"max_players":24,"Bots":0,"server_type":"Dedicated","server_os":"Linux","password":true,"vac":true,"version":"7695204","steam_id":85568392924469986,"keywords":["nocrits","nodmgspread","payload","uncletopia"],"game_id":440,"stv_port":27016,"stv_name":"Uncletopia | Dallas | 1 | All Maps | STV","players":[{"user_id":185,"name":"a spider monkey trying his best","steam_id":76561198165473340,"connected_time":3500000000000,"state":"active","ping":44},{"user_id":225,"name":"buttermilkjesus","steam_id":76561198984974048,"connected_time":342000000000,"state":"active","ping":87},{"user_id":200,"name":"Rub the bear","steam_id":76561198170157145,"connected_time":2200000000000,"state":"active","ping":76},{"user_id":220,"name":"Jack","steam_id":76561198953139836,"connected_time":557000000000,"state":"active","ping":78},{"user_id":174,"name":"bob","steam_id":76561199033536567,"connected_time":4107000000000,"state":"active","ping":59},{"user_id":222,"name":"the menace","steam_id":76561198376325960,"connected_time":412000000000,"state":"active","ping":82},{"user_id":215,"name":"Soulja","steam_id":76561198828729899,"connected_time":1449000000000,"state":"active","ping":79},{"user_id":187,"name":"impostor","steam_id":76561198286300564,"connected_time":3043000000000,"state":"active","ping":76},{"user_id":216,"name":"Fenderz","steam_id":76561197980382553,"connected_time":1251000000000,"state":"active","ping":86},{"user_id":221,"name":"Janice","steam_id":76561198966482755,"connected_time":549000000000,"state":"active","ping":64},{"user_id":183,"name":"DMM","steam_id":76561198065426171,"connected_time":3680000000000,"state":"active","ping":59},{"user_id":223,"name":"OriginalName The Pyro Main","steam_id":76561199087937797,"connected_time":363000000000,"state":"active","ping":54},{"user_id":214,"name":"beans","steam_id":76561199132406388,"connected_time":1636000000000,"state":"active","ping":95},{"user_id":212,"name":"fetus","steam_id":76561198194471251,"connected_time":1686000000000,"state":"active","ping":60},{"user_id":219,"name":"Eightyy  Fourr","steam_id":76561197960374225,"connected_time":733000000000,"state":"active","ping":45},{"user_id":202,"name":"teamspeakisbeter","steam_id":76561198994349483,"connected_time":2176000000000,"state":"active","ping":81},{"user_id":150,"name":"Pennis the Menace","steam_id":76561198254878037,"connected_time":5864000000000,"state":"active","ping":91},{"user_id":224,"name":"totsnotabot","steam_id":76561198077023364,"connected_time":351000000000,"state":"active","ping":60},{"user_id":151,"name":"can you feel my 12-gauge slug","steam_id":76561198809577048,"connected_time":5850000000000,"state":"active","ping":105},{"user_id":141,"name":"jan kili","steam_id":76561198289894834,"connected_time":6444000000000,"state":"active","ping":89},{"user_id":204,"name":"грустный","steam_id":76561198274550638,"connected_time":2161000000000,"state":"active","ping":59},{"user_id":197,"name":"SumrandomS","steam_id":76561199208168857,"connected_time":2248000000000,"state":"active","ping":81},{"user_id":213,"name":"Jatt","steam_id":76561198822011219,"connected_time":1673000000000,"state":"active","ping":85},{"user_id":227,"name":"lyra","steam_id":76561198200002859,"connected_time":166000000000,"state":"active","ping":88}]},{"server_id":108,"name":"Uncletopia | Dallas | 2 | All Maps","name_short":"dal-2","host":"dal-1.us.uncletopia.com","port":27025,"enabled":true,"region":"us-central","cc":"us","latitude":32.779167,"longitude":-96.80889,"reserved":0,"last_update":"0001-01-01T00:00:00Z","name_a2s":"Uncletopia | Dallas | 2 | All Maps","protocol":17,"map":"cp_mountainlab","folder":"tf","game":"Team Fortress","app_id":440,"player_count":0,"max_players":24,"Bots":0,"server_type":"Dedicated","server_os":"Linux","password":true,"vac":true,"version":"7695204","steam_id":85568392924469988,"keywords":["cp","nocrits","nodmgspread","uncletopia"],"game_id":440,"stv_port":0,"stv_name":"","players":null},{"server_id":5,"name":"Uncletopia | Frankfurt | 1 | All Maps","name_short":"frk-1","host":"frk-1.de.uncletopia.com","port":27015,"enabled":true,"region":"eu","cc":"de","latitude":50.110924,"longitude":8.682127,"reserved":0,"last_update":"0001-01-01T00:00:00Z","name_a2s":"Uncletopia | Frankfurt | 1 | All Maps","protocol":17,"map":"pl_thundermountain","folder":"tf","game":"Team Fortress","app_id":440,"player_count":24,"max_players":24,"Bots":0,"server_type":"Dedicated","server_os":"Linux","password":true,"vac":true,"version":"7695204","steam_id":85568392924469989,"keywords":["nocrits","nodmgspread","payload","uncletopia"],"game_id":440,"stv_port":27016,"stv_name":"Uncletopia | Frankfurt | 1 | All Maps | STV","players":[{"user_id":382,"name":"WinRAR™","steam_id":76561198056522270,"connected_time":415000000000,"state":"active","ping":51},{"user_id":337,"name":"Gordon Birdman","steam_id":76561198013382324,"connected_time":2446000000000,"state":"active","ping":75},{"user_id":369,"name":"askal","steam_id":76561198095970829,"connected_time":1175000000000,"state":"active","ping":75},{"user_id":368,"name":"Дырявый ye6ан","steam_id":76561198034269121,"connected_time":1253000000000,"state":"active","ping":90},{"user_id":377,"name":"k","steam_id":76561198089342103,"connected_time":948000000000,"state":"active","ping":83},{"user_id":371,"name":"weezer green album","steam_id":76561198863788240,"connected_time":1123000000000,"state":"active","ping":80},{"user_id":360,"name":"Vitamin Weee","steam_id":76561199183937747,"connected_time":1558000000000,"state":"active","ping":79},{"user_id":380,"name":"the worst player","steam_id":76561198206037191,"connected_time":607000000000,"state":"active","ping":70},{"user_id":373,"name":"Rofl","steam_id":76561198854136945,"connected_time":1091000000000,"state":"active","ping":60},{"user_id":374,"name":"Ross from F.R.I.E.N.D.S.","steam_id":76561198008511665,"connected_time":1038000000000,"state":"active","ping":60},{"user_id":378,"name":"Lukas","steam_id":76561198009118452,"connected_time":684000000000,"state":"active","ping":119},{"user_id":381,"name":"Pats","steam_id":76561198418538887,"connected_time":548000000000,"state":"active","ping":94},{"user_id":379,"name":"beefy \u003c3","steam_id":76561198045347066,"connected_time":664000000000,"state":"active","ping":73},{"user_id":335,"name":"Fat Pigeon","steam_id":76561198817940142,"connected_time":2499000000000,"state":"active","ping":59},{"user_id":386,"name":"Dakkafex","steam_id":76561198020254869,"connected_time":123000000000,"state":"active","ping":53},{"user_id":263,"name":"I was good before.","steam_id":76561198187045217,"connected_time":6231000000000,"state":"active","ping":71},{"user_id":383,"name":"Sim","steam_id":76561198086641180,"connected_time":395000000000,"state":"active","ping":93},{"user_id":361,"name":"CEO of Engineer","steam_id":76561198033813057,"connected_time":1533000000000,"state":"active","ping":69},{"user_id":385,"name":"Mr.Schnittlauch","steam_id":76561198295868113,"connected_time":133000000000,"state":"active","ping":62},{"user_id":387,"name":"Båtbenet","steam_id":76561198033435291,"connected_time":122000000000,"state":"active","ping":83},{"user_id":351,"name":"Proto-arc","steam_id":76561198012776747,"connected_time":1997000000000,"state":"active","ping":60},{"user_id":384,"name":"=OKB= P4NTH3R","steam_id":76561197999204603,"connected_time":165000000000,"state":"active","ping":62},{"user_id":307,"name":"Big Noot","steam_id":76561198057707263,"connected_time":3844000000000,"state":"active","ping":55},{"user_id":354,"name":"meriones","steam_id":76561198034234373,"connected_time":1979000000000,"state":"active","ping":58}]},{"server_id":110,"name":"Uncletopia | Frankfurt | 2 | All Maps","name_short":"frk-2","host":"frk-1.de.uncletopia.com","port":27025,"enabled":true,"region":"eu","cc":"de","latitude":50.110924,"longitude":8.682127,"reserved":0,"last_update":"0001-01-01T00:00:00Z","name_a2s":"Uncletopia | Frankfurt | 2 | All Maps","protocol":17,"map":"koth_viaduct","folder":"tf","game":"Team Fortress","app_id":440,"player_count":2,"max_players":24,"Bots":0,"server_type":"Dedicated","server_os":"Linux","password":true,"vac":true,"version":"7695204","steam_id":85568392924469990,"keywords":["cp","nocrits","nodmgspread","uncletopia"],"game_id":440,"stv_port":27026,"stv_name":"Uncletopia | Frankfurt | 2 | All Maps | STV","players":[{"user_id":19,"name":"Trille På Spil","steam_id":76561198978983816,"connected_time":337000000000,"state":"active","ping":53},{"user_id":23,"name":"Clumsy ♥","steam_id":76561199049413586,"connected_time":253000000000,"state":"active","ping":60}]},{"server_id":308,"name":"Uncletopia | Frankfurt | 3 | All Maps","name_short":"frk-3","host":"frk-1.de.uncletopia.com","port":27035,"enabled":true,"region":"eu","cc":"de","latitude":50.110924,"longitude":8.682127,"reserved":0,"last_update":"0001-01-01T00:00:00Z","name_a2s":"Uncletopia | Frankfurt | 3 | All Maps","protocol":17,"map":"pl_snowycoast","folder":"tf","game":"Team Fortress","app_id":440,"player_count":16,"max_players":24,"Bots":0,"server_type":"Dedicated","server_os":"Linux","password":true,"vac":true,"version":"7695204","steam_id":85568392924504274,"keywords":["nocrits","nodmgspread","payload","uncletopia"],"game_id":440,"stv_port":27036,"stv_name":"Uncletopia | Frankfurt | 3 | All Maps | STV","players":[{"user_id":286,"name":"Datenegassie","steam_id":76561198089417032,"connected_time":102000000000,"state":"active","ping":65},{"user_id":287,"name":"spiderman2934@aol.com","steam_id":76561199072025207,"connected_time":90000000000,"state":"active","ping":70},{"user_id":280,"name":"ChaserFogFi","steam_id":76561199119836596,"connected_time":795000000000,"state":"active","ping":51},{"user_id":288,"name":"alexeikasyanenko2007@palevo.ru","steam_id":76561198042130002,"connected_time":74000000000,"state":"active","ping":89},{"user_id":237,"name":"pl_zławoda","steam_id":76561198040588109,"connected_time":3502000000000,"state":"active","ping":72},{"user_id":275,"name":"Estyle","steam_id":76561198157804700,"connected_time":1000000000000,"state":"active","ping":82},{"user_id":238,"name":"pl_badwater","steam_id":76561198152184280,"connected_time":3488000000000,"state":"active","ping":66},{"user_id":248,"name":"Nin","steam_id":76561198227246584,"connected_time":2808000000000,"state":"active","ping":59},{"user_id":253,"name":"( ]KROAN[ )","steam_id":76561198022840710,"connected_time":2263000000000,"state":"active","ping":67},{"user_id":276,"name":"Loomie","steam_id":76561198104554420,"connected_time":951000000000,"state":"active","ping":43},{"user_id":274,"name":"Meem","steam_id":76561199088570961,"connected_time":1353000000000,"state":"active","ping":271},{"user_id":240,"name":"3te Liga","steam_id":76561198009922500,"connected_time":3429000000000,"state":"active","ping":48},{"user_id":228,"name":"shoras","steam_id":76561198019680159,"connected_time":4240000000000,"state":"active","ping":87},{"user_id":277,"name":"Ampiong99","steam_id":76561199245197481,"connected_time":929000000000,"state":"active","ping":53},{"user_id":267,"name":"The Lord Of Moist","steam_id":76561198038232389,"connected_time":1730000000000,"state":"active","ping":76},{"user_id":268,"name":"Strelomir","steam_id":76561198001126763,"connected_time":1730000000000,"state":"active","ping":55}]},{"server_id":309,"name":"Uncletopia | Frankfurt | 4 | All Maps","name_short":"frk-4","host":"frk-1.de.uncletopia.com","port":27045,"enabled":true,"region":"eu","cc":"de","latitude":50.110924,"longitude":8.682127,"reserved":0,"last_update":"0001-01-01T00:00:00Z","name_a2s":"Uncletopia | Frankfurt | 4 | All Maps","protocol":17,"map":"cp_process_final","folder":"tf","game":"Team Fortress","app_id":440,"player_count":24,"max_players":24,"Bots":0,"server_type":"Dedicated","server_os":"Linux","password":true,"vac":true,"version":"7695204","steam_id":85568392924504275,"keywords":["cp","nocrits","nodmgspread","uncletopia"],"game_id":440,"stv_port":27046,"stv_name":"Uncletopia | Frankfurt | 4 | All Maps | STV","players":[{"user_id":107,"name":"ArekanPL","steam_id":76561198306811916,"connected_time":4015000000000,"state":"active","ping":67},{"user_id":170,"name":"Silky","steam_id":76561198141776731,"connected_time":628000000000,"state":"active","ping":103},{"user_id":158,"name":"AwterSix","steam_id":76561198042561678,"connected_time":856000000000,"state":"active","ping":49},{"user_id":159,"name":"grass.","steam_id":76561198953819225,"connected_time":845000000000,"state":"active","ping":133},{"user_id":172,"name":"tealoverr.190","steam_id":76561199028497703,"connected_time":586000000000,"state":"active","ping":90},{"user_id":111,"name":"heykikidom","steam_id":76561198267574417,"connected_time":3797000000000,"state":"active","ping":90},{"user_id":171,"name":"Kapitan Polska","steam_id":76561197968069413,"connected_time":594000000000,"state":"active","ping":57},{"user_id":115,"name":"Mr. Huntsman","steam_id":76561197981910397,"connected_time":3552000000000,"state":"active","ping":60},{"user_id":153,"name":"PerskuleBenener","steam_id":76561198156899375,"connected_time":1119000000000,"state":"active","ping":76},{"user_id":150,"name":"schmick","steam_id":76561198039537958,"connected_time":1309000000000,"state":"active","ping":60},{"user_id":173,"name":"chrissy","steam_id":76561198096547662,"connected_time":559000000000,"state":"active","ping":63},{"user_id":175,"name":"LasagnaLarry22","steam_id":76561198089478290,"connected_time":429000000000,"state":"active","ping":51},{"user_id":177,"name":"supermariogrows","steam_id":76561198200238915,"connected_time":333000000000,"state":"active","ping":63},{"user_id":148,"name":"Een schaap zonder slaap","steam_id":76561198084808410,"connected_time":1409000000000,"state":"active","ping":54},{"user_id":174,"name":"Paulie Enjoyer","steam_id":76561198364121077,"connected_time":522000000000,"state":"active","ping":92},{"user_id":167,"name":"Farmercy","steam_id":76561198000038039,"connected_time":715000000000,"state":"active","ping":59},{"user_id":138,"name":"StabbyKnife","steam_id":76561198094010004,"connected_time":2489000000000,"state":"active","ping":80},{"user_id":166,"name":"RAPTRE","steam_id":76561198188861659,"connected_time":725000000000,"state":"active","ping":89},{"user_id":168,"name":"Tomamo","steam_id":76561198258031112,"connected_time":699000000000,"state":"active","ping":77},{"user_id":178,"name":"ɘƚɒ⅃ɘƚɒ⅃ /./ =)(= \\.\\","steam_id":76561198053339372,"connected_time":266000000000,"state":"active","ping":60},{"user_id":131,"name":"Ashley?!","steam_id":76561198056152479,"connected_time":2669000000000,"state":"active","ping":58},{"user_id":152,"name":"Flying whale","steam_id":76561198043797441,"connected_time":1122000000000,"state":"active","ping":71},{"user_id":155,"name":"M4R1O","steam_id":76561198050528464,"connected_time":1002000000000,"state":"active","ping":60},{"user_id":121,"name":"where is my egg?","steam_id":76561198172542535,"connected_time":3176000000000,"state":"active","ping":89}]},{"server_id":310,"name":"Uncletopia | Frankfurt | 5 | All Maps","name_short":"frk-5","host":"frk-1.de.uncletopia.com","port":27055,"enabled":true,"region":"eu","cc":"de","latitude":50.110924,"longitude":8.682127,"reserved":0,"last_update":"0001-01-01T00:00:00Z","name_a2s":"Uncletopia | Frankfurt | 5 | All Maps","protocol":17,"map":"pl_thundermountain","folder":"tf","game":"Team Fortress","app_id":440,"player_count":24,"max_players":24,"Bots":0,"server_type":"Dedicated","server_os":"Linux","password":true,"vac":true,"version":"7695204","steam_id":85568392924504277,"keywords":["nocrits","nodmgspread","payload","uncletopia"],"game_id":440,"stv_port":27056,"stv_name":"Uncletopia | Frankfurt | 5 | All Maps | STV","players":[{"user_id":125,"name":"ApplePieAlive","steam_id":76561198396695859,"connected_time":24000000000,"state":"active","ping":88},{"user_id":117,"name":"Leonardo66608","steam_id":76561198351476867,"connected_time":745000000000,"state":"active","ping":68},{"user_id":123,"name":"balls","steam_id":76561198187770103,"connected_time":205000000000,"state":"active","ping":78},{"user_id":94,"name":"Turkey Jam","steam_id":76561198072691659,"connected_time":1400000000000,"state":"active","ping":78},{"user_id":98,"name":"tim","steam_id":76561198253546985,"connected_time":1316000000000,"state":"active","ping":65},{"user_id":88,"name":"Pancreas Enjoyer","steam_id":76561199438598904,"connected_time":1866000000000,"state":"active","ping":187},{"user_id":120,"name":"Cuthbert","steam_id":76561198204649481,"connected_time":491000000000,"state":"active","ping":93},{"user_id":126,"name":"zooom132","steam_id":76561198314426404,"connected_time":8000000000,"state":"spawning","ping":143},{"user_id":63,"name":"romaingallo","steam_id":76561198268112907,"connected_time":3942000000000,"state":"active","ping":62},{"user_id":96,"name":"dingledong","steam_id":76561198287096215,"connected_time":1393000000000,"state":"active","ping":115},{"user_id":124,"name":"NFTs are the future!","steam_id":76561198128506921,"connected_time":198000000000,"state":"active","ping":71},{"user_id":101,"name":"\\3quruc90\\d","steam_id":76561198314576132,"connected_time":1188000000000,"state":"active","ping":84},{"user_id":102,"name":"ksg","steam_id":76561198042894236,"connected_time":1178000000000,"state":"active","ping":113},{"user_id":106,"name":"Tomfool","steam_id":76561197993256481,"connected_time":1107000000000,"state":"active","ping":70},{"user_id":107,"name":"Vankisha","steam_id":76561198355819421,"connected_time":1094000000000,"state":"active","ping":88},{"user_id":110,"name":"Reform","steam_id":76561198410662428,"connected_time":1046000000000,"state":"active","ping":68},{"user_id":122,"name":"Swift","steam_id":76561197998799889,"connected_time":252000000000,"state":"active","ping":60},{"user_id":91,"name":"Darius","steam_id":76561198086091841,"connected_time":1749000000000,"state":"active","ping":62},{"user_id":111,"name":"theslappro","steam_id":76561198349697007,"connected_time":1032000000000,"state":"active","ping":97},{"user_id":83,"name":"NatP","steam_id":76561198012083811,"connected_time":2379000000000,"state":"active","ping":80},{"user_id":112,"name":"fire stick","steam_id":76561198870011898,"connected_time":1006000000000,"state":"active","ping":81},{"user_id":113,"name":"9S","steam_id":76561198114507369,"connected_time":997000000000,"state":"active","ping":54},{"user_id":116,"name":"Alibi","steam_id":76561198061845595,"connected_time":920000000000,"state":"active","ping":61},{"user_id":79,"name":"Dolcelatte","steam_id":76561198038501770,"connected_time":2956000000000,"state":"active","ping":57}]},{"server_id":311,"name":"Uncletopia | Frankfurt | 6 | All Maps","name_short":"frk-6","host":"frk-1.de.uncletopia.com","port":27065,"enabled":true,"region":"eu","cc":"de","latitude":50.110924,"longitude":8.682127,"reserved":0,"last_update":"0001-01-01T00:00:00Z","name_a2s":"Uncletopia | Frankfurt | 6 | All Maps","protocol":17,"map":"pl_badwater","folder":"tf","game":"Team Fortress","app_id":440,"player_count":24,"max_players":24,"Bots":0,"server_type":"Dedicated","server_os":"Linux","password":true,"vac":true,"version":"7695204","steam_id":85568392924504278,"keywords":["nocrits","nodmgspread","payload","uncletopia"],"game_id":440,"stv_port":27066,"stv_name":"Uncletopia | Frankfurt | 6 | All Maps | STV","players":[{"user_id":59,"name":"nachtraaf","steam_id":76561197960473205,"connected_time":658000000000,"state":"active","ping":60},{"user_id":64,"name":"TMac","steam_id":76561197993074768,"connected_time":403000000000,"state":"active","ping":62},{"user_id":41,"name":"XPullaHiiri","steam_id":76561198031652375,"connected_time":2540000000000,"state":"active","ping":86},{"user_id":55,"name":"I fucking love ketamine","steam_id":76561198148919150,"connected_time":1534000000000,"state":"active","ping":89},{"user_id":61,"name":"murderwow","steam_id":76561198024566944,"connected_time":635000000000,"state":"active","ping":105},{"user_id":48,"name":"walluu","steam_id":76561198121830870,"connected_time":1924000000000,"state":"active","ping":75},{"user_id":62,"name":"angel","steam_id":76561198121408313,"connected_time":628000000000,"state":"active","ping":69},{"user_id":9,"name":"Tort","steam_id":76561198329646769,"connected_time":3622000000000,"state":"active","ping":62},{"user_id":58,"name":"The Blue Engineer","steam_id":76561198397503718,"connected_time":1124000000000,"state":"active","ping":72},{"user_id":11,"name":"YeetusFeetus","steam_id":76561199043598948,"connected_time":3604000000000,"state":"active","ping":118},{"user_id":44,"name":"nori","steam_id":76561198099077097,"connected_time":2188000000000,"state":"active","ping":87},{"user_id":66,"name":"brtaba","steam_id":76561198796334790,"connected_time":320000000000,"state":"active","ping":54},{"user_id":35,"name":"saarfaarsik","steam_id":76561198043684537,"connected_time":2887000000000,"state":"active","ping":52},{"user_id":60,"name":"name","steam_id":76561198152620745,"connected_time":658000000000,"state":"active","ping":66},{"user_id":24,"name":"Soerlssoelssöen","steam_id":76561197993060585,"connected_time":3363000000000,"state":"active","ping":69},{"user_id":54,"name":"Shadowlix","steam_id":76561198154011887,"connected_time":1580000000000,"state":"active","ping":64},{"user_id":22,"name":"TITS!!!1!!1????","steam_id":76561198412197820,"connected_time":3407000000000,"state":"active","ping":77},{"user_id":63,"name":"Jon Irenicus","steam_id":76561197986551592,"connected_time":581000000000,"state":"active","ping":147},{"user_id":56,"name":"Lukas","steam_id":76561198958675943,"connected_time":1259000000000,"state":"active","ping":64},{"user_id":37,"name":"Optimist 50","steam_id":76561198039631442,"connected_time":2876000000000,"state":"active","ping":91},{"user_id":57,"name":"FilipJacobs","steam_id":76561198076501589,"connected_time":1256000000000,"state":"active","ping":60},{"user_id":30,"name":"Hamm Mann","steam_id":76561198365508625,"connected_time":3153000000000,"state":"active","ping":82},{"user_id":33,"name":"Realist 40","steam_id":76561198052476979,"connected_time":3055000000000,"state":"active","ping":75},{"user_id":47,"name":"lookbrood","steam_id":76561198025592834,"connected_time":1940000000000,"state":"active","ping":60}]},{"server_id":23,"name":"Uncletopia | Frankfurt | 7 | No Payload","name_short":"frk-7","host":"frk-1.de.uncletopia.com","port":27075,"enabled":true,"region":"eu","cc":"de","latitude":50.110924,"longitude":8.682127,"reserved":0,"last_update":"0001-01-01T00:00:00Z","name_a2s":"Uncletopia | Frankfurt | 7 | No Payload","protocol":17,"map":"koth_badlands","folder":"tf","game":"Team Fortress","app_id":440,"player_count":0,"max_players":24,"Bots":0,"server_type":"Dedicated","server_os":"Linux","password":true,"vac":true,"version":"7695204","steam_id":85568392924742827,"keywords":["cp","nocrits","nodmgspread","uncletopia"],"game_id":440,"stv_port":27076,"stv_name":"Uncletopia | Frankfurt | 7 | No Payload | STV","players":null},{"server_id":24,"name":"Uncletopia | Frankfurt | 8 | Community","name_short":"frk-8","host":"frk-1.de.uncletopia.com","port":27085,"enabled":true,"region":"eu","cc":"de","latitude":50.110924,"longitude":8.682127,"reserved":0,"last_update":"0001-01-01T00:00:00Z","name_a2s":"Uncletopia | Frankfurt | 8 | Community","protocol":17,"map":"koth_lakeside_final","folder":"tf","game":"Team Fortress","app_id":440,"player_count":0,"max_players":24,"Bots":0,"server_type":"Dedicated","server_os":"Linux","password":true,"vac":true,"version":"7695204","steam_id":85568392924742828,"keywords":["cp","nocrits","nodmgspread","uncletopia"],"game_id":440,"stv_port":0,"stv_name":"","players":null},{"server_id":202,"name":"Uncletopia | Hong Kong | 1 | All Maps","name_short":"hgk-1","host":"hgk-1.hk.uncletopia.com","port":27015,"enabled":true,"region":"asia","cc":"hk","latitude":22.302711,"longitude":114.177216,"reserved":0,"last_update":"0001-01-01T00:00:00Z","name_a2s":"Uncletopia | Hong Kong | 1 | All Maps","protocol":17,"map":"koth_viaduct","folder":"tf","game":"Team Fortress","app_id":440,"player_count":20,"max_players":24,"Bots":0,"server_type":"Dedicated","server_os":"Linux","password":true,"vac":true,"version":"7695204","steam_id":85568392924494504,"keywords":["cp","nocrits","nodmgspread","uncletopia"],"game_id":440,"stv_port":27016,"stv_name":"Uncletopia | Hong Kong | 1 | All Maps | STV","players":[{"user_id":652,"name":"UwU","steam_id":76561198823521095,"connected_time":1277000000000,"state":"active","ping":50},{"user_id":665,"name":"Jarx246","steam_id":76561198138382025,"connected_time":77000000000,"state":"active","ping":59},{"user_id":654,"name":"pro trash","steam_id":76561199383863759,"connected_time":1041000000000,"state":"active","ping":82},{"user_id":647,"name":"DelHasMangoes/yt","steam_id":76561198047183797,"connected_time":1672000000000,"state":"active","ping":118},{"user_id":658,"name":"apollo","steam_id":76561198823374287,"connected_time":914000000000,"state":"active","ping":72},{"user_id":615,"name":"Kurtie","steam_id":76561198144737876,"connected_time":2939000000000,"state":"active","ping":68},{"user_id":659,"name":"한석기배너회수","steam_id":76561198080095368,"connected_time":908000000000,"state":"active","ping":80},{"user_id":624,"name":"Infra","steam_id":76561198924576271,"connected_time":2554000000000,"state":"active","ping":74},{"user_id":601,"name":"3245","steam_id":76561199390507975,"connected_time":4110000000000,"state":"active","ping":45},{"user_id":666,"name":"Infinitee","steam_id":76561198125409130,"connected_time":4000000000,"state":"spawning","ping":220},{"user_id":603,"name":"elijahkamfuentes2008","steam_id":76561199227862824,"connected_time":3988000000000,"state":"active","ping":114},{"user_id":656,"name":"gowon","steam_id":76561198194793637,"connected_time":1012000000000,"state":"active","ping":76},{"user_id":627,"name":"Hanta","steam_id":76561199031390218,"connected_time":2369000000000,"state":"active","ping":66},{"user_id":646,"name":"brizzard","steam_id":76561198048438653,"connected_time":1708000000000,"state":"active","ping":48},{"user_id":657,"name":"+W+","steam_id":76561197997220367,"connected_time":982000000000,"state":"active","ping":46},{"user_id":660,"name":"TonXD","steam_id":76561199024372559,"connected_time":876000000000,"state":"active","ping":104},{"user_id":643,"name":"The Blue Signet","steam_id":76561198982932902,"connected_time":1912000000000,"state":"active","ping":74},{"user_id":605,"name":"hentai character","steam_id":76561199061012484,"connected_time":3965000000000,"state":"active","ping":70},{"user_id":648,"name":"Aetherella","steam_id":76561198327674775,"connected_time":1573000000000,"state":"active","ping":60},{"user_id":650,"name":"衣旧罢久鎏岳肆","steam_id":76561198083234925,"connected_time":1406000000000,"state":"active","ping":103}]},{"server_id":1,"name":"Uncletopia | Los Angeles | 1 | All Maps","name_short":"lax-1","host":"lax-1.us.uncletopia.com","port":27015,"enabled":true,"region":"us-west","cc":"us","latitude":33.94279,"longitude":-118.41004,"reserved":0,"last_update":"0001-01-01T00:00:00Z","name_a2s":"Uncletopia | Los Angeles | 1 | All Maps","protocol":17,"map":"plr_hightower","folder":"tf","game":"Team Fortress","app_id":440,"player_count":0,"max_players":24,"Bots":0,"server_type":"Dedicated","server_os":"Linux","password":true,"vac":true,"version":"7695204","steam_id":85568392924469991,"keywords":["nocrits","nodmgspread","payload","uncletopia"],"game_id":440,"stv_port":27016,"stv_name":"Uncletopia | Los Angeles | 1 | All Maps | STV","players":null},{"server_id":112,"name":"Uncletopia | Los Angeles | 2 | All Maps","name_short":"lax-2","host":"lax-1.us.uncletopia.com","port":27025,"enabled":true,"region":"us-west","cc":"us","latitude":33.94279,"longitude":-118.41004,"reserved":0,"last_update":"0001-01-01T00:00:00Z","name_a2s":"Uncletopia | Los Angeles | 2 | All Maps","protocol":17,"map":"cp_dustbowl","folder":"tf","game":"Team Fortress","app_id":440,"player_count":0,"max_players":24,"Bots":0,"server_type":"Dedicated","server_os":"Linux","password":true,"vac":true,"version":"7695204","steam_id":85568392924469992,"keywords":["cp","nocrits","nodmgspread","uncletopia"],"game_id":440,"stv_port":0,"stv_name":"","players":null},{"server_id":324,"name":"Uncletopia | Los Angeles | 3 | All Maps","name_short":"lax-3","host":"lax-1.us.uncletopia.com","port":27035,"enabled":true,"region":"us-west","cc":"us","latitude":33.94279,"longitude":-118.41004,"reserved":0,"last_update":"0001-01-01T00:00:00Z","name_a2s":"Uncletopia | Los Angeles | 3 | All Maps","protocol":17,"map":"cp_dustbowl","folder":"tf","game":"Team Fortress","app_id":440,"player_count":0,"max_players":24,"Bots":0,"server_type":"Dedicated","server_os":"Linux","password":true,"vac":true,"version":"7695204","steam_id":85568392924510198,"keywords":["cp","nocrits","nodmgspread","uncletopia"],"game_id":440,"stv_port":27036,"stv_name":"Uncletopia | Los Angeles | 3 | All Maps | STV","players":null},{"server_id":25,"name":"Uncletopia | Los Angeles | 4 | No Payload","name_short":"lax-4","host":"lax-1.us.uncletopia.com","port":27045,"enabled":true,"region":"us-west","cc":"us","latitude":33.94279,"longitude":-118.41004,"reserved":0,"last_update":"0001-01-01T00:00:00Z","name_a2s":"Uncletopia | Los Angeles | 4 | No Payload","protocol":17,"map":"pl_barnblitz","folder":"tf","game":"Team Fortress","app_id":440,"player_count":0,"max_players":24,"Bots":0,"server_type":"Dedicated","server_os":"Linux","password":true,"vac":true,"version":"7695204","steam_id":85568392924510199,"keywords":["nocrits","nodmgspread","payload","uncletopia"],"game_id":440,"stv_port":0,"stv_name":"","players":null},{"server_id":11,"name":"Uncletopia | London | 1 | All Maps","name_short":"lon-1","host":"lon-1.uk.uncletopia.com","port":27015,"enabled":true,"region":"eu","cc":"gb","latitude":51.509865,"longitude":-0.118092,"reserved":0,"last_update":"0001-01-01T00:00:00Z","name_a2s":"Uncletopia | London | 1 | All Maps","protocol":17,"map":"cp_dustbowl","folder":"tf","game":"Team Fortress","app_id":440,"player_count":0,"max_players":24,"Bots":0,"server_type":"Dedicated","server_os":"Linux","password":true,"vac":true,"version":"7695204","steam_id":85568392924367362,"keywords":["cp","nocrits","nodmgspread","uncletopia"],"game_id":440,"stv_port":27016,"stv_name":"Uncletopia | London | 1 | All Maps | STV","players":null},{"server_id":114,"name":"Uncletopia | London | 2 | All Maps","name_short":"lon-2","host":"lon-1.uk.uncletopia.com","port":27025,"enabled":true,"region":"eu","cc":"gb","latitude":51.509865,"longitude":-0.118092,"reserved":0,"last_update":"0001-01-01T00:00:00Z","name_a2s":"Uncletopia | London | 2 | All Maps","protocol":17,"map":"pl_pier","folder":"tf","game":"Team Fortress","app_id":440,"player_count":4,"max_players":24,"Bots":0,"server_type":"Dedicated","server_os":"Linux","password":true,"vac":true,"version":"7695204","steam_id":85568392924470941,"keywords":["nocrits","nodmgspread","payload","uncletopia"],"game_id":440,"stv_port":27026,"stv_name":"Uncletopia | London | 2 | All Maps | STV","players":[{"user_id":24,"name":"ViktorYoshi","steam_id":76561199157555246,"connected_time":105000000000,"state":"active","ping":61},{"user_id":19,"name":"Toscorp","steam_id":76561198353760522,"connected_time":905000000000,"state":"active","ping":65},{"user_id":17,"name":"When Life gives you Lemons","steam_id":76561198318290663,"connected_time":1045000000000,"state":"active","ping":59},{"user_id":20,"name":"My Friend Deagol","steam_id":76561198450859507,"connected_time":905000000000,"state":"active","ping":96}]},{"server_id":320,"name":"Uncletopia | London | 3 | All Maps","name_short":"lon-3","host":"lon-1.uk.uncletopia.com","port":27035,"enabled":true,"region":"eu","cc":"gb","latitude":51.509865,"longitude":-0.118092,"reserved":0,"last_update":"0001-01-01T00:00:00Z","name_a2s":"Uncletopia | London | 3 | All Maps","protocol":17,"map":"cp_steel","folder":"tf","game":"Team Fortress","app_id":440,"player_count":24,"max_players":24,"Bots":0,"server_type":"Dedicated","server_os":"Linux","password":true,"vac":true,"version":"7695204","steam_id":85568392924510192,"keywords":["cp","nocrits","nodmgspread","uncletopia"],"game_id":440,"stv_port":27036,"stv_name":"Uncletopia | London | 3 | All Maps | STV","players":[{"user_id":130,"name":"Mr.Cupcake","steam_id":76561198152711174,"connected_time":2420000000000,"state":"active","ping":58},{"user_id":160,"name":"MONKEYBOYXD","steam_id":76561198156224952,"connected_time":657000000000,"state":"active","ping":49},{"user_id":152,"name":"Jonathan","steam_id":76561198087988880,"connected_time":1189000000000,"state":"active","ping":53},{"user_id":168,"name":"jmp","steam_id":76561198168283286,"connected_time":369000000000,"state":"active","ping":80},{"user_id":170,"name":"greg's mom","steam_id":76561198050525471,"connected_time":311000000000,"state":"active","ping":77},{"user_id":148,"name":"Ixsus\u003c3","steam_id":76561198094756869,"connected_time":1411000000000,"state":"active","ping":68},{"user_id":137,"name":"luvny","steam_id":76561198159928154,"connected_time":2227000000000,"state":"active","ping":49},{"user_id":165,"name":"Koutsok","steam_id":76561198832838677,"connected_time":513000000000,"state":"active","ping":110},{"user_id":171,"name":"Big Trader","steam_id":76561197992364667,"connected_time":310000000000,"state":"active","ping":78},{"user_id":122,"name":"Expand ding","steam_id":76561199019412162,"connected_time":2519000000000,"state":"active","ping":69},{"user_id":103,"name":"El Pybro","steam_id":76561198104675157,"connected_time":4026000000000,"state":"active","ping":80},{"user_id":151,"name":"Gruel","steam_id":76561198045408509,"connected_time":1271000000000,"state":"active","ping":46},{"user_id":123,"name":"Acid","steam_id":76561198102110680,"connected_time":2516000000000,"state":"active","ping":95},{"user_id":158,"name":"Klose","steam_id":76561198279281929,"connected_time":681000000000,"state":"active","ping":73},{"user_id":147,"name":"Grim the lemon","steam_id":76561199083433988,"connected_time":1743000000000,"state":"active","ping":98},{"user_id":169,"name":"soundkidz","steam_id":76561198142179795,"connected_time":356000000000,"state":"active","ping":131},{"user_id":144,"name":"Johnny Boy","steam_id":76561197969525453,"connected_time":1989000000000,"state":"active","ping":46},{"user_id":167,"name":"Patrick Ratrick","steam_id":76561198086190783,"connected_time":452000000000,"state":"active","ping":46},{"user_id":172,"name":"R0boprod","steam_id":76561198052092018,"connected_time":302000000000,"state":"active","ping":45},{"user_id":150,"name":"JOHN GAMING (based)","steam_id":76561199085822219,"connected_time":1387000000000,"state":"active","ping":84},{"user_id":115,"name":"Bajas","steam_id":76561198179339326,"connected_time":3444000000000,"state":"active","ping":75},{"user_id":135,"name":"Rudebwoyyy","steam_id":76561199387956486,"connected_time":2305000000000,"state":"active","ping":61},{"user_id":157,"name":"Mutilated_Scout","steam_id":76561199210952387,"connected_time":712000000000,"state":"active","ping":55},{"user_id":64,"name":"zaleek69","steam_id":76561198058877595,"connected_time":7227000000000,"state":"active","ping":75}]},{"server_id":321,"name":"Uncletopia | London | 4 | All Maps","name_short":"lon-4","host":"lon-1.uk.uncletopia.com","port":27045,"enabled":true,"region":"eu","cc":"gb","latitude":51.509865,"longitude":-0.118092,"reserved":0,"last_update":"0001-01-01T00:00:00Z","name_a2s":"Uncletopia | London | 4 | All Maps","protocol":17,"map":"cp_dustbowl","folder":"tf","game":"Team Fortress","app_id":440,"player_count":24,"max_players":24,"Bots":0,"server_type":"Dedicated","server_os":"Linux","password":true,"vac":true,"version":"7695204","steam_id":85568392924510193,"keywords":["cp","nocrits","nodmgspread","uncletopia"],"game_id":440,"stv_port":27046,"stv_name":"Uncletopia | London | 4 | All Maps | STV","players":[{"user_id":229,"name":"Smag","steam_id":76561198153675141,"connected_time":4718000000000,"state":"active","ping":43},{"user_id":256,"name":"mmonkay","steam_id":76561198397360709,"connected_time":2982000000000,"state":"active","ping":48},{"user_id":233,"name":"juJu","steam_id":76561198049343793,"connected_time":4701000000000,"state":"active","ping":75},{"user_id":294,"name":"PGAndy","steam_id":76561199218070297,"connected_time":717000000000,"state":"active","ping":93},{"user_id":283,"name":"zvekan","steam_id":76561198381101196,"connected_time":1618000000000,"state":"active","ping":62},{"user_id":289,"name":"piénudanlku","steam_id":76561198095238286,"connected_time":1236000000000,"state":"active","ping":52},{"user_id":271,"name":"Morseerman","steam_id":76561198040169391,"connected_time":2162000000000,"state":"active","ping":63},{"user_id":210,"name":"--","steam_id":76561199065917088,"connected_time":7230000000000,"state":"active","ping":57},{"user_id":302,"name":"Panzerwaffle","steam_id":76561198030382800,"connected_time":234000000000,"state":"active","ping":49},{"user_id":290,"name":"lil_sio","steam_id":76561198184075570,"connected_time":1227000000000,"state":"active","ping":71},{"user_id":292,"name":"Panda","steam_id":76561198176342325,"connected_time":969000000000,"state":"active","ping":89},{"user_id":280,"name":"Tyranatis","steam_id":76561198253159004,"connected_time":1860000000000,"state":"active","ping":52},{"user_id":239,"name":"TIM APPLE","steam_id":76561198201618337,"connected_time":4649000000000,"state":"active","ping":43},{"user_id":293,"name":"Salty_shark","steam_id":76561198300798280,"connected_time":760000000000,"state":"active","ping":89},{"user_id":270,"name":"MeerkatMal","steam_id":76561198041908807,"connected_time":2277000000000,"state":"active","ping":52},{"user_id":285,"name":"Noble Arris","steam_id":76561198206046404,"connected_time":1516000000000,"state":"active","ping":127},{"user_id":291,"name":"Clamor_","steam_id":76561198104368295,"connected_time":1192000000000,"state":"active","ping":75},{"user_id":298,"name":"=F|A= Figueira","steam_id":76561198001682515,"connected_time":398000000000,"state":"active","ping":140},{"user_id":295,"name":"The Sunnyshot","steam_id":76561198086787499,"connected_time":608000000000,"state":"active","ping":47},{"user_id":303,"name":"fiyahstorm","steam_id":76561197992574261,"connected_time":75000000000,"state":"active","ping":46},{"user_id":296,"name":"Fevol","steam_id":76561198047802034,"connected_time":412000000000,"state":"active","ping":57},{"user_id":301,"name":"FWDTRKR","steam_id":76561198060369427,"connected_time":316000000000,"state":"active","ping":144},{"user_id":297,"name":"the professa","steam_id":76561198802028634,"connected_time":410000000000,"state":"active","ping":53},{"user_id":232,"name":"Doog","steam_id":76561198072081731,"connected_time":4704000000000,"state":"active","ping":63}]},{"server_id":21,"name":"Uncletopia | London | 5 | All Maps","name_short":"lon-5","host":"lon-1.uk.uncletopia.com","port":27055,"enabled":true,"region":"eu","cc":"gb","latitude":51.509865,"longitude":-0.118092,"reserved":0,"last_update":"0001-01-01T00:00:00Z","name_a2s":"Uncletopia | London | 5 | All Maps","protocol":17,"map":"koth_cascade","folder":"tf","game":"Team Fortress","app_id":440,"player_count":0,"max_players":24,"Bots":0,"server_type":"Dedicated","server_os":"Linux","password":true,"vac":true,"version":"7695204","steam_id":85568392924742829,"keywords":["cp","nocrits","nodmgspread","uncletopia"],"game_id":440,"stv_port":0,"stv_name":"","players":null},{"server_id":22,"name":"Uncletopia | London | 6 | All Maps","name_short":"lon-6","host":"lon-1.uk.uncletopia.com","port":27065,"enabled":true,"region":"eu","cc":"gb","latitude":51.509865,"longitude":-0.118092,"reserved":0,"last_update":"0001-01-01T00:00:00Z","name_a2s":"Uncletopia | London | 6 | All Maps","protocol":17,"map":"koth_cascade","folder":"tf","game":"Team Fortress","app_id":440,"player_count":0,"max_players":24,"Bots":0,"server_type":"Dedicated","server_os":"Linux","password":true,"vac":true,"version":"7695204","steam_id":85568392924742830,"keywords":["cp","nocrits","nodmgspread","uncletopia"],"game_id":440,"stv_port":27066,"stv_name":"Uncletopia | London | 6 | All Maps | STV","players":null},{"server_id":40,"name":"Uncletopia | London | 7 | No Payload","name_short":"lon-7","host":"lon-1.uk.uncletopia.com","port":27075,"enabled":true,"region":"eu","cc":"gb","latitude":51.509865,"longitude":-0.118092,"reserved":0,"last_update":"0001-01-01T00:00:00Z","name_a2s":"Uncletopia | London | 7 | No Payload","protocol":17,"map":"cp_process_final","folder":"tf","game":"Team Fortress","app_id":440,"player_count":24,"max_players":24,"Bots":0,"server_type":"Dedicated","server_os":"Linux","password":true,"vac":true,"version":"7695204","steam_id":85568392924964314,"keywords":["cp","nocrits","nodmgspread","uncletopia"],"game_id":440,"stv_port":27076,"stv_name":"Uncletopia | London | 7 | No Payload | STV","players":[{"user_id":236,"name":"Sch","steam_id":76561198071341689,"connected_time":347000000000,"state":"active","ping":64},{"user_id":166,"name":"coachnetworkoperared514","steam_id":76561198236015392,"connected_time":4137000000000,"state":"active","ping":134},{"user_id":234,"name":"Brinier","steam_id":76561199012604288,"connected_time":530000000000,"state":"active","ping":71},{"user_id":194,"name":"ciliorkun18","steam_id":76561198228942500,"connected_time":2198000000000,"state":"active","ping":90},{"user_id":229,"name":"Homeless man","steam_id":76561199172775707,"connected_time":691000000000,"state":"active","ping":43},{"user_id":186,"name":"Jafoul","steam_id":76561199383437138,"connected_time":2660000000000,"state":"active","ping":133},{"user_id":159,"name":"e","steam_id":76561198047359132,"connected_time":5394000000000,"state":"active","ping":75},{"user_id":196,"name":"catface","steam_id":76561198963378933,"connected_time":2189000000000,"state":"active","ping":45},{"user_id":227,"name":"Hejnus","steam_id":76561197988395035,"connected_time":750000000000,"state":"active","ping":67},{"user_id":237,"name":"The Homelander","steam_id":76561198087874483,"connected_time":263000000000,"state":"active","ping":47},{"user_id":238,"name":"the heavy is here","steam_id":76561199401974688,"connected_time":212000000000,"state":"active","ping":155},{"user_id":230,"name":"Lyell","steam_id":76561198350329389,"connected_time":666000000000,"state":"active","ping":69},{"user_id":232,"name":"DiscordMod97","steam_id":76561198889264103,"connected_time":549000000000,"state":"active","ping":84},{"user_id":244,"name":"wertiop","steam_id":76561198260627072,"connected_time":80000000000,"state":"active","ping":86},{"user_id":233,"name":"Clubs","steam_id":76561198059235131,"connected_time":548000000000,"state":"active","ping":144},{"user_id":239,"name":"McMillan Family","steam_id":76561198295114358,"connected_time":196000000000,"state":"active","ping":69},{"user_id":240,"name":"SAMSUNG RS8000 RS68A8530B1/EU","steam_id":76561198106352373,"connected_time":171000000000,"state":"active","ping":45},{"user_id":191,"name":"The Subway Scientist","steam_id":76561198193757646,"connected_time":2340000000000,"state":"active","ping":59},{"user_id":241,"name":",","steam_id":76561199174579733,"connected_time":165000000000,"state":"active","ping":140},{"user_id":121,"name":"Aspartus","steam_id":76561198101385763,"connected_time":8135000000000,"state":"active","ping":40},{"user_id":242,"name":"Mex","steam_id":76561198108279631,"connected_time":154000000000,"state":"active","ping":80},{"user_id":217,"name":"Nix (they/them)","steam_id":76561198150006573,"connected_time":1248000000000,"state":"active","ping":50},{"user_id":223,"name":"NØmad","steam_id":76561198002851414,"connected_time":889000000000,"state":"active","ping":74},{"user_id":243,"name":"Hooggers","steam_id":76561198120447741,"connected_time":148000000000,"state":"active","ping":89}]},{"server_id":41,"name":"Uncletopia | London | 8 | Community","name_short":"lon-8","host":"lon-1.uk.uncletopia.com","port":27085,"enabled":true,"region":"eu","cc":"gb","latitude":51.509865,"longitude":-0.118092,"reserved":0,"last_update":"0001-01-01T00:00:00Z","name_a2s":"Uncletopia | London | 8 | Community","protocol":17,"map":"workshop/cp_villa_b19.ugc2113052569","folder":"tf","game":"Team Fortress","app_id":440,"player_count":12,"max_players":24,"Bots":0,"server_type":"Dedicated","server_os":"Linux","password":true,"vac":true,"version":"7695204","steam_id":85568392924964315,"keywords":["cp","nocrits","nodmgspread","uncletopia"],"game_id":440,"stv_port":27086,"stv_name":"Uncletopia | London | 8 | Community | STV","players":[{"user_id":45,"name":"Evil weed wizard","steam_id":76561198076137526,"connected_time":1833000000000,"state":"active","ping":51},{"user_id":44,"name":"tacker11","steam_id":76561198886244287,"connected_time":1861000000000,"state":"active","ping":52},{"user_id":17,"name":"Flaffian","steam_id":76561198261614764,"connected_time":3316000000000,"state":"active","ping":84},{"user_id":46,"name":"Evil Ganja Gangsta","steam_id":76561198163561677,"connected_time":1827000000000,"state":"active","ping":58},{"user_id":21,"name":"el debilo","steam_id":76561198323789838,"connected_time":2871000000000,"state":"active","ping":89},{"user_id":65,"name":"walküre_","steam_id":76561199245051414,"connected_time":166000000000,"state":"active","ping":53},{"user_id":22,"name":"Крах мужества","steam_id":76561198251356426,"connected_time":2836000000000,"state":"active","ping":94},{"user_id":66,"name":"Ambasing","steam_id":76561198059806266,"connected_time":33000000000,"state":"active","ping":89},{"user_id":24,"name":"i am bread","steam_id":76561199180277321,"connected_time":2805000000000,"state":"active","ping":34},{"user_id":28,"name":"EternalVelard","steam_id":76561198234244420,"connected_time":2424000000000,"state":"active","ping":123},{"user_id":47,"name":"\u003cNB\u003eFarquaad Star Squad","steam_id":76561198121110028,"connected_time":1777000000000,"state":"active","ping":45},{"user_id":61,"name":"[HS] MitraIDK","steam_id":76561198355718965,"connected_time":1147000000000,"state":"active","ping":75}]},{"server_id":300,"name":"Uncletopia | Montréal | 1 | All Maps","name_short":"mtl-1","host":"mtl-1.ca.uncletopia.com","port":27015,"enabled":true,"region":"us-east","cc":"ca","latitude":45.50889,"longitude":-73.56167,"reserved":0,"last_update":"0001-01-01T00:00:00Z","name_a2s":"Uncletopia | Montréal | 1 | All Maps","protocol":17,"map":"cp_dustbowl","folder":"tf","game":"Team Fortress","app_id":440,"player_count":0,"max_players":24,"Bots":0,"server_type":"Dedicated","server_os":"Linux","password":true,"vac":true,"version":"7695204","steam_id":85568392924500087,"keywords":["cp","nocrits","nodmgspread","uncletopia"],"game_id":440,"stv_port":0,"stv_name":"","players":null},{"server_id":301,"name":"Uncletopia | Montréal | 2 | All Maps","name_short":"mtl-2","host":"mtl-1.ca.uncletopia.com","port":27025,"enabled":true,"region":"us-east","cc":"ca","latitude":45.50889,"longitude":-73.56167,"reserved":0,"last_update":"0001-01-01T00:00:00Z","name_a2s":"Uncletopia | Montréal | 2 | All Maps","protocol":17,"map":"pl_snowycoast","folder":"tf","game":"Team Fortress","app_id":440,"player_count":1,"max_players":24,"Bots":0,"server_type":"Dedicated","server_os":"Linux","password":true,"vac":true,"version":"7695204","steam_id":85568392924500088,"keywords":["nocrits","nodmgspread","payload","uncletopia"],"game_id":440,"stv_port":0,"stv_name":"","players":[{"user_id":2,"name":"dirtyella","steam_id":76561199016948161,"connected_time":110000000000,"state":"spawning","ping":144}]},{"server_id":302,"name":"Uncletopia | Montréal | 3 | All Maps","name_short":"mtl-3","host":"mtl-1.ca.uncletopia.com","port":27035,"enabled":true,"region":"us-east","cc":"ca","latitude":45.50889,"longitude":-73.56167,"reserved":0,"last_update":"0001-01-01T00:00:00Z","name_a2s":"Uncletopia | Montréal | 3 | All Maps","protocol":17,"map":"koth_viaduct","folder":"tf","game":"Team Fortress","app_id":440,"player_count":0,"max_players":24,"Bots":0,"server_type":"Dedicated","server_os":"Linux","password":true,"vac":true,"version":"7695204","steam_id":85568392924500089,"keywords":["cp","nocrits","nodmgspread","uncletopia"],"game_id":440,"stv_port":0,"stv_name":"","players":null},{"server_id":303,"name":"Uncletopia | Montréal | 4 | No Payload","name_short":"mtl-4","host":"mtl-1.ca.uncletopia.com","port":27045,"enabled":true,"region":"us-east","cc":"ca","latitude":45.50889,"longitude":-73.56167,"reserved":0,"last_update":"0001-01-01T00:00:00Z","name_a2s":"Uncletopia | Montréal | 4 | No Payload","protocol":17,"map":"cp_dustbowl","folder":"tf","game":"Team Fortress","app_id":440,"player_count":0,"max_players":24,"Bots":0,"server_type":"Dedicated","server_os":"Linux","password":true,"vac":true,"version":"7695204","steam_id":85568392924500090,"keywords":["cp","nocrits","nodmgspread","uncletopia"],"game_id":440,"stv_port":0,"stv_name":"","players":null},{"server_id":13,"name":"Uncletopia | New York City | 1 | All Maps","name_short":"nyc-1","host":"nyc-1.us.uncletopia.com","port":27015,"enabled":true,"region":"us-east","cc":"us","latitude":40.73061,"longitude":-73.93524,"reserved":0,"last_update":"0001-01-01T00:00:00Z","name_a2s":"Uncletopia | New York City | 1 | All Maps","protocol":17,"map":"pl_upward","folder":"tf","game":"Team Fortress","app_id":440,"player_count":24,"max_players":24,"Bots":0,"server_type":"Dedicated","server_os":"Linux","password":true,"vac":true,"version":"7695204","steam_id":85568392924469993,"keywords":["nocrits","nodmgspread","payload","uncletopia"],"game_id":440,"stv_port":27016,"stv_name":"Uncletopia | New York City | 1 | All Maps | STV","players":[{"user_id":59,"name":"oh","steam_id":76561198167826296,"connected_time":1058000000000,"state":"active","ping":116},{"user_id":15,"name":"Casual Costanza","steam_id":76561198024409325,"connected_time":3987000000000,"state":"active","ping":69},{"user_id":48,"name":"Mury","steam_id":76561198069743049,"connected_time":1878000000000,"state":"active","ping":65},{"user_id":72,"name":"TheAshenDerp","steam_id":76561198848585450,"connected_time":434000000000,"state":"active","ping":38},{"user_id":19,"name":"whatever","steam_id":76561197994759007,"connected_time":3471000000000,"state":"active","ping":75},{"user_id":14,"name":"Pendrive is Insane","steam_id":76561199427354854,"connected_time":4017000000000,"state":"active","ping":144},{"user_id":68,"name":"Flammenwerfer Enjoyer","steam_id":76561199079034911,"connected_time":783000000000,"state":"active","ping":56},{"user_id":69,"name":"SLiPpeRyJoe.nosound","steam_id":76561197977206359,"connected_time":778000000000,"state":"active","ping":66},{"user_id":25,"name":"Nintenjoe","steam_id":76561198821530178,"connected_time":3114000000000,"state":"active","ping":50},{"user_id":24,"name":"Griffin","steam_id":76561198159339442,"connected_time":3220000000000,"state":"active","ping":75},{"user_id":57,"name":"festive jester","steam_id":76561198079609974,"connected_time":1086000000000,"state":"active","ping":117},{"user_id":52,"name":"jamzine","steam_id":76561198186168293,"connected_time":1466000000000,"state":"active","ping":55},{"user_id":31,"name":"John Darksoul","steam_id":76561198999712284,"connected_time":2777000000000,"state":"active","ping":71},{"user_id":32,"name":"oof aim small brain","steam_id":76561198079925551,"connected_time":2739000000000,"state":"active","ping":55},{"user_id":54,"name":"Dajer","steam_id":76561198321675742,"connected_time":1202000000000,"state":"active","ping":65},{"user_id":62,"name":"HorizonPear","steam_id":76561198179808389,"connected_time":1027000000000,"state":"active","ping":60},{"user_id":51,"name":"20 miles for a Quaalude","steam_id":76561198042579477,"connected_time":1516000000000,"state":"active","ping":58},{"user_id":36,"name":"Xdsf","steam_id":76561199027834578,"connected_time":2643000000000,"state":"active","ping":65},{"user_id":40,"name":"Your Loyal Familiar","steam_id":76561198106476075,"connected_time":2595000000000,"state":"active","ping":75},{"user_id":66,"name":"Ros","steam_id":76561199055963822,"connected_time":897000000000,"state":"active","ping":75},{"user_id":43,"name":"Anirak0","steam_id":76561198874890680,"connected_time":2570000000000,"state":"active","ping":101},{"user_id":53,"name":"spim","steam_id":76561198991982630,"connected_time":1463000000000,"state":"active","ping":50},{"user_id":63,"name":"Patch","steam_id":76561198055837437,"connected_time":1020000000000,"state":"active","ping":69},{"user_id":65,"name":"tumtum","steam_id":76561197995283175,"connected_time":951000000000,"state":"active","ping":78}]},{"server_id":14,"name":"Uncletopia | New York City | 2 | All Maps","name_short":"nyc-2","host":"nyc-1.us.uncletopia.com","port":27025,"enabled":true,"region":"us-east","cc":"us","latitude":40.73061,"longitude":-73.93524,"reserved":0,"last_update":"0001-01-01T00:00:00Z","name_a2s":"Uncletopia | New York City | 2 | All Maps","protocol":17,"map":"cp_mountainlab","folder":"tf","game":"Team Fortress","app_id":440,"player_count":0,"max_players":24,"Bots":0,"server_type":"Dedicated","server_os":"Linux","password":true,"vac":true,"version":"7695204","steam_id":85568392924469994,"keywords":["cp","nocrits","nodmgspread","uncletopia"],"game_id":440,"stv_port":27026,"stv_name":"Uncletopia | New York City | 2 | All Maps | STV","players":null},{"server_id":15,"name":"Uncletopia | New York City | 3 | All Maps","name_short":"nyc-3","host":"nyc-1.us.uncletopia.com","port":27035,"enabled":true,"region":"us-east","cc":"us","latitude":40.73061,"longitude":-73.93524,"reserved":0,"last_update":"0001-01-01T00:00:00Z","name_a2s":"Uncletopia | New York City | 3 | All Maps","protocol":17,"map":"pl_badwater","folder":"tf","game":"Team Fortress","app_id":440,"player_count":19,"max_players":24,"Bots":0,"server_type":"Dedicated","server_os":"Linux","password":true,"vac":true,"version":"7695204","steam_id":85568392924742820,"keywords":["nocrits","nodmgspread","payload","uncletopia"],"game_id":440,"stv_port":27036,"stv_name":"Uncletopia | New York City | 3 | All Maps | STV","players":[{"user_id":29,"name":"Wu-Tang Dan","steam_id":76561198024883983,"connected_time":312000000000,"state":"active","ping":56},{"user_id":6,"name":"Jenkinsclausman","steam_id":76561198174051530,"connected_time":2048000000000,"state":"active","ping":41},{"user_id":7,"name":"2028weijamesn","steam_id":76561199102013592,"connected_time":1879000000000,"state":"active","ping":104},{"user_id":8,"name":"GujaJuice","steam_id":76561199025126191,"connected_time":1729000000000,"state":"active","ping":50},{"user_id":17,"name":"dt-Burt B'dert","steam_id":76561197996380095,"connected_time":822000000000,"state":"active","ping":78},{"user_id":14,"name":"Deborp","steam_id":76561198118868430,"connected_time":893000000000,"state":"active","ping":90},{"user_id":31,"name":"Sicko Mode (Chris Pratt Cover)","steam_id":76561198315786174,"connected_time":97000000000,"state":"active","ping":48},{"user_id":16,"name":"Yeah. I'm pretty stupid.","steam_id":76561199121190731,"connected_time":843000000000,"state":"active","ping":85},{"user_id":22,"name":"YuriPuri","steam_id":76561198053330909,"connected_time":652000000000,"state":"active","ping":88},{"user_id":27,"name":"sansa musa","steam_id":76561198163723555,"connected_time":398000000000,"state":"active","ping":59},{"user_id":20,"name":"Sodur","steam_id":76561198966644012,"connected_time":741000000000,"state":"active","ping":94},{"user_id":25,"name":"3armedfalcon","steam_id":76561199257817140,"connected_time":444000000000,"state":"active","ping":63},{"user_id":26,"name":"Impmon","steam_id":76561198046375806,"connected_time":437000000000,"state":"active","ping":60},{"user_id":28,"name":"PapaTheBear123","steam_id":76561198885286869,"connected_time":359000000000,"state":"active","ping":95},{"user_id":30,"name":"golia","steam_id":76561198000264266,"connected_time":269000000000,"state":"active","ping":115},{"user_id":32,"name":"thefruitloop","steam_id":76561199059988765,"connected_time":62000000000,"state":"active","ping":60},{"user_id":33,"name":"conscripted monk","steam_id":76561199029246232,"connected_time":60000000000,"state":"active","ping":76},{"user_id":34,"name":"beerinabox","steam_id":76561198070614450,"connected_time":18000000000,"state":"spawning","ping":60},{"user_id":35,"name":"Joshy","steam_id":76561198061405421,"connected_time":17000000000,"state":"spawning","ping":2385}]},{"server_id":16,"name":"Uncletopia | New York City | 4 | Community","name_short":"nyc-4","host":"nyc-1.us.uncletopia.com","port":27045,"enabled":true,"region":"us-east","cc":"us","latitude":40.73061,"longitude":-73.93524,"reserved":0,"last_update":"0001-01-01T00:00:00Z","name_a2s":"Uncletopia | New York City | 4 | Community","protocol":17,"map":"workshop/koth_product_final.ugc454272353","folder":"tf","game":"Team Fortress","app_id":440,"player_count":0,"max_players":24,"Bots":0,"server_type":"Dedicated","server_os":"Linux","password":true,"vac":true,"version":"7695204","steam_id":85568392924742821,"keywords":["cp","nocrits","nodmgspread","uncletopia"],"game_id":440,"stv_port":27046,"stv_name":"Uncletopia | New York City | 4 | Community | STV","players":null},{"server_id":142,"name":"Uncletopia | São Paulo | 1 | All Maps","name_short":"sao-1","host":"sao-1.br.uncletopia.com","port":27015,"enabled":true,"region":"sa","cc":"br","latitude":-23.533773,"longitude":-46.62529,"reserved":0,"last_update":"0001-01-01T00:00:00Z","name_a2s":"Uncletopia | São Paulo | 1 | All Maps","protocol":17,"map":"koth_cascade","folder":"tf","game":"Team Fortress","app_id":440,"player_count":0,"max_players":24,"Bots":0,"server_type":"Dedicated","server_os":"Linux","password":true,"vac":true,"version":"7695204","steam_id":85568392924469996,"keywords":["cp","nocrits","nodmgspread","uncletopia"],"game_id":440,"stv_port":0,"stv_name":"","players":null},{"server_id":143,"name":"Uncletopia | São Paulo | 2 | All Maps","name_short":"sao-2","host":"sao-2.br.uncletopia.com","port":27015,"enabled":true,"region":"sa","cc":"br","latitude":-23.533773,"longitude":-46.62529,"reserved":0,"last_update":"0001-01-01T00:00:00Z","name_a2s":"Uncletopia | São Paulo | 2 | All Maps","protocol":17,"map":"pl_badwater","folder":"tf","game":"Team Fortress","app_id":440,"player_count":0,"max_players":24,"Bots":0,"server_type":"Dedicated","server_os":"Linux","password":true,"vac":true,"version":"7695204","steam_id":85568392924485349,"keywords":["nocrits","nodmgspread","payload","uncletopia"],"game_id":440,"stv_port":27016,"stv_name":"Uncletopia | São Paulo | 2 | All Maps | STV","players":null},{"server_id":7,"name":"Uncletopia | Seattle | 1 | All Maps","name_short":"sea-1","host":"sea-1.us.uncletopia.com","port":27015,"enabled":true,"region":"us-west","cc":"us","latitude":47.608013,"longitude":-122.33517,"reserved":0,"last_update":"0001-01-01T00:00:00Z","name_a2s":"Uncletopia | Seattle | 1 | All Maps","protocol":17,"map":"pl_snowycoast","folder":"tf","game":"Team Fortress","app_id":440,"player_count":0,"max_players":24,"Bots":0,"server_type":"Dedicated","server_os":"Linux","password":true,"vac":true,"version":"7695204","steam_id":85568392924469997,"keywords":["nocrits","nodmgspread","payload","uncletopia"],"game_id":440,"stv_port":0,"stv_name":"","players":null},{"server_id":119,"name":"Uncletopia | Seattle | 2 | All Maps","name_short":"sea-2","host":"sea-1.us.uncletopia.com","port":27025,"enabled":true,"region":"us-west","cc":"us","latitude":47.608013,"longitude":-122.33517,"reserved":0,"last_update":"0001-01-01T00:00:00Z","name_a2s":"Uncletopia | Seattle | 2 | All Maps","protocol":17,"map":"pl_borneo","folder":"tf","game":"Team Fortress","app_id":440,"player_count":24,"max_players":24,"Bots":0,"server_type":"Dedicated","server_os":"Linux","password":true,"vac":true,"version":"7695204","steam_id":85568392924469998,"keywords":["nocrits","nodmgspread","payload","uncletopia"],"game_id":440,"stv_port":27026,"stv_name":"Uncletopia | Seattle | 2 | All Maps | STV","players":[{"user_id":82,"name":"Cheese Burger","steam_id":76561199030987614,"connected_time":3666000000000,"state":"active","ping":130},{"user_id":90,"name":"Fajita Master","steam_id":76561198329150962,"connected_time":3345000000000,"state":"active","ping":76},{"user_id":39,"name":"THE NUT","steam_id":76561198067813626,"connected_time":6178000000000,"state":"active","ping":47},{"user_id":122,"name":"5 broken dirtbikes","steam_id":76561198030457066,"connected_time":1733000000000,"state":"active","ping":107},{"user_id":123,"name":"aqua","steam_id":76561199407709552,"connected_time":1728000000000,"state":"active","ping":90},{"user_id":92,"name":"Spearit5464","steam_id":76561199241807676,"connected_time":2995000000000,"state":"active","ping":61},{"user_id":132,"name":"MG","steam_id":76561197980131846,"connected_time":1246000000000,"state":"active","ping":74},{"user_id":133,"name":".BL14","steam_id":76561198374604922,"connected_time":940000000000,"state":"active","ping":91},{"user_id":11,"name":"Soap Man","steam_id":76561198000490235,"connected_time":8104000000000,"state":"active","ping":69},{"user_id":135,"name":"doghouse","steam_id":76561198000319035,"connected_time":504000000000,"state":"active","ping":87},{"user_id":98,"name":"Sgt. Polaris","steam_id":76561198034752644,"connected_time":2510000000000,"state":"active","ping":106},{"user_id":130,"name":"Danger Noodle","steam_id":76561198130841014,"connected_time":1471000000000,"state":"active","ping":51},{"user_id":100,"name":"Sad Sapling","steam_id":76561198075612150,"connected_time":2442000000000,"state":"active","ping":87},{"user_id":140,"name":"elite purple mans","steam_id":76561199217733951,"connected_time":79000000000,"state":"active","ping":262},{"user_id":125,"name":"reekus sunfare","steam_id":76561198325306660,"connected_time":1704000000000,"state":"active","ping":46},{"user_id":66,"name":"Doctor Payne","steam_id":76561198025576587,"connected_time":4482000000000,"state":"active","ping":43},{"user_id":136,"name":"LastSpaceMarine","steam_id":76561198034706201,"connected_time":492000000000,"state":"active","ping":84},{"user_id":126,"name":"TheCowledWiz","steam_id":76561198016735868,"connected_time":1662000000000,"state":"active","ping":48},{"user_id":104,"name":"Blackcat","steam_id":76561199013406735,"connected_time":2311000000000,"state":"active","ping":74},{"user_id":105,"name":"TaintedCap","steam_id":76561199115792397,"connected_time":2299000000000,"state":"active","ping":115},{"user_id":137,"name":"Duhhorn ツ","steam_id":76561198287376266,"connected_time":447000000000,"state":"active","ping":69},{"user_id":139,"name":"queso americano","steam_id":76561199055457168,"connected_time":203000000000,"state":"active","ping":62},{"user_id":134,"name":"earthtraveler413","steam_id":76561198865139926,"connected_time":774000000000,"state":"active","ping":55},{"user_id":141,"name":"just another furry","steam_id":76561198262852705,"connected_time":76000000000,"state":"spawning","ping":86}]},{"server_id":17,"name":"Uncletopia | San Francisco | 1 | All Maps","name_short":"sfo-1","host":"sfo-1.us.uncletopia.com","port":27015,"enabled":true,"region":"us-west","cc":"us","latitude":37.77397,"longitude":-122.4313,"reserved":0,"last_update":"0001-01-01T00:00:00Z","name_a2s":"Uncletopia | San Francisco | 1 | All Maps","protocol":17,"map":"cp_sunshine","folder":"tf","game":"Team Fortress","app_id":440,"player_count":0,"max_players":24,"Bots":0,"server_type":"Dedicated","server_os":"Linux","password":true,"vac":true,"version":"7695204","steam_id":85568392924469999,"keywords":["cp","nocrits","nodmgspread","uncletopia"],"game_id":440,"stv_port":0,"stv_name":"","players":null},{"server_id":18,"name":"Uncletopia | San Francisco | 2 | All Maps","name_short":"sfo-2","host":"sfo-1.us.uncletopia.com","port":27025,"enabled":true,"region":"us-west","cc":"us","latitude":37.77397,"longitude":-122.4313,"reserved":0,"last_update":"0001-01-01T00:00:00Z","name_a2s":"Uncletopia | San Francisco | 2 | All Maps","protocol":17,"map":"pl_barnblitz","folder":"tf","game":"Team Fortress","app_id":440,"player_count":0,"max_players":24,"Bots":0,"server_type":"Dedicated","server_os":"Linux","password":true,"vac":true,"version":"7695204","steam_id":85568392924470000,"keywords":["nocrits","nodmgspread","payload","uncletopia"],"game_id":440,"stv_port":27026,"stv_name":"Uncletopia | San Francisco | 2 | All Maps | STV","players":null},{"server_id":19,"name":"Uncletopia | San Francisco | 3 | No Payload","name_short":"sfo-3","host":"sfo-1.us.uncletopia.com","port":27035,"enabled":true,"region":"us-west","cc":"us","latitude":37.77397,"longitude":-122.4313,"reserved":0,"last_update":"0001-01-01T00:00:00Z","name_a2s":"Uncletopia | San Francisco | 3 | No Payload","protocol":17,"map":"cp_snakewater_final1","folder":"tf","game":"Team Fortress","app_id":440,"player_count":0,"max_players":24,"Bots":0,"server_type":"Dedicated","server_os":"Linux","password":true,"vac":true,"version":"7695204","steam_id":85568392924742824,"keywords":["cp","nocrits","nodmgspread","uncletopia"],"game_id":440,"stv_port":0,"stv_name":"","players":null},{"server_id":20,"name":"Uncletopia | San Francisco | 4 | Community","name_short":"sfo-4","host":"sfo-1.us.uncletopia.com","port":27045,"enabled":true,"region":"us-west","cc":"us","latitude":37.77397,"longitude":-122.4313,"reserved":0,"last_update":"0001-01-01T00:00:00Z","name_a2s":"Uncletopia | San Francisco | 4 | Community","protocol":17,"map":"koth_highpass","folder":"tf","game":"Team Fortress","app_id":440,"player_count":0,"max_players":24,"Bots":0,"server_type":"Dedicated","server_os":"Linux","password":true,"vac":true,"version":"7695204","steam_id":85568392924742826,"keywords":["cp","nocrits","nodmgspread","uncletopia"],"game_id":440,"stv_port":0,"stv_name":"","players":null},{"server_id":141,"name":"Uncletopia | Sydney | 1 | All Maps","name_short":"syd-1","host":"syd-1.au.uncletopia.com","port":27015,"enabled":true,"region":"au","cc":"au","latitude":-33.865143,"longitude":151.2099,"reserved":0,"last_update":"0001-01-01T00:00:00Z","name_a2s":"Uncletopia | Sydney | 1 | All Maps","protocol":17,"map":"koth_viaduct","folder":"tf","game":"Team Fortress","app_id":440,"player_count":0,"max_players":24,"Bots":0,"server_type":"Dedicated","server_os":"Linux","password":true,"vac":true,"version":"7695204","steam_id":85568392924470001,"keywords":["cp","nocrits","nodmgspread","uncletopia"],"game_id":440,"stv_port":27016,"stv_name":"Uncletopia | Sydney | 1 | All Maps | STV","players":null},{"server_id":123,"name":"Uncletopia | Sydney | 2 | All Maps","name_short":"syd-2","host":"syd-1.au.uncletopia.com","port":27025,"enabled":true,"region":"au","cc":"au","latitude":-33.865143,"longitude":151.2099,"reserved":0,"last_update":"0001-01-01T00:00:00Z","name_a2s":"Uncletopia | Sydney | 2 | All Maps","protocol":17,"map":"pl_swiftwater_final1","folder":"tf","game":"Team Fortress","app_id":440,"player_count":10,"max_players":24,"Bots":0,"server_type":"Dedicated","server_os":"Linux","password":true,"vac":true,"version":"7695204","steam_id":85568392924470002,"keywords":["nocrits","nodmgspread","payload","uncletopia"],"game_id":440,"stv_port":27026,"stv_name":"Uncletopia | Sydney | 2 | All Maps | STV","players":[{"user_id":788,"name":"hawk","steam_id":76561198135164277,"connected_time":3127000000000,"state":"active","ping":47},{"user_id":804,"name":"Xxx_The_Child_Predator_xxX","steam_id":76561199121938819,"connected_time":224000000000,"state":"active","ping":75},{"user_id":805,"name":"Crazed Arsonist","steam_id":76561199193856542,"connected_time":113000000000,"state":"active","ping":75},{"user_id":800,"name":"ManFlabs","steam_id":76561198971245592,"connected_time":1157000000000,"state":"active","ping":61},{"user_id":794,"name":"QuilqualaX","steam_id":76561199191688572,"connected_time":2045000000000,"state":"active","ping":254},{"user_id":791,"name":"duff","steam_id":76561198252163844,"connected_time":2520000000000,"state":"active","ping":65},{"user_id":801,"name":"ehs","steam_id":76561198431048339,"connected_time":1026000000000,"state":"active","ping":252},{"user_id":802,"name":"Diego.Puerto.2007","steam_id":76561198846610729,"connected_time":623000000000,"state":"active","ping":217},{"user_id":803,"name":"Fps","steam_id":76561198077651488,"connected_time":606000000000,"state":"active","ping":40},{"user_id":784,"name":"Pew pew pew!","steam_id":76561198004120277,"connected_time":3547000000000,"state":"active","ping":44}]},{"server_id":395,"name":"Uncletopia | Sydney | 3 | All Maps","name_short":"syd-3","host":"syd-1.au.uncletopia.com","port":27035,"enabled":true,"region":"au","cc":"au","latitude":-33.865143,"longitude":151.2099,"reserved":0,"last_update":"0001-01-01T00:00:00Z","name_a2s":"Uncletopia | Sydney | 3 | All Maps","protocol":17,"map":"koth_lakeside_final","folder":"tf","game":"Team Fortress","app_id":440,"player_count":0,"max_players":24,"Bots":0,"server_type":"Dedicated","server_os":"Linux","password":true,"vac":true,"version":"7695204","steam_id":85568392925194467,"keywords":["cp","nocrits","nodmgspread","uncletopia"],"game_id":440,"stv_port":27036,"stv_name":"Uncletopia | Sydney | 3 | All Maps | STV","players":null},{"server_id":396,"name":"Uncletopia | Sydney | 4 | All Maps","name_short":"syd-4","host":"syd-1.au.uncletopia.com","port":27045,"enabled":true,"region":"au","cc":"au","latitude":-33.865143,"longitude":151.2099,"reserved":0,"last_update":"0001-01-01T00:00:00Z","name_a2s":"Uncletopia | Sydney | 4 | All Maps","protocol":17,"map":"cp_sunshine","folder":"tf","game":"Team Fortress","app_id":440,"player_count":0,"max_players":24,"Bots":0,"server_type":"Dedicated","server_os":"Linux","password":true,"vac":true,"version":"7695204","steam_id":85568392925397958,"keywords":["cp","nocrits","nodmgspread","uncletopia"],"game_id":440,"stv_port":27046,"stv_name":"Uncletopia | Sydney | 4 | All Maps | STV","players":null},{"server_id":58,"name":"Uncletopia | Sydney | 5 | No Payload","name_short":"syd-5","host":"syd-1.au.uncletopia.com","port":27055,"enabled":true,"region":"au","cc":"au","latitude":-33.865143,"longitude":151.2099,"reserved":0,"last_update":"0001-01-01T00:00:00Z","name_a2s":"Uncletopia | Sydney | 5 | No Payload","protocol":17,"map":"plr_nightfall_final","folder":"tf","game":"Team Fortress","app_id":440,"player_count":0,"max_players":24,"Bots":0,"server_type":"Dedicated","server_os":"Linux","password":true,"vac":true,"version":"7695204","steam_id":85568392925397959,"keywords":["nocrits","nodmgspread","payload","uncletopia"],"game_id":440,"stv_port":27056,"stv_name":"Uncletopia | Sydney | 5 | No Payload | STV","players":null},{"server_id":59,"name":"Uncletopia | Sydney | 6 | Community","name_short":"syd-6","host":"syd-1.au.uncletopia.com","port":27065,"enabled":true,"region":"au","cc":"au","latitude":-33.865143,"longitude":151.2099,"reserved":0,"last_update":"0001-01-01T00:00:00Z","name_a2s":"Uncletopia | Sydney | 6 | Community","protocol":17,"map":"workshop/koth_product_final.ugc454272353","folder":"tf","game":"Team Fortress","app_id":440,"player_count":0,"max_players":24,"Bots":0,"server_type":"Dedicated","server_os":"Linux","password":true,"vac":true,"version":"7695204","steam_id":85568392925397960,"keywords":["cp","nocrits","nodmgspread","uncletopia"],"game_id":440,"stv_port":27066,"stv_name":"Uncletopia | Sydney | 6 | Community | STV","players":null},{"server_id":49,"name":"Uncletopia | Warsaw | 1 | All Maps","name_short":"waw-1","host":"waw-1.pl.uncletopia.com","port":27015,"enabled":true,"region":"eu","cc":"pl","latitude":52.2297,"longitude":21.017532,"reserved":0,"last_update":"0001-01-01T00:00:00Z","name_a2s":"Uncletopia | Warsaw | 1 | All Maps","protocol":17,"map":"pl_upward","folder":"tf","game":"Team Fortress","app_id":440,"player_count":0,"max_players":24,"Bots":0,"server_type":"Dedicated","server_os":"Linux","password":true,"vac":true,"version":"7695204","steam_id":85568392925397850,"keywords":["nocrits","nodmgspread","payload","uncletopia"],"game_id":440,"stv_port":27016,"stv_name":"Uncletopia | Warsaw | 1 | All Maps | STV","players":null},{"server_id":50,"name":"Uncletopia | Warsaw | 2 | All Maps","name_short":"waw-2","host":"waw-1.pl.uncletopia.com","port":27025,"enabled":true,"region":"eu","cc":"pl","latitude":52.2297,"longitude":21.017532,"reserved":0,"last_update":"0001-01-01T00:00:00Z","name_a2s":"Uncletopia | Warsaw | 2 | All Maps","protocol":17,"map":"cp_sunshine","folder":"tf","game":"Team Fortress","app_id":440,"player_count":21,"max_players":24,"Bots":0,"server_type":"Dedicated","server_os":"Linux","password":true,"vac":true,"version":"7695204","steam_id":85568392925397851,"keywords":["nocrits","nodmgspread","payload","uncletopia"],"game_id":440,"stv_port":27026,"stv_name":"Uncletopia | Warsaw | 2 | All Maps | STV","players":[{"user_id":454,"name":"MAKENTAKEN","steam_id":76561199127359587,"connected_time":3930000000000,"state":"connecting","ping":127},{"user_id":479,"name":"NO end to POOTIS","steam_id":76561198144879361,"connected_time":1139000000000,"state":"connecting","ping":105},{"user_id":478,"name":"Woman type of beat","steam_id":76561198257383813,"connected_time":1170000000000,"state":"connecting","ping":73},{"user_id":480,"name":"Leprechaun","steam_id":76561198328543549,"connected_time":1042000000000,"state":"spawning","ping":108},{"user_id":493,"name":"DraGOs512","steam_id":76561198438519964,"connected_time":369000000000,"state":"connecting","ping":113},{"user_id":494,"name":"busgrabb","steam_id":76561198055768465,"connected_time":350000000000,"state":"connecting","ping":80},{"user_id":482,"name":"Floydian","steam_id":76561198130378568,"connected_time":1033000000000,"state":"connecting","ping":119},{"user_id":483,"name":"yyny","steam_id":76561198066287297,"connected_time":854000000000,"state":"connecting","ping":72},{"user_id":500,"name":"ribs","steam_id":76561198354735240,"connected_time":2000000000,"state":"connecting","ping":118},{"user_id":498,"name":"bigwish | bmod.tf","steam_id":76561197997859723,"connected_time":27000000000,"state":"connecting","ping":56},{"user_id":485,"name":"Mass","steam_id":76561198432195204,"connected_time":830000000000,"state":"connecting","ping":90},{"user_id":490,"name":"Kotlet schabowy","steam_id":76561198048983509,"connected_time":596000000000,"state":"connecting","ping":72},{"user_id":495,"name":"ducks","steam_id":76561198166148685,"connected_time":332000000000,"state":"connecting","ping":97},{"user_id":499,"name":"Ustinius","steam_id":76561199021142826,"connected_time":23000000000,"state":"connecting","ping":90},{"user_id":491,"name":"Vortic","steam_id":76561198086534884,"connected_time":590000000000,"state":"spawning","ping":81},{"user_id":475,"name":"Crow","steam_id":76561198904910888,"connected_time":1532000000000,"state":"connecting","ping":142},{"user_id":439,"name":"Nick","steam_id":76561198036109469,"connected_time":4673000000000,"state":"spawning","ping":72},{"user_id":455,"name":"The_Convoy","steam_id":76561198206525464,"connected_time":3900000000000,"state":"connecting","ping":82},{"user_id":476,"name":"mylooooooo","steam_id":76561198154714698,"connected_time":1527000000000,"state":"connecting","ping":77},{"user_id":465,"name":"Hexagon","steam_id":76561198151205758,"connected_time":2638000000000,"state":"connecting","ping":95},{"user_id":496,"name":"The Fellow Feller","steam_id":76561198188864306,"connected_time":325000000000,"state":"spawning","ping":91}]},{"server_id":51,"name":"Uncletopia | Warsaw | 3 | All Maps","name_short":"waw-3","host":"waw-1.pl.uncletopia.com","port":27035,"enabled":true,"region":"eu","cc":"pl","latitude":52.2297,"longitude":21.017532,"reserved":0,"last_update":"0001-01-01T00:00:00Z","name_a2s":"Uncletopia | Warsaw | 3 | All Maps","protocol":17,"map":"pl_coal_event","folder":"tf","game":"Team Fortress","app_id":440,"player_count":3,"max_players":24,"Bots":0,"server_type":"Dedicated","server_os":"Linux","password":true,"vac":true,"version":"7695204","steam_id":85568392925397852,"keywords":["nocrits","nodmgspread","payload","uncletopia"],"game_id":440,"stv_port":27036,"stv_name":"Uncletopia | Warsaw | 3 | All Maps | STV","players":[{"user_id":9,"name":"Rucham_ci_matke","steam_id":76561199186122070,"connected_time":195000000000,"state":"active","ping":49},{"user_id":10,"name":"BlueDragon0898","steam_id":76561199149773447,"connected_time":189000000000,"state":"active","ping":71},{"user_id":11,"name":"Nalesnik","steam_id":76561199085566435,"connected_time":169000000000,"state":"active","ping":67}]},{"server_id":52,"name":"Uncletopia | Warsaw | 4 | All Maps","name_short":"waw-4","host":"waw-1.pl.uncletopia.com","port":27045,"enabled":true,"region":"eu","cc":"pl","latitude":52.2297,"longitude":21.017532,"reserved":0,"last_update":"0001-01-01T00:00:00Z","name_a2s":"Uncletopia | Warsaw | 4 | All Maps","protocol":17,"map":"pl_frontier_final","folder":"tf","game":"Team Fortress","app_id":440,"player_count":0,"max_players":24,"Bots":0,"server_type":"Dedicated","server_os":"Linux","password":true,"vac":true,"version":"7695204","steam_id":85568392925397853,"keywords":["nocrits","nodmgspread","payload","uncletopia"],"game_id":440,"stv_port":27046,"stv_name":"Uncletopia | Warsaw | 4 | All Maps | STV","players":null},{"server_id":53,"name":"Uncletopia | Warsaw | 5 | No Payload","name_short":"waw-5","host":"waw-1.pl.uncletopia.com","port":27055,"enabled":true,"region":"eu","cc":"pl","latitude":52.2297,"longitude":21.017532,"reserved":0,"last_update":"0001-01-01T00:00:00Z","name_a2s":"Uncletopia | Warsaw | 5 | No Payload","protocol":17,"map":"cp_dustbowl","folder":"tf","game":"Team Fortress","app_id":440,"player_count":0,"max_players":24,"Bots":0,"server_type":"Dedicated","server_os":"Linux","password":true,"vac":true,"version":"7695204","steam_id":85568392925397854,"keywords":["cp","nocrits","nodmgspread","uncletopia"],"game_id":440,"stv_port":27056,"stv_name":"Uncletopia | Warsaw | 5 | No Payload | STV","players":null},{"server_id":54,"name":"Uncletopia | Warsaw | 6 | Community","name_short":"waw-6","host":"waw-1.pl.uncletopia.com","port":27065,"enabled":true,"region":"eu","cc":"pl","latitude":52.2297,"longitude":21.017532,"reserved":0,"last_update":"0001-01-01T00:00:00Z","name_a2s":"Uncletopia | Warsaw | 6 | Community","protocol":17,"map":"pl_barnblitz","folder":"tf","game":"Team Fortress","app_id":440,"player_count":0,"max_players":24,"Bots":0,"server_type":"Dedicated","server_os":"Linux","password":true,"vac":true,"version":"7695204","steam_id":85568392925397856,"keywords":["nocrits","nodmgspread","payload","uncletopia"],"game_id":440,"stv_port":0,"stv_name":"","players":null}]}