{"status":true,"message":"","result":[{"server_id":9,"name":"Uncletopia | Atlanta | 1 | All Maps","name_short":"atl-1","host":"atl-1.us.uncletopia.com","port":27015,"enabled":true,"region":"us-east","cc":"us","latitude":33.753746,"longitude":-84.38633,"reserved":0,"last_update":"0001-01-01T00:00:00Z","name_a2s":"Uncletopia | Atlanta | 1 | All Maps","protocol":17,"map":"pl_upward","folder":"tf","game":"Team Fortress","app_id":440,"player_count":24,"max_players":24,"Bots":0,"server_type":"Dedicated","server_os":"Linux","password":true,"vac":true,"version":"7757534","steam_id":85568392924469982,"keywords":["nocrits","nodmgspread","payload","uncletopia"],"game_id":440,"stv_port":27016,"stv_name":"Uncletopia | Atlanta | 1 | All Maps | STV","players":[{"user_id":118,"name":"FancyBones","steam_id":76561198180198885,"connected_time":1805000000000,"state":"active","ping":68},{"user_id":47,"name":"Scorch","steam_id":76561198167024005,"connected_time":6272000000000,"state":"active","ping":55},{"user_id":119,"name":"Khailby","steam_id":76561198811728410,"connected_time":1796000000000,"state":"active","ping":46},{"user_id":106,"name":"jandajanda","steam_id":76561198235722476,"connected_time":2932000000000,"state":"active","ping":53},{"user_id":44,"name":"Crunchy","steam_id":76561199065412274,"connected_time":6761000000000,"state":"active","ping":58},{"user_id":125,"name":"TheKromeDome","steam_id":76561198288951592,"connected_time":1713000000000,"state":"active","ping":187},{"user_id":134,"name":"Lost","steam_id":76561198093713427,"connected_time":712000000000,"state":"active","ping":75},{"user_id":60,"name":"Super","steam_id":76561199179611350,"connected_time":5519000000000,"state":"active","ping":87},{"user_id":64,"name":"Monster","steam_id":76561198189429665,"connected_time":5421000000000,"state":"active","ping":57},{"user_id":112,"name":"whisper","steam_id":76561198116741891,"connected_time":2196000000000,"state":"active","ping":60},{"user_id":76,"name":"Thotimus Begonimus","steam_id":76561197970275938,"connected_time":4905000000000,"state":"active","ping":43},{"user_id":137,"name":"the grease","steam_id":76561198178638591,"connected_time":188000000000,"state":"active","ping":79},{"user_id":115,"name":"Eins","steam_id":76561199030343810,"connected_time":1834000000000,"state":"active","ping":48},{"user_id":114,"name":"Kitt(eh) ‚àë:3","steam_id":76561198110858518,"connected_time":1882000000000,"state":"active","ping":69},{"user_id":135,"name":"vitamin","steam_id":76561198277799227,"connected_time":600000000000,"state":"active","ping":65},{"user_id":133,"name":"Epifiny","steam_id":76561198027958086,"connected_time":843000000000,"state":"active","ping":87},{"user_id":117,"name":"Bird","steam_id":76561198247484514,"connected_time":1820000000000,"state":"active","ping":68},{"user_id":122,"name":"Œõlxium","steam_id":76561198131272900,"connected_time":1790000000000,"state":"active","ping":82},{"user_id":132,"name":"Brandonazz","steam_id":76561197994366351,"connected_time":1094000000000,"state":"active","ping":80},{"user_id":123,"name":"Raptortastic","steam_id":76561198105613110,"connected_time":1788000000000,"state":"active","ping":76},{"user_id":73,"name":"marguerite","steam_id":76561198170873495,"connected_time":5115000000000,"state":"active","ping":57},{"user_id":103,"name":"firetamer2","steam_id":76561198040886980,"connected_time":3466000000000,"state":"active","ping":55},{"user_id":139,"name":"N√∏rzaq","steam_id":76561198143188802,"connected_time":53000000000,"state":"active","ping":116},{"user_id":124,"name":"Shmebulock","steam_id":76561198046941925,"connected_time":1781000000000,"state":"active","ping":75}]},{"server_id":104,"name":"Uncletopia | Atlanta | 2 | All Maps","name_short":"atl-2","host":"atl-1.us.uncletopia.com","port":27025,"enabled":true,"region":"us-east","cc":"us","latitude":33.753746,"longitude":-84.38633,"reserved":0,"last_update":"0001-01-01T00:00:00Z","name_a2s":"Uncletopia | Atlanta | 2 | All Maps","protocol":17,"map":"koth_viaduct","folder":"tf","game":"Team Fortress","app_id":440,"player_count":0,"max_players":24,"Bots":0,"server_type":"Dedicated","server_os":"Linux","password":true,"vac":true,"version":"7757534","steam_id":85568392924469983,"keywords":["cp","nocrits","nodmgspread","uncletopia"],"game_id":440,"stv_port":27026,"stv_name":"Uncletopia | Atlanta | 2 | All Maps | STV","players":null},{"server_id":400,"name":"Uncletopia | Atlanta | 3 | Community","name_short":"atl-3","host":"atl-1.us.uncletopia.com","port":27035,"enabled":true,"region":"us-east","cc":"us","latitude":33.753746,"longitude":-84.38633,"reserved":0,"last_update":"0001-01-01T00:00:00Z","name_a2s":"Uncletopia | Atlanta | 3 | Community","protocol":17,"map":"cp_snakewater_final1","folder":"tf","game":"Team Fortress","app_id":440,"player_count":0,"max_players":24,"Bots":0,"server_type":"Dedicated","server_os":"Linux","password":true,"vac":true,"version":"7757534","steam_id":85568392924515187,"keywords":["cp","nocrits","nodmgspread","uncletopia"],"game_id":440,"stv_port":27036,"stv_name":"Uncletopia | Atlanta | 3 | Community | STV","players":null},{"server_id":401,"name":"Uncletopia | Atlanta | 4 | No Payload","name_short":"atl-4","host":"atl-1.us.uncletopia.com","port":27045,"enabled":true,"region":"us-east","cc":"us","latitude":33.753746,"longitude":-84.38633,"reserved":0,"last_update":"0001-01-01T00:00:00Z","name_a2s":"","protocol":0,"map":"","folder":"","game":"","app_id":0,"player_count":0,"max_players":0,"Bots":0,"server_type":"","server_os":"","password":false,"vac":false,"version":"","steam_id":0,"keywords":null,"game_id":0,"stv_port":0,"stv_name":"","players":null},{"server_id":2,"name":"Uncletopia | Chicago | 1 | All Maps","name_short":"chi-1","host":"chi-1.us.uncletopia.com","port":27015,"enabled":true,"region":"us-central","cc":"us","latitude":41.881832,"longitude":-87.62318,"reserved":0,"last_update":"0001-01-01T00:00:00Z","name_a2s":"Uncletopia | Chicago | 1 | All Maps","protocol":17,"map":"pl_badwater","folder":"tf","game":"Team Fortress","app_id":440,"player_count":23,"max_players":24,"Bots":0,"server_type":"Dedicated","server_os":"Linux","password":true,"vac":true,"version":"7757534","steam_id":85568392924469984,"keywords":["nocrits","nodmgspread","payload","uncletopia"],"game_id":440,"stv_port":27016,"stv_name":"Uncletopia | Chicago | 1 | All Maps | STV","players":[{"user_id":362,"name":"sammy #freecream","steam_id":76561199001307670,"connected_time":1038000000000,"state":"active","ping":90},{"user_id":319,"name":"Cleric","steam_id":76561198045887994,"connected_time":3698000000000,"state":"active","ping":44},{"user_id":375,"name":"GREG","steam_id":76561198073021168,"connected_time":69000000000,"state":"active","ping":69},{"user_id":359,"name":"Hooked","steam_id":76561198007302139,"connected_time":1320000000000,"state":"active","ping":68},{"user_id":341,"name":"hoodwink00‚ù§","steam_id":76561198133869796,"connected_time":2479000000000,"state":"active","ping":86},{"user_id":371,"name":"xiii","steam_id":76561198079416036,"connected_time":754000000000,"state":"active","ping":37},{"user_id":342,"name":"stardust","steam_id":76561198413930183,"connected_time":2371000000000,"state":"active","ping":58},{"user_id":356,"name":"Veir≈´ Viseris","steam_id":76561197989857176,"connected_time":1787000000000,"state":"active","ping":168},{"user_id":353,"name":"Meringue","steam_id":76561198067899943,"connected_time":1805000000000,"state":"spawning","ping":175},{"user_id":346,"name":"That Guy","steam_id":76561198798973444,"connected_time":2299000000000,"state":"active","ping":69},{"user_id":335,"name":"Howard Hamlin","steam_id":76561198881039861,"connected_time":2839000000000,"state":"active","ping":50},{"user_id":366,"name":"Space","steam_id":76561198350489754,"connected_time":905000000000,"state":"active","ping":45},{"user_id":367,"name":"CrankShaft","steam_id":76561197970750813,"connected_time":891000000000,"state":"active","ping":45},{"user_id":333,"name":"Tommy Pickles (Very Cool)","steam_id":76561198391261463,"connected_time":3084000000000,"state":"active","ping":63},{"user_id":370,"name":"juhg, koop","steam_id":76561198388955908,"connected_time":776000000000,"state":"active","ping":61},{"user_id":265,"name":"vv","steam_id":76561198134813102,"connected_time":6911000000000,"state":"active","ping":55},{"user_id":328,"name":"Argo","steam_id":76561198353725622,"connected_time":3448000000000,"state":"active","ping":78},{"user_id":373,"name":"hard2talkshitwithnofuckingteeth","steam_id":76561198194471251,"connected_time":679000000000,"state":"active","ping":60},{"user_id":355,"name":"white ray","steam_id":76561198026664629,"connected_time":1795000000000,"state":"active","ping":48},{"user_id":374,"name":"snail","steam_id":76561198312155722,"connected_time":381000000000,"state":"active","ping":171},{"user_id":315,"name":"roller","steam_id":76561198091233439,"connected_time":3942000000000,"state":"active","ping":46},{"user_id":325,"name":"ChefMike","steam_id":76561198414034069,"connected_time":3642000000000,"state":"active","ping":58},{"user_id":363,"name":"DatBlodGud","steam_id":76561198867897841,"connected_time":1035000000000,"state":"active","ping":88}]},{"server_id":106,"name":"Uncletopia | Chicago | 2 | All Maps","name_short":"chi-2","host":"chi-1.us.uncletopia.com","port":27025,"enabled":true,"region":"us-central","cc":"us","latitude":41.881832,"longitude":-87.62318,"reserved":0,"last_update":"0001-01-01T00:00:00Z","name_a2s":"Uncletopia | Chicago | 2 | All Maps","protocol":17,"map":"pl_barnblitz","folder":"tf","game":"Team Fortress","app_id":440,"player_count":24,"max_players":24,"Bots":0,"server_type":"Dedicated","server_os":"Linux","password":true,"vac":true,"version":"7757534","steam_id":85568392924469985,"keywords":["nocrits","nodmgspread","payload","uncletopia"],"game_id":440,"stv_port":27026,"stv_name":"Uncletopia | Chicago | 2 | All Maps | STV","players":[{"user_id":102,"name":"Davy Jones","steam_id":76561198956823243,"connected_time":1443000000000,"state":"active","ping":61},{"user_id":91,"name":"Taiga","steam_id":76561198400952853,"connected_time":2321000000000,"state":"active","ping":66},{"user_id":95,"name":"james may","steam_id":76561198043857339,"connected_time":2252000000000,"state":"active","ping":105},{"user_id":101,"name":"Floating Peasant","steam_id":76561198000183671,"connected_time":1509000000000,"state":"active","ping":58},{"user_id":98,"name":"Shrek I Guess","steam_id":76561198152587680,"connected_time":1765000000000,"state":"active","ping":99},{"user_id":117,"name":"Chirox","steam_id":76561198034516923,"connected_time":779000000000,"state":"active","ping":47},{"user_id":94,"name":"Antknee","steam_id":76561198263793809,"connected_time":2274000000000,"state":"active","ping":73},{"user_id":114,"name":"team fortress","steam_id":76561198115443354,"connected_time":1102000000000,"state":"active","ping":49},{"user_id":92,"name":"Shuual","steam_id":76561198004395256,"connected_time":2313000000000,"state":"active","ping":84},{"user_id":115,"name":"‚ñ≤‚ñº‚ñ≤ Paul Atreideeznuts","steam_id":76561198015714075,"connected_time":1080000000000,"state":"active","ping":84},{"user_id":122,"name":"Ham Radio","steam_id":76561198030613297,"connected_time":424000000000,"state":"active","ping":72},{"user_id":106,"name":"Yeagle","steam_id":76561199086620299,"connected_time":1258000000000,"state":"active","ping":75},{"user_id":108,"name":"Cyan","steam_id":76561198090433914,"connected_time":1182000000000,"state":"active","ping":92},{"user_id":85,"name":"gorf?","steam_id":76561198142286417,"connected_time":2400000000000,"state":"active","ping":57},{"user_id":77,"name":"pepdgpr mang","steam_id":76561198241438086,"connected_time":3221000000000,"state":"active","ping":51},{"user_id":109,"name":"Your Local NPR Station","steam_id":76561198143830279,"connected_time":1171000000000,"state":"active","ping":59},{"user_id":89,"name":"Raine","steam_id":76561199081937889,"connected_time":2380000000000,"state":"active","ping":72},{"user_id":71,"name":"Bullwinkle J. Moose","steam_id":76561198075977196,"connected_time":3718000000000,"state":"active","ping":79},{"user_id":120,"name":"ROGUE-PLANET","steam_id":76561198116023052,"connected_time":653000000000,"state":"active","ping":74},{"user_id":82,"name":"Dude Named Bob","steam_id":76561198310448093,"connected_time":2732000000000,"state":"active","ping":51},{"user_id":119,"name":"KingSteve42","steam_id":76561198409455888,"connected_time":673000000000,"state":"active","ping":107},{"user_id":111,"name":"Vacation","steam_id":76561198348081238,"connected_time":1161000000000,"state":"active","ping":146},{"user_id":112,"name":"cassius","steam_id":76561198203851303,"connected_time":1124000000000,"state":"active","ping":80},{"user_id":121,"name":"loyaldandan0764","steam_id":76561199231020424,"connected_time":646000000000,"state":"active","ping":106}]},{"server_id":402,"name":"Uncletopia | Chicago | 3 | All Maps","name_short":"chi-3","host":"chi-1.us.uncletopia.com","port":27035,"enabled":true,"region":"us-central","cc":"us","latitude":41.881832,"longitude":-87.62318,"reserved":0,"last_update":"0001-01-01T00:00:00Z","name_a2s":"Uncletopia | Chicago | 3 | All Maps","protocol":17,"map":"koth_cascade","folder":"tf","game":"Team Fortress","app_id":440,"player_count":24,"max_players":24,"Bots":0,"server_type":"Dedicated","server_os":"Linux","password":true,"vac":true,"version":"7757534","steam_id":85568392924515191,"keywords":["cp","nocrits","nodmgspread","uncletopia"],"game_id":440,"stv_port":27036,"stv_name":"Uncletopia | Chicago | 3 | All Maps | STV","players":[{"user_id":7,"name":"The World's Softest Sandwich","steam_id":76561198015577707,"connected_time":1985000000000,"state":"active","ping":76},{"user_id":42,"name":"noodlehairronaldoprime","steam_id":76561199471954402,"connected_time":293000000000,"state":"active","ping":144},{"user_id":9,"name":"Fresh Lychee","steam_id":76561198045399559,"connected_time":1531000000000,"state":"active","ping":52},{"user_id":38,"name":"Red/Blue Weezer CD#35","steam_id":76561199008044410,"connected_time":460000000000,"state":"active","ping":75},{"user_id":24,"name":"Doctor Bear  ï ‚Ä¢·¥•‚Ä¢ î","steam_id":76561197968103161,"connected_time":668000000000,"state":"active","ping":64},{"user_id":15,"name":"iluvtopoo","steam_id":76561198843522498,"connected_time":903000000000,"state":"active","ping":110},{"user_id":27,"name":"bird doctor","steam_id":76561199144340440,"connected_time":547000000000,"state":"active","ping":64},{"user_id":14,"name":"wiffel biffel","steam_id":76561198041670957,"connected_time":930000000000,"state":"active","ping":83},{"user_id":17,"name":"Foreskin Reattachment service","steam_id":76561198060342804,"connected_time":802000000000,"state":"active","ping":74},{"user_id":44,"name":"apricity_a","steam_id":76561198202273263,"connected_time":189000000000,"state":"active","ping":41},{"user_id":46,"name":"why do i play video games","steam_id":76561199476816590,"connected_time":30000000000,"state":"active","ping":197},{"user_id":22,"name":"Herobrineclone7","steam_id":76561199193733613,"connected_time":715000000000,"state":"active","ping":86},{"user_id":40,"name":"DangerVanDam","steam_id":76561198131655653,"connected_time":379000000000,"state":"active","ping":137},{"user_id":26,"name":"kirbo","steam_id":76561198057895955,"connected_time":611000000000,"state":"active","ping":64},{"user_id":28,"name":"Fieldrook","steam_id":76561198799005478,"connected_time":529000000000,"state":"active","ping":82},{"user_id":29,"name":"heimdall","steam_id":76561198069380992,"connected_time":519000000000,"state":"active","ping":92},{"user_id":47,"name":"Pennis the Menace","steam_id":76561198254878037,"connected_time":6000000000,"state":"spawning","ping":113},{"user_id":31,"name":"rickle the pick hog","steam_id":76561198165299077,"connected_time":506000000000,"state":"active","ping":65},{"user_id":32,"name":"Lyra","steam_id":76561199013116388,"connected_time":494000000000,"state":"active","ping":73},{"user_id":45,"name":"Copter_Boy","steam_id":76561198322921312,"connected_time":72000000000,"state":"active","ping":70},{"user_id":34,"name":"Green/Black Weezer CD#36","steam_id":76561198851520459,"connected_time":486000000000,"state":"active","ping":75},{"user_id":35,"name":"PzVIIIMaus","steam_id":76561198346559365,"connected_time":478000000000,"state":"active","ping":48},{"user_id":36,"name":"Snapdragron","steam_id":76561198348485302,"connected_time":476000000000,"state":"active","ping":86},{"user_id":41,"name":"jzplr üé∑üêõ","steam_id":76561198091901520,"connected_time":371000000000,"state":"active","ping":64}]},{"server_id":403,"name":"Uncletopia | Chicago | 4 | All Maps","name_short":"chi-4","host":"chi-1.us.uncletopia.com","port":27045,"enabled":true,"region":"us-central","cc":"us","latitude":41.881832,"longitude":-87.62318,"reserved":0,"last_update":"0001-01-01T00:00:00Z","name_a2s":"Uncletopia | Chicago | 4 | All Maps","protocol":17,"map":"pl_barnblitz","folder":"tf","game":"Team Fortress","app_id":440,"player_count":24,"max_players":24,"Bots":0,"server_type":"Dedicated","server_os":"Linux","password":true,"vac":true,"version":"7757534","steam_id":85568392924515193,"keywords":["nocrits","nodmgspread","payload","uncletopia"],"game_id":440,"stv_port":27046,"stv_name":"Uncletopia | Chicago | 4 | All Maps | STV","players":[{"user_id":479,"name":"crack crisis","steam_id":76561198332519926,"connected_time":328000000000,"state":"active","ping":84},{"user_id":198,"name":"dog","steam_id":76561198263873491,"connected_time":8372000000000,"state":"active","ping":36},{"user_id":305,"name":"girlboss","steam_id":76561197989019617,"connected_time":6880000000000,"state":"active","ping":46},{"user_id":472,"name":"abed","steam_id":76561198072856511,"connected_time":903000000000,"state":"active","ping":98},{"user_id":450,"name":"{FITH}‚Ñ¢ SmittyWun {FM}","steam_id":76561198079531938,"connected_time":2212000000000,"state":"active","ping":72},{"user_id":449,"name":"ShadBad","steam_id":76561198248287390,"connected_time":2501000000000,"state":"active","ping":126},{"user_id":482,"name":"lego star wars on the psp","steam_id":76561198148014773,"connected_time":266000000000,"state":"active","ping":72},{"user_id":17,"name":"tacofever","steam_id":76561198010966507,"connected_time":12464000000000,"state":"active","ping":104},{"user_id":483,"name":"animis","steam_id":76561198990148390,"connected_time":265000000000,"state":"active","ping":78},{"user_id":485,"name":"BigOrca54","steam_id":76561198181360271,"connected_time":133000000000,"state":"active","ping":56},{"user_id":480,"name":"Troll","steam_id":76561198123100453,"connected_time":311000000000,"state":"active","ping":70},{"user_id":453,"name":"Dreck the Opossum","steam_id":76561198029411841,"connected_time":2166000000000,"state":"active","ping":67},{"user_id":454,"name":"Bren","steam_id":76561198093573384,"connected_time":2160000000000,"state":"active","ping":60},{"user_id":474,"name":"conscripted monk","steam_id":76561199029246232,"connected_time":733000000000,"state":"active","ping":60},{"user_id":468,"name":"suns","steam_id":76561198079583278,"connected_time":1056000000000,"state":"active","ping":60},{"user_id":436,"name":"JACOB","steam_id":76561198211874895,"connected_time":4517000000000,"state":"active","ping":78},{"user_id":478,"name":"Acro Banwagon","steam_id":76561198092451804,"connected_time":600000000000,"state":"active","ping":56},{"user_id":428,"name":"Neo Kojiro","steam_id":76561198000967076,"connected_time":4767000000000,"state":"active","ping":99},{"user_id":481,"name":"ANDreas","steam_id":76561198021281197,"connected_time":300000000000,"state":"active","ping":154},{"user_id":469,"name":"MrCalmL.I","steam_id":76561198966598137,"connected_time":1033000000000,"state":"active","ping":73},{"user_id":457,"name":"THE KING","steam_id":76561198066174041,"connected_time":1623000000000,"state":"active","ping":62},{"user_id":484,"name":"Quansen","steam_id":76561198151594550,"connected_time":262000000000,"state":"active","ping":56},{"user_id":240,"name":"hideyochest","steam_id":76561198090366059,"connected_time":7731000000000,"state":"active","ping":63},{"user_id":471,"name":"brett","steam_id":76561198799740059,"connected_time":1021000000000,"state":"active","ping":77}]},{"server_id":36,"name":"Uncletopia | Chicago | 5 | All Maps","name_short":"chi-5","host":"chi-2.us.uncletopia.com","port":27015,"enabled":true,"region":"us-central","cc":"us","latitude":41.881832,"longitude":-87.62318,"reserved":0,"last_update":"0001-01-01T00:00:00Z","name_a2s":"Uncletopia | Chicago | 5 | All Maps","protocol":17,"map":"koth_cascade","folder":"tf","game":"Team Fortress","app_id":440,"player_count":0,"max_players":24,"Bots":0,"server_type":"Dedicated","server_os":"Linux","password":true,"vac":true,"version":"7757534","steam_id":85568392924866362,"keywords":["cp","nocrits","nodmgspread","uncletopia"],"game_id":440,"stv_port":27016,"stv_name":"Uncletopia | Chicago | 5 | All Maps | STV","players":null},{"server_id":37,"name":"Uncletopia | Chicago | 6 | All Maps","name_short":"chi-6","host":"chi-2.us.uncletopia.com","port":27025,"enabled":true,"region":"us-central","cc":"us","latitude":41.881832,"longitude":-87.62318,"reserved":0,"last_update":"0001-01-01T00:00:00Z","name_a2s":"Uncletopia | Chicago | 6 | All Maps","protocol":17,"map":"pl_pier","folder":"tf","game":"Team Fortress","app_id":440,"player_count":24,"max_players":24,"Bots":0,"server_type":"Dedicated","server_os":"Linux","password":true,"vac":true,"version":"7757534","steam_id":85568392924866363,"keywords":["nocrits","nodmgspread","payload","uncletopia"],"game_id":440,"stv_port":27026,"stv_name":"Uncletopia | Chicago | 6 | All Maps | STV","players":[{"user_id":52,"name":"CINDER","steam_id":76561198928210978,"connected_time":1617000000000,"state":"active","ping":64},{"user_id":69,"name":"Mr. Tickle","steam_id":76561198126684647,"connected_time":268000000000,"state":"active","ping":59},{"user_id":51,"name":"bash -lc ./asshat.sh","steam_id":76561198004584315,"connected_time":1631000000000,"state":"active","ping":66},{"user_id":17,"name":"Robo Intern","steam_id":76561199067098696,"connected_time":3396000000000,"state":"active","ping":87},{"user_id":67,"name":"TynMaiden","steam_id":76561198847327488,"connected_time":611000000000,"state":"active","ping":79},{"user_id":56,"name":"Buff Wizard","steam_id":76561198151397667,"connected_time":1579000000000,"state":"active","ping":110},{"user_id":68,"name":"canners","steam_id":76561198103496593,"connected_time":604000000000,"state":"active","ping":61},{"user_id":62,"name":"Sandwich Thief","steam_id":76561198094928735,"connected_time":1432000000000,"state":"active","ping":71},{"user_id":57,"name":"Orc peon","steam_id":76561198208567789,"connected_time":1573000000000,"state":"active","ping":80},{"user_id":24,"name":"The Sydney Sleeper Itself","steam_id":76561198180251763,"connected_time":2802000000000,"state":"active","ping":68},{"user_id":25,"name":"N-Word ScissorHands","steam_id":76561198054353610,"connected_time":2784000000000,"state":"active","ping":102},{"user_id":26,"name":"Randombrawl","steam_id":76561198045020108,"connected_time":2760000000000,"state":"active","ping":90},{"user_id":70,"name":"The Iron Lung","steam_id":76561198993519255,"connected_time":254000000000,"state":"active","ping":69},{"user_id":37,"name":"Moop","steam_id":76561198096984681,"connected_time":2519000000000,"state":"active","ping":87},{"user_id":29,"name":"Schwagz","steam_id":76561198038330649,"connected_time":2737000000000,"state":"active","ping":81},{"user_id":47,"name":"Zero","steam_id":76561199383267408,"connected_time":1801000000000,"state":"active","ping":76},{"user_id":66,"name":"popfulmail","steam_id":76561198865971290,"connected_time":653000000000,"state":"active","ping":87},{"user_id":63,"name":"Dr.KombatPhD.ttv","steam_id":76561198263847667,"connected_time":1291000000000,"state":"active","ping":62},{"user_id":34,"name":"raccoonclint","steam_id":76561199073295092,"connected_time":2570000000000,"state":"active","ping":120},{"user_id":35,"name":"Ann1ck","steam_id":76561198361129190,"connected_time":2566000000000,"state":"active","ping":56},{"user_id":60,"name":"flamingcookies","steam_id":76561198280864779,"connected_time":1474000000000,"state":"active","ping":76},{"user_id":64,"name":"SkyCinnamon","steam_id":76561198049469563,"connected_time":1265000000000,"state":"active","ping":74},{"user_id":61,"name":"Microsoft Excel","steam_id":76561198036504161,"connected_time":1456000000000,"state":"active","ping":135},{"user_id":65,"name":"‚ù§‚ô°ÔΩ•ÔæüBubblesÔΩ•Ôæü‚ô°‚ù§","steam_id":76561198041057042,"connected_time":1157000000000,"state":"active","ping":62}]},{"server_id":38,"name":"Uncletopia | Chicago | 7 | Stopwatch Beta","name_short":"chi-7","host":"chi-2.us.uncletopia.com","port":27035,"enabled":true,"region":"us-central","cc":"us","latitude":41.881832,"longitude":-87.62318,"reserved":0,"last_update":"0001-01-01T00:00:00Z","name_a2s":"Uncletopia | Chicago | 7 | Stopwatch Beta","protocol":17,"map":"pl_barnblitz","folder":"tf","game":"Team Fortress","app_id":440,"player_count":0,"max_players":24,"Bots":0,"server_type":"Dedicated","server_os":"Linux","password":true,"vac":true,"version":"7757534","steam_id":85568392924866364,"keywords":["nocrits","nodmgspread","payload","uncletopia"],"game_id":440,"stv_port":27036,"stv_name":"Uncletopia | Chicago | 7 | Stopwatch Beta | STV","players":null},{"server_id":39,"name":"Uncletopia | Chicago | 8 | Community","name_short":"chi-8","host":"chi-2.us.uncletopia.com","port":27045,"enabled":true,"region":"us-central","cc":"us","latitude":41.881832,"longitude":-87.62318,"reserved":0,"last_update":"0001-01-01T00:00:00Z","name_a2s":"Uncletopia | Chicago | 8 | Community","protocol":17,"map":"koth_cascade","folder":"tf","game":"Team Fortress","app_id":440,"player_count":0,"max_players":24,"Bots":0,"server_type":"Dedicated","server_os":"Linux","password":true,"vac":true,"version":"7757534","steam_id":85568392924866365,"keywords":["cp","nocrits","nodmgspread","uncletopia"],"game_id":440,"stv_port":27046,"stv_name":"Uncletopia | Chicago | 8 | Community | STV","players":null},{"server_id":8,"name":"Uncletopia | Dallas | 1 | All Maps","name_short":"dal-1","host":"dal-1.us.uncletopia.com","port":27015,"enabled":true,"region":"us-central","cc":"us","latitude":32.779167,"longitude":-96.80889,"reserved":0,"last_update":"0001-01-01T00:00:00Z","name_a2s":"Uncletopia | Dallas | 1 | All Maps","protocol":17,"map":"pl_pier","folder":"tf","game":"Team Fortress","app_id":440,"player_count":24,"max_players":24,"Bots":0,"server_type":"Dedicated","server_os":"Linux","password":true,"vac":true,"version":"7757534","steam_id":85568392924469986,"keywords":["nocrits","nodmgspread","payload","uncletopia"],"game_id":440,"stv_port":27016,"stv_name":"Uncletopia | Dallas | 1 | All Maps | STV","players":[{"user_id":168,"name":"yaldabaoth","steam_id":76561198084606869,"connected_time":176000000000,"state":"active","ping":74},{"user_id":169,"name":"Blue Protogen - 001198","steam_id":76561198145791867,"connected_time":169000000000,"state":"active","ping":78},{"user_id":165,"name":"gamerlegend47","steam_id":76561198122776598,"connected_time":215000000000,"state":"active","ping":69},{"user_id":167,"name":"NYT","steam_id":76561198041151763,"connected_time":202000000000,"state":"active","ping":90},{"user_id":131,"name":"Agent Q","steam_id":76561198830829003,"connected_time":3141000000000,"state":"active","ping":94},{"user_id":150,"name":"dicksnip","steam_id":76561198356515396,"connected_time":1881000000000,"state":"active","ping":54},{"user_id":171,"name":"poey","steam_id":76561198865346767,"connected_time":163000000000,"state":"active","ping":66},{"user_id":172,"name":"Darkpuppy","steam_id":76561199054246630,"connected_time":146000000000,"state":"active","ping":54},{"user_id":151,"name":"i live in your attic","steam_id":76561198796525948,"connected_time":1756000000000,"state":"active","ping":67},{"user_id":144,"name":"creeeeeee","steam_id":76561198392539722,"connected_time":2760000000000,"state":"active","ping":80},{"user_id":173,"name":"Recursive Gamer","steam_id":76561198042102952,"connected_time":141000000000,"state":"active","ping":89},{"user_id":154,"name":"CEO of Great Value Rootbeer","steam_id":76561198255823904,"connected_time":1408000000000,"state":"active","ping":80},{"user_id":174,"name":"Crazy Insane Proboscis Monkey","steam_id":76561198061011176,"connected_time":139000000000,"state":"active","ping":95},{"user_id":175,"name":"THE Bucket Man","steam_id":76561198851816161,"connected_time":127000000000,"state":"active","ping":50},{"user_id":156,"name":"Meth Goblin","steam_id":76561198086355221,"connected_time":1402000000000,"state":"active","ping":62},{"user_id":146,"name":"Travis","steam_id":76561198121819162,"connected_time":2371000000000,"state":"active","ping":59},{"user_id":152,"name":"Ambrose Kenny-Smith (Real)","steam_id":76561198822069026,"connected_time":1704000000000,"state":"active","ping":106},{"user_id":148,"name":"beans","steam_id":76561199082781884,"connected_time":2056000000000,"state":"active","ping":69},{"user_id":176,"name":"ÔΩÇÔºé Ôºç","steam_id":76561199058344175,"connected_time":123000000000,"state":"active","ping":107},{"user_id":181,"name":"2fort twerker domination","steam_id":76561198381841894,"connected_time":41000000000,"state":"active","ping":97},{"user_id":160,"name":"rumes","steam_id":76561198349219467,"connected_time":1087000000000,"state":"active","ping":72},{"user_id":161,"name":"luree","steam_id":76561198799737331,"connected_time":816000000000,"state":"active","ping":99},{"user_id":178,"name":"Merekitten","steam_id":76561198066307477,"connected_time":87000000000,"state":"active","ping":92},{"user_id":179,"name":"autistic enby","steam_id":76561198440145948,"connected_time":86000000000,"state":"active","ping":83}]},{"server_id":108,"name":"Uncletopia | Dallas | 2 | All Maps","name_short":"dal-2","host":"dal-1.us.uncletopia.com","port":27025,"enabled":true,"region":"us-central","cc":"us","latitude":32.779167,"longitude":-96.80889,"reserved":0,"last_update":"0001-01-01T00:00:00Z","name_a2s":"Uncletopia | Dallas | 2 | All Maps","protocol":17,"map":"pl_barnblitz","folder":"tf","game":"Team Fortress","app_id":440,"player_count":23,"max_players":24,"Bots":0,"server_type":"Dedicated","server_os":"Linux","password":true,"vac":true,"version":"7757534","steam_id":85568392924469988,"keywords":["nocrits","nodmgspread","payload","uncletopia"],"game_id":440,"stv_port":27026,"stv_name":"Uncletopia | Dallas | 2 | All Maps | STV","players":[{"user_id":100,"name":"Tejo","steam_id":76561198200617911,"connected_time":1524000000000,"state":"active","ping":49},{"user_id":98,"name":"sosu","steam_id":76561198012675381,"connected_time":1600000000000,"state":"active","ping":75},{"user_id":89,"name":"Jared In Target","steam_id":76561198372449718,"connected_time":2213000000000,"state":"active","ping":40},{"user_id":103,"name":"Vato Tostado","steam_id":76561197970450546,"connected_time":523000000000,"state":"active","ping":121},{"user_id":104,"name":"Bergmann MP18","steam_id":76561198218417512,"connected_time":460000000000,"state":"active","ping":65},{"user_id":91,"name":"CreepaZoid08","steam_id":76561199077199356,"connected_time":2149000000000,"state":"active","ping":70},{"user_id":70,"name":"bo scrungulus","steam_id":76561198038036122,"connected_time":3427000000000,"state":"active","ping":75},{"user_id":107,"name":"Zombiehunter11","steam_id":76561198237517830,"connected_time":155000000000,"state":"active","ping":90},{"user_id":85,"name":"CR3EP","steam_id":76561198071554862,"connected_time":2583000000000,"state":"active","ping":90},{"user_id":102,"name":"Poof","steam_id":76561199025247812,"connected_time":596000000000,"state":"active","ping":65},{"user_id":16,"name":"TheGhostThatWas","steam_id":76561198055836483,"connected_time":6331000000000,"state":"active","ping":79},{"user_id":48,"name":"CyberBeans","steam_id":76561198239042642,"connected_time":4979000000000,"state":"active","ping":57},{"user_id":93,"name":"‚ØÅ Ramiel","steam_id":76561198329087915,"connected_time":2038000000000,"state":"active","ping":79},{"user_id":88,"name":"inzang","steam_id":76561198088318074,"connected_time":2368000000000,"state":"active","ping":55},{"user_id":105,"name":"john","steam_id":76561198850447852,"connected_time":446000000000,"state":"active","ping":76},{"user_id":60,"name":"Fishstall","steam_id":76561198038126034,"connected_time":3998000000000,"state":"active","ping":65},{"user_id":84,"name":"Donnie Oats","steam_id":76561198091111592,"connected_time":2600000000000,"state":"active","ping":66},{"user_id":83,"name":"ferretsock","steam_id":76561198209927431,"connected_time":2624000000000,"state":"active","ping":205},{"user_id":97,"name":"the smiling zombie","steam_id":76561199246231090,"connected_time":1611000000000,"state":"active","ping":82},{"user_id":106,"name":"yitz","steam_id":76561198375575841,"connected_time":440000000000,"state":"active","ping":75},{"user_id":68,"name":"Rin \"Hindwing\" Redtail","steam_id":76561199074865638,"connected_time":3544000000000,"state":"active","ping":51},{"user_id":95,"name":"mnmtortise","steam_id":76561198310540900,"connected_time":1801000000000,"state":"active","ping":91},{"user_id":96,"name":"Tamanugs","steam_id":76561198102045833,"connected_time":1774000000000,"state":"active","ping":104}]},{"server_id":5,"name":"Uncletopia | Frankfurt | 1 | All Maps","name_short":"frk-1","host":"frk-1.de.uncletopia.com","port":27015,"enabled":true,"region":"eu","cc":"de","latitude":50.110924,"longitude":8.682127,"reserved":0,"last_update":"0001-01-01T00:00:00Z","name_a2s":"Uncletopia | Frankfurt | 1 | All Maps","protocol":17,"map":"koth_viaduct","folder":"tf","game":"Team Fortress","app_id":440,"player_count":0,"max_players":24,"Bots":0,"server_type":"Dedicated","server_os":"Linux","password":true,"vac":true,"version":"7757534","steam_id":85568392924469989,"keywords":["cp","nocrits","nodmgspread","uncletopia"],"game_id":440,"stv_port":27016,"stv_name":"Uncletopia | Frankfurt | 1 | All Maps | STV","players":null},{"server_id":110,"name":"Uncletopia | Frankfurt | 2 | All Maps","name_short":"frk-2","host":"frk-1.de.uncletopia.com","port":27025,"enabled":true,"region":"eu","cc":"de","latitude":50.110924,"longitude":8.682127,"reserved":0,"last_update":"0001-01-01T00:00:00Z","name_a2s":"Uncletopia | Frankfurt | 2 | All Maps","protocol":17,"map":"pl_borneo","folder":"tf","game":"Team Fortress","app_id":440,"player_count":24,"max_players":24,"Bots":0,"server_type":"Dedicated","server_os":"Linux","password":true,"vac":true,"version":"7757534","steam_id":85568392924469990,"keywords":["nocrits","nodmgspread","payload","uncletopia"],"game_id":440,"stv_port":27026,"stv_name":"Uncletopia | Frankfurt | 2 | All Maps | STV","players":[{"user_id":318,"name":"padillacampos","steam_id":76561198161923970,"connected_time":1897000000000,"state":"active","ping":78},{"user_id":342,"name":"Moonlightexel","steam_id":76561198262044897,"connected_time":1003000000000,"state":"active","ping":93},{"user_id":351,"name":"The real Slim Shady","steam_id":76561198001377076,"connected_time":211000000000,"state":"active","ping":73},{"user_id":348,"name":"kuspsa","steam_id":76561198183767407,"connected_time":245000000000,"state":"active","ping":51},{"user_id":345,"name":"supercharger832","steam_id":76561198871408515,"connected_time":695000000000,"state":"active","ping":57},{"user_id":321,"name":"Stummelschwanz-Zwergtyrann","steam_id":76561198045784485,"connected_time":1836000000000,"state":"active","ping":62},{"user_id":347,"name":"malcolm sex","steam_id":76561198133532980,"connected_time":618000000000,"state":"active","ping":60},{"user_id":298,"name":"SpilledMilk","steam_id":76561198174123971,"connected_time":4308000000000,"state":"active","ping":55},{"user_id":310,"name":"Economic crisis","steam_id":76561198063562843,"connected_time":2854000000000,"state":"active","ping":52},{"user_id":324,"name":"doe","steam_id":76561198058432834,"connected_time":1657000000000,"state":"active","ping":48},{"user_id":333,"name":"Grillem Dafoe","steam_id":76561198306874574,"connected_time":1456000000000,"state":"active","ping":78},{"user_id":332,"name":"gagalak","steam_id":76561198089979108,"connected_time":1483000000000,"state":"active","ping":90},{"user_id":346,"name":"Giovine Killjoy","steam_id":76561198059375315,"connected_time":687000000000,"state":"active","ping":69},{"user_id":335,"name":"peter dangling","steam_id":76561198864327475,"connected_time":1375000000000,"state":"active","ping":47},{"user_id":284,"name":"Spieller","steam_id":76561198057197847,"connected_time":4969000000000,"state":"active","ping":75},{"user_id":329,"name":"eatmysword_","steam_id":76561199063665709,"connected_time":1605000000000,"state":"active","ping":92},{"user_id":341,"name":"„ÉÜ„Ç§„É´„Çπ","steam_id":76561198022403271,"connected_time":1249000000000,"state":"active","ping":46},{"user_id":343,"name":"Bonduelle#Savetf2","steam_id":76561199041992422,"connected_time":876000000000,"state":"active","ping":145},{"user_id":344,"name":"Rafalexis","steam_id":76561198055792457,"connected_time":740000000000,"state":"active","ping":70},{"user_id":305,"name":"muZ","steam_id":76561198060145190,"connected_time":4059000000000,"state":"active","ping":51},{"user_id":330,"name":"Der er et s√∏m igennem mit ben","steam_id":76561198204171871,"connected_time":1579000000000,"state":"active","ping":92},{"user_id":293,"name":"Ixsus\u003c3","steam_id":76561198094756869,"connected_time":4559000000000,"state":"active","ping":58},{"user_id":280,"name":"Pacanaz","steam_id":76561198011514552,"connected_time":5106000000000,"state":"active","ping":77},{"user_id":352,"name":"Pepegi","steam_id":76561198001230113,"connected_time":14000000000,"state":"active","ping":77}]},{"server_id":308,"name":"Uncletopia | Frankfurt | 3 | All Maps","name_short":"frk-3","host":"frk-1.de.uncletopia.com","port":27035,"enabled":true,"region":"eu","cc":"de","latitude":50.110924,"longitude":8.682127,"reserved":0,"last_update":"0001-01-01T00:00:00Z","name_a2s":"Uncletopia | Frankfurt | 3 | All Maps","protocol":17,"map":"pl_pier","folder":"tf","game":"Team Fortress","app_id":440,"player_count":24,"max_players":24,"Bots":0,"server_type":"Dedicated","server_os":"Linux","password":true,"vac":true,"version":"7757534","steam_id":85568392924504274,"keywords":["nocrits","nodmgspread","payload","uncletopia"],"game_id":440,"stv_port":27036,"stv_name":"Uncletopia | Frankfurt | 3 | All Maps | STV","players":[{"user_id":464,"name":"NeiroüëΩ·ó©YY ·í™·ó∞·ó©O","steam_id":76561198046743985,"connected_time":945000000000,"state":"active","ping":80},{"user_id":451,"name":"ArikMor","steam_id":76561199124472513,"connected_time":1198000000000,"state":"active","ping":291},{"user_id":462,"name":"DiabloTheCheater P.U.R.","steam_id":76561198834353101,"connected_time":962000000000,"state":"active","ping":85},{"user_id":440,"name":"AfroCookie","steam_id":76561198138362851,"connected_time":1455000000000,"state":"active","ping":99},{"user_id":465,"name":"Pirovideo","steam_id":76561198850819934,"connected_time":944000000000,"state":"active","ping":50},{"user_id":442,"name":"Ocelot9610","steam_id":76561199227216384,"connected_time":1407000000000,"state":"active","ping":72},{"user_id":474,"name":"RawGorilla","steam_id":76561198063654194,"connected_time":67000000000,"state":"active","ping":62},{"user_id":371,"name":"zem","steam_id":76561198864329072,"connected_time":5064000000000,"state":"active","ping":102},{"user_id":386,"name":"soopeli","steam_id":76561198003350251,"connected_time":4528000000000,"state":"active","ping":66},{"user_id":443,"name":"Zox","steam_id":76561198214232577,"connected_time":1384000000000,"state":"active","ping":55},{"user_id":454,"name":"‚ô• Hurt Me Plenty ‚ô• | P.U.R.","steam_id":76561198965998351,"connected_time":1139000000000,"state":"active","ping":83},{"user_id":444,"name":"wasto-/-‚Ñ¢","steam_id":76561198102888038,"connected_time":1382000000000,"state":"active","ping":53},{"user_id":468,"name":"Soupa De Coubes","steam_id":76561198166374399,"connected_time":417000000000,"state":"active","ping":89},{"user_id":466,"name":"ret4rd","steam_id":76561198219852745,"connected_time":944000000000,"state":"active","ping":66},{"user_id":409,"name":"mohemmedmokhter2005","steam_id":76561199197650506,"connected_time":3290000000000,"state":"active","ping":112},{"user_id":467,"name":"cult","steam_id":76561198188647690,"connected_time":576000000000,"state":"active","ping":64},{"user_id":470,"name":"Vytuzas","steam_id":76561198012868436,"connected_time":327000000000,"state":"active","ping":189},{"user_id":455,"name":"Solu","steam_id":76561198054652468,"connected_time":1119000000000,"state":"active","ping":50},{"user_id":469,"name":"yeldad","steam_id":76561198447264153,"connected_time":402000000000,"state":"active","ping":175},{"user_id":458,"name":"pumaschildkroete","steam_id":76561198044892630,"connected_time":1083000000000,"state":"active","ping":59},{"user_id":431,"name":"B√∂lverkr","steam_id":76561198037444331,"connected_time":2084000000000,"state":"active","ping":86},{"user_id":471,"name":"Kodutah","steam_id":76561198203405574,"connected_time":129000000000,"state":"active","ping":87},{"user_id":473,"name":"cl","steam_id":76561199436640904,"connected_time":87000000000,"state":"active","ping":77},{"user_id":406,"name":"G1","steam_id":76561199097753630,"connected_time":3678000000000,"state":"active","ping":73}]},{"server_id":309,"name":"Uncletopia | Frankfurt | 4 | All Maps","name_short":"frk-4","host":"frk-1.de.uncletopia.com","port":27045,"enabled":true,"region":"eu","cc":"de","latitude":50.110924,"longitude":8.682127,"reserved":0,"last_update":"0001-01-01T00:00:00Z","name_a2s":"Uncletopia | Frankfurt | 4 | All Maps","protocol":17,"map":"cp_5gorge","folder":"tf","game":"Team Fortress","app_id":440,"player_count":24,"max_players":24,"Bots":0,"server_type":"Dedicated","server_os":"Linux","password":true,"vac":true,"version":"7757534","steam_id":85568392924504275,"keywords":["cp","nocrits","nodmgspread","uncletopia"],"game_id":440,"stv_port":27046,"stv_name":"Uncletopia | Frankfurt | 4 | All Maps | STV","players":[{"user_id":325,"name":"barosans FR","steam_id":76561198038109099,"connected_time":2399000000000,"state":"active","ping":49},{"user_id":346,"name":"Metrocop","steam_id":76561198051046801,"connected_time":835000000000,"state":"active","ping":58},{"user_id":328,"name":"ILoveSalad","steam_id":76561199134152301,"connected_time":2293000000000,"state":"active","ping":118},{"user_id":334,"name":"LaserDisc_","steam_id":76561198048461220,"connected_time":2084000000000,"state":"active","ping":69},{"user_id":349,"name":"Hawke","steam_id":76561198054489600,"connected_time":649000000000,"state":"active","ping":69},{"user_id":329,"name":"‚®Ç","steam_id":76561198087800030,"connected_time":2278000000000,"state":"active","ping":83},{"user_id":337,"name":"hellrunner","steam_id":76561198205309695,"connected_time":2040000000000,"state":"active","ping":82},{"user_id":366,"name":"Henryhouse","steam_id":76561198035290490,"connected_time":280000000000,"state":"active","ping":180},{"user_id":369,"name":"laser","steam_id":76561198036030697,"connected_time":12000000000,"state":"spawning","ping":60},{"user_id":361,"name":"!","steam_id":76561198893062319,"connected_time":458000000000,"state":"active","ping":61},{"user_id":347,"name":"Sabotat","steam_id":76561198985732740,"connected_time":828000000000,"state":"active","ping":89},{"user_id":363,"name":"Salad's Warband","steam_id":76561198214089583,"connected_time":357000000000,"state":"active","ping":64},{"user_id":350,"name":"Dr. Cox","steam_id":76561198246629218,"connected_time":641000000000,"state":"active","ping":97},{"user_id":353,"name":"cat","steam_id":76561198832231975,"connected_time":546000000000,"state":"active","ping":87},{"user_id":276,"name":"biden blast","steam_id":76561198059699043,"connected_time":6258000000000,"state":"active","ping":76},{"user_id":323,"name":"Pingu","steam_id":76561198207966532,"connected_time":2637000000000,"state":"active","ping":70},{"user_id":354,"name":"BigRob","steam_id":76561198182956827,"connected_time":542000000000,"state":"active","ping":85},{"user_id":356,"name":"üåπVinceüêù","steam_id":76561198983122997,"connected_time":531000000000,"state":"active","ping":143},{"user_id":365,"name":"Myrmodion","steam_id":76561198054746247,"connected_time":316000000000,"state":"active","ping":58},{"user_id":340,"name":"bAdmon","steam_id":76561197961785793,"connected_time":2005000000000,"state":"active","ping":60},{"user_id":246,"name":"nidob","steam_id":76561198349648942,"connected_time":7963000000000,"state":"active","ping":89},{"user_id":265,"name":"J√∂rmungandr","steam_id":76561199121981748,"connected_time":6656000000000,"state":"active","ping":66},{"user_id":368,"name":"Burger King Dante","steam_id":76561198390314734,"connected_time":143000000000,"state":"active","ping":61},{"user_id":343,"name":"X45Y","steam_id":76561198112534025,"connected_time":1466000000000,"state":"active","ping":50}]},{"server_id":310,"name":"Uncletopia | Frankfurt | 5 | All Maps","name_short":"frk-5","host":"frk-1.de.uncletopia.com","port":27055,"enabled":true,"region":"eu","cc":"de","latitude":50.110924,"longitude":8.682127,"reserved":0,"last_update":"0001-01-01T00:00:00Z","name_a2s":"Uncletopia | Frankfurt | 5 | All Maps","protocol":17,"map":"cp_sunshine","folder":"tf","game":"Team Fortress","app_id":440,"player_count":22,"max_players":24,"Bots":0,"server_type":"Dedicated","server_os":"Linux","password":true,"vac":true,"version":"7757534","steam_id":85568392924504277,"keywords":["cp","nocrits","nodmgspread","uncletopia"],"game_id":440,"stv_port":27056,"stv_name":"Uncletopia | Frankfurt | 5 | All Maps | STV","players":[{"user_id":314,"name":"akela","steam_id":76561198122010232,"connected_time":3970000000000,"state":"active","ping":66},{"user_id":366,"name":"Piek","steam_id":76561199212421275,"connected_time":938000000000,"state":"active","ping":58},{"user_id":370,"name":"PIF","steam_id":76561197994712966,"connected_time":827000000000,"state":"active","ping":117},{"user_id":384,"name":"meatsoupcube","steam_id":76561198276802249,"connected_time":187000000000,"state":"active","ping":107},{"user_id":375,"name":"AddamsFamilyReject","steam_id":76561198035046824,"connected_time":631000000000,"state":"active","ping":70},{"user_id":380,"name":"Drekad√≥ttir","steam_id":76561198119979169,"connected_time":426000000000,"state":"active","ping":70},{"user_id":312,"name":"–ü–µ—Å –ü–∞—Ç—Ä–æ–Ω","steam_id":76561198273199378,"connected_time":3994000000000,"state":"active","ping":70},{"user_id":368,"name":"Endi","steam_id":76561198914938199,"connected_time":867000000000,"state":"active","ping":93},{"user_id":385,"name":"Setter Ball Gaul","steam_id":76561198130427881,"connected_time":61000000000,"state":"active","ping":152},{"user_id":377,"name":"Hasamnas","steam_id":76561199125038537,"connected_time":546000000000,"state":"active","ping":65},{"user_id":282,"name":"Ape","steam_id":76561198322703872,"connected_time":6238000000000,"state":"active","ping":61},{"user_id":373,"name":"emergency heelflip","steam_id":76561198030155915,"connected_time":742000000000,"state":"active","ping":72},{"user_id":376,"name":"Crayzo A.s.","steam_id":76561199049654752,"connected_time":626000000000,"state":"active","ping":80},{"user_id":348,"name":"punk rock loser","steam_id":76561199117720299,"connected_time":1998000000000,"state":"active","ping":55},{"user_id":378,"name":"Sparky","steam_id":76561198036754195,"connected_time":524000000000,"state":"active","ping":45},{"user_id":365,"name":"Gorlyscho","steam_id":76561198398371080,"connected_time":1088000000000,"state":"active","ping":89},{"user_id":379,"name":"Mop","steam_id":76561198822725169,"connected_time":502000000000,"state":"active","ping":64},{"user_id":381,"name":"Swift","steam_id":76561197998799889,"connected_time":407000000000,"state":"active","ping":60},{"user_id":269,"name":"cislastar","steam_id":76561198027202375,"connected_time":6931000000000,"state":"active","ping":78},{"user_id":336,"name":"Kurage","steam_id":76561198021221288,"connected_time":2503000000000,"state":"active","ping":60},{"user_id":323,"name":"zvekan","steam_id":76561198381101196,"connected_time":3508000000000,"state":"active","ping":56},{"user_id":357,"name":"Remyie","steam_id":76561198131031404,"connected_time":1618000000000,"state":"active","ping":105}]},{"server_id":311,"name":"Uncletopia | Frankfurt | 6 | All Maps","name_short":"frk-6","host":"frk-1.de.uncletopia.com","port":27065,"enabled":true,"region":"eu","cc":"de","latitude":50.110924,"longitude":8.682127,"reserved":0,"last_update":"0001-01-01T00:00:00Z","name_a2s":"Uncletopia | Frankfurt | 6 | All Maps","protocol":17,"map":"pl_swiftwater_final1","folder":"tf","game":"Team Fortress","app_id":440,"player_count":24,"max_players":24,"Bots":0,"server_type":"Dedicated","server_os":"Linux","password":true,"vac":true,"version":"7757534","steam_id":85568392924504278,"keywords":["nocrits","nodmgspread","payload","uncletopia"],"game_id":440,"stv_port":27066,"stv_name":"Uncletopia | Frankfurt | 6 | All Maps | STV","players":[{"user_id":150,"name":"Boki","steam_id":76561198044553351,"connected_time":3009000000000,"state":"active","ping":75},{"user_id":191,"name":"chidory41","steam_id":76561199404844130,"connected_time":561000000000,"state":"active","ping":84},{"user_id":176,"name":"chssdk","steam_id":76561198262231733,"connected_time":718000000000,"state":"active","ping":60},{"user_id":168,"name":"Fancy","steam_id":76561198350658462,"connected_time":1443000000000,"state":"active","ping":77},{"user_id":171,"name":"[waffles]","steam_id":76561198951206047,"connected_time":1183000000000,"state":"active","ping":81},{"user_id":194,"name":"makiverem","steam_id":76561198425866216,"connected_time":93000000000,"state":"active","ping":88},{"user_id":149,"name":".::[SerafeTTiN]::.","steam_id":76561198009471724,"connected_time":3012000000000,"state":"active","ping":90},{"user_id":162,"name":"funny yakuza man","steam_id":76561198800685443,"connected_time":2214000000000,"state":"active","ping":49},{"user_id":178,"name":"Seail_M","steam_id":76561198002405605,"connected_time":703000000000,"state":"active","ping":54},{"user_id":179,"name":"Wardruna96","steam_id":76561199057083828,"connected_time":693000000000,"state":"active","ping":79},{"user_id":180,"name":"LIGHTWEIGHT BABY","steam_id":76561198002761980,"connected_time":682000000000,"state":"active","ping":59},{"user_id":172,"name":"Sputnik","steam_id":76561198138660241,"connected_time":1165000000000,"state":"active","ping":89},{"user_id":175,"name":"Spooks","steam_id":76561199171471823,"connected_time":744000000000,"state":"active","ping":60},{"user_id":181,"name":"poo brother","steam_id":76561199368726811,"connected_time":668000000000,"state":"active","ping":88},{"user_id":156,"name":"TJ1212","steam_id":76561199013575313,"connected_time":2891000000000,"state":"active","ping":63},{"user_id":183,"name":"Sch","steam_id":76561198071341689,"connected_time":648000000000,"state":"active","ping":58},{"user_id":186,"name":"Pin","steam_id":76561198043820474,"connected_time":628000000000,"state":"active","ping":87},{"user_id":159,"name":"Kretur","steam_id":76561198161086266,"connected_time":2779000000000,"state":"active","ping":95},{"user_id":169,"name":"Soerlssoelss√∂en","steam_id":76561197993060585,"connected_time":1435000000000,"state":"active","ping":80},{"user_id":193,"name":"Ansari","steam_id":76561198074982971,"connected_time":158000000000,"state":"active","ping":57},{"user_id":189,"name":"ProfessorCrack","steam_id":76561199035475627,"connected_time":616000000000,"state":"active","ping":88},{"user_id":192,"name":"Alibi","steam_id":76561198061845595,"connected_time":484000000000,"state":"active","ping":65},{"user_id":187,"name":"Doriian","steam_id":76561198071438810,"connected_time":628000000000,"state":"active","ping":87},{"user_id":196,"name":"DrExplosive","steam_id":76561198063678579,"connected_time":4000000000,"state":"spawning","ping":70}]},{"server_id":23,"name":"Uncletopia | Frankfurt | 7 | Stopwatch Beta","name_short":"frk-7","host":"frk-1.de.uncletopia.com","port":27075,"enabled":true,"region":"eu","cc":"de","latitude":50.110924,"longitude":8.682127,"reserved":0,"last_update":"0001-01-01T00:00:00Z","name_a2s":"Uncletopia | Frankfurt | 7 | Stopwatch Beta","protocol":17,"map":"workshop/koth_clearcut_b15.ugc2107050255","folder":"tf","game":"Team Fortress","app_id":440,"player_count":0,"max_players":24,"Bots":0,"server_type":"Dedicated","server_os":"Linux","password":true,"vac":true,"version":"7757534","steam_id":85568392924742827,"keywords":["cp","nocrits","nodmgspread","uncletopia"],"game_id":440,"stv_port":27076,"stv_name":"Uncletopia | Frankfurt | 7 | Stopwatch Beta | STV","players":null},{"server_id":24,"name":"Uncletopia | Frankfurt | 8 | Community","name_short":"frk-8","host":"frk-1.de.uncletopia.com","port":27085,"enabled":true,"region":"eu","cc":"de","latitude":50.110924,"longitude":8.682127,"reserved":0,"last_update":"0001-01-01T00:00:00Z","name_a2s":"Uncletopia | Frankfurt | 8 | Community","protocol":17,"map":"workshop/cp_snowbase_b18.ugc2081770490","folder":"tf","game":"Team Fortress","app_id":440,"player_count":0,"max_players":24,"Bots":0,"server_type":"Dedicated","server_os":"Linux","password":true,"vac":true,"version":"7757534","steam_id":85568392924742828,"keywords":["cp","nocrits","nodmgspread","uncletopia"],"game_id":440,"stv_port":27086,"stv_name":"Uncletopia | Frankfurt | 8 | Community | STV","players":null},{"server_id":202,"name":"Uncletopia | Hong Kong | 1 | All Maps","name_short":"hgk-1","host":"hgk-1.hk.uncletopia.com","port":27015,"enabled":true,"region":"asia","cc":"hk","latitude":22.302711,"longitude":114.177216,"reserved":0,"last_update":"0001-01-01T00:00:00Z","name_a2s":"Uncletopia | Hong Kong | 1 | All Maps","protocol":17,"map":"cp_altitude","folder":"tf","game":"Team Fortress","app_id":440,"player_count":0,"max_players":24,"Bots":0,"server_type":"Dedicated","server_os":"Linux","password":true,"vac":true,"version":"7757534","steam_id":85568392924494504,"keywords":["cp","nocrits","nodmgspread","uncletopia"],"game_id":440,"stv_port":27016,"stv_name":"Uncletopia | Hong Kong | 1 | All Maps | STV","players":null},{"server_id":1,"name":"Uncletopia | Los Angeles | 1 | All Maps","name_short":"lax-1","host":"lax-1.us.uncletopia.com","port":27015,"enabled":true,"region":"us-west","cc":"us","latitude":33.94279,"longitude":-118.41004,"reserved":0,"last_update":"0001-01-01T00:00:00Z","name_a2s":"Uncletopia | Los Angeles | 1 | All Maps","protocol":17,"map":"koth_lakeside_final","folder":"tf","game":"Team Fortress","app_id":440,"player_count":0,"max_players":24,"Bots":0,"server_type":"Dedicated","server_os":"Linux","password":true,"vac":true,"version":"7757534","steam_id":85568392924469991,"keywords":["cp","nocrits","nodmgspread","uncletopia"],"game_id":440,"stv_port":27016,"stv_name":"Uncletopia | Los Angeles | 1 | All Maps | STV","players":null},{"server_id":112,"name":"Uncletopia | Los Angeles | 2 | All Maps","name_short":"lax-2","host":"lax-1.us.uncletopia.com","port":27025,"enabled":true,"region":"us-west","cc":"us","latitude":33.94279,"longitude":-118.41004,"reserved":0,"last_update":"0001-01-01T00:00:00Z","name_a2s":"Uncletopia | Los Angeles | 2 | All Maps","protocol":17,"map":"cp_snakewater_final1","folder":"tf","game":"Team Fortress","app_id":440,"player_count":0,"max_players":24,"Bots":0,"server_type":"Dedicated","server_os":"Linux","password":true,"vac":true,"version":"7757534","steam_id":85568392924469992,"keywords":["cp","nocrits","nodmgspread","uncletopia"],"game_id":440,"stv_port":27026,"stv_name":"Uncletopia | Los Angeles | 2 | All Maps | STV","players":null},{"server_id":324,"name":"Uncletopia | Los Angeles | 3 | All Maps","name_short":"lax-3","host":"lax-1.us.uncletopia.com","port":27035,"enabled":true,"region":"us-west","cc":"us","latitude":33.94279,"longitude":-118.41004,"reserved":0,"last_update":"0001-01-01T00:00:00Z","name_a2s":"Uncletopia | Los Angeles | 3 | All Maps","protocol":17,"map":"pl_barnblitz","folder":"tf","game":"Team Fortress","app_id":440,"player_count":0,"max_players":24,"Bots":0,"server_type":"Dedicated","server_os":"Linux","password":true,"vac":true,"version":"7757534","steam_id":85568392924510198,"keywords":["nocrits","nodmgspread","payload","uncletopia"],"game_id":440,"stv_port":27036,"stv_name":"Uncletopia | Los Angeles | 3 | All Maps | STV","players":null},{"server_id":25,"name":"Uncletopia | Los Angeles | 4 | Stopwatch Beta","name_short":"lax-4","host":"lax-1.us.uncletopia.com","port":27045,"enabled":true,"region":"us-west","cc":"us","latitude":33.94279,"longitude":-118.41004,"reserved":0,"last_update":"0001-01-01T00:00:00Z","name_a2s":"Uncletopia | Los Angeles | 4 | Stopwatch Beta","protocol":17,"map":"pl_swiftwater_final1","folder":"tf","game":"Team Fortress","app_id":440,"player_count":0,"max_players":24,"Bots":0,"server_type":"Dedicated","server_os":"Linux","password":true,"vac":true,"version":"7757534","steam_id":85568392924510199,"keywords":["nocrits","nodmgspread","payload","uncletopia"],"game_id":440,"stv_port":27046,"stv_name":"Uncletopia | Los Angeles | 4 | Stopwatch Beta | STV","players":null},{"server_id":11,"name":"Uncletopia | London | 1 | All Maps","name_short":"lon-1","host":"lon-1.uk.uncletopia.com","port":27015,"enabled":true,"region":"eu","cc":"gb","latitude":51.509865,"longitude":-0.118092,"reserved":0,"last_update":"0001-01-01T00:00:00Z","name_a2s":"Uncletopia | London | 1 | All Maps","protocol":17,"map":"pl_pier","folder":"tf","game":"Team Fortress","app_id":440,"player_count":24,"max_players":24,"Bots":0,"server_type":"Dedicated","server_os":"Linux","password":true,"vac":true,"version":"7757534","steam_id":85568392924367362,"keywords":["nocrits","nodmgspread","payload","uncletopia"],"game_id":440,"stv_port":27016,"stv_name":"Uncletopia | London | 1 | All Maps | STV","players":[{"user_id":704,"name":"homeinvasion$","steam_id":76561199111905021,"connected_time":1564000000000,"state":"active","ping":115},{"user_id":693,"name":"twitch.tv/vision515","steam_id":76561198065293729,"connected_time":2629000000000,"state":"active","ping":182},{"user_id":525,"name":":)","steam_id":76561198039964082,"connected_time":7401000000000,"state":"active","ping":62},{"user_id":720,"name":"Nifi","steam_id":76561198102682566,"connected_time":480000000000,"state":"active","ping":75},{"user_id":710,"name":"Carrot","steam_id":76561198119340863,"connected_time":1329000000000,"state":"active","ping":39},{"user_id":695,"name":"help","steam_id":76561199056338917,"connected_time":2401000000000,"state":"active","ping":159},{"user_id":722,"name":"Yggdrasill","steam_id":76561198304162236,"connected_time":155000000000,"state":"active","ping":107},{"user_id":526,"name":"0xDEADBEEF","steam_id":76561199075416111,"connected_time":7118000000000,"state":"active","ping":69},{"user_id":691,"name":"WinsomeYapper9","steam_id":76561199275285546,"connected_time":2688000000000,"state":"active","ping":104},{"user_id":678,"name":"deepsheet","steam_id":76561198245761116,"connected_time":3404000000000,"state":"active","ping":87},{"user_id":718,"name":"Laurie","steam_id":76561198082951750,"connected_time":502000000000,"state":"active","ping":52},{"user_id":708,"name":"Kan0_","steam_id":76561198129596771,"connected_time":1347000000000,"state":"active","ping":67},{"user_id":698,"name":"Poppy Stingray","steam_id":76561198049673783,"connected_time":1909000000000,"state":"active","ping":74},{"user_id":705,"name":"Solarflame","steam_id":76561198158780844,"connected_time":1556000000000,"state":"active","ping":91},{"user_id":699,"name":"Contemporary_Chaos","steam_id":76561198138784538,"connected_time":1788000000000,"state":"active","ping":77},{"user_id":715,"name":"Dominic","steam_id":76561199007849210,"connected_time":1129000000000,"state":"active","ping":48},{"user_id":603,"name":"‚ú™ qua ‚ú™","steam_id":76561198066408333,"connected_time":4721000000000,"state":"active","ping":77},{"user_id":632,"name":"A Pigeon","steam_id":76561198114090555,"connected_time":4102000000000,"state":"active","ping":80},{"user_id":716,"name":"static","steam_id":76561198836825741,"connected_time":1072000000000,"state":"active","ping":43},{"user_id":682,"name":"M4R1O","steam_id":76561198050528464,"connected_time":2982000000000,"state":"active","ping":75},{"user_id":702,"name":"Hercules","steam_id":76561198041164170,"connected_time":1700000000000,"state":"active","ping":64},{"user_id":714,"name":"Uncle Terry","steam_id":76561198396415736,"connected_time":1215000000000,"state":"active","ping":55},{"user_id":721,"name":"Son Goku","steam_id":76561199383437138,"connected_time":303000000000,"state":"active","ping":129},{"user_id":723,"name":"GEP Gun","steam_id":76561197981821003,"connected_time":99000000000,"state":"active","ping":57}]},{"server_id":114,"name":"Uncletopia | London | 2 | All Maps","name_short":"lon-2","host":"lon-1.uk.uncletopia.com","port":27025,"enabled":true,"region":"eu","cc":"gb","latitude":51.509865,"longitude":-0.118092,"reserved":0,"last_update":"0001-01-01T00:00:00Z","name_a2s":"Uncletopia | London | 2 | All Maps","protocol":17,"map":"cp_mountainlab","folder":"tf","game":"Team Fortress","app_id":440,"player_count":24,"max_players":24,"Bots":0,"server_type":"Dedicated","server_os":"Linux","password":true,"vac":true,"version":"7757534","steam_id":85568392924470941,"keywords":["cp","nocrits","nodmgspread","uncletopia"],"game_id":440,"stv_port":27026,"stv_name":"Uncletopia | London | 2 | All Maps | STV","players":[{"user_id":305,"name":"Xydran","steam_id":76561198042397402,"connected_time":758000000000,"state":"active","ping":75},{"user_id":293,"name":"Si","steam_id":76561197990442745,"connected_time":1741000000000,"state":"active","ping":64},{"user_id":303,"name":"Petight","steam_id":76561197999438798,"connected_time":902000000000,"state":"active","ping":40},{"user_id":285,"name":"bruh","steam_id":76561198059635136,"connected_time":1828000000000,"state":"active","ping":57},{"user_id":257,"name":"Mato","steam_id":76561198267114673,"connected_time":4755000000000,"state":"active","ping":66},{"user_id":274,"name":"blurst of times","steam_id":76561197972325640,"connected_time":2661000000000,"state":"active","ping":44},{"user_id":296,"name":"Jughead","steam_id":76561198000355410,"connected_time":1265000000000,"state":"active","ping":42},{"user_id":298,"name":"Bweoop","steam_id":76561198046960513,"connected_time":1155000000000,"state":"active","ping":88},{"user_id":288,"name":"Lil StinGa","steam_id":76561198069444222,"connected_time":1789000000000,"state":"active","ping":46},{"user_id":304,"name":"Whiter Wlat","steam_id":76561198408012164,"connected_time":772000000000,"state":"active","ping":74},{"user_id":265,"name":"Mayor Wank from Wanker Town","steam_id":76561197998253588,"connected_time":3112000000000,"state":"active","ping":60},{"user_id":289,"name":"floppy-adde","steam_id":76561199258890641,"connected_time":1785000000000,"state":"active","ping":77},{"user_id":267,"name":"Sparks","steam_id":76561198423827206,"connected_time":3106000000000,"state":"active","ping":59},{"user_id":250,"name":"Arcader","steam_id":76561198109860110,"connected_time":5577000000000,"state":"active","ping":60},{"user_id":307,"name":"Vitamin Weee","steam_id":76561199183937747,"connected_time":728000000000,"state":"active","ping":100},{"user_id":312,"name":"Checkmate","steam_id":76561198087874483,"connected_time":510000000000,"state":"active","ping":55},{"user_id":308,"name":"dr. coom","steam_id":76561198172193711,"connected_time":721000000000,"state":"active","ping":53},{"user_id":245,"name":"Lowy","steam_id":76561198031470048,"connected_time":6347000000000,"state":"active","ping":48},{"user_id":261,"name":"Mr Toxic","steam_id":76561198040057167,"connected_time":3169000000000,"state":"active","ping":166},{"user_id":300,"name":"[O\u0026O]YaboiDucki","steam_id":76561198195976589,"connected_time":1149000000000,"state":"active","ping":68},{"user_id":313,"name":"DocTwoEight","steam_id":76561198153488940,"connected_time":473000000000,"state":"active","ping":78},{"user_id":310,"name":"Chinese censorship Bureau","steam_id":76561198397898616,"connected_time":697000000000,"state":"active","ping":61},{"user_id":301,"name":"Ishy the Lagger","steam_id":76561198835943890,"connected_time":1079000000000,"state":"active","ping":159},{"user_id":315,"name":"Civil Melon","steam_id":76561198988309618,"connected_time":133000000000,"state":"active","ping":88}]},{"server_id":320,"name":"Uncletopia | London | 3 | All Maps","name_short":"lon-3","host":"lon-1.uk.uncletopia.com","port":27035,"enabled":true,"region":"eu","cc":"gb","latitude":51.509865,"longitude":-0.118092,"reserved":0,"last_update":"0001-01-01T00:00:00Z","name_a2s":"Uncletopia | London | 3 | All Maps","protocol":17,"map":"pl_borneo","folder":"tf","game":"Team Fortress","app_id":440,"player_count":24,"max_players":24,"Bots":0,"server_type":"Dedicated","server_os":"Linux","password":true,"vac":true,"version":"7757534","steam_id":85568392924510192,"keywords":["nocrits","nodmgspread","payload","uncletopia"],"game_id":440,"stv_port":27036,"stv_name":"Uncletopia | London | 3 | All Maps | STV","players":[{"user_id":458,"name":"yeyegoncas","steam_id":76561198061217656,"connected_time":1357000000000,"state":"active","ping":83},{"user_id":476,"name":"SHADOW WIZARD MONEY GANG","steam_id":76561198179324075,"connected_time":596000000000,"state":"active","ping":64},{"user_id":469,"name":"goprit","steam_id":76561198072518761,"connected_time":795000000000,"state":"active","ping":77},{"user_id":467,"name":"panakid","steam_id":76561198364121077,"connected_time":839000000000,"state":"active","ping":100},{"user_id":464,"name":"Charles Darwin","steam_id":76561197973496139,"connected_time":1035000000000,"state":"active","ping":70},{"user_id":470,"name":"vilgax","steam_id":76561198138836345,"connected_time":784000000000,"state":"active","ping":104},{"user_id":440,"name":"Eggcracker","steam_id":76561199274850641,"connected_time":3975000000000,"state":"active","ping":90},{"user_id":428,"name":"john fortress","steam_id":76561198013237629,"connected_time":4993000000000,"state":"active","ping":87},{"user_id":478,"name":"sin","steam_id":76561198193416785,"connected_time":231000000000,"state":"active","ping":55},{"user_id":481,"name":"Janitor","steam_id":76561198418538887,"connected_time":0,"state":"spawning","ping":26},{"user_id":443,"name":"hora","steam_id":76561198404470526,"connected_time":3523000000000,"state":"active","ping":94},{"user_id":451,"name":"Turtle Fuckers 2","steam_id":76561198071938027,"connected_time":2381000000000,"state":"active","ping":36},{"user_id":479,"name":"Qwertuss","steam_id":76561198026305366,"connected_time":211000000000,"state":"active","ping":56},{"user_id":461,"name":"avenje","steam_id":76561198155824845,"connected_time":1173000000000,"state":"active","ping":73},{"user_id":475,"name":"Chambersite","steam_id":76561198197022399,"connected_time":629000000000,"state":"active","ping":73},{"user_id":448,"name":"Packet","steam_id":76561199173195875,"connected_time":2450000000000,"state":"active","ping":83},{"user_id":441,"name":"badoo","steam_id":76561198056336216,"connected_time":3711000000000,"state":"active","ping":55},{"user_id":473,"name":"Bird On Your Window","steam_id":76561198081933130,"connected_time":771000000000,"state":"active","ping":69},{"user_id":431,"name":"Anonymous47007","steam_id":76561199005211417,"connected_time":4886000000000,"state":"active","ping":77},{"user_id":455,"name":"Dr.Sees [F2P]","steam_id":76561199219233587,"connected_time":2221000000000,"state":"active","ping":89},{"user_id":452,"name":"Pyrolander","steam_id":76561198050785450,"connected_time":2368000000000,"state":"active","ping":55},{"user_id":474,"name":"benibachi","steam_id":76561198190816499,"connected_time":751000000000,"state":"active","ping":80},{"user_id":477,"name":"Favi","steam_id":76561198013236935,"connected_time":547000000000,"state":"active","ping":71},{"user_id":457,"name":"Dag!","steam_id":76561198030147941,"connected_time":1716000000000,"state":"active","ping":71}]},{"server_id":321,"name":"Uncletopia | London | 4 | All Maps","name_short":"lon-4","host":"lon-1.uk.uncletopia.com","port":27045,"enabled":true,"region":"eu","cc":"gb","latitude":51.509865,"longitude":-0.118092,"reserved":0,"last_update":"0001-01-01T00:00:00Z","name_a2s":"Uncletopia | London | 4 | All Maps","protocol":17,"map":"pl_borneo","folder":"tf","game":"Team Fortress","app_id":440,"player_count":23,"max_players":24,"Bots":0,"server_type":"Dedicated","server_os":"Linux","password":true,"vac":true,"version":"7757534","steam_id":85568392924510193,"keywords":["nocrits","nodmgspread","payload","uncletopia"],"game_id":440,"stv_port":27046,"stv_name":"Uncletopia | London | 4 | All Maps | STV","players":[{"user_id":218,"name":"Chum","steam_id":76561199113165764,"connected_time":2748000000000,"state":"active","ping":138},{"user_id":301,"name":"Bob Burger","steam_id":76561197996149548,"connected_time":499000000000,"state":"active","ping":51},{"user_id":304,"name":"RiX","steam_id":76561197969053733,"connected_time":41000000000,"state":"active","ping":57},{"user_id":266,"name":"Milca_11","steam_id":76561198848650365,"connected_time":2064000000000,"state":"active","ping":106},{"user_id":276,"name":"Aigan","steam_id":76561198130354707,"connected_time":1348000000000,"state":"active","ping":95},{"user_id":298,"name":"meikkon","steam_id":76561198068641773,"connected_time":825000000000,"state":"active","ping":43},{"user_id":267,"name":"sz(k)","steam_id":76561198118500940,"connected_time":2061000000000,"state":"active","ping":73},{"user_id":295,"name":"Zireael","steam_id":76561198040657962,"connected_time":922000000000,"state":"active","ping":83},{"user_id":265,"name":"Nigglemonster","steam_id":76561198366525123,"connected_time":2084000000000,"state":"active","ping":91},{"user_id":192,"name":"Swede_Tomate","steam_id":76561198177768455,"connected_time":3960000000000,"state":"active","ping":74},{"user_id":297,"name":"Spenji","steam_id":76561198126634202,"connected_time":871000000000,"state":"active","ping":57},{"user_id":299,"name":"Gnaisse","steam_id":76561198010560642,"connected_time":736000000000,"state":"active","ping":77},{"user_id":296,"name":"meriones","steam_id":76561198034234373,"connected_time":911000000000,"state":"active","ping":39},{"user_id":300,"name":"hud_saytext_time 0","steam_id":76561198010327228,"connected_time":542000000000,"state":"active","ping":72},{"user_id":292,"name":"Tory","steam_id":76561198870533769,"connected_time":1041000000000,"state":"active","ping":105},{"user_id":251,"name":"piss‚Ñ¢","steam_id":76561198108098760,"connected_time":2354000000000,"state":"active","ping":45},{"user_id":284,"name":"JohnMat2","steam_id":76561199007662486,"connected_time":1266000000000,"state":"active","ping":66},{"user_id":285,"name":"simplistic","steam_id":76561198231690748,"connected_time":1234000000000,"state":"active","ping":56},{"user_id":271,"name":"ZRD83[FR]","steam_id":76561198411341922,"connected_time":1648000000000,"state":"active","ping":62},{"user_id":286,"name":"Ankle Dane","steam_id":76561198134378108,"connected_time":1230000000000,"state":"active","ping":82},{"user_id":302,"name":"ginger cunt","steam_id":76561198334528186,"connected_time":295000000000,"state":"active","ping":45},{"user_id":273,"name":"B@yka","steam_id":76561198986736592,"connected_time":1632000000000,"state":"active","ping":67},{"user_id":203,"name":"2ka","steam_id":76561198343747394,"connected_time":3130000000000,"state":"active","ping":69}]},{"server_id":21,"name":"Uncletopia | London | 5 | All Maps","name_short":"lon-5","host":"lon-1.uk.uncletopia.com","port":27055,"enabled":true,"region":"eu","cc":"gb","latitude":51.509865,"longitude":-0.118092,"reserved":0,"last_update":"0001-01-01T00:00:00Z","name_a2s":"Uncletopia | London | 5 | All Maps","protocol":17,"map":"koth_lakeside_final","folder":"tf","game":"Team Fortress","app_id":440,"player_count":2,"max_players":24,"Bots":0,"server_type":"Dedicated","server_os":"Linux","password":true,"vac":true,"version":"7757534","steam_id":85568392924742829,"keywords":["cp","nocrits","nodmgspread","uncletopia"],"game_id":440,"stv_port":27056,"stv_name":"Uncletopia | London | 5 | All Maps | STV","players":[{"user_id":19,"name":"[F2P] MalCo","steam_id":76561197994930440,"connected_time":153000000000,"state":"active","ping":41},{"user_id":20,"name":"ThyConius","steam_id":76561198257291154,"connected_time":14000000000,"state":"active","ping":89}]},{"server_id":22,"name":"Uncletopia | London | 6 | All Maps","name_short":"lon-6","host":"lon-1.uk.uncletopia.com","port":27065,"enabled":true,"region":"eu","cc":"gb","latitude":51.509865,"longitude":-0.118092,"reserved":0,"last_update":"0001-01-01T00:00:00Z","name_a2s":"Uncletopia | London | 6 | All Maps","protocol":17,"map":"koth_highpass","folder":"tf","game":"Team Fortress","app_id":440,"player_count":0,"max_players":24,"Bots":0,"server_type":"Dedicated","server_os":"Linux","password":true,"vac":true,"version":"7757534","steam_id":85568392924742830,"keywords":["cp","nocrits","nodmgspread","uncletopia"],"game_id":440,"stv_port":27066,"stv_name":"Uncletopia | London | 6 | All Maps | STV","players":null},{"server_id":40,"name":"Uncletopia | London | 7 | No Payload","name_short":"lon-7","host":"lon-1.uk.uncletopia.com","port":27075,"enabled":true,"region":"eu","cc":"gb","latitude":51.509865,"longitude":-0.118092,"reserved":0,"last_update":"0001-01-01T00:00:00Z","name_a2s":"Uncletopia | London | 7 | No Payload","protocol":17,"map":"koth_king","folder":"tf","game":"Team Fortress","app_id":440,"player_count":0,"max_players":24,"Bots":0,"server_type":"Dedicated","server_os":"Linux","password":true,"vac":true,"version":"7757534","steam_id":85568392924964314,"keywords":["cp","nocrits","nodmgspread","uncletopia"],"game_id":440,"stv_port":27076,"stv_name":"Uncletopia | London | 7 | No Payload | STV","players":null},{"server_id":41,"name":"Uncletopia | London | 8 | Community","name_short":"lon-8","host":"lon-1.uk.uncletopia.com","port":27085,"enabled":true,"region":"eu","cc":"gb","latitude":51.509865,"longitude":-0.118092,"reserved":0,"last_update":"0001-01-01T00:00:00Z","name_a2s":"Uncletopia | London | 8 | Community","protocol":17,"map":"workshop/koth_ashville_final.ugc2130459942","folder":"tf","game":"Team Fortress","app_id":440,"player_count":24,"max_players":24,"Bots":0,"server_type":"Dedicated","server_os":"Linux","password":true,"vac":true,"version":"7757534","steam_id":85568392924964315,"keywords":["cp","nocrits","nodmgspread","uncletopia"],"game_id":440,"stv_port":27086,"stv_name":"Uncletopia | London | 8 | Community | STV","players":[{"user_id":20,"name":"Lola bunny","steam_id":76561198214149431,"connected_time":880000000000,"state":"active","ping":53},{"user_id":30,"name":"mumbler","steam_id":76561197970641239,"connected_time":324000000000,"state":"active","ping":49},{"user_id":44,"name":"PizzaPete123","steam_id":76561198089478290,"connected_time":92000000000,"state":"active","ping":40},{"user_id":15,"name":"‡ºò ‚ãÜÀöüéßCaffeine‚òï*Àñ¬∞","steam_id":76561199259309294,"connected_time":1391000000000,"state":"active","ping":143},{"user_id":16,"name":"Miss Scruples","steam_id":76561198047951860,"connected_time":1382000000000,"state":"active","ping":56},{"user_id":17,"name":"MeMegaCreeper","steam_id":76561198090619900,"connected_time":1375000000000,"state":"active","ping":80},{"user_id":18,"name":"cock wizard","steam_id":76561198045826293,"connected_time":1352000000000,"state":"active","ping":45},{"user_id":19,"name":"Swedde","steam_id":76561198297296440,"connected_time":1329000000000,"state":"active","ping":62},{"user_id":22,"name":"2ez","steam_id":76561198255357694,"connected_time":567000000000,"state":"active","ping":90},{"user_id":33,"name":"SKFBoge","steam_id":76561198269038278,"connected_time":302000000000,"state":"active","ping":83},{"user_id":29,"name":"pakin157","steam_id":76561198035125667,"connected_time":348000000000,"state":"active","ping":83},{"user_id":25,"name":"Fus in Boots","steam_id":76561198053897722,"connected_time":467000000000,"state":"active","ping":52},{"user_id":42,"name":"Testicular torsion","steam_id":76561198119547399,"connected_time":183000000000,"state":"active","ping":67},{"user_id":27,"name":"player","steam_id":76561198054474684,"connected_time":412000000000,"state":"active","ping":84},{"user_id":28,"name":"Kanye VEST","steam_id":76561198294476402,"connected_time":382000000000,"state":"active","ping":79},{"user_id":31,"name":"Per√§miehen√§","steam_id":76561197968945306,"connected_time":319000000000,"state":"active","ping":74},{"user_id":32,"name":"tanyathsus","steam_id":76561198089522447,"connected_time":318000000000,"state":"active","ping":60},{"user_id":34,"name":"Rogue Biscuit","steam_id":76561198086447685,"connected_time":299000000000,"state":"active","ping":119},{"user_id":35,"name":"Borjorpsp","steam_id":76561199034537065,"connected_time":295000000000,"state":"active","ping":66},{"user_id":43,"name":"Twisted Logic ‚àû","steam_id":76561198002245428,"connected_time":117000000000,"state":"active","ping":39},{"user_id":37,"name":"Egor Pomidor","steam_id":76561199175688390,"connected_time":281000000000,"state":"active","ping":90},{"user_id":38,"name":"‚òØ","steam_id":76561198351154533,"connected_time":254000000000,"state":"active","ping":53},{"user_id":39,"name":"olster21","steam_id":76561199120029474,"connected_time":234000000000,"state":"active","ping":69},{"user_id":40,"name":"Dr. Jabbinton","steam_id":76561198180007387,"connected_time":221000000000,"state":"active","ping":45}]},{"server_id":300,"name":"Uncletopia | Montr√©al | 1 | All Maps","name_short":"mtl-1","host":"mtl-1.ca.uncletopia.com","port":27015,"enabled":true,"region":"us-east","cc":"ca","latitude":45.50889,"longitude":-73.56167,"reserved":0,"last_update":"0001-01-01T00:00:00Z","name_a2s":"Uncletopia | Montr√©al | 1 | All Maps","protocol":17,"map":"pl_upward","folder":"tf","game":"Team Fortress","app_id":440,"player_count":0,"max_players":24,"Bots":0,"server_type":"Dedicated","server_os":"Linux","password":true,"vac":true,"version":"7757534","steam_id":85568392924500087,"keywords":["nocrits","nodmgspread","payload","uncletopia"],"game_id":440,"stv_port":27016,"stv_name":"Uncletopia | Montr√©al | 1 | All Maps | STV","players":null},{"server_id":301,"name":"Uncletopia | Montr√©al | 2 | All Maps","name_short":"mtl-2","host":"mtl-1.ca.uncletopia.com","port":27025,"enabled":true,"region":"us-east","cc":"ca","latitude":45.50889,"longitude":-73.56167,"reserved":0,"last_update":"0001-01-01T00:00:00Z","name_a2s":"Uncletopia | Montr√©al | 2 | All Maps","protocol":17,"map":"pl_snowycoast","folder":"tf","game":"Team Fortress","app_id":440,"player_count":2,"max_players":24,"Bots":0,"server_type":"Dedicated","server_os":"Linux","password":true,"vac":true,"version":"7757534","steam_id":85568392924500088,"keywords":["nocrits","nodmgspread","payload","uncletopia"],"game_id":440,"stv_port":27026,"stv_name":"Uncletopia | Montr√©al | 2 | All Maps | STV","players":[{"user_id":4,"name":"tfkillr","steam_id":76561199308986695,"connected_time":145000000000,"state":"active","ping":84},{"user_id":5,"name":"discord.gg/FB6YuUvQQA","steam_id":76561199474231194,"connected_time":56000000000,"state":"active","ping":191}]},{"server_id":302,"name":"Uncletopia | Montr√©al | 3 | All Maps","name_short":"mtl-3","host":"mtl-1.ca.uncletopia.com","port":27035,"enabled":true,"region":"us-east","cc":"ca","latitude":45.50889,"longitude":-73.56167,"reserved":0,"last_update":"0001-01-01T00:00:00Z","name_a2s":"Uncletopia | Montr√©al | 3 | All Maps","protocol":17,"map":"pl_swiftwater_final1","folder":"tf","game":"Team Fortress","app_id":440,"player_count":0,"max_players":24,"Bots":0,"server_type":"Dedicated","server_os":"Linux","password":true,"vac":true,"version":"7757534","steam_id":85568392924500089,"keywords":["nocrits","nodmgspread","payload","uncletopia"],"game_id":440,"stv_port":27036,"stv_name":"Uncletopia | Montr√©al | 3 | All Maps | STV","players":null},{"server_id":303,"name":"Uncletopia | Montr√©al | 4 | No Payload","name_short":"mtl-4","host":"mtl-1.ca.uncletopia.com","port":27045,"enabled":true,"region":"us-east","cc":"ca","latitude":45.50889,"longitude":-73.56167,"reserved":0,"last_update":"0001-01-01T00:00:00Z","name_a2s":"Uncletopia | Montr√©al | 4 | No Payload","protocol":17,"map":"pl_pier","folder":"tf","game":"Team Fortress","app_id":440,"player_count":0,"max_players":24,"Bots":0,"server_type":"Dedicated","server_os":"Linux","password":true,"vac":true,"version":"7757534","steam_id":85568392924500090,"keywords":["nocrits","nodmgspread","payload","uncletopia"],"game_id":440,"stv_port":27046,"stv_name":"Uncletopia | Montr√©al | 4 | No Payload | STV","players":null},{"server_id":13,"name":"Uncletopia | New York City | 1 | All Maps","name_short":"nyc-1","host":"nyc-1.us.uncletopia.com","port":27015,"enabled":true,"region":"us-east","cc":"us","latitude":40.73061,"longitude":-73.93524,"reserved":0,"last_update":"0001-01-01T00:00:00Z","name_a2s":"Uncletopia | New York City | 1 | All Maps","protocol":17,"map":"pl_upward","folder":"tf","game":"Team Fortress","app_id":440,"player_count":24,"max_players":24,"Bots":0,"server_type":"Dedicated","server_os":"Linux","password":true,"vac":true,"version":"7757534","steam_id":85568392924469993,"keywords":["nocrits","nodmgspread","payload","uncletopia"],"game_id":440,"stv_port":27016,"stv_name":"Uncletopia | New York City | 1 | All Maps | STV","players":[{"user_id":125,"name":"Sm0ky","steam_id":76561198418262145,"connected_time":4996000000000,"state":"active","ping":122},{"user_id":177,"name":"Gibby","steam_id":76561199336569123,"connected_time":1516000000000,"state":"active","ping":113},{"user_id":140,"name":"TheRealAaron (PR)","steam_id":76561199227674545,"connected_time":3930000000000,"state":"active","ping":137},{"user_id":162,"name":"Viokik","steam_id":76561198408846602,"connected_time":2734000000000,"state":"active","ping":54},{"user_id":183,"name":"Supreme Overlord Joe Biden","steam_id":76561198060133892,"connected_time":931000000000,"state":"active","ping":108},{"user_id":166,"name":"CesarSalad","steam_id":76561198985356050,"connected_time":1699000000000,"state":"active","ping":60},{"user_id":181,"name":"Box Spy","steam_id":76561198414175953,"connected_time":1290000000000,"state":"active","ping":138},{"user_id":185,"name":"The Drunk Clown","steam_id":76561197986850426,"connected_time":773000000000,"state":"active","ping":78},{"user_id":153,"name":"Deathbear56","steam_id":76561198233300700,"connected_time":3154000000000,"state":"active","ping":73},{"user_id":174,"name":"VioletSpecs","steam_id":76561198089366466,"connected_time":1544000000000,"state":"active","ping":55},{"user_id":180,"name":"TheCaberMagnet","steam_id":76561198796383697,"connected_time":1337000000000,"state":"active","ping":66},{"user_id":175,"name":"jacktangent","steam_id":76561198846704532,"connected_time":1543000000000,"state":"active","ping":132},{"user_id":169,"name":"Juanelo","steam_id":76561199096390505,"connected_time":1617000000000,"state":"active","ping":92},{"user_id":188,"name":"TheFloppa","steam_id":76561199114442882,"connected_time":502000000000,"state":"active","ping":78},{"user_id":176,"name":"Toasty","steam_id":76561198363417298,"connected_time":1542000000000,"state":"active","ping":56},{"user_id":182,"name":"carrot cake","steam_id":76561198055174915,"connected_time":1266000000000,"state":"active","ping":73},{"user_id":156,"name":"InkLink (PAN CLAN)","steam_id":76561199188229760,"connected_time":2984000000000,"state":"active","ping":58},{"user_id":187,"name":"bobdragon27","steam_id":76561198065833387,"connected_time":581000000000,"state":"active","ping":44},{"user_id":163,"name":"jarby","steam_id":76561198130689358,"connected_time":2330000000000,"state":"active","ping":38},{"user_id":57,"name":"Wayne Noodleman","steam_id":76561198046347398,"connected_time":10040000000000,"state":"active","ping":66},{"user_id":116,"name":"SomeFlamingo","steam_id":76561198869299841,"connected_time":6375000000000,"state":"active","ping":56},{"user_id":173,"name":"apricot liquor","steam_id":76561198289280906,"connected_time":1583000000000,"state":"active","ping":98},{"user_id":184,"name":"captjosh22","steam_id":76561199092650499,"connected_time":924000000000,"state":"active","ping":76},{"user_id":186,"name":"nefarious criminal","steam_id":76561198077506415,"connected_time":686000000000,"state":"active","ping":45}]},{"server_id":14,"name":"Uncletopia | New York City | 2 | All Maps","name_short":"nyc-2","host":"nyc-1.us.uncletopia.com","port":27025,"enabled":true,"region":"us-east","cc":"us","latitude":40.73061,"longitude":-73.93524,"reserved":0,"last_update":"0001-01-01T00:00:00Z","name_a2s":"Uncletopia | New York City | 2 | All Maps","protocol":17,"map":"pl_frontier_final","folder":"tf","game":"Team Fortress","app_id":440,"player_count":24,"max_players":24,"Bots":0,"server_type":"Dedicated","server_os":"Linux","password":true,"vac":true,"version":"7757534","steam_id":85568392924469994,"keywords":["nocrits","nodmgspread","payload","uncletopia"],"game_id":440,"stv_port":27026,"stv_name":"Uncletopia | New York City | 2 | All Maps | STV","players":[{"user_id":243,"name":"Sapphireblitz","steam_id":76561198272635379,"connected_time":1914000000000,"state":"active","ping":69},{"user_id":213,"name":"Jaime","steam_id":76561198442021682,"connected_time":4184000000000,"state":"active","ping":55},{"user_id":246,"name":"srac","steam_id":76561199046993811,"connected_time":1639000000000,"state":"active","ping":86},{"user_id":235,"name":"Agent Hugh Jass","steam_id":76561199097744991,"connected_time":2357000000000,"state":"active","ping":67},{"user_id":260,"name":"thebun","steam_id":76561198082947258,"connected_time":198000000000,"state":"active","ping":81},{"user_id":232,"name":"Ping","steam_id":76561199206514106,"connected_time":2735000000000,"state":"active","ping":61},{"user_id":263,"name":"Winkrill","steam_id":76561198108515561,"connected_time":8000000000,"state":"active","ping":66},{"user_id":256,"name":"Kerfluffle","steam_id":76561198012686336,"connected_time":428000000000,"state":"active","ping":66},{"user_id":201,"name":"10KO!","steam_id":76561199134895220,"connected_time":4560000000000,"state":"active","ping":58},{"user_id":254,"name":"Normalux","steam_id":76561198293891426,"connected_time":790000000000,"state":"active","ping":81},{"user_id":257,"name":"IcemanF12","steam_id":76561198140010054,"connected_time":393000000000,"state":"active","ping":60},{"user_id":238,"name":"Ursus Ludius","steam_id":76561198025470722,"connected_time":2332000000000,"state":"active","ping":70},{"user_id":214,"name":"Daddys Home","steam_id":76561198034702011,"connected_time":4061000000000,"state":"active","ping":66},{"user_id":236,"name":"oel","steam_id":76561198021224745,"connected_time":2354000000000,"state":"active","ping":37},{"user_id":258,"name":"The Blind Burger","steam_id":76561199086396707,"connected_time":365000000000,"state":"active","ping":57},{"user_id":250,"name":"PeachFlavoredBleach","steam_id":76561198116226449,"connected_time":1307000000000,"state":"active","ping":45},{"user_id":226,"name":"Cicada_Man","steam_id":76561199130601341,"connected_time":3037000000000,"state":"active","ping":51},{"user_id":206,"name":"BiggFoot","steam_id":76561197998605599,"connected_time":4488000000000,"state":"active","ping":165},{"user_id":255,"name":"JelloMotion","steam_id":76561198045892038,"connected_time":772000000000,"state":"active","ping":60},{"user_id":239,"name":"Misterr_Oogwayy","steam_id":76561199141055964,"connected_time":2303000000000,"state":"active","ping":94},{"user_id":172,"name":"Aurro","steam_id":76561198315692300,"connected_time":7326000000000,"state":"active","ping":48},{"user_id":259,"name":"kris736","steam_id":76561198038208255,"connected_time":357000000000,"state":"active","ping":69},{"user_id":249,"name":"slurp","steam_id":76561198323497535,"connected_time":1369000000000,"state":"active","ping":60},{"user_id":245,"name":"Spiral Mountain","steam_id":76561198058683715,"connected_time":1651000000000,"state":"active","ping":67}]},{"server_id":15,"name":"Uncletopia | New York City | 3 | Stopwatch Beta","name_short":"nyc-3","host":"nyc-1.us.uncletopia.com","port":27035,"enabled":true,"region":"us-east","cc":"us","latitude":40.73061,"longitude":-73.93524,"reserved":0,"last_update":"0001-01-01T00:00:00Z","name_a2s":"Uncletopia | New York City | 3 | Stopwatch Beta","protocol":17,"map":"workshop/koth_bagel_rc6.ugc2514036946","folder":"tf","game":"Team Fortress","app_id":440,"player_count":0,"max_players":24,"Bots":0,"server_type":"Dedicated","server_os":"Linux","password":true,"vac":true,"version":"7757534","steam_id":85568392924742820,"keywords":["cp","nocrits","nodmgspread","uncletopia"],"game_id":440,"stv_port":27036,"stv_name":"Uncletopia | New York City | 3 | Stopwatch Beta | STV","players":null},{"server_id":16,"name":"Uncletopia | New York City | 4 | Community","name_short":"nyc-4","host":"nyc-1.us.uncletopia.com","port":27045,"enabled":true,"region":"us-east","cc":"us","latitude":40.73061,"longitude":-73.93524,"reserved":0,"last_update":"0001-01-01T00:00:00Z","name_a2s":"Uncletopia | New York City | 4 | Community","protocol":17,"map":"workshop/pl_boundary_final1.ugc456799153","folder":"tf","game":"Team Fortress","app_id":440,"player_count":6,"max_players":24,"Bots":0,"server_type":"Dedicated","server_os":"Linux","password":true,"vac":true,"version":"7757534","steam_id":85568392924742821,"keywords":["nocrits","nodmgspread","payload","uncletopia"],"game_id":440,"stv_port":27046,"stv_name":"Uncletopia | New York City | 4 | Community | STV","players":[{"user_id":36,"name":"Prof. Oli","steam_id":76561198980241587,"connected_time":806000000000,"state":"active","ping":54},{"user_id":38,"name":"Kaboob","steam_id":76561199121870665,"connected_time":524000000000,"state":"active","ping":63},{"user_id":39,"name":"BIGGEST MAC","steam_id":76561198847517098,"connected_time":360000000000,"state":"active","ping":76},{"user_id":40,"name":"BOT Positronic‚ô•June (they/she","steam_id":76561198042556857,"connected_time":235000000000,"state":"active","ping":61},{"user_id":14,"name":"MagicMuffinman","steam_id":76561198149255313,"connected_time":6362000000000,"state":"active","ping":86},{"user_id":41,"name":"BasicPeaches","steam_id":76561198190890150,"connected_time":194000000000,"state":"active","ping":57}]},{"server_id":142,"name":"Uncletopia | S√£o Paulo | 1 | All Maps","name_short":"sao-1","host":"sao-1.br.uncletopia.com","port":27015,"enabled":true,"region":"sa","cc":"br","latitude":-23.533773,"longitude":-46.62529,"reserved":0,"last_update":"0001-01-01T00:00:00Z","name_a2s":"Uncletopia | S√£o Paulo | 1 | All Maps","protocol":17,"map":"koth_lakeside_final","folder":"tf","game":"Team Fortress","app_id":440,"player_count":0,"max_players":24,"Bots":0,"server_type":"Dedicated","server_os":"Linux","password":true,"vac":true,"version":"7757534","steam_id":85568392924469996,"keywords":["cp","nocrits","nodmgspread","uncletopia"],"game_id":440,"stv_port":27016,"stv_name":"Uncletopia | S√£o Paulo | 1 | All Maps | STV","players":null},{"server_id":143,"name":"Uncletopia | S√£o Paulo | 2 | All Maps","name_short":"sao-2","host":"sao-2.br.uncletopia.com","port":27015,"enabled":true,"region":"sa","cc":"br","latitude":-23.533773,"longitude":-46.62529,"reserved":0,"last_update":"0001-01-01T00:00:00Z","name_a2s":"Uncletopia | S√£o Paulo | 2 | All Maps","protocol":17,"map":"cp_sunshine","folder":"tf","game":"Team Fortress","app_id":440,"player_count":8,"max_players":24,"Bots":0,"server_type":"Dedicated","server_os":"Linux","password":true,"vac":true,"version":"7757534","steam_id":85568392924485349,"keywords":["cp","nocrits","nodmgspread","uncletopia"],"game_id":440,"stv_port":27016,"stv_name":"Uncletopia | S√£o Paulo | 2 | All Maps | STV","players":[{"user_id":73,"name":"Alface935","steam_id":76561199198440027,"connected_time":510000000000,"state":"active","ping":46},{"user_id":58,"name":"Artyom","steam_id":76561199199932446,"connected_time":1780000000000,"state":"active","ping":219},{"user_id":69,"name":"(F2P)YellowEyePatch","steam_id":76561199108111310,"connected_time":950000000000,"state":"active","ping":55},{"user_id":71,"name":"DanielGames3345","steam_id":76561198929887980,"connected_time":754000000000,"state":"active","ping":51},{"user_id":54,"name":"susi spah","steam_id":76561199095176649,"connected_time":2345000000000,"state":"active","ping":37},{"user_id":72,"name":"AtUm","steam_id":76561199025395478,"connected_time":646000000000,"state":"active","ping":84},{"user_id":74,"name":"Vergil V3","steam_id":76561199362236174,"connected_time":71000000000,"state":"active","ping":261},{"user_id":76,"name":"kkpro9","steam_id":76561198837922606,"connected_time":18000000000,"state":"spawning","ping":76}]},{"server_id":7,"name":"Uncletopia | Seattle | 1 | All Maps","name_short":"sea-1","host":"sea-1.us.uncletopia.com","port":27015,"enabled":true,"region":"us-west","cc":"us","latitude":47.608013,"longitude":-122.33517,"reserved":0,"last_update":"0001-01-01T00:00:00Z","name_a2s":"Uncletopia | Seattle | 1 | All Maps","protocol":17,"map":"cp_steel","folder":"tf","game":"Team Fortress","app_id":440,"player_count":24,"max_players":24,"Bots":0,"server_type":"Dedicated","server_os":"Linux","password":true,"vac":true,"version":"7757534","steam_id":85568392924469997,"keywords":["cp","nocrits","nodmgspread","uncletopia"],"game_id":440,"stv_port":27016,"stv_name":"Uncletopia | Seattle | 1 | All Maps | STV","players":[{"user_id":251,"name":"HaphazardHazel","steam_id":76561198316812693,"connected_time":356000000000,"state":"active","ping":147},{"user_id":211,"name":"Diarrhea Gaming","steam_id":76561198090589784,"connected_time":2772000000000,"state":"active","ping":141},{"user_id":234,"name":"LILIUM","steam_id":76561198086591493,"connected_time":1851000000000,"state":"active","ping":88},{"user_id":246,"name":"Nen","steam_id":76561198893347370,"connected_time":928000000000,"state":"active","ping":79},{"user_id":209,"name":"Cob","steam_id":76561198042518365,"connected_time":2834000000000,"state":"active","ping":69},{"user_id":115,"name":"Dob Bole","steam_id":76561198056367220,"connected_time":8305000000000,"state":"active","ping":69},{"user_id":213,"name":"Little Linguine","steam_id":76561198816986370,"connected_time":2726000000000,"state":"active","ping":50},{"user_id":220,"name":"AmiableNebula","steam_id":76561198094306627,"connected_time":2358000000000,"state":"active","ping":75},{"user_id":252,"name":"Seaweed","steam_id":76561198960298800,"connected_time":295000000000,"state":"active","ping":51},{"user_id":248,"name":"Greskrendtregk","steam_id":76561197969553142,"connected_time":899000000000,"state":"active","ping":57},{"user_id":229,"name":"SenTreats","steam_id":76561198085835841,"connected_time":1968000000000,"state":"active","ping":89},{"user_id":218,"name":"paolobuts","steam_id":76561199047108638,"connected_time":2482000000000,"state":"active","ping":63},{"user_id":237,"name":"Ballistyx","steam_id":76561199210836206,"connected_time":1640000000000,"state":"active","ping":95},{"user_id":236,"name":"Mignyanne :3","steam_id":76561198048754056,"connected_time":1686000000000,"state":"active","ping":66},{"user_id":238,"name":"the bunny man","steam_id":76561199082935128,"connected_time":1561000000000,"state":"active","ping":93},{"user_id":243,"name":"merkury731","steam_id":76561198110565430,"connected_time":979000000000,"state":"active","ping":113},{"user_id":232,"name":"Flyingmeadow","steam_id":76561198144687723,"connected_time":1926000000000,"state":"active","ping":133},{"user_id":233,"name":"Yuuka","steam_id":76561198074873916,"connected_time":1922000000000,"state":"active","ping":54},{"user_id":244,"name":"Flip Flop BUBABUBA","steam_id":76561199253937434,"connected_time":975000000000,"state":"active","ping":133},{"user_id":185,"name":"dust | she/it","steam_id":76561198045218909,"connected_time":4342000000000,"state":"active","ping":37},{"user_id":215,"name":"xXx420YoloSwaggins69xXx","steam_id":76561198054889312,"connected_time":2661000000000,"state":"active","ping":118},{"user_id":242,"name":"Power Jake","steam_id":76561198051510260,"connected_time":1065000000000,"state":"active","ping":60},{"user_id":235,"name":"A Duck With Socks","steam_id":76561198018844227,"connected_time":1766000000000,"state":"active","ping":57},{"user_id":222,"name":"gl1tchr","steam_id":76561198302661983,"connected_time":2312000000000,"state":"active","ping":128}]},{"server_id":119,"name":"Uncletopia | Seattle | 2 | All Maps","name_short":"sea-2","host":"sea-1.us.uncletopia.com","port":27025,"enabled":true,"region":"us-west","cc":"us","latitude":47.608013,"longitude":-122.33517,"reserved":0,"last_update":"0001-01-01T00:00:00Z","name_a2s":"Uncletopia | Seattle | 2 | All Maps","protocol":17,"map":"pl_upward","folder":"tf","game":"Team Fortress","app_id":440,"player_count":21,"max_players":24,"Bots":0,"server_type":"Dedicated","server_os":"Linux","password":true,"vac":true,"version":"7757534","steam_id":85568392924469998,"keywords":["nocrits","nodmgspread","payload","uncletopia"],"game_id":440,"stv_port":27026,"stv_name":"Uncletopia | Seattle | 2 | All Maps | STV","players":[{"user_id":123,"name":"Justy","steam_id":76561198044014069,"connected_time":775000000000,"state":"spawning","ping":179},{"user_id":124,"name":"firestabber","steam_id":76561198057055577,"connected_time":657000000000,"state":"spawning","ping":122},{"user_id":128,"name":"Felipe Ramirez 2013","steam_id":76561198150497397,"connected_time":15000000000,"state":"connecting","ping":68},{"user_id":118,"name":"Luck","steam_id":76561199122232082,"connected_time":925000000000,"state":"spawning","ping":245},{"user_id":127,"name":"cheesynipples","steam_id":76561198169768539,"connected_time":184000000000,"state":"spawning","ping":144},{"user_id":113,"name":"Nibotshooter","steam_id":76561199284825579,"connected_time":1673000000000,"state":"spawning","ping":157},{"user_id":15,"name":"Mall","steam_id":76561198436085386,"connected_time":8001000000000,"state":"spawning","ping":224},{"user_id":107,"name":"Padre Pat","steam_id":76561198392985381,"connected_time":2623000000000,"state":"spawning","ping":190},{"user_id":49,"name":"cattzer","steam_id":76561199055713543,"connected_time":6225000000000,"state":"spawning","ping":175},{"user_id":129,"name":"ArchmageF","steam_id":76561197992246851,"connected_time":14000000000,"state":"connecting","ping":143},{"user_id":130,"name":"Bonks","steam_id":76561198972835565,"connected_time":7000000000,"state":"spawning","ping":60},{"user_id":102,"name":"AlphaScout","steam_id":76561198047797890,"connected_time":3121000000000,"state":"spawning","ping":221},{"user_id":109,"name":"fancyfreak","steam_id":76561198326466375,"connected_time":2399000000000,"state":"spawning","ping":185},{"user_id":125,"name":"Ylime","steam_id":76561198027878221,"connected_time":513000000000,"state":"spawning","ping":103},{"user_id":116,"name":"kodynotcody","steam_id":76561198340685758,"connected_time":1349000000000,"state":"spawning","ping":115},{"user_id":96,"name":"Nemcat.Jr","steam_id":76561198079821706,"connected_time":3319000000000,"state":"spawning","ping":230},{"user_id":97,"name":"Mr8bittripper","steam_id":76561198133894229,"connected_time":3308000000000,"state":"spawning","ping":140},{"user_id":112,"name":"Momazos","steam_id":76561198346410032,"connected_time":1811000000000,"state":"spawning","ping":162},{"user_id":108,"name":"‚ô•Lyra‚ô•","steam_id":76561198092853824,"connected_time":2513000000000,"state":"spawning","ping":161},{"user_id":101,"name":"charley","steam_id":76561198828238339,"connected_time":3193000000000,"state":"spawning","ping":135},{"user_id":105,"name":"Deja Vu","steam_id":76561198062090620,"connected_time":2813000000000,"state":"spawning","ping":113}]},{"server_id":406,"name":"Uncletopia | Seattle | 3 | Stopwatch Beta","name_short":"sea-3","host":"sea-1.us.uncletopia.com","port":27035,"enabled":true,"region":"us-west","cc":"us","latitude":47.608013,"longitude":-122.33517,"reserved":0,"last_update":"0001-01-01T00:00:00Z","name_a2s":"Uncletopia | Seattle | 3 | Stopwatch Beta","protocol":17,"map":"workshop/pl_vigil_rc9.ugc1266210012","folder":"tf","game":"Team Fortress","app_id":440,"player_count":0,"max_players":24,"Bots":0,"server_type":"Dedicated","server_os":"Linux","password":true,"vac":true,"version":"7757534","steam_id":85568392924515217,"keywords":["nocrits","nodmgspread","payload","uncletopia"],"game_id":440,"stv_port":27036,"stv_name":"Uncletopia | Seattle | 3 | Stopwatch Beta | STV","players":null},{"server_id":17,"name":"Uncletopia | San Francisco | 1 | All Maps","name_short":"sfo-1","host":"sfo-1.us.uncletopia.com","port":27015,"enabled":true,"region":"us-west","cc":"us","latitude":37.77397,"longitude":-122.4313,"reserved":0,"last_update":"0001-01-01T00:00:00Z","name_a2s":"Uncletopia | San Francisco | 1 | All Maps","protocol":17,"map":"pl_upward","folder":"tf","game":"Team Fortress","app_id":440,"player_count":24,"max_players":24,"Bots":0,"server_type":"Dedicated","server_os":"Linux","password":true,"vac":true,"version":"7757534","steam_id":85568392924469999,"keywords":["nocrits","nodmgspread","payload","uncletopia"],"game_id":440,"stv_port":27016,"stv_name":"Uncletopia | San Francisco | 1 | All Maps | STV","players":[{"user_id":221,"name":"PLak-PlaK","steam_id":76561198115688122,"connected_time":451000000000,"state":"active","ping":67},{"user_id":207,"name":"Î©çÏ≤≠Ìïú ÎØ∏Íµ≠Ïù∏","steam_id":76561198041986461,"connected_time":891000000000,"state":"active","ping":70},{"user_id":226,"name":"Look See","steam_id":76561198157253413,"connected_time":15000000000,"state":"active","ping":125},{"user_id":195,"name":"uzr","steam_id":76561198799343084,"connected_time":1449000000000,"state":"active","ping":58},{"user_id":183,"name":"primordialheath","steam_id":76561199386942638,"connected_time":2674000000000,"state":"active","ping":111},{"user_id":209,"name":"no vc no c","steam_id":76561197989503095,"connected_time":870000000000,"state":"active","ping":150},{"user_id":222,"name":"amagicowl","steam_id":76561199060487814,"connected_time":299000000000,"state":"active","ping":73},{"user_id":202,"name":"Noodlesmasher2","steam_id":76561199084186813,"connected_time":1129000000000,"state":"active","ping":47},{"user_id":218,"name":"onisock","steam_id":76561198166589402,"connected_time":647000000000,"state":"active","ping":45},{"user_id":139,"name":"Sakisano","steam_id":76561198245814880,"connected_time":5298000000000,"state":"active","ping":97},{"user_id":156,"name":"zpalmtree","steam_id":76561198134307620,"connected_time":4015000000000,"state":"active","ping":116},{"user_id":168,"name":"Shoehorn Jim","steam_id":76561198310004779,"connected_time":3553000000000,"state":"active","ping":114},{"user_id":216,"name":"monkey","steam_id":76561199110953283,"connected_time":743000000000,"state":"active","ping":63},{"user_id":210,"name":"Once in a Lifetime","steam_id":76561199180652178,"connected_time":854000000000,"state":"active","ping":123},{"user_id":176,"name":"creamy","steam_id":76561198157435832,"connected_time":3172000000000,"state":"active","ping":114},{"user_id":201,"name":"Laxoloni","steam_id":76561199197045700,"connected_time":1310000000000,"state":"active","ping":69},{"user_id":146,"name":"Training Arc","steam_id":76561198038832034,"connected_time":4857000000000,"state":"active","ping":75},{"user_id":97,"name":"Summer's Snowman","steam_id":76561198057140854,"connected_time":8500000000000,"state":"active","ping":61},{"user_id":194,"name":"‚ùÑ Alice ‚ô•","steam_id":76561198869945051,"connected_time":1615000000000,"state":"active","ping":106},{"user_id":212,"name":"Meh","steam_id":76561198078187920,"connected_time":840000000000,"state":"active","ping":134},{"user_id":205,"name":"Vanadium","steam_id":76561198445677637,"connected_time":972000000000,"state":"active","ping":79},{"user_id":224,"name":"Mediarch","steam_id":76561198050765729,"connected_time":184000000000,"state":"active","ping":75},{"user_id":173,"name":"TheMagicMrWaffle","steam_id":76561198104357256,"connected_time":3349000000000,"state":"active","ping":57},{"user_id":225,"name":"Mufalito","steam_id":76561198951889482,"connected_time":165000000000,"state":"active","ping":187}]},{"server_id":18,"name":"Uncletopia | San Francisco | 2 | All Maps","name_short":"sfo-2","host":"sfo-1.us.uncletopia.com","port":27025,"enabled":true,"region":"us-west","cc":"us","latitude":37.77397,"longitude":-122.4313,"reserved":0,"last_update":"0001-01-01T00:00:00Z","name_a2s":"Uncletopia | San Francisco | 2 | All Maps","protocol":17,"map":"koth_highpass","folder":"tf","game":"Team Fortress","app_id":440,"player_count":0,"max_players":24,"Bots":0,"server_type":"Dedicated","server_os":"Linux","password":true,"vac":true,"version":"7757534","steam_id":85568392924470000,"keywords":["cp","nocrits","nodmgspread","uncletopia"],"game_id":440,"stv_port":27026,"stv_name":"Uncletopia | San Francisco | 2 | All Maps | STV","players":null},{"server_id":19,"name":"Uncletopia | San Francisco | 3 | Stopwatch Beta","name_short":"sfo-3","host":"sfo-1.us.uncletopia.com","port":27035,"enabled":true,"region":"us-west","cc":"us","latitude":37.77397,"longitude":-122.4313,"reserved":0,"last_update":"0001-01-01T00:00:00Z","name_a2s":"Uncletopia | San Francisco | 3 | Stopwatch Beta","protocol":17,"map":"koth_lakeside_final","folder":"tf","game":"Team Fortress","app_id":440,"player_count":0,"max_players":24,"Bots":0,"server_type":"Dedicated","server_os":"Linux","password":true,"vac":true,"version":"7757534","steam_id":85568392924742824,"keywords":["cp","nocrits","nodmgspread","uncletopia"],"game_id":440,"stv_port":27036,"stv_name":"Uncletopia | San Francisco | 3 | Stopwatch Beta | STV","players":null},{"server_id":20,"name":"Uncletopia | San Francisco | 4 | Community","name_short":"sfo-4","host":"sfo-1.us.uncletopia.com","port":27045,"enabled":true,"region":"us-west","cc":"us","latitude":37.77397,"longitude":-122.4313,"reserved":0,"last_update":"0001-01-01T00:00:00Z","name_a2s":"Uncletopia | San Francisco | 4 | Community","protocol":17,"map":"cp_altitude","folder":"tf","game":"Team Fortress","app_id":440,"player_count":0,"max_players":24,"Bots":0,"server_type":"Dedicated","server_os":"Linux","password":true,"vac":true,"version":"7757534","steam_id":85568392924742826,"keywords":["cp","nocrits","nodmgspread","uncletopia"],"game_id":440,"stv_port":27046,"stv_name":"Uncletopia | San Francisco | 4 | Community | STV","players":null},{"server_id":141,"name":"Uncletopia | Sydney | 1 | All Maps","name_short":"syd-1","host":"syd-1.au.uncletopia.com","port":27015,"enabled":true,"region":"au","cc":"au","latitude":-33.865143,"longitude":151.2099,"reserved":0,"last_update":"0001-01-01T00:00:00Z","name_a2s":"Uncletopia | Sydney | 1 | All Maps","protocol":17,"map":"koth_highpass","folder":"tf","game":"Team Fortress","app_id":440,"player_count":0,"max_players":24,"Bots":0,"server_type":"Dedicated","server_os":"Linux","password":true,"vac":true,"version":"7757534","steam_id":85568392924470001,"keywords":["cp","nocrits","nodmgspread","uncletopia"],"game_id":440,"stv_port":27016,"stv_name":"Uncletopia | Sydney | 1 | All Maps | STV","players":null},{"server_id":123,"name":"Uncletopia | Sydney | 2 | All Maps","name_short":"syd-2","host":"syd-1.au.uncletopia.com","port":27025,"enabled":true,"region":"au","cc":"au","latitude":-33.865143,"longitude":151.2099,"reserved":0,"last_update":"0001-01-01T00:00:00Z","name_a2s":"Uncletopia | Sydney | 2 | All Maps","protocol":17,"map":"pl_barnblitz","folder":"tf","game":"Team Fortress","app_id":440,"player_count":0,"max_players":24,"Bots":0,"server_type":"Dedicated","server_os":"Linux","password":true,"vac":true,"version":"7757534","steam_id":85568392924470002,"keywords":["nocrits","nodmgspread","payload","uncletopia"],"game_id":440,"stv_port":27026,"stv_name":"Uncletopia | Sydney | 2 | All Maps | STV","players":null},{"server_id":395,"name":"Uncletopia | Sydney | 3 | All Maps","name_short":"syd-3","host":"syd-1.au.uncletopia.com","port":27035,"enabled":true,"region":"au","cc":"au","latitude":-33.865143,"longitude":151.2099,"reserved":0,"last_update":"0001-01-01T00:00:00Z","name_a2s":"Uncletopia | Sydney | 3 | All Maps","protocol":17,"map":"koth_lakeside_final","folder":"tf","game":"Team Fortress","app_id":440,"player_count":0,"max_players":24,"Bots":0,"server_type":"Dedicated","server_os":"Linux","password":true,"vac":true,"version":"7757534","steam_id":85568392925194467,"keywords":["cp","nocrits","nodmgspread","uncletopia"],"game_id":440,"stv_port":27036,"stv_name":"Uncletopia | Sydney | 3 | All Maps | STV","players":null},{"server_id":396,"name":"Uncletopia | Sydney | 4 | All Maps","name_short":"syd-4","host":"syd-1.au.uncletopia.com","port":27045,"enabled":true,"region":"au","cc":"au","latitude":-33.865143,"longitude":151.2099,"reserved":0,"last_update":"0001-01-01T00:00:00Z","name_a2s":"Uncletopia | Sydney | 4 | All Maps","protocol":17,"map":"cp_snakewater_final1","folder":"tf","game":"Team Fortress","app_id":440,"player_count":0,"max_players":24,"Bots":0,"server_type":"Dedicated","server_os":"Linux","password":true,"vac":true,"version":"7757534","steam_id":85568392925397958,"keywords":["cp","nocrits","nodmgspread","uncletopia"],"game_id":440,"stv_port":27046,"stv_name":"Uncletopia | Sydney | 4 | All Maps | STV","players":null},{"server_id":58,"name":"Uncletopia | Sydney | 5 | Stopwatch Beta","name_short":"syd-5","host":"syd-1.au.uncletopia.com","port":27055,"enabled":true,"region":"au","cc":"au","latitude":-33.865143,"longitude":151.2099,"reserved":0,"last_update":"0001-01-01T00:00:00Z","name_a2s":"Uncletopia | Sydney | 5 | Stopwatch Beta","protocol":17,"map":"pl_upward","folder":"tf","game":"Team Fortress","app_id":440,"player_count":0,"max_players":24,"Bots":0,"server_type":"Dedicated","server_os":"Linux","password":true,"vac":true,"version":"7757534","steam_id":85568392925397959,"keywords":["nocrits","nodmgspread","payload","uncletopia"],"game_id":440,"stv_port":27056,"stv_name":"Uncletopia | Sydney | 5 | Stopwatch Beta | STV","players":null},{"server_id":59,"name":"Uncletopia | Sydney | 6 | Community","name_short":"syd-6","host":"syd-1.au.uncletopia.com","port":27065,"enabled":true,"region":"au","cc":"au","latitude":-33.865143,"longitude":151.2099,"reserved":0,"last_update":"0001-01-01T00:00:00Z","name_a2s":"Uncletopia | Sydney | 6 | Community","protocol":17,"map":"workshop/pl_cashworks_final1.ugc2904065412","folder":"tf","game":"Team Fortress","app_id":440,"player_count":0,"max_players":24,"Bots":0,"server_type":"Dedicated","server_os":"Linux","password":true,"vac":true,"version":"7757534","steam_id":85568392925397960,"keywords":["nocrits","nodmgspread","payload","uncletopia"],"game_id":440,"stv_port":27066,"stv_name":"Uncletopia | Sydney | 6 | Community | STV","players":null},{"server_id":49,"name":"Uncletopia | Warsaw | 1 | All Maps","name_short":"waw-1","host":"waw-1.pl.uncletopia.com","port":27015,"enabled":true,"region":"eu","cc":"pl","latitude":52.2297,"longitude":21.017532,"reserved":0,"last_update":"0001-01-01T00:00:00Z","name_a2s":"","protocol":0,"map":"","folder":"","game":"","app_id":0,"player_count":0,"max_players":0,"Bots":0,"server_type":"","server_os":"","password":false,"vac":false,"version":"","steam_id":0,"keywords":null,"game_id":0,"stv_port":0,"stv_name":"","players":null},{"server_id":50,"name":"Uncletopia | Warsaw | 2 | All Maps","name_short":"waw-2","host":"waw-1.pl.uncletopia.com","port":27025,"enabled":true,"region":"eu","cc":"pl","latitude":52.2297,"longitude":21.017532,"reserved":0,"last_update":"0001-01-01T00:00:00Z","name_a2s":"Uncletopia | Warsaw | 2 | All Maps","protocol":17,"map":"koth_lakeside_final","folder":"tf","game":"Team Fortress","app_id":440,"player_count":0,"max_players":24,"Bots":0,"server_type":"Dedicated","server_os":"Linux","password":true,"vac":true,"version":"7757534","steam_id":85568392925397851,"keywords":["cp","nocrits","nodmgspread","uncletopia"],"game_id":440,"stv_port":27026,"stv_name":"Uncletopia | Warsaw | 2 | All Maps | STV","players":null},{"server_id":51,"name":"Uncletopia | Warsaw | 3 | All Maps","name_short":"waw-3","host":"waw-1.pl.uncletopia.com","port":27035,"enabled":true,"region":"eu","cc":"pl","latitude":52.2297,"longitude":21.017532,"reserved":0,"last_update":"0001-01-01T00:00:00Z","name_a2s":"Uncletopia | Warsaw | 3 | All Maps","protocol":17,"map":"pl_snowycoast","folder":"tf","game":"Team Fortress","app_id":440,"player_count":0,"max_players":24,"Bots":0,"server_type":"Dedicated","server_os":"Linux","password":true,"vac":true,"version":"7757534","steam_id":85568392925397852,"keywords":["nocrits","nodmgspread","payload","uncletopia"],"game_id":440,"stv_port":27036,"stv_name":"Uncletopia | Warsaw | 3 | All Maps | STV","players":null},{"server_id":52,"name":"Uncletopia | Warsaw | 4 | All Maps","name_short":"waw-4","host":"waw-1.pl.uncletopia.com","port":27045,"enabled":true,"region":"eu","cc":"pl","latitude":52.2297,"longitude":21.017532,"reserved":0,"last_update":"0001-01-01T00:00:00Z","name_a2s":"Uncletopia | Warsaw | 4 | All Maps","protocol":17,"map":"koth_lakeside_final","folder":"tf","game":"Team Fortress","app_id":440,"player_count":0,"max_players":24,"Bots":0,"server_type":"Dedicated","server_os":"Linux","password":true,"vac":true,"version":"7757534","steam_id":85568392925397853,"keywords":["cp","nocrits","nodmgspread","uncletopia"],"game_id":440,"stv_port":27046,"stv_name":"Uncletopia | Warsaw | 4 | All Maps | STV","players":null},{"server_id":53,"name":"Uncletopia | Warsaw | 5 | Stopwatch Beta","name_short":"waw-5","host":"waw-1.pl.uncletopia.com","port":27055,"enabled":true,"region":"eu","cc":"pl","latitude":52.2297,"longitude":21.017532,"reserved":0,"last_update":"0001-01-01T00:00:00Z","name_a2s":"Uncletopia | Warsaw | 5 | Stopwatch Beta","protocol":17,"map":"workshop/koth_bagel_rc6.ugc2514036946","folder":"tf","game":"Team Fortress","app_id":440,"player_count":0,"max_players":24,"Bots":0,"server_type":"Dedicated","server_os":"Linux","password":true,"vac":true,"version":"7757534","steam_id":85568392925397854,"keywords":["cp","nocrits","nodmgspread","uncletopia"],"game_id":440,"stv_port":27056,"stv_name":"Uncletopia | Warsaw | 5 | Stopwatch Beta | STV","players":null},{"server_id":54,"name":"Uncletopia | Warsaw | 6 | Community","name_short":"waw-6","host":"waw-1.pl.uncletopia.com","port":27065,"enabled":true,"region":"eu","cc":"pl","latitude":52.2297,"longitude":21.017532,"reserved":0,"last_update":"0001-01-01T00:00:00Z","name_a2s":"Uncletopia | Warsaw | 6 | Community","protocol":17,"map":"workshop/koth_kemptown_rc1.ugc767410655","folder":"tf","game":"Team Fortress","app_id":440,"player_count":0,"max_players":24,"Bots":0,"server_type":"Dedicated","server_os":"Linux","password":true,"vac":true,"version":"7757534","steam_id":85568392925397856,"keywords":["cp","nocrits","nodmgspread","uncletopia"],"game_id":440,"stv_port":27066,"stv_name":"Uncletopia | Warsaw | 6 | Community | STV","players":null}]}