{"status":true,"message":"","result":[{"server_id":9,"name":"Uncletopia | Atlanta | 1 | All Maps","name_short":"atl-1","host":"atl-1.us.uncletopia.com","port":27015,"enabled":true,"region":"us-east","cc":"us","latitude":33.753746,"longitude":-84.38633,"reserved":0,"last_update":"0001-01-01T00:00:00Z","name_a2s":"Uncletopia | Atlanta | 1 | All Maps","protocol":17,"map":"pl_snowycoast","folder":"tf","game":"Team Fortress","app_id":440,"player_count":23,"max_players":24,"Bots":0,"server_type":"Dedicated","server_os":"Linux","password":true,"vac":true,"version":"7882260","steam_id":85568392924469982,"keywords":["nocrits","nodmgspread","payload","uncletopia"],"game_id":440,"stv_port":27016,"stv_name":"Uncletopia | Atlanta | 1 | All Maps | STV","players":[{"user_id":626,"name":"Roald (Solemn Vow Collector)","steam_id":76561198143182772,"connected_time":1945000000000,"state":"active","ping":73},{"user_id":640,"name":"Zirael","steam_id":76561198057143358,"connected_time":958000000000,"state":"active","ping":76},{"user_id":654,"name":"Sophie","steam_id":76561198170408057,"connected_time":106000000000,"state":"active","ping":48},{"user_id":636,"name":"Unreasonable Doubt","steam_id":76561198010708247,"connected_time":1550000000000,"state":"active","ping":72},{"user_id":607,"name":"rose","steam_id":76561198048882285,"connected_time":3668000000000,"state":"active","ping":60},{"user_id":648,"name":"Gustavo Fring","steam_id":76561198132807405,"connected_time":377000000000,"state":"active","ping":80},{"user_id":622,"name":"Orko (Third Degree Enjoyer)","steam_id":76561198162232131,"connected_time":2409000000000,"state":"active","ping":84},{"user_id":653,"name":"Sensitive Shooter","steam_id":76561198041439581,"connected_time":120000000000,"state":"active","ping":68},{"user_id":645,"name":"jay","steam_id":76561199474493516,"connected_time":769000000000,"state":"active","ping":116},{"user_id":651,"name":"KBoneski ♡","steam_id":76561198307409065,"connected_time":218000000000,"state":"active","ping":94},{"user_id":643,"name":"Bodhi","steam_id":76561198103230995,"connected_time":919000000000,"state":"active","ping":57},{"user_id":634,"name":"Cybercat","steam_id":76561199120774107,"connected_time":1587000000000,"state":"active","ping":112},{"user_id":644,"name":"Wall Beavers","steam_id":76561198154813241,"connected_time":791000000000,"state":"active","ping":101},{"user_id":630,"name":"Bocchi the Gock","steam_id":76561198152455316,"connected_time":1788000000000,"state":"active","ping":117},{"user_id":557,"name":"Onyx","steam_id":76561198275349640,"connected_time":8303000000000,"state":"active","ping":74},{"user_id":635,"name":"kasper lft","steam_id":76561198263271697,"connected_time":1556000000000,"state":"active","ping":62},{"user_id":619,"name":"DragonFalcon™","steam_id":76561198044559930,"connected_time":2740000000000,"state":"active","ping":51},{"user_id":623,"name":"nomad","steam_id":76561197998740399,"connected_time":2403000000000,"state":"active","ping":66},{"user_id":650,"name":"microninjeez","steam_id":76561198074936422,"connected_time":306000000000,"state":"active","ping":58},{"user_id":603,"name":"Toonice","steam_id":76561198402994885,"connected_time":3968000000000,"state":"active","ping":83},{"user_id":639,"name":"ash","steam_id":76561198127890645,"connected_time":1027000000000,"state":"active","ping":73},{"user_id":568,"name":"eish","steam_id":76561198089463603,"connected_time":7569000000000,"state":"active","ping":122},{"user_id":604,"name":"Am da Best","steam_id":76561198163825955,"connected_time":3946000000000,"state":"active","ping":101}]},{"server_id":104,"name":"Uncletopia | Atlanta | 2 | All Maps","name_short":"atl-2","host":"atl-1.us.uncletopia.com","port":27025,"enabled":true,"region":"us-east","cc":"us","latitude":33.753746,"longitude":-84.38633,"reserved":0,"last_update":"0001-01-01T00:00:00Z","name_a2s":"Uncletopia | Atlanta | 2 | All Maps","protocol":17,"map":"pl_barnblitz","folder":"tf","game":"Team Fortress","app_id":440,"player_count":0,"max_players":24,"Bots":0,"server_type":"Dedicated","server_os":"Linux","password":true,"vac":true,"version":"7882260","steam_id":85568392924469983,"keywords":["nocrits","nodmgspread","payload","uncletopia"],"game_id":440,"stv_port":27026,"stv_name":"Uncletopia | Atlanta | 2 | All Maps | STV","players":null},{"server_id":400,"name":"Uncletopia | Atlanta | 3 | Community","name_short":"atl-3","host":"atl-1.us.uncletopia.com","port":27035,"enabled":true,"region":"us-east","cc":"us","latitude":33.753746,"longitude":-84.38633,"reserved":0,"last_update":"0001-01-01T00:00:00Z","name_a2s":"Uncletopia | Atlanta | 3 | Community","protocol":17,"map":"workshop/koth_product_final.ugc454272353","folder":"tf","game":"Team Fortress","app_id":440,"player_count":0,"max_players":24,"Bots":0,"server_type":"Dedicated","server_os":"Linux","password":true,"vac":true,"version":"7882260","steam_id":85568392924515187,"keywords":["cp","nocrits","nodmgspread","uncletopia"],"game_id":440,"stv_port":27036,"stv_name":"Uncletopia | Atlanta | 3 | Community | STV","players":null},{"server_id":401,"name":"Uncletopia | Atlanta | 4 | No Payload","name_short":"atl-4","host":"atl-1.us.uncletopia.com","port":27045,"enabled":true,"region":"us-east","cc":"us","latitude":33.753746,"longitude":-84.38633,"reserved":0,"last_update":"0001-01-01T00:00:00Z","name_a2s":"","protocol":0,"map":"","folder":"","game":"","app_id":0,"player_count":0,"max_players":0,"Bots":0,"server_type":"","server_os":"","password":false,"vac":false,"version":"","steam_id":0,"keywords":null,"game_id":0,"stv_port":0,"stv_name":"","players":null},{"server_id":2,"name":"Uncletopia | Chicago | 1 | All Maps","name_short":"chi-1","host":"chi-1.us.uncletopia.com","port":27015,"enabled":true,"region":"us-central","cc":"us","latitude":41.881832,"longitude":-87.62318,"reserved":0,"last_update":"0001-01-01T00:00:00Z","name_a2s":"Uncletopia | Chicago | 1 | All Maps","protocol":17,"map":"cp_process_final","folder":"tf","game":"Team Fortress","app_id":440,"player_count":24,"max_players":24,"Bots":0,"server_type":"Dedicated","server_os":"Linux","password":true,"vac":true,"version":"7882260","steam_id":85568392924469984,"keywords":["cp","nocrits","nodmgspread","uncletopia"],"game_id":440,"stv_port":27016,"stv_name":"Uncletopia | Chicago | 1 | All Maps | STV","players":[{"user_id":864,"name":"Bird","steam_id":76561198231624620,"connected_time":4185000000000,"state":"active","ping":61},{"user_id":869,"name":"Flayre","steam_id":76561198803036389,"connected_time":2909000000000,"state":"active","ping":67},{"user_id":905,"name":"Aristotle Voulton","steam_id":76561198100174923,"connected_time":19000000000,"state":"active","ping":81},{"user_id":782,"name":"SilentFootba11","steam_id":76561199006570947,"connected_time":10649000000000,"state":"active","ping":79},{"user_id":904,"name":"Coms","steam_id":76561198204995668,"connected_time":150000000000,"state":"active","ping":78},{"user_id":821,"name":"River Rat","steam_id":76561198116383976,"connected_time":7746000000000,"state":"active","ping":118},{"user_id":842,"name":"eloressa","steam_id":76561198120330867,"connected_time":7028000000000,"state":"active","ping":56},{"user_id":885,"name":"0","steam_id":76561198046055673,"connected_time":1361000000000,"state":"active","ping":83},{"user_id":886,"name":"Tanuki with a gun.","steam_id":76561198027487285,"connected_time":1347000000000,"state":"active","ping":106},{"user_id":887,"name":"unfathomable depths of sadness ","steam_id":76561198048925904,"connected_time":1290000000000,"state":"active","ping":119},{"user_id":903,"name":"dairy","steam_id":76561198047270339,"connected_time":271000000000,"state":"active","ping":85},{"user_id":890,"name":"Ink","steam_id":76561198389914633,"connected_time":1232000000000,"state":"active","ping":149},{"user_id":862,"name":"design philosophy","steam_id":76561198010482603,"connected_time":4308000000000,"state":"active","ping":86},{"user_id":891,"name":"LIFE","steam_id":76561198027146328,"connected_time":1218000000000,"state":"active","ping":43},{"user_id":899,"name":"kree","steam_id":76561197979960008,"connected_time":769000000000,"state":"active","ping":54},{"user_id":892,"name":"blitzkriiegi","steam_id":76561198200944766,"connected_time":1142000000000,"state":"active","ping":45},{"user_id":897,"name":"DolphiN | RGL.gg","steam_id":76561198048614515,"connected_time":955000000000,"state":"active","ping":49},{"user_id":805,"name":"『Hazon』","steam_id":76561198119852107,"connected_time":9486000000000,"state":"active","ping":75},{"user_id":894,"name":"Colonel_Tighlon","steam_id":76561198005660399,"connected_time":1111000000000,"state":"active","ping":60},{"user_id":874,"name":"Person","steam_id":76561198093244204,"connected_time":2720000000000,"state":"active","ping":86},{"user_id":843,"name":"CertainlyMe","steam_id":76561198039564401,"connected_time":6812000000000,"state":"active","ping":71},{"user_id":898,"name":"emseaeye","steam_id":76561198161499803,"connected_time":832000000000,"state":"active","ping":75},{"user_id":866,"name":"Swiftmend","steam_id":76561197995595692,"connected_time":3947000000000,"state":"active","ping":78},{"user_id":901,"name":"honked off the bobo","steam_id":76561198123287268,"connected_time":603000000000,"state":"active","ping":46}]},{"server_id":106,"name":"Uncletopia | Chicago | 2 | All Maps","name_short":"chi-2","host":"chi-1.us.uncletopia.com","port":27025,"enabled":true,"region":"us-central","cc":"us","latitude":41.881832,"longitude":-87.62318,"reserved":0,"last_update":"0001-01-01T00:00:00Z","name_a2s":"Uncletopia | Chicago | 2 | All Maps","protocol":17,"map":"pl_pier","folder":"tf","game":"Team Fortress","app_id":440,"player_count":24,"max_players":24,"Bots":0,"server_type":"Dedicated","server_os":"Linux","password":true,"vac":true,"version":"7882260","steam_id":85568392924469985,"keywords":["nocrits","nodmgspread","payload","uncletopia"],"game_id":440,"stv_port":27026,"stv_name":"Uncletopia | Chicago | 2 | All Maps | STV","players":[{"user_id":512,"name":"Sarachnid","steam_id":76561198067163856,"connected_time":3000000000,"state":"spawning","ping":55},{"user_id":495,"name":"GodandTitans","steam_id":76561198070070155,"connected_time":1935000000000,"state":"active","ping":75},{"user_id":511,"name":"Meh","steam_id":76561198078187920,"connected_time":105000000000,"state":"active","ping":77},{"user_id":500,"name":":)","steam_id":76561198093921290,"connected_time":1409000000000,"state":"active","ping":47},{"user_id":505,"name":"ark","steam_id":76561198041066271,"connected_time":750000000000,"state":"active","ping":76},{"user_id":427,"name":"Snoopy","steam_id":76561198273735974,"connected_time":6398000000000,"state":"active","ping":103},{"user_id":506,"name":"Belts the Puppet","steam_id":76561198322969864,"connected_time":739000000000,"state":"active","ping":83},{"user_id":475,"name":"scooterre","steam_id":76561198055068182,"connected_time":3275000000000,"state":"active","ping":63},{"user_id":503,"name":"NicholasW","steam_id":76561197986850168,"connected_time":906000000000,"state":"active","ping":56},{"user_id":429,"name":"Toastedtoast222","steam_id":76561198120756409,"connected_time":6333000000000,"state":"active","ping":99},{"user_id":411,"name":"Atlas (Skylar)","steam_id":76561198041531774,"connected_time":7400000000000,"state":"active","ping":51},{"user_id":468,"name":"99999999 説明を見て","steam_id":76561199163884669,"connected_time":3548000000000,"state":"active","ping":106},{"user_id":453,"name":"Scrux","steam_id":76561198129763115,"connected_time":4824000000000,"state":"active","ping":107},{"user_id":496,"name":"Preacher","steam_id":76561198022215764,"connected_time":1914000000000,"state":"active","ping":71},{"user_id":502,"name":"Tyco","steam_id":76561197978414167,"connected_time":1207000000000,"state":"active","ping":76},{"user_id":471,"name":"The Benefactor","steam_id":76561198307247913,"connected_time":3515000000000,"state":"active","ping":105},{"user_id":497,"name":"lawnmowinkitty","steam_id":76561198038997467,"connected_time":1754000000000,"state":"active","ping":93},{"user_id":483,"name":"PootisPowHAHA","steam_id":76561199023536209,"connected_time":2850000000000,"state":"active","ping":88},{"user_id":504,"name":"sharken","steam_id":76561198032350972,"connected_time":776000000000,"state":"active","ping":88},{"user_id":498,"name":"sloshing in the wet spot","steam_id":76561197998103691,"connected_time":1737000000000,"state":"active","ping":106},{"user_id":477,"name":"Cy4nideCutie","steam_id":76561198126686695,"connected_time":3233000000000,"state":"active","ping":61},{"user_id":508,"name":"Animal Slices","steam_id":76561198137545511,"connected_time":380000000000,"state":"active","ping":60},{"user_id":501,"name":"enty","steam_id":76561199076171301,"connected_time":1272000000000,"state":"active","ping":66},{"user_id":507,"name":"TF2C | fac -AA-","steam_id":76561198009818412,"connected_time":728000000000,"state":"active","ping":69}]},{"server_id":402,"name":"Uncletopia | Chicago | 3 | All Maps","name_short":"chi-3","host":"chi-1.us.uncletopia.com","port":27035,"enabled":true,"region":"us-central","cc":"us","latitude":41.881832,"longitude":-87.62318,"reserved":0,"last_update":"0001-01-01T00:00:00Z","name_a2s":"Uncletopia | Chicago | 3 | All Maps","protocol":17,"map":"koth_cascade","folder":"tf","game":"Team Fortress","app_id":440,"player_count":18,"max_players":24,"Bots":0,"server_type":"Dedicated","server_os":"Linux","password":true,"vac":true,"version":"7882260","steam_id":85568392924515191,"keywords":["cp","nocrits","nodmgspread","uncletopia"],"game_id":440,"stv_port":27036,"stv_name":"Uncletopia | Chicago | 3 | All Maps | STV","players":[{"user_id":720,"name":"burger","steam_id":76561198058209703,"connected_time":146000000000,"state":"active","ping":55},{"user_id":675,"name":"cactus eater","steam_id":76561199107499844,"connected_time":3385000000000,"state":"active","ping":113},{"user_id":704,"name":"chicken bacon ranch","steam_id":76561198797314711,"connected_time":1609000000000,"state":"active","ping":79},{"user_id":721,"name":"Ⓑ⓪⓪ⓣⓨⓒⓐⓚⓔⓢ","steam_id":76561198088776421,"connected_time":24000000000,"state":"active","ping":64},{"user_id":722,"name":"onetickledpickle","steam_id":76561199445983352,"connected_time":13000000000,"state":"spawning","ping":76},{"user_id":712,"name":"Jin Mu-Won","steam_id":76561198414122318,"connected_time":1129000000000,"state":"active","ping":60},{"user_id":718,"name":"BooG","steam_id":76561198879345384,"connected_time":723000000000,"state":"active","ping":86},{"user_id":691,"name":"President William Howard Taft","steam_id":76561198047691108,"connected_time":2173000000000,"state":"active","ping":59},{"user_id":719,"name":"Dylan","steam_id":76561198272623548,"connected_time":396000000000,"state":"active","ping":111},{"user_id":690,"name":"Happy Yaoi Friday","steam_id":76561198111290441,"connected_time":2249000000000,"state":"active","ping":55},{"user_id":705,"name":"Cheese Kurds","steam_id":76561198273021540,"connected_time":1608000000000,"state":"active","ping":84},{"user_id":713,"name":"x","steam_id":76561198973457538,"connected_time":1088000000000,"state":"active","ping":175},{"user_id":696,"name":"[Colorbomb]","steam_id":76561198006316527,"connected_time":1877000000000,"state":"active","ping":99},{"user_id":706,"name":"CashBin","steam_id":76561199382865598,"connected_time":1605000000000,"state":"active","ping":64},{"user_id":700,"name":"JHLO","steam_id":76561198074359967,"connected_time":1801000000000,"state":"active","ping":88},{"user_id":703,"name":"Penser","steam_id":76561198798194358,"connected_time":1745000000000,"state":"active","ping":92},{"user_id":708,"name":"Box Dog","steam_id":76561198067109041,"connected_time":1566000000000,"state":"active","ping":104},{"user_id":716,"name":"dyyd7706","steam_id":76561199230461523,"connected_time":1026000000000,"state":"active","ping":82}]},{"server_id":403,"name":"Uncletopia | Chicago | 4 | All Maps","name_short":"chi-4","host":"chi-1.us.uncletopia.com","port":27045,"enabled":true,"region":"us-central","cc":"us","latitude":41.881832,"longitude":-87.62318,"reserved":0,"last_update":"0001-01-01T00:00:00Z","name_a2s":"Uncletopia | Chicago | 4 | All Maps","protocol":17,"map":"koth_viaduct","folder":"tf","game":"Team Fortress","app_id":440,"player_count":19,"max_players":24,"Bots":0,"server_type":"Dedicated","server_os":"Linux","password":true,"vac":true,"version":"7882260","steam_id":85568392924515193,"keywords":["cp","nocrits","nodmgspread","uncletopia"],"game_id":440,"stv_port":27046,"stv_name":"Uncletopia | Chicago | 4 | All Maps | STV","players":[{"user_id":900,"name":"Moonadoo","steam_id":76561198133377546,"connected_time":545000000000,"state":"active","ping":57},{"user_id":874,"name":"Castroy","steam_id":76561198108160099,"connected_time":2039000000000,"state":"active","ping":57},{"user_id":858,"name":"AlexeiStukov","steam_id":76561197993272929,"connected_time":3182000000000,"state":"active","ping":62},{"user_id":896,"name":"gasparmx","steam_id":76561197998611994,"connected_time":1162000000000,"state":"active","ping":106},{"user_id":899,"name":"itssagebro","steam_id":76561198280331638,"connected_time":866000000000,"state":"active","ping":68},{"user_id":890,"name":"Marshmallow Supreme","steam_id":76561198057291909,"connected_time":1486000000000,"state":"active","ping":57},{"user_id":775,"name":"Gay Cake","steam_id":76561198004388831,"connected_time":8511000000000,"state":"active","ping":62},{"user_id":891,"name":"LLaigend","steam_id":76561199099862138,"connected_time":1472000000000,"state":"active","ping":88},{"user_id":846,"name":"Dr. B.S. O'Dee","steam_id":76561198199978731,"connected_time":3816000000000,"state":"active","ping":164},{"user_id":872,"name":"Mr.Sandmann","steam_id":76561198795713649,"connected_time":2166000000000,"state":"active","ping":110},{"user_id":892,"name":"Balerion the Black Dread","steam_id":76561198003728369,"connected_time":1420000000000,"state":"active","ping":102},{"user_id":897,"name":"SquishyDog","steam_id":76561198059014380,"connected_time":1118000000000,"state":"active","ping":34},{"user_id":860,"name":"Doubting Dave","steam_id":76561198066410749,"connected_time":2954000000000,"state":"active","ping":75},{"user_id":901,"name":"Miller™","steam_id":76561198085090516,"connected_time":452000000000,"state":"active","ping":78},{"user_id":902,"name":"Shulky.png","steam_id":76561198135403153,"connected_time":441000000000,"state":"active","ping":85},{"user_id":903,"name":"Holiday Fartcruise","steam_id":76561198043851584,"connected_time":76000000000,"state":"active","ping":118},{"user_id":886,"name":"Fraglin","steam_id":76561198124964000,"connected_time":1618000000000,"state":"active","ping":70},{"user_id":827,"name":"water and water and water water","steam_id":76561198257848207,"connected_time":4897000000000,"state":"active","ping":75},{"user_id":857,"name":"Featherless Biped","steam_id":76561198034171721,"connected_time":3230000000000,"state":"active","ping":63}]},{"server_id":36,"name":"Uncletopia | Chicago | 5 | All Maps","name_short":"chi-5","host":"chi-2.us.uncletopia.com","port":27015,"enabled":true,"region":"us-central","cc":"us","latitude":41.881832,"longitude":-87.62318,"reserved":0,"last_update":"0001-01-01T00:00:00Z","name_a2s":"Uncletopia | Chicago | 5 | All Maps","protocol":17,"map":"pl_frontier_final","folder":"tf","game":"Team Fortress","app_id":440,"player_count":22,"max_players":24,"Bots":0,"server_type":"Dedicated","server_os":"Linux","password":true,"vac":true,"version":"7882260","steam_id":85568392924866362,"keywords":["nocrits","nodmgspread","payload","uncletopia"],"game_id":440,"stv_port":27016,"stv_name":"Uncletopia | Chicago | 5 | All Maps | STV","players":[{"user_id":398,"name":"shep","steam_id":76561198048542544,"connected_time":2982000000000,"state":"active","ping":75},{"user_id":391,"name":"soupy","steam_id":76561197974283797,"connected_time":3449000000000,"state":"active","ping":45},{"user_id":395,"name":"critically in need of za","steam_id":76561198144766439,"connected_time":3243000000000,"state":"active","ping":43},{"user_id":409,"name":"Rudy","steam_id":76561198013456828,"connected_time":2276000000000,"state":"active","ping":66},{"user_id":399,"name":"BigDeac","steam_id":76561198091237274,"connected_time":2803000000000,"state":"active","ping":56},{"user_id":400,"name":"noah","steam_id":76561198173310157,"connected_time":2737000000000,"state":"active","ping":52},{"user_id":417,"name":"Shortround","steam_id":76561197999943914,"connected_time":1051000000000,"state":"active","ping":87},{"user_id":416,"name":"it's peanut time","steam_id":76561198236028020,"connected_time":1059000000000,"state":"active","ping":197},{"user_id":392,"name":"Ginger","steam_id":76561198074381106,"connected_time":3340000000000,"state":"active","ping":71},{"user_id":418,"name":"Darghul the Skeleton Lord","steam_id":76561198004140161,"connected_time":1034000000000,"state":"active","ping":58},{"user_id":419,"name":"Ace Attorney","steam_id":76561198133011705,"connected_time":1016000000000,"state":"active","ping":59},{"user_id":401,"name":"Ket","steam_id":76561198241951244,"connected_time":2728000000000,"state":"active","ping":65},{"user_id":402,"name":"SodaKid_7","steam_id":76561198079419485,"connected_time":2721000000000,"state":"active","ping":96},{"user_id":412,"name":"raya","steam_id":76561198051504581,"connected_time":1941000000000,"state":"active","ping":68},{"user_id":422,"name":"Tom Crúaich","steam_id":76561197999439911,"connected_time":304000000000,"state":"active","ping":74},{"user_id":423,"name":"I'm in your walls","steam_id":76561198153502981,"connected_time":287000000000,"state":"active","ping":61},{"user_id":424,"name":"uufyfuu","steam_id":76561198142787212,"connected_time":275000000000,"state":"active","ping":75},{"user_id":405,"name":"NexFrost","steam_id":76561197985774837,"connected_time":2666000000000,"state":"active","ping":62},{"user_id":407,"name":"Steve Greentop","steam_id":76561198119426892,"connected_time":2553000000000,"state":"active","ping":61},{"user_id":411,"name":"Mister Rattlebones","steam_id":76561198065560157,"connected_time":2165000000000,"state":"active","ping":54},{"user_id":425,"name":"Nostalgia","steam_id":76561198051818797,"connected_time":272000000000,"state":"active","ping":116},{"user_id":317,"name":"Nicolas Cage Kisses Mace Windu","steam_id":76561198046127710,"connected_time":7670000000000,"state":"active","ping":59}]},{"server_id":37,"name":"Uncletopia | Chicago | 6 | All Maps","name_short":"chi-6","host":"chi-2.us.uncletopia.com","port":27025,"enabled":true,"region":"us-central","cc":"us","latitude":41.881832,"longitude":-87.62318,"reserved":0,"last_update":"0001-01-01T00:00:00Z","name_a2s":"Uncletopia | Chicago | 6 | All Maps","protocol":17,"map":"pl_upward","folder":"tf","game":"Team Fortress","app_id":440,"player_count":22,"max_players":24,"Bots":0,"server_type":"Dedicated","server_os":"Linux","password":true,"vac":true,"version":"7882260","steam_id":85568392924866363,"keywords":["nocrits","nodmgspread","payload","uncletopia"],"game_id":440,"stv_port":27026,"stv_name":"Uncletopia | Chicago | 6 | All Maps | STV","players":[{"user_id":359,"name":"selarom | trade.tf |","steam_id":76561199069219350,"connected_time":212000000000,"state":"active","ping":59},{"user_id":357,"name":"DukeofWutang","steam_id":76561198010246343,"connected_time":328000000000,"state":"active","ping":94},{"user_id":327,"name":"BigNugs","steam_id":76561198056402610,"connected_time":1729000000000,"state":"active","ping":60},{"user_id":346,"name":"come to butthead","steam_id":76561198020322241,"connected_time":759000000000,"state":"active","ping":73},{"user_id":329,"name":"stoppen","steam_id":76561197960281482,"connected_time":1575000000000,"state":"active","ping":144},{"user_id":352,"name":"Ludcmorais","steam_id":76561198359217809,"connected_time":555000000000,"state":"active","ping":188},{"user_id":363,"name":"Tedward","steam_id":76561198948693551,"connected_time":4000000000,"state":"spawning","ping":72},{"user_id":334,"name":"xXMLGDOODXx","steam_id":76561198080758365,"connected_time":1179000000000,"state":"active","ping":60},{"user_id":339,"name":"Cromwell The Scorned","steam_id":76561198070830330,"connected_time":1072000000000,"state":"active","ping":70},{"user_id":353,"name":"Kdash","steam_id":76561198043829155,"connected_time":542000000000,"state":"active","ping":76},{"user_id":360,"name":"Kidzbopsicle","steam_id":76561198047660691,"connected_time":120000000000,"state":"active","ping":60},{"user_id":358,"name":"s2000","steam_id":76561198012414439,"connected_time":324000000000,"state":"active","ping":75},{"user_id":349,"name":"Kazmirl","steam_id":76561198116008410,"connected_time":704000000000,"state":"active","ping":106},{"user_id":338,"name":"Duke of Copper Wire","steam_id":76561198043075077,"connected_time":1122000000000,"state":"active","ping":76},{"user_id":361,"name":"boy from the rafters","steam_id":76561198042926224,"connected_time":75000000000,"state":"active","ping":98},{"user_id":345,"name":"Spooby","steam_id":76561198168114366,"connected_time":786000000000,"state":"active","ping":70},{"user_id":343,"name":"Katy","steam_id":76561198079395814,"connected_time":937000000000,"state":"active","ping":58},{"user_id":350,"name":"quirked up white girl","steam_id":76561198069407799,"connected_time":687000000000,"state":"active","ping":71},{"user_id":342,"name":"Spy (I Love spy)","steam_id":76561199138738952,"connected_time":996000000000,"state":"active","ping":72},{"user_id":303,"name":"jimmyfnaf172198yay","steam_id":76561198311446636,"connected_time":3778000000000,"state":"active","ping":59},{"user_id":287,"name":"earthbound393","steam_id":76561199444276547,"connected_time":4835000000000,"state":"active","ping":114},{"user_id":348,"name":"wsg","steam_id":76561197967761806,"connected_time":742000000000,"state":"active","ping":165}]},{"server_id":38,"name":"Uncletopia | Chicago | 7 | Stopwatch Beta","name_short":"chi-7","host":"chi-2.us.uncletopia.com","port":27035,"enabled":true,"region":"us-central","cc":"us","latitude":41.881832,"longitude":-87.62318,"reserved":0,"last_update":"0001-01-01T00:00:00Z","name_a2s":"Uncletopia | Chicago | 7 | Stopwatch Beta","protocol":17,"map":"pl_upward","folder":"tf","game":"Team Fortress","app_id":440,"player_count":0,"max_players":24,"Bots":0,"server_type":"Dedicated","server_os":"Linux","password":true,"vac":true,"version":"7882260","steam_id":85568392924866364,"keywords":["nocrits","nodmgspread","payload","uncletopia"],"game_id":440,"stv_port":27036,"stv_name":"Uncletopia | Chicago | 7 | Stopwatch Beta | STV","players":null},{"server_id":39,"name":"Uncletopia | Chicago | 8 | Community","name_short":"chi-8","host":"chi-2.us.uncletopia.com","port":27045,"enabled":true,"region":"us-central","cc":"us","latitude":41.881832,"longitude":-87.62318,"reserved":0,"last_update":"0001-01-01T00:00:00Z","name_a2s":"Uncletopia | Chicago | 8 | Community","protocol":17,"map":"workshop/koth_product_final.ugc454272353","folder":"tf","game":"Team Fortress","app_id":440,"player_count":0,"max_players":24,"Bots":0,"server_type":"Dedicated","server_os":"Linux","password":true,"vac":true,"version":"7882260","steam_id":85568392924866365,"keywords":["cp","nocrits","nodmgspread","uncletopia"],"game_id":440,"stv_port":27046,"stv_name":"Uncletopia | Chicago | 8 | Community | STV","players":null},{"server_id":8,"name":"Uncletopia | Dallas | 1 | All Maps","name_short":"dal-1","host":"dal-1.us.uncletopia.com","port":27015,"enabled":true,"region":"us-central","cc":"us","latitude":32.779167,"longitude":-96.80889,"reserved":0,"last_update":"0001-01-01T00:00:00Z","name_a2s":"Uncletopia | Dallas | 1 | All Maps","protocol":17,"map":"pl_borneo","folder":"tf","game":"Team Fortress","app_id":440,"player_count":16,"max_players":24,"Bots":0,"server_type":"Dedicated","server_os":"Linux","password":true,"vac":true,"version":"7882260","steam_id":85568392924469986,"keywords":["nocrits","nodmgspread","payload","uncletopia"],"game_id":440,"stv_port":27016,"stv_name":"Uncletopia | Dallas | 1 | All Maps | STV","players":[{"user_id":922,"name":"Alejandro","steam_id":76561197970051493,"connected_time":126000000000,"state":"active","ping":144},{"user_id":888,"name":"Sdehv2","steam_id":76561198067719497,"connected_time":3136000000000,"state":"active","ping":32},{"user_id":923,"name":"Etomb","steam_id":76561198210017208,"connected_time":99000000000,"state":"active","ping":67},{"user_id":889,"name":"a curved basket","steam_id":76561199192135759,"connected_time":2780000000000,"state":"active","ping":53},{"user_id":924,"name":"SleeplessCollin","steam_id":76561198968140914,"connected_time":46000000000,"state":"active","ping":60},{"user_id":925,"name":"coolio","steam_id":76561198141722005,"connected_time":17000000000,"state":"spawning","ping":54},{"user_id":890,"name":"ElSeco","steam_id":76561198051816810,"connected_time":2768000000000,"state":"active","ping":52},{"user_id":910,"name":"elyina","steam_id":76561198035310295,"connected_time":1007000000000,"state":"active","ping":75},{"user_id":842,"name":"Dylanxp300","steam_id":76561198271974937,"connected_time":7369000000000,"state":"active","ping":92},{"user_id":913,"name":"zeplinnn","steam_id":76561198301300987,"connected_time":837000000000,"state":"active","ping":82},{"user_id":887,"name":"a bucket of chicken","steam_id":76561198023710042,"connected_time":3253000000000,"state":"active","ping":45},{"user_id":909,"name":"Rainy Day Women #12 \u0026 35","steam_id":76561198162224842,"connected_time":1068000000000,"state":"active","ping":60},{"user_id":921,"name":"Drapph","steam_id":76561199384213314,"connected_time":186000000000,"state":"active","ping":183},{"user_id":879,"name":"Catmasta","steam_id":76561198819255576,"connected_time":3741000000000,"state":"active","ping":77},{"user_id":855,"name":"Cursed Dog","steam_id":76561198090785078,"connected_time":5764000000000,"state":"active","ping":73},{"user_id":905,"name":"Father Jon","steam_id":76561198324730919,"connected_time":1498000000000,"state":"active","ping":68}]},{"server_id":108,"name":"Uncletopia | Dallas | 2 | All Maps","name_short":"dal-2","host":"dal-1.us.uncletopia.com","port":27025,"enabled":true,"region":"us-central","cc":"us","latitude":32.779167,"longitude":-96.80889,"reserved":0,"last_update":"0001-01-01T00:00:00Z","name_a2s":"Uncletopia | Dallas | 2 | All Maps","protocol":17,"map":"pl_borneo","folder":"tf","game":"Team Fortress","app_id":440,"player_count":24,"max_players":24,"Bots":0,"server_type":"Dedicated","server_os":"Linux","password":true,"vac":true,"version":"7882260","steam_id":85568392924469988,"keywords":["nocrits","nodmgspread","payload","uncletopia"],"game_id":440,"stv_port":27026,"stv_name":"Uncletopia | Dallas | 2 | All Maps | STV","players":[{"user_id":565,"name":"Garfelf","steam_id":76561198419850129,"connected_time":1151000000000,"state":"active","ping":114},{"user_id":548,"name":"Engineer Gaming","steam_id":76561199386119444,"connected_time":3275000000000,"state":"active","ping":88},{"user_id":566,"name":"OpossumStyle","steam_id":76561199230107171,"connected_time":1053000000000,"state":"active","ping":60},{"user_id":562,"name":"STILLZ","steam_id":76561198131892406,"connected_time":2059000000000,"state":"active","ping":87},{"user_id":578,"name":"❤[Lilly]❤","steam_id":76561198817361963,"connected_time":278000000000,"state":"active","ping":106},{"user_id":560,"name":"Teddy Roosebelt","steam_id":76561198045493149,"connected_time":2446000000000,"state":"active","ping":90},{"user_id":579,"name":"ShadowDragon0125","steam_id":76561198343849022,"connected_time":177000000000,"state":"active","ping":71},{"user_id":580,"name":"joubrou.13","steam_id":76561198208567991,"connected_time":151000000000,"state":"active","ping":98},{"user_id":455,"name":"Hollister's Tree","steam_id":76561198982631429,"connected_time":13360000000000,"state":"active","ping":54},{"user_id":570,"name":"eggy","steam_id":76561199076858524,"connected_time":821000000000,"state":"active","ping":70},{"user_id":550,"name":"Klip","steam_id":76561198316254429,"connected_time":3246000000000,"state":"active","ping":60},{"user_id":538,"name":"EvilPigglet","steam_id":76561197987243470,"connected_time":5070000000000,"state":"active","ping":74},{"user_id":581,"name":"0","steam_id":76561198277439816,"connected_time":148000000000,"state":"active","ping":46},{"user_id":556,"name":"cypherzero","steam_id":76561199182960322,"connected_time":2626000000000,"state":"active","ping":53},{"user_id":573,"name":"juju_kungfu","steam_id":76561198151291219,"connected_time":641000000000,"state":"active","ping":97},{"user_id":563,"name":"Saucy Boy","steam_id":76561198178332031,"connected_time":2051000000000,"state":"active","ping":93},{"user_id":533,"name":"Insizhen","steam_id":76561198051352605,"connected_time":5785000000000,"state":"active","ping":58},{"user_id":574,"name":"mcgram2","steam_id":76561199121850792,"connected_time":587000000000,"state":"active","ping":82},{"user_id":569,"name":"MasterGeek.MX","steam_id":76561198063355220,"connected_time":1018000000000,"state":"active","ping":97},{"user_id":551,"name":"dtee","steam_id":76561198860201521,"connected_time":3103000000000,"state":"active","ping":130},{"user_id":572,"name":"Pocket Kobold","steam_id":76561198311221554,"connected_time":719000000000,"state":"active","ping":84},{"user_id":575,"name":"SyNing","steam_id":76561198213435803,"connected_time":570000000000,"state":"active","ping":111},{"user_id":576,"name":"Majestic-A","steam_id":76561198988062101,"connected_time":535000000000,"state":"active","ping":95},{"user_id":577,"name":"vi","steam_id":76561198388123421,"connected_time":500000000000,"state":"active","ping":89}]},{"server_id":5,"name":"Uncletopia | Frankfurt | 1 | All Maps","name_short":"frk-1","host":"frk-1.de.uncletopia.com","port":27015,"enabled":true,"region":"eu","cc":"de","latitude":50.110924,"longitude":8.682127,"reserved":0,"last_update":"0001-01-01T00:00:00Z","name_a2s":"Uncletopia | Frankfurt | 1 | All Maps","protocol":17,"map":"pl_snowycoast","folder":"tf","game":"Team Fortress","app_id":440,"player_count":0,"max_players":24,"Bots":0,"server_type":"Dedicated","server_os":"Linux","password":true,"vac":true,"version":"7882260","steam_id":85568392924469989,"keywords":["nocrits","nodmgspread","payload","uncletopia"],"game_id":440,"stv_port":27016,"stv_name":"Uncletopia | Frankfurt | 1 | All Maps | STV","players":null},{"server_id":110,"name":"Uncletopia | Frankfurt | 2 | All Maps","name_short":"frk-2","host":"frk-1.de.uncletopia.com","port":27025,"enabled":true,"region":"eu","cc":"de","latitude":50.110924,"longitude":8.682127,"reserved":0,"last_update":"0001-01-01T00:00:00Z","name_a2s":"Uncletopia | Frankfurt | 2 | All Maps","protocol":17,"map":"pl_upward","folder":"tf","game":"Team Fortress","app_id":440,"player_count":0,"max_players":24,"Bots":0,"server_type":"Dedicated","server_os":"Linux","password":true,"vac":true,"version":"7882260","steam_id":85568392924469990,"keywords":["nocrits","nodmgspread","payload","uncletopia"],"game_id":440,"stv_port":27026,"stv_name":"Uncletopia | Frankfurt | 2 | All Maps | STV","players":null},{"server_id":308,"name":"Uncletopia | Frankfurt | 3 | All Maps","name_short":"frk-3","host":"frk-1.de.uncletopia.com","port":27035,"enabled":true,"region":"eu","cc":"de","latitude":50.110924,"longitude":8.682127,"reserved":0,"last_update":"0001-01-01T00:00:00Z","name_a2s":"Uncletopia | Frankfurt | 3 | All Maps","protocol":17,"map":"cp_process_final","folder":"tf","game":"Team Fortress","app_id":440,"player_count":0,"max_players":24,"Bots":0,"server_type":"Dedicated","server_os":"Linux","password":true,"vac":true,"version":"7882260","steam_id":85568392924504274,"keywords":["cp","nocrits","nodmgspread","uncletopia"],"game_id":440,"stv_port":27036,"stv_name":"Uncletopia | Frankfurt | 3 | All Maps | STV","players":null},{"server_id":309,"name":"Uncletopia | Frankfurt | 4 | All Maps","name_short":"frk-4","host":"frk-1.de.uncletopia.com","port":27045,"enabled":true,"region":"eu","cc":"de","latitude":50.110924,"longitude":8.682127,"reserved":0,"last_update":"0001-01-01T00:00:00Z","name_a2s":"Uncletopia | Frankfurt | 4 | All Maps","protocol":17,"map":"pl_swiftwater_final1","folder":"tf","game":"Team Fortress","app_id":440,"player_count":0,"max_players":24,"Bots":0,"server_type":"Dedicated","server_os":"Linux","password":true,"vac":true,"version":"7882260","steam_id":85568392924504275,"keywords":["nocrits","nodmgspread","payload","uncletopia"],"game_id":440,"stv_port":27046,"stv_name":"Uncletopia | Frankfurt | 4 | All Maps | STV","players":null},{"server_id":310,"name":"Uncletopia | Frankfurt | 5 | All Maps","name_short":"frk-5","host":"frk-1.de.uncletopia.com","port":27055,"enabled":true,"region":"eu","cc":"de","latitude":50.110924,"longitude":8.682127,"reserved":0,"last_update":"0001-01-01T00:00:00Z","name_a2s":"Uncletopia | Frankfurt | 5 | All Maps","protocol":17,"map":"pl_borneo","folder":"tf","game":"Team Fortress","app_id":440,"player_count":0,"max_players":24,"Bots":0,"server_type":"Dedicated","server_os":"Linux","password":true,"vac":true,"version":"7882260","steam_id":85568392924504277,"keywords":["nocrits","nodmgspread","payload","uncletopia"],"game_id":440,"stv_port":27056,"stv_name":"Uncletopia | Frankfurt | 5 | All Maps | STV","players":null},{"server_id":311,"name":"Uncletopia | Frankfurt | 6 | All Maps","name_short":"frk-6","host":"frk-1.de.uncletopia.com","port":27065,"enabled":true,"region":"eu","cc":"de","latitude":50.110924,"longitude":8.682127,"reserved":0,"last_update":"0001-01-01T00:00:00Z","name_a2s":"Uncletopia | Frankfurt | 6 | All Maps","protocol":17,"map":"cp_snakewater_final1","folder":"tf","game":"Team Fortress","app_id":440,"player_count":0,"max_players":24,"Bots":0,"server_type":"Dedicated","server_os":"Linux","password":true,"vac":true,"version":"7882260","steam_id":85568392924504278,"keywords":["cp","nocrits","nodmgspread","uncletopia"],"game_id":440,"stv_port":27066,"stv_name":"Uncletopia | Frankfurt | 6 | All Maps | STV","players":null},{"server_id":23,"name":"Uncletopia | Frankfurt | 7 | Stopwatch Beta","name_short":"frk-7","host":"frk-1.de.uncletopia.com","port":27075,"enabled":true,"region":"eu","cc":"de","latitude":50.110924,"longitude":8.682127,"reserved":0,"last_update":"0001-01-01T00:00:00Z","name_a2s":"Uncletopia | Frankfurt | 7 | Stopwatch Beta","protocol":17,"map":"cp_snakewater_final1","folder":"tf","game":"Team Fortress","app_id":440,"player_count":0,"max_players":24,"Bots":0,"server_type":"Dedicated","server_os":"Linux","password":true,"vac":true,"version":"7882260","steam_id":85568392924742827,"keywords":["cp","nocrits","nodmgspread","uncletopia"],"game_id":440,"stv_port":27076,"stv_name":"Uncletopia | Frankfurt | 7 | Stopwatch Beta | STV","players":null},{"server_id":24,"name":"Uncletopia | Frankfurt | 8 | Community","name_short":"frk-8","host":"frk-1.de.uncletopia.com","port":27085,"enabled":true,"region":"eu","cc":"de","latitude":50.110924,"longitude":8.682127,"reserved":0,"last_update":"0001-01-01T00:00:00Z","name_a2s":"Uncletopia | Frankfurt | 8 | Community","protocol":17,"map":"cp_mountainlab","folder":"tf","game":"Team Fortress","app_id":440,"player_count":0,"max_players":24,"Bots":0,"server_type":"Dedicated","server_os":"Linux","password":true,"vac":true,"version":"7882260","steam_id":85568392924742828,"keywords":["cp","nocrits","nodmgspread","uncletopia"],"game_id":440,"stv_port":27086,"stv_name":"Uncletopia | Frankfurt | 8 | Community | STV","players":null},{"server_id":202,"name":"Uncletopia | Hong Kong | 1 | All Maps","name_short":"hgk-1","host":"hgk-1.hk.uncletopia.com","port":27015,"enabled":true,"region":"asia","cc":"hk","latitude":22.302711,"longitude":114.177216,"reserved":0,"last_update":"0001-01-01T00:00:00Z","name_a2s":"Uncletopia | Hong Kong | 1 | All Maps","protocol":17,"map":"pl_badwater","folder":"tf","game":"Team Fortress","app_id":440,"player_count":24,"max_players":24,"Bots":0,"server_type":"Dedicated","server_os":"Linux","password":true,"vac":true,"version":"7882260","steam_id":85568392924494504,"keywords":["nocrits","nodmgspread","payload","uncletopia"],"game_id":440,"stv_port":27016,"stv_name":"Uncletopia | Hong Kong | 1 | All Maps | STV","players":[{"user_id":149,"name":"IRON BUDDHA MERCY OOLONG TEA","steam_id":76561198008307645,"connected_time":4036000000000,"state":"active","ping":131},{"user_id":163,"name":"3wfFbdrjEze5d2G","steam_id":76561198435900451,"connected_time":3108000000000,"state":"active","ping":155},{"user_id":203,"name":"spinach (old mouse)","steam_id":76561198042539541,"connected_time":461000000000,"state":"active","ping":82},{"user_id":186,"name":"momosneakeradventure","steam_id":76561199046440440,"connected_time":2293000000000,"state":"active","ping":45},{"user_id":209,"name":"stupendous sycophant","steam_id":76561198055553140,"connected_time":183000000000,"state":"active","ping":75},{"user_id":156,"name":"Poli","steam_id":76561199118278155,"connected_time":3646000000000,"state":"active","ping":83},{"user_id":207,"name":"Cornelius Cuntwad","steam_id":76561199122491157,"connected_time":212000000000,"state":"active","ping":179},{"user_id":150,"name":"Your Eternal Reward","steam_id":76561199230196794,"connected_time":3977000000000,"state":"active","ping":164},{"user_id":195,"name":"♱  I LuV Loona  ♱","steam_id":76561199020745258,"connected_time":1772000000000,"state":"active","ping":84},{"user_id":208,"name":"Nephew Nate","steam_id":76561199137872034,"connected_time":202000000000,"state":"active","ping":105},{"user_id":205,"name":"sloth of the fragment clan","steam_id":76561198214192048,"connected_time":300000000000,"state":"active","ping":88},{"user_id":166,"name":"erwynmurphy711","steam_id":76561198288311270,"connected_time":3061000000000,"state":"active","ping":125},{"user_id":193,"name":"TheChainsaw","steam_id":76561198312001455,"connected_time":1827000000000,"state":"active","ping":115},{"user_id":168,"name":"infra","steam_id":76561198924576271,"connected_time":3024000000000,"state":"active","ping":127},{"user_id":177,"name":"Hrodvitnir","steam_id":76561198405366616,"connected_time":2513000000000,"state":"active","ping":66},{"user_id":206,"name":"Vortex Swagger","steam_id":76561198833527091,"connected_time":222000000000,"state":"active","ping":96},{"user_id":210,"name":"4th Wall \"Breaker\"","steam_id":76561199328855877,"connected_time":138000000000,"state":"active","ping":114},{"user_id":174,"name":"El Blanco","steam_id":76561198100044991,"connected_time":2643000000000,"state":"active","ping":128},{"user_id":199,"name":"huoh (cant chat)","steam_id":76561199480939609,"connected_time":1571000000000,"state":"active","ping":81},{"user_id":200,"name":"Chomer","steam_id":76561199034546642,"connected_time":1497000000000,"state":"active","ping":112},{"user_id":187,"name":"Samoyed","steam_id":76561198299150410,"connected_time":2206000000000,"state":"active","ping":101},{"user_id":211,"name":"juice","steam_id":76561199009556495,"connected_time":137000000000,"state":"active","ping":99},{"user_id":182,"name":"cstr","steam_id":76561198125946388,"connected_time":2418000000000,"state":"active","ping":90},{"user_id":202,"name":"Theducktube","steam_id":76561198137265224,"connected_time":1159000000000,"state":"active","ping":130}]},{"server_id":1,"name":"Uncletopia | Los Angeles | 1 | All Maps","name_short":"lax-1","host":"lax-1.us.uncletopia.com","port":27015,"enabled":true,"region":"us-west","cc":"us","latitude":33.94279,"longitude":-118.41004,"reserved":0,"last_update":"0001-01-01T00:00:00Z","name_a2s":"Uncletopia | Los Angeles | 1 | All Maps","protocol":17,"map":"cp_process_final","folder":"tf","game":"Team Fortress","app_id":440,"player_count":23,"max_players":24,"Bots":0,"server_type":"Dedicated","server_os":"Linux","password":true,"vac":true,"version":"7882260","steam_id":85568392924469991,"keywords":["cp","nocrits","nodmgspread","uncletopia"],"game_id":440,"stv_port":27016,"stv_name":"Uncletopia | Los Angeles | 1 | All Maps | STV","players":[{"user_id":352,"name":"Dongus","steam_id":76561197979056451,"connected_time":2063000000000,"state":"active","ping":75},{"user_id":307,"name":"Sleempreem","steam_id":76561198131987251,"connected_time":6273000000000,"state":"active","ping":40},{"user_id":353,"name":"Big White Delight","steam_id":76561198005301688,"connected_time":2046000000000,"state":"active","ping":90},{"user_id":283,"name":"moe","steam_id":76561198929586245,"connected_time":7809000000000,"state":"active","ping":40},{"user_id":370,"name":"Thundeer","steam_id":76561198353425202,"connected_time":501000000000,"state":"active","ping":137},{"user_id":364,"name":"Tideflat","steam_id":76561198179850851,"connected_time":1285000000000,"state":"active","ping":81},{"user_id":366,"name":"Star","steam_id":76561198187728043,"connected_time":859000000000,"state":"active","ping":48},{"user_id":369,"name":"Huh?","steam_id":76561198054866271,"connected_time":529000000000,"state":"active","ping":73},{"user_id":311,"name":"Feel the bern","steam_id":76561198078824519,"connected_time":6185000000000,"state":"active","ping":50},{"user_id":376,"name":"Ken","steam_id":76561198190992453,"connected_time":129000000000,"state":"active","ping":45},{"user_id":371,"name":"Canned Lobster","steam_id":76561198110847328,"connected_time":484000000000,"state":"active","ping":52},{"user_id":339,"name":"grunt","steam_id":76561198860913617,"connected_time":3224000000000,"state":"active","ping":92},{"user_id":336,"name":"Ryshy02","steam_id":76561198055425447,"connected_time":3599000000000,"state":"active","ping":74},{"user_id":372,"name":"Obama Gaming 2023","steam_id":76561199006905645,"connected_time":478000000000,"state":"active","ping":103},{"user_id":322,"name":"Schnitz","steam_id":76561198265484253,"connected_time":5050000000000,"state":"active","ping":57},{"user_id":373,"name":"carpe diem","steam_id":76561198094396873,"connected_time":421000000000,"state":"active","ping":40},{"user_id":374,"name":"IHUNTZ","steam_id":76561198390109907,"connected_time":355000000000,"state":"active","ping":63},{"user_id":377,"name":"Lumina","steam_id":76561198089227368,"connected_time":79000000000,"state":"active","ping":206},{"user_id":375,"name":"› We Are You.j2 [NO SOUND]","steam_id":76561197995242200,"connected_time":339000000000,"state":"active","ping":64},{"user_id":359,"name":"azureglxy","steam_id":76561198861388315,"connected_time":1821000000000,"state":"active","ping":44},{"user_id":365,"name":"FROYO b4nny","steam_id":76561197970669109,"connected_time":1210000000000,"state":"active","ping":47},{"user_id":350,"name":"Disc0","steam_id":76561198067337267,"connected_time":2133000000000,"state":"active","ping":75},{"user_id":319,"name":"Fluffy","steam_id":76561198213561811,"connected_time":5287000000000,"state":"active","ping":43}]},{"server_id":112,"name":"Uncletopia | Los Angeles | 2 | All Maps","name_short":"lax-2","host":"lax-1.us.uncletopia.com","port":27025,"enabled":true,"region":"us-west","cc":"us","latitude":33.94279,"longitude":-118.41004,"reserved":0,"last_update":"0001-01-01T00:00:00Z","name_a2s":"Uncletopia | Los Angeles | 2 | All Maps","protocol":17,"map":"koth_cascade","folder":"tf","game":"Team Fortress","app_id":440,"player_count":10,"max_players":24,"Bots":0,"server_type":"Dedicated","server_os":"Linux","password":true,"vac":true,"version":"7882260","steam_id":85568392924469992,"keywords":["cp","nocrits","nodmgspread","uncletopia"],"game_id":440,"stv_port":27026,"stv_name":"Uncletopia | Los Angeles | 2 | All Maps | STV","players":[{"user_id":225,"name":"vioxynteris","steam_id":76561198161428666,"connected_time":4875000000000,"state":"active","ping":31},{"user_id":253,"name":"Draxion","steam_id":76561198132263393,"connected_time":2941000000000,"state":"active","ping":89},{"user_id":251,"name":"Edboi","steam_id":76561198117849098,"connected_time":3257000000000,"state":"active","ping":63},{"user_id":264,"name":"gayass","steam_id":76561198396326793,"connected_time":2038000000000,"state":"active","ping":97},{"user_id":274,"name":"Some Big Mean Mother Hubbard","steam_id":76561198436672138,"connected_time":55000000000,"state":"active","ping":68},{"user_id":248,"name":"PlayerMan","steam_id":76561199015002503,"connected_time":3505000000000,"state":"active","ping":63},{"user_id":238,"name":"AzovStal'","steam_id":76561198081841996,"connected_time":4215000000000,"state":"active","ping":63},{"user_id":236,"name":"xbox record that","steam_id":76561198150117455,"connected_time":4288000000000,"state":"active","ping":58},{"user_id":268,"name":"Cheetose Intolerant","steam_id":76561198013399809,"connected_time":1765000000000,"state":"active","ping":47},{"user_id":263,"name":"Agent Mania","steam_id":76561198029741272,"connected_time":2117000000000,"state":"active","ping":45}]},{"server_id":324,"name":"Uncletopia | Los Angeles | 3 | All Maps","name_short":"lax-3","host":"lax-1.us.uncletopia.com","port":27035,"enabled":true,"region":"us-west","cc":"us","latitude":33.94279,"longitude":-118.41004,"reserved":0,"last_update":"0001-01-01T00:00:00Z","name_a2s":"Uncletopia | Los Angeles | 3 | All Maps","protocol":17,"map":"pl_badwater","folder":"tf","game":"Team Fortress","app_id":440,"player_count":24,"max_players":24,"Bots":0,"server_type":"Dedicated","server_os":"Linux","password":true,"vac":true,"version":"7882260","steam_id":85568392924510198,"keywords":["nocrits","nodmgspread","payload","uncletopia"],"game_id":440,"stv_port":27036,"stv_name":"Uncletopia | Los Angeles | 3 | All Maps | STV","players":[{"user_id":134,"name":"Jolly Wolly","steam_id":76561198087571347,"connected_time":2895000000000,"state":"active","ping":76},{"user_id":163,"name":"Acolyte of Goatse","steam_id":76561198046526036,"connected_time":488000000000,"state":"active","ping":45},{"user_id":139,"name":"El Gato Paranoico","steam_id":76561198116567116,"connected_time":2536000000000,"state":"active","ping":91},{"user_id":96,"name":"Happytoe","steam_id":76561198001295503,"connected_time":5313000000000,"state":"active","ping":70},{"user_id":129,"name":"Tocha","steam_id":76561198119725400,"connected_time":3309000000000,"state":"active","ping":103},{"user_id":160,"name":"Raian","steam_id":76561199138048671,"connected_time":527000000000,"state":"active","ping":38},{"user_id":118,"name":"bocaJ","steam_id":76561198374535092,"connected_time":4179000000000,"state":"active","ping":34},{"user_id":162,"name":"Clean Bean","steam_id":76561198011704464,"connected_time":501000000000,"state":"active","ping":84},{"user_id":165,"name":"chilis baby back ribs","steam_id":76561198813516435,"connected_time":410000000000,"state":"active","ping":45},{"user_id":164,"name":"katts445","steam_id":76561198041970917,"connected_time":477000000000,"state":"active","ping":80},{"user_id":28,"name":"||:♩♩♩♪:|| Opplydead","steam_id":76561198028630334,"connected_time":10513000000000,"state":"active","ping":51},{"user_id":149,"name":"Bheem","steam_id":76561198170453459,"connected_time":1557000000000,"state":"active","ping":72},{"user_id":133,"name":"crumblejon","steam_id":76561198111273302,"connected_time":2974000000000,"state":"active","ping":60},{"user_id":148,"name":"mrthugpug1732","steam_id":76561198881200768,"connected_time":1587000000000,"state":"active","ping":57},{"user_id":166,"name":"Ralph Kramden (Slim Charles)","steam_id":76561197981687895,"connected_time":368000000000,"state":"active","ping":58},{"user_id":150,"name":"bcizzo","steam_id":76561197994399953,"connected_time":1507000000000,"state":"active","ping":67},{"user_id":69,"name":"vern","steam_id":76561198129892148,"connected_time":7920000000000,"state":"active","ping":58},{"user_id":154,"name":"Firepig102","steam_id":76561198060248559,"connected_time":1009000000000,"state":"active","ping":90},{"user_id":78,"name":"ham","steam_id":76561198130412963,"connected_time":7180000000000,"state":"active","ping":80},{"user_id":79,"name":"Dingus","steam_id":76561198091720598,"connected_time":6649000000000,"state":"active","ping":65},{"user_id":143,"name":"Sleuth","steam_id":76561198418288939,"connected_time":1935000000000,"state":"active","ping":64},{"user_id":153,"name":"[ØWQJØ]chubacaalatake","steam_id":76561198136201697,"connected_time":1065000000000,"state":"active","ping":90},{"user_id":155,"name":"nella","steam_id":76561198079349621,"connected_time":940000000000,"state":"active","ping":56},{"user_id":68,"name":"Soke","steam_id":76561198135416383,"connected_time":8004000000000,"state":"active","ping":69}]},{"server_id":25,"name":"Uncletopia | Los Angeles | 4 | Stopwatch Beta","name_short":"lax-4","host":"lax-1.us.uncletopia.com","port":27045,"enabled":true,"region":"us-west","cc":"us","latitude":33.94279,"longitude":-118.41004,"reserved":0,"last_update":"0001-01-01T00:00:00Z","name_a2s":"Uncletopia | Los Angeles | 4 | Stopwatch Beta","protocol":17,"map":"koth_viaduct","folder":"tf","game":"Team Fortress","app_id":440,"player_count":0,"max_players":24,"Bots":0,"server_type":"Dedicated","server_os":"Linux","password":true,"vac":true,"version":"7882260","steam_id":85568392924510199,"keywords":["cp","nocrits","nodmgspread","uncletopia"],"game_id":440,"stv_port":27046,"stv_name":"Uncletopia | Los Angeles | 4 | Stopwatch Beta | STV","players":null},{"server_id":11,"name":"Uncletopia | London | 1 | All Maps","name_short":"lon-1","host":"lon-1.uk.uncletopia.com","port":27015,"enabled":true,"region":"eu","cc":"gb","latitude":51.509865,"longitude":-0.118092,"reserved":0,"last_update":"0001-01-01T00:00:00Z","name_a2s":"Uncletopia | London | 1 | All Maps","protocol":17,"map":"pl_snowycoast","folder":"tf","game":"Team Fortress","app_id":440,"player_count":24,"max_players":24,"Bots":0,"server_type":"Dedicated","server_os":"Linux","password":true,"vac":true,"version":"7882260","steam_id":85568392924367362,"keywords":["nocrits","nodmgspread","payload","uncletopia"],"game_id":440,"stv_port":27016,"stv_name":"Uncletopia | London | 1 | All Maps | STV","players":[{"user_id":3,"name":"spxcy","steam_id":76561198080296853,"connected_time":983000000000,"state":"active","ping":76},{"user_id":4,"name":"modavak","steam_id":76561198946290908,"connected_time":978000000000,"state":"active","ping":104},{"user_id":5,"name":"Coca162","steam_id":76561198230656540,"connected_time":976000000000,"state":"active","ping":42},{"user_id":6,"name":"Qdarks","steam_id":76561198013391340,"connected_time":970000000000,"state":"active","ping":142},{"user_id":8,"name":"🃔 Nugg1t(she/they)","steam_id":76561198065652251,"connected_time":966000000000,"state":"active","ping":51},{"user_id":9,"name":"Vezage","steam_id":76561198064916164,"connected_time":962000000000,"state":"active","ping":69},{"user_id":10,"name":"A. Hitler","steam_id":76561199487496813,"connected_time":960000000000,"state":"active","ping":75},{"user_id":14,"name":"ja","steam_id":76561199228540618,"connected_time":936000000000,"state":"active","ping":79},{"user_id":28,"name":"Joe","steam_id":76561198061717026,"connected_time":447000000000,"state":"active","ping":43},{"user_id":13,"name":"Imperator komedii","steam_id":76561198963841479,"connected_time":950000000000,"state":"active","ping":84},{"user_id":29,"name":"anzurin","steam_id":76561198043953503,"connected_time":441000000000,"state":"active","ping":76},{"user_id":16,"name":"turn the fridge on","steam_id":76561199480942903,"connected_time":932000000000,"state":"active","ping":75},{"user_id":17,"name":"Purplik","steam_id":76561198431679104,"connected_time":923000000000,"state":"active","ping":60},{"user_id":18,"name":"Doctor Marijuana","steam_id":76561198288289879,"connected_time":906000000000,"state":"active","ping":49},{"user_id":19,"name":"Núúb","steam_id":76561198111933414,"connected_time":852000000000,"state":"active","ping":75},{"user_id":20,"name":"dartush","steam_id":76561198067506270,"connected_time":793000000000,"state":"active","ping":85},{"user_id":21,"name":"Valkyrie","steam_id":76561198998403448,"connected_time":782000000000,"state":"active","ping":89},{"user_id":23,"name":"󠀡󠀡","steam_id":76561198399390201,"connected_time":729000000000,"state":"active","ping":95},{"user_id":24,"name":"Neimon","steam_id":76561198343485710,"connected_time":704000000000,"state":"active","ping":123},{"user_id":25,"name":"presidentialAIDS","steam_id":76561199257284077,"connected_time":696000000000,"state":"active","ping":132},{"user_id":26,"name":"Tout Petit Cerveau","steam_id":76561198120837915,"connected_time":693000000000,"state":"active","ping":39},{"user_id":30,"name":"2spooky4me","steam_id":76561198043211244,"connected_time":320000000000,"state":"active","ping":68},{"user_id":33,"name":"Stefan","steam_id":76561198983111090,"connected_time":4000000000,"state":"spawning","ping":66},{"user_id":32,"name":"Утилизатор","steam_id":76561198001490104,"connected_time":141000000000,"state":"active","ping":70}]},{"server_id":114,"name":"Uncletopia | London | 2 | All Maps","name_short":"lon-2","host":"lon-1.uk.uncletopia.com","port":27025,"enabled":true,"region":"eu","cc":"gb","latitude":51.509865,"longitude":-0.118092,"reserved":0,"last_update":"0001-01-01T00:00:00Z","name_a2s":"Uncletopia | London | 2 | All Maps","protocol":17,"map":"koth_highpass","folder":"tf","game":"Team Fortress","app_id":440,"player_count":0,"max_players":24,"Bots":0,"server_type":"Dedicated","server_os":"Linux","password":true,"vac":true,"version":"7882260","steam_id":85568392924470941,"keywords":["cp","nocrits","nodmgspread","uncletopia"],"game_id":440,"stv_port":27026,"stv_name":"Uncletopia | London | 2 | All Maps | STV","players":null},{"server_id":320,"name":"Uncletopia | London | 3 | All Maps","name_short":"lon-3","host":"lon-1.uk.uncletopia.com","port":27035,"enabled":true,"region":"eu","cc":"gb","latitude":51.509865,"longitude":-0.118092,"reserved":0,"last_update":"0001-01-01T00:00:00Z","name_a2s":"Uncletopia | London | 3 | All Maps","protocol":17,"map":"pl_upward","folder":"tf","game":"Team Fortress","app_id":440,"player_count":0,"max_players":24,"Bots":0,"server_type":"Dedicated","server_os":"Linux","password":true,"vac":true,"version":"7882260","steam_id":85568392924510192,"keywords":["nocrits","nodmgspread","payload","uncletopia"],"game_id":440,"stv_port":27036,"stv_name":"Uncletopia | London | 3 | All Maps | STV","players":null},{"server_id":321,"name":"Uncletopia | London | 4 | All Maps","name_short":"lon-4","host":"lon-1.uk.uncletopia.com","port":27045,"enabled":true,"region":"eu","cc":"gb","latitude":51.509865,"longitude":-0.118092,"reserved":0,"last_update":"0001-01-01T00:00:00Z","name_a2s":"Uncletopia | London | 4 | All Maps","protocol":17,"map":"cp_dustbowl","folder":"tf","game":"Team Fortress","app_id":440,"player_count":0,"max_players":24,"Bots":0,"server_type":"Dedicated","server_os":"Linux","password":true,"vac":true,"version":"7882260","steam_id":85568392924510193,"keywords":["cp","nocrits","nodmgspread","uncletopia"],"game_id":440,"stv_port":27046,"stv_name":"Uncletopia | London | 4 | All Maps | STV","players":null},{"server_id":21,"name":"Uncletopia | London | 5 | All Maps","name_short":"lon-5","host":"lon-1.uk.uncletopia.com","port":27055,"enabled":true,"region":"eu","cc":"gb","latitude":51.509865,"longitude":-0.118092,"reserved":0,"last_update":"0001-01-01T00:00:00Z","name_a2s":"Uncletopia | London | 5 | All Maps","protocol":17,"map":"koth_viaduct","folder":"tf","game":"Team Fortress","app_id":440,"player_count":0,"max_players":24,"Bots":0,"server_type":"Dedicated","server_os":"Linux","password":true,"vac":true,"version":"7882260","steam_id":85568392924742829,"keywords":["cp","nocrits","nodmgspread","uncletopia"],"game_id":440,"stv_port":27056,"stv_name":"Uncletopia | London | 5 | All Maps | STV","players":null},{"server_id":22,"name":"Uncletopia | London | 6 | All Maps","name_short":"lon-6","host":"lon-1.uk.uncletopia.com","port":27065,"enabled":true,"region":"eu","cc":"gb","latitude":51.509865,"longitude":-0.118092,"reserved":0,"last_update":"0001-01-01T00:00:00Z","name_a2s":"Uncletopia | London | 6 | All Maps","protocol":17,"map":"koth_lakeside_final","folder":"tf","game":"Team Fortress","app_id":440,"player_count":0,"max_players":24,"Bots":0,"server_type":"Dedicated","server_os":"Linux","password":true,"vac":true,"version":"7882260","steam_id":85568392924742830,"keywords":["cp","nocrits","nodmgspread","uncletopia"],"game_id":440,"stv_port":27066,"stv_name":"Uncletopia | London | 6 | All Maps | STV","players":null},{"server_id":40,"name":"Uncletopia | London | 7 | No Payload","name_short":"lon-7","host":"lon-1.uk.uncletopia.com","port":27075,"enabled":true,"region":"eu","cc":"gb","latitude":51.509865,"longitude":-0.118092,"reserved":0,"last_update":"0001-01-01T00:00:00Z","name_a2s":"Uncletopia | London | 7 | No Payload","protocol":17,"map":"pl_upward","folder":"tf","game":"Team Fortress","app_id":440,"player_count":0,"max_players":24,"Bots":0,"server_type":"Dedicated","server_os":"Linux","password":true,"vac":true,"version":"7882260","steam_id":85568392924964314,"keywords":["nocrits","nodmgspread","payload","uncletopia"],"game_id":440,"stv_port":27076,"stv_name":"Uncletopia | London | 7 | No Payload | STV","players":null},{"server_id":41,"name":"Uncletopia | London | 8 | Community","name_short":"lon-8","host":"lon-1.uk.uncletopia.com","port":27085,"enabled":true,"region":"eu","cc":"gb","latitude":51.509865,"longitude":-0.118092,"reserved":0,"last_update":"0001-01-01T00:00:00Z","name_a2s":"Uncletopia | London | 8 | Community","protocol":17,"map":"pl_upward","folder":"tf","game":"Team Fortress","app_id":440,"player_count":0,"max_players":24,"Bots":0,"server_type":"Dedicated","server_os":"Linux","password":true,"vac":true,"version":"7882260","steam_id":85568392924964315,"keywords":["nocrits","nodmgspread","payload","uncletopia"],"game_id":440,"stv_port":27086,"stv_name":"Uncletopia | London | 8 | Community | STV","players":null},{"server_id":300,"name":"Uncletopia | Montréal | 1 | All Maps","name_short":"mtl-1","host":"mtl-1.ca.uncletopia.com","port":27015,"enabled":true,"region":"us-east","cc":"ca","latitude":45.50889,"longitude":-73.56167,"reserved":0,"last_update":"0001-01-01T00:00:00Z","name_a2s":"Uncletopia | Montréal | 1 | All Maps","protocol":17,"map":"cp_dustbowl","folder":"tf","game":"Team Fortress","app_id":440,"player_count":0,"max_players":24,"Bots":0,"server_type":"Dedicated","server_os":"Linux","password":true,"vac":true,"version":"7882260","steam_id":85568392924500087,"keywords":["cp","nocrits","nodmgspread","uncletopia"],"game_id":440,"stv_port":27016,"stv_name":"Uncletopia | Montréal | 1 | All Maps | STV","players":null},{"server_id":301,"name":"Uncletopia | Montréal | 2 | All Maps","name_short":"mtl-2","host":"mtl-1.ca.uncletopia.com","port":27025,"enabled":true,"region":"us-east","cc":"ca","latitude":45.50889,"longitude":-73.56167,"reserved":0,"last_update":"0001-01-01T00:00:00Z","name_a2s":"Uncletopia | Montréal | 2 | All Maps","protocol":17,"map":"koth_cascade","folder":"tf","game":"Team Fortress","app_id":440,"player_count":0,"max_players":24,"Bots":0,"server_type":"Dedicated","server_os":"Linux","password":true,"vac":true,"version":"7882260","steam_id":85568392924500088,"keywords":["cp","nocrits","nodmgspread","uncletopia"],"game_id":440,"stv_port":27026,"stv_name":"Uncletopia | Montréal | 2 | All Maps | STV","players":null},{"server_id":302,"name":"Uncletopia | Montréal | 3 | All Maps","name_short":"mtl-3","host":"mtl-1.ca.uncletopia.com","port":27035,"enabled":true,"region":"us-east","cc":"ca","latitude":45.50889,"longitude":-73.56167,"reserved":0,"last_update":"0001-01-01T00:00:00Z","name_a2s":"Uncletopia | Montréal | 3 | All Maps","protocol":17,"map":"pl_barnblitz","folder":"tf","game":"Team Fortress","app_id":440,"player_count":0,"max_players":24,"Bots":0,"server_type":"Dedicated","server_os":"Linux","password":true,"vac":true,"version":"7882260","steam_id":85568392924500089,"keywords":["nocrits","nodmgspread","payload","uncletopia"],"game_id":440,"stv_port":27036,"stv_name":"Uncletopia | Montréal | 3 | All Maps | STV","players":null},{"server_id":303,"name":"Uncletopia | Montréal | 4 | No Payload","name_short":"mtl-4","host":"mtl-1.ca.uncletopia.com","port":27045,"enabled":true,"region":"us-east","cc":"ca","latitude":45.50889,"longitude":-73.56167,"reserved":0,"last_update":"0001-01-01T00:00:00Z","name_a2s":"Uncletopia | Montréal | 4 | No Payload","protocol":17,"map":"koth_highpass","folder":"tf","game":"Team Fortress","app_id":440,"player_count":0,"max_players":24,"Bots":0,"server_type":"Dedicated","server_os":"Linux","password":true,"vac":true,"version":"7882260","steam_id":85568392924500090,"keywords":["cp","nocrits","nodmgspread","uncletopia"],"game_id":440,"stv_port":27046,"stv_name":"Uncletopia | Montréal | 4 | No Payload | STV","players":null},{"server_id":13,"name":"Uncletopia | New York City | 1 | All Maps","name_short":"nyc-1","host":"nyc-1.us.uncletopia.com","port":27015,"enabled":true,"region":"us-east","cc":"us","latitude":40.73061,"longitude":-73.93524,"reserved":0,"last_update":"0001-01-01T00:00:00Z","name_a2s":"Uncletopia | New York City | 1 | All Maps","protocol":17,"map":"pl_pier","folder":"tf","game":"Team Fortress","app_id":440,"player_count":1,"max_players":24,"Bots":0,"server_type":"Dedicated","server_os":"Linux","password":true,"vac":true,"version":"7882260","steam_id":85568392924469993,"keywords":["nocrits","nodmgspread","payload","uncletopia"],"game_id":440,"stv_port":27016,"stv_name":"Uncletopia | New York City | 1 | All Maps | STV","players":[{"user_id":549,"name":"A Black Square","steam_id":76561198043570320,"connected_time":5000000000,"state":"spawning","ping":73}]},{"server_id":14,"name":"Uncletopia | New York City | 2 | All Maps","name_short":"nyc-2","host":"nyc-1.us.uncletopia.com","port":27025,"enabled":true,"region":"us-east","cc":"us","latitude":40.73061,"longitude":-73.93524,"reserved":0,"last_update":"0001-01-01T00:00:00Z","name_a2s":"Uncletopia | New York City | 2 | All Maps","protocol":17,"map":"koth_lakeside_final","folder":"tf","game":"Team Fortress","app_id":440,"player_count":0,"max_players":24,"Bots":0,"server_type":"Dedicated","server_os":"Linux","password":true,"vac":true,"version":"7882260","steam_id":85568392924469994,"keywords":["cp","nocrits","nodmgspread","uncletopia"],"game_id":440,"stv_port":27026,"stv_name":"Uncletopia | New York City | 2 | All Maps | STV","players":null},{"server_id":15,"name":"Uncletopia | New York City | 3 | Stopwatch Beta","name_short":"nyc-3","host":"nyc-1.us.uncletopia.com","port":27035,"enabled":true,"region":"us-east","cc":"us","latitude":40.73061,"longitude":-73.93524,"reserved":0,"last_update":"0001-01-01T00:00:00Z","name_a2s":"Uncletopia | New York City | 3 | Stopwatch Beta","protocol":17,"map":"pl_borneo","folder":"tf","game":"Team Fortress","app_id":440,"player_count":0,"max_players":24,"Bots":0,"server_type":"Dedicated","server_os":"Linux","password":true,"vac":true,"version":"7882260","steam_id":85568392924742820,"keywords":["nocrits","nodmgspread","payload","uncletopia"],"game_id":440,"stv_port":27036,"stv_name":"Uncletopia | New York City | 3 | Stopwatch Beta | STV","players":null},{"server_id":16,"name":"Uncletopia | New York City | 4 | Community","name_short":"nyc-4","host":"nyc-1.us.uncletopia.com","port":27045,"enabled":true,"region":"us-east","cc":"us","latitude":40.73061,"longitude":-73.93524,"reserved":0,"last_update":"0001-01-01T00:00:00Z","name_a2s":"Uncletopia | New York City | 4 | Community","protocol":17,"map":"workshop/cp_glacier_rc6.ugc2905735376","folder":"tf","game":"Team Fortress","app_id":440,"player_count":2,"max_players":24,"Bots":0,"server_type":"Dedicated","server_os":"Linux","password":true,"vac":true,"version":"7882260","steam_id":85568392924742821,"keywords":["cp","nocrits","nodmgspread","uncletopia"],"game_id":440,"stv_port":27046,"stv_name":"Uncletopia | New York City | 4 | Community | STV","players":[{"user_id":6,"name":"Boommanchu","steam_id":76561198057491452,"connected_time":2503000000000,"state":"active","ping":95},{"user_id":7,"name":"DarterDude","steam_id":76561198157543327,"connected_time":2438000000000,"state":"active","ping":85}]},{"server_id":142,"name":"Uncletopia | São Paulo | 1 | All Maps","name_short":"sao-1","host":"sao-1.br.uncletopia.com","port":27015,"enabled":true,"region":"sa","cc":"br","latitude":-23.533773,"longitude":-46.62529,"reserved":0,"last_update":"0001-01-01T00:00:00Z","name_a2s":"Uncletopia | São Paulo | 1 | All Maps","protocol":17,"map":"pl_badwater","folder":"tf","game":"Team Fortress","app_id":440,"player_count":0,"max_players":24,"Bots":0,"server_type":"Dedicated","server_os":"Linux","password":true,"vac":true,"version":"7882260","steam_id":85568392924469996,"keywords":["nocrits","nodmgspread","payload","uncletopia"],"game_id":440,"stv_port":27016,"stv_name":"Uncletopia | São Paulo | 1 | All Maps | STV","players":null},{"server_id":143,"name":"Uncletopia | São Paulo | 2 | All Maps","name_short":"sao-2","host":"sao-2.br.uncletopia.com","port":27015,"enabled":true,"region":"sa","cc":"br","latitude":-23.533773,"longitude":-46.62529,"reserved":0,"last_update":"0001-01-01T00:00:00Z","name_a2s":"Uncletopia | São Paulo | 2 | All Maps","protocol":17,"map":"cp_sunshine","folder":"tf","game":"Team Fortress","app_id":440,"player_count":0,"max_players":24,"Bots":0,"server_type":"Dedicated","server_os":"Linux","password":true,"vac":true,"version":"7882260","steam_id":85568392924485349,"keywords":["cp","nocrits","nodmgspread","uncletopia"],"game_id":440,"stv_port":27016,"stv_name":"Uncletopia | São Paulo | 2 | All Maps | STV","players":null},{"server_id":7,"name":"Uncletopia | Seattle | 1 | All Maps","name_short":"sea-1","host":"sea-1.us.uncletopia.com","port":27015,"enabled":true,"region":"us-west","cc":"us","latitude":47.608013,"longitude":-122.33517,"reserved":0,"last_update":"0001-01-01T00:00:00Z","name_a2s":"Uncletopia | Seattle | 1 | All Maps","protocol":17,"map":"cp_dustbowl","folder":"tf","game":"Team Fortress","app_id":440,"player_count":24,"max_players":24,"Bots":0,"server_type":"Dedicated","server_os":"Linux","password":true,"vac":true,"version":"7882260","steam_id":85568392924469997,"keywords":["cp","nocrits","nodmgspread","uncletopia"],"game_id":440,"stv_port":27016,"stv_name":"Uncletopia | Seattle | 1 | All Maps | STV","players":[{"user_id":612,"name":"Coowil","steam_id":76561198070985437,"connected_time":24000000000,"state":"active","ping":41},{"user_id":574,"name":"An Old Lady","steam_id":76561198047480318,"connected_time":2558000000000,"state":"active","ping":66},{"user_id":525,"name":"Ayayayayayahuasca","steam_id":76561199002906056,"connected_time":6432000000000,"state":"active","ping":48},{"user_id":557,"name":"Sniff","steam_id":76561198010270922,"connected_time":4220000000000,"state":"active","ping":40},{"user_id":607,"name":"nell","steam_id":76561198136225723,"connected_time":426000000000,"state":"active","ping":98},{"user_id":142,"name":"lili","steam_id":76561199391478575,"connected_time":38538000000000,"state":"active","ping":68},{"user_id":597,"name":"A Can of Arizona Green Tea","steam_id":76561198062481133,"connected_time":1179000000000,"state":"active","ping":86},{"user_id":576,"name":"SAP","steam_id":76561198005186905,"connected_time":2495000000000,"state":"active","ping":64},{"user_id":583,"name":"Mayo Muncher","steam_id":76561198350246784,"connected_time":1946000000000,"state":"active","ping":86},{"user_id":546,"name":"Reven596","steam_id":76561198885592765,"connected_time":4643000000000,"state":"active","ping":69},{"user_id":593,"name":"UneditedAndy","steam_id":76561198982544947,"connected_time":1227000000000,"state":"active","ping":84},{"user_id":609,"name":"spiderland","steam_id":76561198335992132,"connected_time":256000000000,"state":"active","ping":50},{"user_id":606,"name":"Lynx","steam_id":76561198322363286,"connected_time":641000000000,"state":"active","ping":61},{"user_id":604,"name":"Clornk (Destroyer of Happiness)","steam_id":76561198360396485,"connected_time":723000000000,"state":"active","ping":76},{"user_id":561,"name":"The King of Piss World","steam_id":76561198082806956,"connected_time":3967000000000,"state":"active","ping":155},{"user_id":549,"name":"AngryTurtle","steam_id":76561199056534728,"connected_time":4632000000000,"state":"active","ping":39},{"user_id":556,"name":"✿ corecore² Matador","steam_id":76561198106938500,"connected_time":4407000000000,"state":"active","ping":78},{"user_id":601,"name":"Ohz Noez!!!!","steam_id":76561197980084686,"connected_time":1005000000000,"state":"active","ping":53},{"user_id":610,"name":"PageBoiSkull","steam_id":76561198237353578,"connected_time":255000000000,"state":"active","ping":76},{"user_id":552,"name":"theslayert4","steam_id":76561199258578780,"connected_time":4624000000000,"state":"active","ping":64},{"user_id":571,"name":"Pizza \u003c3","steam_id":76561198087357023,"connected_time":3653000000000,"state":"active","ping":51},{"user_id":584,"name":"NOT FRIENDLY","steam_id":76561198041327231,"connected_time":1875000000000,"state":"active","ping":57},{"user_id":577,"name":"★Mayd★","steam_id":76561198291985932,"connected_time":2279000000000,"state":"active","ping":62},{"user_id":600,"name":"Dr. Bubs","steam_id":76561198011696595,"connected_time":1123000000000,"state":"active","ping":72}]},{"server_id":119,"name":"Uncletopia | Seattle | 2 | All Maps","name_short":"sea-2","host":"sea-1.us.uncletopia.com","port":27025,"enabled":true,"region":"us-west","cc":"us","latitude":47.608013,"longitude":-122.33517,"reserved":0,"last_update":"0001-01-01T00:00:00Z","name_a2s":"Uncletopia | Seattle | 2 | All Maps","protocol":17,"map":"cp_steel","folder":"tf","game":"Team Fortress","app_id":440,"player_count":24,"max_players":24,"Bots":0,"server_type":"Dedicated","server_os":"Linux","password":true,"vac":true,"version":"7882260","steam_id":85568392924469998,"keywords":["cp","nocrits","nodmgspread","uncletopia"],"game_id":440,"stv_port":27026,"stv_name":"Uncletopia | Seattle | 2 | All Maps | STV","players":[{"user_id":615,"name":"i.love.ants.321","steam_id":76561198169755734,"connected_time":2141000000000,"state":"active","ping":60},{"user_id":617,"name":"CasemanTheBlondeBear","steam_id":76561198144862404,"connected_time":1171000000000,"state":"active","ping":56},{"user_id":534,"name":"Domopon","steam_id":76561199080347686,"connected_time":4820000000000,"state":"active","ping":77},{"user_id":532,"name":"John Calibur","steam_id":76561197999986606,"connected_time":5053000000000,"state":"active","ping":70},{"user_id":625,"name":"sillyjack","steam_id":76561198844273999,"connected_time":749000000000,"state":"active","ping":44},{"user_id":628,"name":"Seaport Hime","steam_id":76561198055914224,"connected_time":206000000000,"state":"active","ping":107},{"user_id":630,"name":"Mr.Beast","steam_id":76561198100385184,"connected_time":129000000000,"state":"active","ping":86},{"user_id":626,"name":"mega","steam_id":76561198089520959,"connected_time":693000000000,"state":"active","ping":93},{"user_id":533,"name":"Overvote","steam_id":76561198067641129,"connected_time":4875000000000,"state":"active","ping":55},{"user_id":613,"name":"Cr0w!","steam_id":76561198178437265,"connected_time":2409000000000,"state":"active","ping":49},{"user_id":475,"name":"hosewater","steam_id":76561198023383126,"connected_time":9455000000000,"state":"active","ping":50},{"user_id":619,"name":"Zee❤","steam_id":76561198274550638,"connected_time":1168000000000,"state":"active","ping":116},{"user_id":621,"name":"Arrythmia","steam_id":76561198093748123,"connected_time":1121000000000,"state":"active","ping":39},{"user_id":520,"name":"NEBULA","steam_id":76561198086878595,"connected_time":5607000000000,"state":"active","ping":75},{"user_id":631,"name":"Rise for the National Spamton","steam_id":76561198138468982,"connected_time":101000000000,"state":"active","ping":46},{"user_id":564,"name":"charley","steam_id":76561198828238339,"connected_time":3685000000000,"state":"active","ping":89},{"user_id":627,"name":"jadeite","steam_id":76561198022298676,"connected_time":442000000000,"state":"active","ping":32},{"user_id":572,"name":"Optimore","steam_id":76561198047662990,"connected_time":3520000000000,"state":"active","ping":74},{"user_id":612,"name":"jorts","steam_id":76561199041179985,"connected_time":2739000000000,"state":"active","ping":61},{"user_id":605,"name":"meowbop","steam_id":76561198130198601,"connected_time":2808000000000,"state":"active","ping":53},{"user_id":526,"name":"RIP LANCE REDDICK","steam_id":76561198099980149,"connected_time":5255000000000,"state":"active","ping":75},{"user_id":529,"name":"squash","steam_id":76561198150281353,"connected_time":5241000000000,"state":"active","ping":56},{"user_id":609,"name":"delight","steam_id":76561197980280272,"connected_time":2776000000000,"state":"active","ping":46},{"user_id":611,"name":"roryisreallyoutofit","steam_id":76561198065825165,"connected_time":2752000000000,"state":"active","ping":91}]},{"server_id":406,"name":"Uncletopia | Seattle | 3 | Stopwatch Beta","name_short":"sea-3","host":"sea-1.us.uncletopia.com","port":27035,"enabled":true,"region":"us-west","cc":"us","latitude":47.608013,"longitude":-122.33517,"reserved":0,"last_update":"0001-01-01T00:00:00Z","name_a2s":"Uncletopia | Seattle | 3 | Stopwatch Beta","protocol":17,"map":"workshop/cp_process_f12.ugc2302948105","folder":"tf","game":"Team Fortress","app_id":440,"player_count":0,"max_players":24,"Bots":0,"server_type":"Dedicated","server_os":"Linux","password":true,"vac":true,"version":"7882260","steam_id":85568392924515217,"keywords":["cp","nocrits","nodmgspread","uncletopia"],"game_id":440,"stv_port":27036,"stv_name":"Uncletopia | Seattle | 3 | Stopwatch Beta | STV","players":null},{"server_id":17,"name":"Uncletopia | San Francisco | 1 | All Maps","name_short":"sfo-1","host":"sfo-1.us.uncletopia.com","port":27015,"enabled":true,"region":"us-west","cc":"us","latitude":37.77397,"longitude":-122.4313,"reserved":0,"last_update":"0001-01-01T00:00:00Z","name_a2s":"Uncletopia | San Francisco | 1 | All Maps","protocol":17,"map":"pl_snowycoast","folder":"tf","game":"Team Fortress","app_id":440,"player_count":24,"max_players":24,"Bots":0,"server_type":"Dedicated","server_os":"Linux","password":true,"vac":true,"version":"7882260","steam_id":85568392924469999,"keywords":["nocrits","nodmgspread","payload","uncletopia"],"game_id":440,"stv_port":27016,"stv_name":"Uncletopia | San Francisco | 1 | All Maps | STV","players":[{"user_id":610,"name":"BuncusBeffer","steam_id":76561198285936616,"connected_time":688000000000,"state":"active","ping":57},{"user_id":531,"name":"bunnyly enough","steam_id":76561198094119347,"connected_time":6147000000000,"state":"active","ping":92},{"user_id":612,"name":"cHUNGUSmUNGUS","steam_id":76561199096182392,"connected_time":219000000000,"state":"active","ping":90},{"user_id":532,"name":"TeriyakiDynamite","steam_id":76561198050049346,"connected_time":6145000000000,"state":"active","ping":108},{"user_id":597,"name":"♠Silver♠","steam_id":76561198206109224,"connected_time":1706000000000,"state":"active","ping":121},{"user_id":608,"name":"EggPencil","steam_id":76561198043633284,"connected_time":1037000000000,"state":"active","ping":75},{"user_id":593,"name":"Bagoool","steam_id":76561198065368286,"connected_time":1740000000000,"state":"active","ping":85},{"user_id":529,"name":"Punished Jeff (Drain Messiah)","steam_id":76561198304252584,"connected_time":6260000000000,"state":"active","ping":53},{"user_id":489,"name":"birbneedsumseed","steam_id":76561198853439850,"connected_time":9075000000000,"state":"active","ping":54},{"user_id":585,"name":"eau:","steam_id":76561198110020262,"connected_time":2451000000000,"state":"active","ping":49},{"user_id":545,"name":"fallingtree123","steam_id":76561198937414442,"connected_time":5529000000000,"state":"active","ping":102},{"user_id":580,"name":"festive joe","steam_id":76561198188156550,"connected_time":2816000000000,"state":"active","ping":66},{"user_id":598,"name":"iv","steam_id":76561198878022971,"connected_time":1705000000000,"state":"active","ping":137},{"user_id":549,"name":"Spy achungus","steam_id":76561198135651070,"connected_time":5330000000000,"state":"active","ping":116},{"user_id":594,"name":"lite","steam_id":76561198041535914,"connected_time":1734000000000,"state":"active","ping":106},{"user_id":581,"name":"SvicidalBug","steam_id":76561198221390504,"connected_time":2738000000000,"state":"active","ping":85},{"user_id":595,"name":"Justin","steam_id":76561198110865423,"connected_time":1732000000000,"state":"active","ping":46},{"user_id":599,"name":"MattyXO","steam_id":76561198084584550,"connected_time":1698000000000,"state":"active","ping":98},{"user_id":611,"name":"MintyFreshMentos","steam_id":76561198839944799,"connected_time":614000000000,"state":"active","ping":56},{"user_id":559,"name":"Wavelengths (they/it)","steam_id":76561197997621320,"connected_time":4708000000000,"state":"active","ping":89},{"user_id":602,"name":"Flying Tortilla","steam_id":76561198079455930,"connected_time":1585000000000,"state":"active","ping":117},{"user_id":603,"name":"chrome 2008 (she/they)","steam_id":76561198321277216,"connected_time":1527000000000,"state":"active","ping":66},{"user_id":584,"name":"spiderguy","steam_id":76561198412074955,"connected_time":2464000000000,"state":"active","ping":101},{"user_id":607,"name":"endo","steam_id":76561197995204381,"connected_time":1070000000000,"state":"active","ping":72}]},{"server_id":18,"name":"Uncletopia | San Francisco | 2 | All Maps","name_short":"sfo-2","host":"sfo-1.us.uncletopia.com","port":27025,"enabled":true,"region":"us-west","cc":"us","latitude":37.77397,"longitude":-122.4313,"reserved":0,"last_update":"0001-01-01T00:00:00Z","name_a2s":"Uncletopia | San Francisco | 2 | All Maps","protocol":17,"map":"pl_badwater","folder":"tf","game":"Team Fortress","app_id":440,"player_count":24,"max_players":24,"Bots":0,"server_type":"Dedicated","server_os":"Linux","password":true,"vac":true,"version":"7882260","steam_id":85568392924470000,"keywords":["nocrits","nodmgspread","payload","uncletopia"],"game_id":440,"stv_port":27026,"stv_name":"Uncletopia | San Francisco | 2 | All Maps | STV","players":[{"user_id":536,"name":"puffer","steam_id":76561199049164456,"connected_time":172000000000,"state":"active","ping":61},{"user_id":537,"name":"the fool","steam_id":76561198133933158,"connected_time":0,"state":"spawning","ping":0},{"user_id":530,"name":"Rafl","steam_id":76561198055222756,"connected_time":429000000000,"state":"active","ping":83},{"user_id":529,"name":"Sergeant York","steam_id":76561199021653905,"connected_time":434000000000,"state":"active","ping":103},{"user_id":521,"name":"josie","steam_id":76561198170848553,"connected_time":1065000000000,"state":"active","ping":64},{"user_id":511,"name":"Dr. Blair Chao","steam_id":76561198146027518,"connected_time":1736000000000,"state":"active","ping":120},{"user_id":522,"name":"Zenire","steam_id":76561199087298510,"connected_time":1050000000000,"state":"active","ping":70},{"user_id":433,"name":"Pyrotek⁴","steam_id":76561198072747672,"connected_time":5442000000000,"state":"active","ping":51},{"user_id":525,"name":"Amazing476","steam_id":76561198103937489,"connected_time":927000000000,"state":"active","ping":109},{"user_id":425,"name":"rimble","steam_id":76561198150137369,"connected_time":6269000000000,"state":"active","ping":53},{"user_id":533,"name":"Copy","steam_id":76561198025031590,"connected_time":369000000000,"state":"active","ping":73},{"user_id":466,"name":"Sidekick","steam_id":76561198392740835,"connected_time":4368000000000,"state":"active","ping":65},{"user_id":486,"name":"Throws Before Bros󠀡","steam_id":76561197992905530,"connected_time":3243000000000,"state":"active","ping":55},{"user_id":467,"name":"Uncle Dad","steam_id":76561198058073652,"connected_time":4224000000000,"state":"active","ping":81},{"user_id":506,"name":"Ice cream sandwich","steam_id":76561198172748357,"connected_time":2158000000000,"state":"active","ping":49},{"user_id":532,"name":"DOMO_MR_ROBOTO","steam_id":76561198077108345,"connected_time":421000000000,"state":"active","ping":97},{"user_id":524,"name":"Faefanger","steam_id":76561198201871002,"connected_time":1017000000000,"state":"active","ping":85},{"user_id":534,"name":"Pho","steam_id":76561198306515742,"connected_time":341000000000,"state":"active","ping":49},{"user_id":498,"name":"Twinkie Esquire","steam_id":76561199416942848,"connected_time":2733000000000,"state":"active","ping":117},{"user_id":515,"name":"Blitzy","steam_id":76561198149472890,"connected_time":1551000000000,"state":"active","ping":94},{"user_id":535,"name":"Call Me Ishmael","steam_id":76561198030696516,"connected_time":328000000000,"state":"active","ping":65},{"user_id":516,"name":"Herbal.T.73","steam_id":76561198012745038,"connected_time":1537000000000,"state":"active","ping":88},{"user_id":473,"name":"Anthid","steam_id":76561198074493797,"connected_time":3763000000000,"state":"active","ping":63},{"user_id":527,"name":"Carvernon","steam_id":76561198011356505,"connected_time":816000000000,"state":"active","ping":79}]},{"server_id":19,"name":"Uncletopia | San Francisco | 3 | Stopwatch Beta","name_short":"sfo-3","host":"sfo-1.us.uncletopia.com","port":27035,"enabled":true,"region":"us-west","cc":"us","latitude":37.77397,"longitude":-122.4313,"reserved":0,"last_update":"0001-01-01T00:00:00Z","name_a2s":"Uncletopia | San Francisco | 3 | Stopwatch Beta","protocol":17,"map":"workshop/koth_ramjam_rc1.ugc459778887","folder":"tf","game":"Team Fortress","app_id":440,"player_count":0,"max_players":24,"Bots":0,"server_type":"Dedicated","server_os":"Linux","password":true,"vac":true,"version":"7882260","steam_id":85568392924742824,"keywords":["cp","nocrits","nodmgspread","uncletopia"],"game_id":440,"stv_port":27036,"stv_name":"Uncletopia | San Francisco | 3 | Stopwatch Beta | STV","players":null},{"server_id":20,"name":"Uncletopia | San Francisco | 4 | Community","name_short":"sfo-4","host":"sfo-1.us.uncletopia.com","port":27045,"enabled":true,"region":"us-west","cc":"us","latitude":37.77397,"longitude":-122.4313,"reserved":0,"last_update":"0001-01-01T00:00:00Z","name_a2s":"Uncletopia | San Francisco | 4 | Community","protocol":17,"map":"workshop/koth_ashville_final.ugc2130459942","folder":"tf","game":"Team Fortress","app_id":440,"player_count":0,"max_players":24,"Bots":0,"server_type":"Dedicated","server_os":"Linux","password":true,"vac":true,"version":"7882260","steam_id":85568392924742826,"keywords":["cp","nocrits","nodmgspread","uncletopia"],"game_id":440,"stv_port":27046,"stv_name":"Uncletopia | San Francisco | 4 | Community | STV","players":null},{"server_id":141,"name":"Uncletopia | Sydney | 1 | All Maps","name_short":"syd-1","host":"syd-1.au.uncletopia.com","port":27015,"enabled":true,"region":"au","cc":"au","latitude":-33.865143,"longitude":151.2099,"reserved":0,"last_update":"0001-01-01T00:00:00Z","name_a2s":"Uncletopia | Sydney | 1 | All Maps","protocol":17,"map":"pl_upward","folder":"tf","game":"Team Fortress","app_id":440,"player_count":19,"max_players":24,"Bots":0,"server_type":"Dedicated","server_os":"Linux","password":true,"vac":true,"version":"7882260","steam_id":85568392924470001,"keywords":["nocrits","nodmgspread","payload","uncletopia"],"game_id":440,"stv_port":27016,"stv_name":"Uncletopia | Sydney | 1 | All Maps | STV","players":[{"user_id":183,"name":"you've left me be Wilbur'd","steam_id":76561198301282416,"connected_time":4541000000000,"state":"active","ping":47},{"user_id":167,"name":"two inch prince","steam_id":76561198122357685,"connected_time":5233000000000,"state":"active","ping":63},{"user_id":244,"name":"killmane","steam_id":76561198041553523,"connected_time":28000000000,"state":"active","ping":120},{"user_id":245,"name":"El Chupacabra","steam_id":76561198070641651,"connected_time":24000000000,"state":"active","ping":45},{"user_id":202,"name":"The Observer","steam_id":76561198025099660,"connected_time":3128000000000,"state":"active","ping":31},{"user_id":200,"name":"THE GUVNER","steam_id":76561198087803935,"connected_time":3356000000000,"state":"active","ping":69},{"user_id":242,"name":"splurboingus wazoogort","steam_id":76561198063481761,"connected_time":759000000000,"state":"active","ping":44},{"user_id":235,"name":"spik⁧⁧eee","steam_id":76561198412388554,"connected_time":1209000000000,"state":"active","ping":45},{"user_id":195,"name":"frogmouth07","steam_id":76561199038681860,"connected_time":3677000000000,"state":"active","ping":61},{"user_id":243,"name":"whiteshaq","steam_id":76561198131988811,"connected_time":444000000000,"state":"active","ping":45},{"user_id":230,"name":"Warren","steam_id":76561198120350917,"connected_time":1324000000000,"state":"active","ping":44},{"user_id":231,"name":"hive","steam_id":76561199099744527,"connected_time":1316000000000,"state":"active","ping":60},{"user_id":196,"name":"horrid webbon ᘛ⁐̤ᕐᐷ","steam_id":76561198061998379,"connected_time":3671000000000,"state":"active","ping":49},{"user_id":197,"name":"locust no.2","steam_id":76561198060024585,"connected_time":3603000000000,"state":"active","ping":30},{"user_id":239,"name":"Kremmen","steam_id":76561198051368641,"connected_time":1088000000000,"state":"active","ping":52},{"user_id":203,"name":"Revival Jam","steam_id":76561198056414289,"connected_time":3118000000000,"state":"active","ping":57},{"user_id":224,"name":"timboe","steam_id":76561198003442007,"connected_time":1842000000000,"state":"active","ping":59},{"user_id":210,"name":"Fleetfoot","steam_id":76561198072845816,"connected_time":2857000000000,"state":"active","ping":49},{"user_id":240,"name":"aido","steam_id":76561198072397557,"connected_time":1067000000000,"state":"active","ping":64}]},{"server_id":123,"name":"Uncletopia | Sydney | 2 | All Maps","name_short":"syd-2","host":"syd-1.au.uncletopia.com","port":27025,"enabled":true,"region":"au","cc":"au","latitude":-33.865143,"longitude":151.2099,"reserved":0,"last_update":"0001-01-01T00:00:00Z","name_a2s":"Uncletopia | Sydney | 2 | All Maps","protocol":17,"map":"cp_sunshine","folder":"tf","game":"Team Fortress","app_id":440,"player_count":14,"max_players":24,"Bots":0,"server_type":"Dedicated","server_os":"Linux","password":true,"vac":true,"version":"7882260","steam_id":85568392924470002,"keywords":["cp","nocrits","nodmgspread","uncletopia"],"game_id":440,"stv_port":27026,"stv_name":"Uncletopia | Sydney | 2 | All Maps | STV","players":[{"user_id":69,"name":"Okie Dokie","steam_id":76561198125237921,"connected_time":931000000000,"state":"active","ping":41},{"user_id":74,"name":"Federal Agent No. 734","steam_id":76561198132758545,"connected_time":361000000000,"state":"active","ping":55},{"user_id":71,"name":"covenofbats","steam_id":76561198152117315,"connected_time":649000000000,"state":"active","ping":37},{"user_id":75,"name":"Pizza Guy","steam_id":76561199136347742,"connected_time":355000000000,"state":"active","ping":63},{"user_id":83,"name":"SubHam","steam_id":76561198071578622,"connected_time":125000000000,"state":"active","ping":74},{"user_id":23,"name":"Lumalee ❤","steam_id":76561198157613299,"connected_time":5742000000000,"state":"active","ping":54},{"user_id":84,"name":"ivoangelozocca","steam_id":76561199419790359,"connected_time":92000000000,"state":"spawning","ping":160},{"user_id":77,"name":"Snipan Milat","steam_id":76561198001544539,"connected_time":304000000000,"state":"active","ping":55},{"user_id":78,"name":"Jetstream Ham |HM|","steam_id":76561199003813192,"connected_time":292000000000,"state":"active","ping":124},{"user_id":80,"name":"Demo-Ham TF2 |HM|","steam_id":76561198419196522,"connected_time":213000000000,"state":"active","ping":77},{"user_id":81,"name":"A KFC RatChicken","steam_id":76561198157727540,"connected_time":210000000000,"state":"active","ping":43},{"user_id":82,"name":"BigLadBoyga","steam_id":76561198985263763,"connected_time":190000000000,"state":"active","ping":76},{"user_id":85,"name":"Motormouth","steam_id":76561197980851839,"connected_time":79000000000,"state":"active","ping":86},{"user_id":37,"name":"RustyMeat","steam_id":76561198119162442,"connected_time":4078000000000,"state":"active","ping":66}]},{"server_id":395,"name":"Uncletopia | Sydney | 3 | All Maps","name_short":"syd-3","host":"syd-1.au.uncletopia.com","port":27035,"enabled":true,"region":"au","cc":"au","latitude":-33.865143,"longitude":151.2099,"reserved":0,"last_update":"0001-01-01T00:00:00Z","name_a2s":"Uncletopia | Sydney | 3 | All Maps","protocol":17,"map":"koth_viaduct","folder":"tf","game":"Team Fortress","app_id":440,"player_count":0,"max_players":24,"Bots":0,"server_type":"Dedicated","server_os":"Linux","password":true,"vac":true,"version":"7882260","steam_id":85568392925194467,"keywords":["cp","nocrits","nodmgspread","uncletopia"],"game_id":440,"stv_port":27036,"stv_name":"Uncletopia | Sydney | 3 | All Maps | STV","players":null},{"server_id":396,"name":"Uncletopia | Sydney | 4 | All Maps","name_short":"syd-4","host":"syd-1.au.uncletopia.com","port":27045,"enabled":true,"region":"au","cc":"au","latitude":-33.865143,"longitude":151.2099,"reserved":0,"last_update":"0001-01-01T00:00:00Z","name_a2s":"Uncletopia | Sydney | 4 | All Maps","protocol":17,"map":"cp_process_final","folder":"tf","game":"Team Fortress","app_id":440,"player_count":0,"max_players":24,"Bots":0,"server_type":"Dedicated","server_os":"Linux","password":true,"vac":true,"version":"7882260","steam_id":85568392925397958,"keywords":["cp","nocrits","nodmgspread","uncletopia"],"game_id":440,"stv_port":27046,"stv_name":"Uncletopia | Sydney | 4 | All Maps | STV","players":null},{"server_id":58,"name":"Uncletopia | Sydney | 5 | Stopwatch Beta","name_short":"syd-5","host":"syd-1.au.uncletopia.com","port":27055,"enabled":true,"region":"au","cc":"au","latitude":-33.865143,"longitude":151.2099,"reserved":0,"last_update":"0001-01-01T00:00:00Z","name_a2s":"Uncletopia | Sydney | 5 | Stopwatch Beta","protocol":17,"map":"workshop/koth_ramjam_rc1.ugc459778887","folder":"tf","game":"Team Fortress","app_id":440,"player_count":0,"max_players":24,"Bots":0,"server_type":"Dedicated","server_os":"Linux","password":true,"vac":true,"version":"7882260","steam_id":85568392925397959,"keywords":["cp","nocrits","nodmgspread","uncletopia"],"game_id":440,"stv_port":27056,"stv_name":"Uncletopia | Sydney | 5 | Stopwatch Beta | STV","players":null},{"server_id":59,"name":"Uncletopia | Sydney | 6 | Community","name_short":"syd-6","host":"syd-1.au.uncletopia.com","port":27065,"enabled":true,"region":"au","cc":"au","latitude":-33.865143,"longitude":151.2099,"reserved":0,"last_update":"0001-01-01T00:00:00Z","name_a2s":"Uncletopia | Sydney | 6 | Community","protocol":17,"map":"workshop/koth_synthetic_rc6a.ugc1549817316","folder":"tf","game":"Team Fortress","app_id":440,"player_count":0,"max_players":24,"Bots":0,"server_type":"Dedicated","server_os":"Linux","password":true,"vac":true,"version":"7882260","steam_id":85568392925397960,"keywords":["cp","nocrits","nodmgspread","uncletopia"],"game_id":440,"stv_port":27066,"stv_name":"Uncletopia | Sydney | 6 | Community | STV","players":null},{"server_id":49,"name":"Uncletopia | Warsaw | 1 | All Maps","name_short":"waw-1","host":"waw-1.pl.uncletopia.com","port":27015,"enabled":true,"region":"eu","cc":"pl","latitude":52.2297,"longitude":21.017532,"reserved":0,"last_update":"0001-01-01T00:00:00Z","name_a2s":"","protocol":0,"map":"","folder":"","game":"","app_id":0,"player_count":0,"max_players":0,"Bots":0,"server_type":"","server_os":"","password":false,"vac":false,"version":"","steam_id":0,"keywords":null,"game_id":0,"stv_port":0,"stv_name":"","players":null},{"server_id":50,"name":"Uncletopia | Warsaw | 2 | All Maps","name_short":"waw-2","host":"waw-1.pl.uncletopia.com","port":27025,"enabled":true,"region":"eu","cc":"pl","latitude":52.2297,"longitude":21.017532,"reserved":0,"last_update":"0001-01-01T00:00:00Z","name_a2s":"Uncletopia | Warsaw | 2 | All Maps","protocol":17,"map":"koth_viaduct","folder":"tf","game":"Team Fortress","app_id":440,"player_count":0,"max_players":24,"Bots":0,"server_type":"Dedicated","server_os":"Linux","password":true,"vac":true,"version":"7882260","steam_id":85568392925397851,"keywords":["cp","nocrits","nodmgspread","uncletopia"],"game_id":440,"stv_port":27026,"stv_name":"Uncletopia | Warsaw | 2 | All Maps | STV","players":null},{"server_id":51,"name":"Uncletopia | Warsaw | 3 | All Maps","name_short":"waw-3","host":"waw-1.pl.uncletopia.com","port":27035,"enabled":true,"region":"eu","cc":"pl","latitude":52.2297,"longitude":21.017532,"reserved":0,"last_update":"0001-01-01T00:00:00Z","name_a2s":"Uncletopia | Warsaw | 3 | All Maps","protocol":17,"map":"pl_badwater","folder":"tf","game":"Team Fortress","app_id":440,"player_count":0,"max_players":24,"Bots":0,"server_type":"Dedicated","server_os":"Linux","password":true,"vac":true,"version":"7882260","steam_id":85568392925397852,"keywords":["nocrits","nodmgspread","payload","uncletopia"],"game_id":440,"stv_port":27036,"stv_name":"Uncletopia | Warsaw | 3 | All Maps | STV","players":null},{"server_id":52,"name":"Uncletopia | Warsaw | 4 | All Maps","name_short":"waw-4","host":"waw-1.pl.uncletopia.com","port":27045,"enabled":true,"region":"eu","cc":"pl","latitude":52.2297,"longitude":21.017532,"reserved":0,"last_update":"0001-01-01T00:00:00Z","name_a2s":"Uncletopia | Warsaw | 4 | All Maps","protocol":17,"map":"koth_cascade","folder":"tf","game":"Team Fortress","app_id":440,"player_count":0,"max_players":24,"Bots":0,"server_type":"Dedicated","server_os":"Linux","password":true,"vac":true,"version":"7882260","steam_id":85568392925397853,"keywords":["cp","nocrits","nodmgspread","uncletopia"],"game_id":440,"stv_port":27046,"stv_name":"Uncletopia | Warsaw | 4 | All Maps | STV","players":null},{"server_id":53,"name":"Uncletopia | Warsaw | 5 | Stopwatch Beta","name_short":"waw-5","host":"waw-1.pl.uncletopia.com","port":27055,"enabled":true,"region":"eu","cc":"pl","latitude":52.2297,"longitude":21.017532,"reserved":0,"last_update":"0001-01-01T00:00:00Z","name_a2s":"Uncletopia | Warsaw | 5 | Stopwatch Beta","protocol":17,"map":"cp_dustbowl","folder":"tf","game":"Team Fortress","app_id":440,"player_count":0,"max_players":24,"Bots":0,"server_type":"Dedicated","server_os":"Linux","password":true,"vac":true,"version":"7882260","steam_id":85568392925397854,"keywords":["cp","nocrits","nodmgspread","uncletopia"],"game_id":440,"stv_port":27056,"stv_name":"Uncletopia | Warsaw | 5 | Stopwatch Beta | STV","players":null},{"server_id":54,"name":"Uncletopia | Warsaw | 6 | Community","name_short":"waw-6","host":"waw-1.pl.uncletopia.com","port":27065,"enabled":true,"region":"eu","cc":"pl","latitude":52.2297,"longitude":21.017532,"reserved":0,"last_update":"0001-01-01T00:00:00Z","name_a2s":"Uncletopia | Warsaw | 6 | Community","protocol":17,"map":"cp_dustbowl","folder":"tf","game":"Team Fortress","app_id":440,"player_count":0,"max_players":24,"Bots":0,"server_type":"Dedicated","server_os":"Linux","password":true,"vac":true,"version":"7882260","steam_id":85568392925397856,"keywords":["cp","nocrits","nodmgspread","uncletopia"],"game_id":440,"stv_port":27066,"stv_name":"Uncletopia | Warsaw | 6 | Community | STV","players":null}]}