{"status":true,"message":"","result":[{"server_id":9,"name":"Uncletopia | Atlanta | 1 | All Maps","name_short":"atl-1","host":"atl-1.us.uncletopia.com","port":27015,"enabled":true,"region":"us-east","cc":"us","latitude":33.753746,"longitude":-84.38633,"reserved":0,"last_update":"0001-01-01T00:00:00Z","name_a2s":"Uncletopia | Atlanta | 1 | All Maps","protocol":17,"map":"cp_process_final","folder":"tf","game":"Team Fortress","app_id":440,"player_count":24,"max_players":24,"Bots":0,"server_type":"Dedicated","server_os":"Linux","password":true,"vac":true,"version":"7961495","steam_id":85568392924469982,"keywords":["cp","nocrits","nodmgspread","uncletopia"],"game_id":440,"stv_port":27016,"stv_name":"Uncletopia | Atlanta | 1 | All Maps | STV","players":[{"user_id":452,"name":"Hater","steam_id":76561198124685704,"connected_time":2124000000000,"state":"active","ping":68},{"user_id":434,"name":"Jin","steam_id":76561198119873148,"connected_time":2855000000000,"state":"active","ping":63},{"user_id":444,"name":"Poo","steam_id":76561198265144507,"connected_time":2589000000000,"state":"active","ping":51},{"user_id":371,"name":"Whisk #GOOD GAMER","steam_id":76561198272318229,"connected_time":6696000000000,"state":"active","ping":81},{"user_id":431,"name":"ATL1 | cola","steam_id":76561198374390458,"connected_time":3096000000000,"state":"active","ping":60},{"user_id":421,"name":"cupcup","steam_id":76561198116227192,"connected_time":3959000000000,"state":"active","ping":103},{"user_id":462,"name":"monkey goblin ass","steam_id":76561198317510961,"connected_time":282000000000,"state":"active","ping":74},{"user_id":464,"name":"Albino Jellyfish","steam_id":76561198208561097,"connected_time":130000000000,"state":"active","ping":59},{"user_id":445,"name":"Jared","steam_id":76561198027210228,"connected_time":2573000000000,"state":"active","ping":92},{"user_id":449,"name":"lu","steam_id":76561198080731872,"connected_time":2322000000000,"state":"active","ping":72},{"user_id":463,"name":"Lylith!!!","steam_id":76561198386687546,"connected_time":277000000000,"state":"active","ping":54},{"user_id":461,"name":"Sucsubot","steam_id":76561198106456128,"connected_time":1008000000000,"state":"active","ping":54},{"user_id":422,"name":"stink","steam_id":76561198099318923,"connected_time":3950000000000,"state":"active","ping":78},{"user_id":426,"name":"GRIND type pokemon","steam_id":76561198328109873,"connected_time":3827000000000,"state":"active","ping":73},{"user_id":457,"name":"I HATE red team","steam_id":76561198064127012,"connected_time":1573000000000,"state":"active","ping":46},{"user_id":429,"name":"Le4n!!!","steam_id":76561198045522596,"connected_time":3660000000000,"state":"active","ping":67},{"user_id":465,"name":"Captain Malarkey","steam_id":76561198869924281,"connected_time":66000000000,"state":"active","ping":74},{"user_id":427,"name":"Ata","steam_id":76561198349085545,"connected_time":3786000000000,"state":"active","ping":82},{"user_id":459,"name":"Normalux","steam_id":76561198293891426,"connected_time":1052000000000,"state":"active","ping":92},{"user_id":455,"name":"gnome chompski (real)","steam_id":76561198150327877,"connected_time":2007000000000,"state":"active","ping":45},{"user_id":361,"name":"trianamarco780","steam_id":76561199084319677,"connected_time":8108000000000,"state":"active","ping":104},{"user_id":415,"name":"HarryjusttHarry","steam_id":76561198982810452,"connected_time":5051000000000,"state":"active","ping":82},{"user_id":413,"name":"fortnite.jimmy.2014","steam_id":76561199177672325,"connected_time":5339000000000,"state":"active","ping":43},{"user_id":433,"name":"she french, i'm a coke boy","steam_id":76561198120440587,"connected_time":3014000000000,"state":"active","ping":52}]},{"server_id":104,"name":"Uncletopia | Atlanta | 2 | All Maps","name_short":"atl-2","host":"atl-1.us.uncletopia.com","port":27025,"enabled":true,"region":"us-east","cc":"us","latitude":33.753746,"longitude":-84.38633,"reserved":0,"last_update":"0001-01-01T00:00:00Z","name_a2s":"Uncletopia | Atlanta | 2 | All Maps","protocol":17,"map":"pl_badwater","folder":"tf","game":"Team Fortress","app_id":440,"player_count":24,"max_players":24,"Bots":0,"server_type":"Dedicated","server_os":"Linux","password":true,"vac":true,"version":"7961495","steam_id":85568392924469983,"keywords":["nocrits","nodmgspread","payload","uncletopia"],"game_id":440,"stv_port":27026,"stv_name":"Uncletopia | Atlanta | 2 | All Maps | STV","players":[{"user_id":384,"name":"Frawg","steam_id":76561198951162196,"connected_time":2379000000000,"state":"active","ping":72},{"user_id":399,"name":"AgentSyrup","steam_id":76561198068258555,"connected_time":1397000000000,"state":"active","ping":69},{"user_id":332,"name":"2cats_2curious","steam_id":76561198027143149,"connected_time":5270000000000,"state":"active","ping":61},{"user_id":414,"name":"Partark","steam_id":76561198010265825,"connected_time":290000000000,"state":"active","ping":45},{"user_id":402,"name":"chesterwnimitz","steam_id":76561198062664377,"connected_time":1191000000000,"state":"active","ping":93},{"user_id":415,"name":"Storebrand Vegeta","steam_id":76561197999105221,"connected_time":253000000000,"state":"active","ping":56},{"user_id":416,"name":"bleach‚Ç™","steam_id":76561198004482768,"connected_time":250000000000,"state":"active","ping":95},{"user_id":403,"name":"Nestor","steam_id":76561198070782619,"connected_time":1027000000000,"state":"active","ping":75},{"user_id":418,"name":"Humanbean37","steam_id":76561199232932739,"connected_time":113000000000,"state":"spawning","ping":85},{"user_id":371,"name":"Oxygen User","steam_id":76561199111975528,"connected_time":2954000000000,"state":"active","ping":59},{"user_id":355,"name":"Ka√±ul","steam_id":76561198977359464,"connected_time":3907000000000,"state":"active","ping":103},{"user_id":409,"name":"The Chosen One","steam_id":76561199046984627,"connected_time":701000000000,"state":"active","ping":60},{"user_id":381,"name":"Donkus","steam_id":76561198076654704,"connected_time":2601000000000,"state":"active","ping":63},{"user_id":351,"name":"KrashBoomBang","steam_id":76561199002978777,"connected_time":4483000000000,"state":"active","ping":67},{"user_id":367,"name":"moe","steam_id":76561198929586245,"connected_time":3151000000000,"state":"active","ping":85},{"user_id":413,"name":"Ok-Par","steam_id":76561199221067945,"connected_time":303000000000,"state":"active","ping":78},{"user_id":404,"name":"Smooth, Refreshing Bleach‚Ñ¢","steam_id":76561197981060504,"connected_time":999000000000,"state":"active","ping":63},{"user_id":385,"name":"ryce","steam_id":76561198114572309,"connected_time":2324000000000,"state":"active","ping":47},{"user_id":383,"name":"illious","steam_id":76561198169925494,"connected_time":2426000000000,"state":"active","ping":68},{"user_id":397,"name":"Ghost","steam_id":76561198110914180,"connected_time":1445000000000,"state":"active","ping":178},{"user_id":389,"name":"ICBMonkey","steam_id":76561198033351821,"connected_time":1756000000000,"state":"active","ping":60},{"user_id":407,"name":"Brian","steam_id":76561198077756206,"connected_time":942000000000,"state":"active","ping":129},{"user_id":417,"name":"IdkProlly","steam_id":76561198269212968,"connected_time":231000000000,"state":"active","ping":62},{"user_id":279,"name":"Yuck","steam_id":76561198001667870,"connected_time":8565000000000,"state":"active","ping":75}]},{"server_id":400,"name":"Uncletopia | Atlanta | 3 | Stopwatch","name_short":"atl-3","host":"atl-1.us.uncletopia.com","port":27035,"enabled":true,"region":"us-east","cc":"us","latitude":33.753746,"longitude":-84.38633,"reserved":0,"last_update":"0001-01-01T00:00:00Z","name_a2s":"Uncletopia | Atlanta | 3 | Stopwatch","protocol":17,"map":"pl_upward","folder":"tf","game":"Team Fortress","app_id":440,"player_count":6,"max_players":24,"Bots":0,"server_type":"Dedicated","server_os":"Linux","password":true,"vac":true,"version":"7961495","steam_id":85568392924515187,"keywords":["nocrits","nodmgspread","payload","uncletopia"],"game_id":440,"stv_port":27036,"stv_name":"Uncletopia | Atlanta | 3 | Stopwatch | STV","players":[{"user_id":83,"name":"FranckyFox2468","steam_id":76561198037679126,"connected_time":565000000000,"state":"active","ping":78},{"user_id":84,"name":"gamer.mephit","steam_id":76561199112861361,"connected_time":515000000000,"state":"active","ping":75},{"user_id":87,"name":"FieryChipmunk","steam_id":76561198425766450,"connected_time":56000000000,"state":"active","ping":83},{"user_id":75,"name":"TheRaccoonLord","steam_id":76561199039740088,"connected_time":1396000000000,"state":"active","ping":53},{"user_id":88,"name":"TheSmolPopato","steam_id":76561199076606348,"connected_time":36000000000,"state":"spawning","ping":65},{"user_id":67,"name":"Erebus","steam_id":76561199061956673,"connected_time":3221000000000,"state":"active","ping":78}]},{"server_id":401,"name":"Uncletopia | Atlanta | 4 | Community","name_short":"atl-4","host":"atl-1.us.uncletopia.com","port":27045,"enabled":true,"region":"us-east","cc":"us","latitude":33.753746,"longitude":-84.38633,"reserved":0,"last_update":"0001-01-01T00:00:00Z","name_a2s":"Uncletopia | Atlanta | 4 | Community","protocol":17,"map":"workshop/pl_boundary_final1.ugc456799153","folder":"tf","game":"Team Fortress","app_id":440,"player_count":0,"max_players":24,"Bots":0,"server_type":"Dedicated","server_os":"Linux","password":true,"vac":true,"version":"7961495","steam_id":85568392924515188,"keywords":["nocrits","nodmgspread","payload","uncletopia"],"game_id":440,"stv_port":27046,"stv_name":"Uncletopia | Atlanta | 4 | Community | STV","players":null},{"server_id":2,"name":"Uncletopia | Chicago | 1 | All Maps","name_short":"chi-1","host":"chi-1.us.uncletopia.com","port":27015,"enabled":true,"region":"us-central","cc":"us","latitude":41.881832,"longitude":-87.62318,"reserved":0,"last_update":"0001-01-01T00:00:00Z","name_a2s":"Uncletopia | Chicago | 1 | All Maps","protocol":17,"map":"cp_process_final","folder":"tf","game":"Team Fortress","app_id":440,"player_count":24,"max_players":24,"Bots":0,"server_type":"Dedicated","server_os":"Linux","password":true,"vac":true,"version":"7961495","steam_id":85568392924469984,"keywords":["cp","nocrits","nodmgspread","uncletopia"],"game_id":440,"stv_port":27016,"stv_name":"Uncletopia | Chicago | 1 | All Maps | STV","players":[{"user_id":596,"name":"BB Lorexav","steam_id":76561198207565988,"connected_time":430000000000,"state":"active","ping":83},{"user_id":559,"name":"I.C.","steam_id":76561198049256017,"connected_time":4162000000000,"state":"active","ping":78},{"user_id":492,"name":"troll","steam_id":76561198082680563,"connected_time":9245000000000,"state":"active","ping":58},{"user_id":573,"name":"spire","steam_id":76561198367664346,"connected_time":2628000000000,"state":"active","ping":55},{"user_id":597,"name":"Mentally Ill Woman","steam_id":76561198072030567,"connected_time":430000000000,"state":"active","ping":47},{"user_id":588,"name":"lwyr","steam_id":76561198007982579,"connected_time":794000000000,"state":"active","ping":60},{"user_id":495,"name":"elpful","steam_id":76561198189659530,"connected_time":8965000000000,"state":"active","ping":80},{"user_id":589,"name":"WaywardFinn","steam_id":76561198040391296,"connected_time":772000000000,"state":"active","ping":75},{"user_id":593,"name":"Xlander","steam_id":76561199345823430,"connected_time":732000000000,"state":"active","ping":55},{"user_id":594,"name":"gunch","steam_id":76561198029318657,"connected_time":666000000000,"state":"active","ping":62},{"user_id":579,"name":"okay","steam_id":76561198024973008,"connected_time":2535000000000,"state":"active","ping":69},{"user_id":598,"name":"PoofBallzZzZ","steam_id":76561197992257816,"connected_time":235000000000,"state":"active","ping":76},{"user_id":592,"name":"a bee gaming","steam_id":76561198103194393,"connected_time":746000000000,"state":"active","ping":63},{"user_id":595,"name":"samallwise","steam_id":76561199011855102,"connected_time":604000000000,"state":"active","ping":59},{"user_id":583,"name":"FinnaBust","steam_id":76561198397669078,"connected_time":906000000000,"state":"active","ping":62},{"user_id":587,"name":"momlovie","steam_id":76561198843933742,"connected_time":802000000000,"state":"active","ping":89},{"user_id":460,"name":"Strange Diplomat","steam_id":76561198428191920,"connected_time":11769000000000,"state":"active","ping":72},{"user_id":512,"name":"Tito","steam_id":76561198041702529,"connected_time":7915000000000,"state":"active","ping":73},{"user_id":554,"name":"Scarecrow","steam_id":76561198045870511,"connected_time":4223000000000,"state":"active","ping":53},{"user_id":563,"name":"DeadErebus","steam_id":76561198286117045,"connected_time":3992000000000,"state":"active","ping":44},{"user_id":571,"name":"A Sun","steam_id":76561198142545364,"connected_time":2782000000000,"state":"active","ping":58},{"user_id":549,"name":"tack","steam_id":76561198408477421,"connected_time":4366000000000,"state":"active","ping":73},{"user_id":570,"name":"Kero","steam_id":76561198343231436,"connected_time":2918000000000,"state":"active","ping":61},{"user_id":585,"name":"Hylic","steam_id":76561199051314589,"connected_time":874000000000,"state":"active","ping":66}]},{"server_id":106,"name":"Uncletopia | Chicago | 2 | All Maps","name_short":"chi-2","host":"chi-1.us.uncletopia.com","port":27025,"enabled":true,"region":"us-central","cc":"us","latitude":41.881832,"longitude":-87.62318,"reserved":0,"last_update":"0001-01-01T00:00:00Z","name_a2s":"Uncletopia | Chicago | 2 | All Maps","protocol":17,"map":"cp_dustbowl","folder":"tf","game":"Team Fortress","app_id":440,"player_count":24,"max_players":24,"Bots":0,"server_type":"Dedicated","server_os":"Linux","password":true,"vac":true,"version":"7961495","steam_id":85568392924469985,"keywords":["cp","nocrits","nodmgspread","uncletopia"],"game_id":440,"stv_port":27026,"stv_name":"Uncletopia | Chicago | 2 | All Maps | STV","players":[{"user_id":523,"name":"Joshua","steam_id":76561198101337570,"connected_time":1425000000000,"state":"active","ping":61},{"user_id":422,"name":"[El Fail] MR.BadassMCLee","steam_id":76561198043787818,"connected_time":6171000000000,"state":"active","ping":100},{"user_id":588,"name":"SCROWEN","steam_id":76561198150382695,"connected_time":399000000000,"state":"active","ping":75},{"user_id":538,"name":"1.50 Costco Hotdog","steam_id":76561199083888017,"connected_time":1204000000000,"state":"active","ping":68},{"user_id":502,"name":"Golumpus","steam_id":76561198053549635,"connected_time":1745000000000,"state":"active","ping":77},{"user_id":483,"name":"Vince Offer","steam_id":76561198991008825,"connected_time":2136000000000,"state":"active","ping":76},{"user_id":475,"name":"chrissweep","steam_id":76561198072826791,"connected_time":2442000000000,"state":"active","ping":69},{"user_id":581,"name":"Carson","steam_id":76561198068551867,"connected_time":500000000000,"state":"active","ping":60},{"user_id":613,"name":"Nutter Butter","steam_id":76561198068610437,"connected_time":39000000000,"state":"active","ping":95},{"user_id":611,"name":"Crescent","steam_id":76561198095124633,"connected_time":60000000000,"state":"active","ping":71},{"user_id":612,"name":"Kalhoun","steam_id":76561197999648122,"connected_time":57000000000,"state":"active","ping":98},{"user_id":419,"name":"runescape legend","steam_id":76561198077791373,"connected_time":6457000000000,"state":"active","ping":49},{"user_id":525,"name":"Gamering_funy","steam_id":76561199006503777,"connected_time":1417000000000,"state":"active","ping":47},{"user_id":603,"name":"sock","steam_id":76561199117597830,"connected_time":159000000000,"state":"active","ping":61},{"user_id":447,"name":"DrChillin","steam_id":76561198043824865,"connected_time":4824000000000,"state":"active","ping":76},{"user_id":471,"name":"fresco","steam_id":76561199101199477,"connected_time":2708000000000,"state":"active","ping":55},{"user_id":461,"name":"Provocator","steam_id":76561197961830410,"connected_time":3035000000000,"state":"active","ping":60},{"user_id":556,"name":"minyun","steam_id":76561199007250598,"connected_time":874000000000,"state":"active","ping":64},{"user_id":583,"name":"I Know Right!","steam_id":76561198203817936,"connected_time":476000000000,"state":"active","ping":38},{"user_id":566,"name":"Stiffy Magnum","steam_id":76561198000036722,"connected_time":792000000000,"state":"active","ping":126},{"user_id":610,"name":"mp4 ?","steam_id":76561198826820952,"connected_time":110000000000,"state":"active","ping":65},{"user_id":586,"name":"ElChuchoXf","steam_id":76561199235124146,"connected_time":430000000000,"state":"active","ping":143},{"user_id":609,"name":"guy","steam_id":76561198163306561,"connected_time":121000000000,"state":"active","ping":76},{"user_id":604,"name":"Pediatric Gynecologist","steam_id":76561199507852977,"connected_time":159000000000,"state":"active","ping":64}]},{"server_id":402,"name":"Uncletopia | Chicago | 3 | All Maps","name_short":"chi-3","host":"chi-1.us.uncletopia.com","port":27035,"enabled":true,"region":"us-central","cc":"us","latitude":41.881832,"longitude":-87.62318,"reserved":0,"last_update":"0001-01-01T00:00:00Z","name_a2s":"Uncletopia | Chicago | 3 | All Maps","protocol":17,"map":"cp_mountainlab","folder":"tf","game":"Team Fortress","app_id":440,"player_count":24,"max_players":24,"Bots":0,"server_type":"Dedicated","server_os":"Linux","password":true,"vac":true,"version":"7961495","steam_id":85568392924515191,"keywords":["cp","nocrits","nodmgspread","uncletopia"],"game_id":440,"stv_port":27036,"stv_name":"Uncletopia | Chicago | 3 | All Maps | STV","players":[{"user_id":223,"name":"EmotreX","steam_id":76561198366518989,"connected_time":528000000000,"state":"active","ping":84},{"user_id":227,"name":"minecraft australium (she/they)","steam_id":76561199096964288,"connected_time":377000000000,"state":"active","ping":37},{"user_id":217,"name":"IHateThisMap","steam_id":76561197980597646,"connected_time":1046000000000,"state":"active","ping":59},{"user_id":225,"name":"Hankel Tom (The Hankeler)","steam_id":76561199446367874,"connected_time":402000000000,"state":"active","ping":50},{"user_id":218,"name":"Jade!","steam_id":76561198128017814,"connected_time":1045000000000,"state":"active","ping":75},{"user_id":228,"name":"milwaukee pasta bandit","steam_id":76561198417793830,"connected_time":340000000000,"state":"active","ping":61},{"user_id":201,"name":"Evelynn the Fox","steam_id":76561198050946208,"connected_time":1834000000000,"state":"active","ping":73},{"user_id":210,"name":"Lunagriff","steam_id":76561198036889008,"connected_time":1597000000000,"state":"active","ping":70},{"user_id":215,"name":"0","steam_id":76561198046065237,"connected_time":1113000000000,"state":"active","ping":74},{"user_id":229,"name":"CommodoreEvac","steam_id":76561198035694806,"connected_time":332000000000,"state":"active","ping":70},{"user_id":212,"name":"Cyclops_672","steam_id":76561198080169497,"connected_time":1356000000000,"state":"active","ping":53},{"user_id":230,"name":"Jetty","steam_id":76561198004885583,"connected_time":310000000000,"state":"active","ping":55},{"user_id":231,"name":"Fartface","steam_id":76561198410869457,"connected_time":303000000000,"state":"active","ping":61},{"user_id":232,"name":"Bungus","steam_id":76561197984426574,"connected_time":300000000000,"state":"active","ping":72},{"user_id":205,"name":"LiterallyDJ","steam_id":76561198030293743,"connected_time":1799000000000,"state":"active","ping":90},{"user_id":235,"name":"Fr3eD0m","steam_id":76561198014592811,"connected_time":268000000000,"state":"active","ping":60},{"user_id":234,"name":"Passionate Map Researcher","steam_id":76561199490508357,"connected_time":283000000000,"state":"active","ping":61},{"user_id":206,"name":"Garfield","steam_id":76561198147300599,"connected_time":1788000000000,"state":"active","ping":56},{"user_id":236,"name":"get scrongled, idiot","steam_id":76561198115874625,"connected_time":267000000000,"state":"active","ping":71},{"user_id":237,"name":"TheIconicCrab","steam_id":76561198392823696,"connected_time":265000000000,"state":"active","ping":55},{"user_id":220,"name":"chill stoner guy w cool stories","steam_id":76561198120973162,"connected_time":1021000000000,"state":"active","ping":75},{"user_id":133,"name":"strawberry milk","steam_id":76561198025514255,"connected_time":5261000000000,"state":"active","ping":74},{"user_id":238,"name":"kill","steam_id":76561198257027820,"connected_time":265000000000,"state":"active","ping":77},{"user_id":241,"name":"Nick Nak the Tic Tac","steam_id":76561198061758497,"connected_time":71000000000,"state":"active","ping":59}]},{"server_id":403,"name":"Uncletopia | Chicago | 4 | All Maps","name_short":"chi-4","host":"chi-1.us.uncletopia.com","port":27045,"enabled":true,"region":"us-central","cc":"us","latitude":41.881832,"longitude":-87.62318,"reserved":0,"last_update":"0001-01-01T00:00:00Z","name_a2s":"Uncletopia | Chicago | 4 | All Maps","protocol":17,"map":"pl_badwater","folder":"tf","game":"Team Fortress","app_id":440,"player_count":24,"max_players":24,"Bots":0,"server_type":"Dedicated","server_os":"Linux","password":true,"vac":true,"version":"7961495","steam_id":85568392924515193,"keywords":["nocrits","nodmgspread","payload","uncletopia"],"game_id":440,"stv_port":27046,"stv_name":"Uncletopia | Chicago | 4 | All Maps | STV","players":[{"user_id":435,"name":"Fuyutake","steam_id":76561199123206779,"connected_time":425000000000,"state":"active","ping":54},{"user_id":421,"name":"daffodil","steam_id":76561198049480053,"connected_time":1421000000000,"state":"active","ping":59},{"user_id":402,"name":"oppenheimer style","steam_id":76561198026664629,"connected_time":2690000000000,"state":"active","ping":47},{"user_id":441,"name":"Duncan","steam_id":76561198042148095,"connected_time":52000000000,"state":"active","ping":50},{"user_id":425,"name":"lucky","steam_id":76561198323426623,"connected_time":1212000000000,"state":"active","ping":80},{"user_id":255,"name":"mr ploobmeister","steam_id":76561198128908529,"connected_time":11574000000000,"state":"active","ping":78},{"user_id":439,"name":"Matches_                       ","steam_id":76561198048925904,"connected_time":136000000000,"state":"active","ping":105},{"user_id":353,"name":"slasher4713","steam_id":76561199033532858,"connected_time":5369000000000,"state":"active","ping":49},{"user_id":418,"name":"Hertz","steam_id":76561198310927351,"connected_time":1932000000000,"state":"active","ping":135},{"user_id":433,"name":"my money washed like george","steam_id":76561198115458307,"connected_time":597000000000,"state":"active","ping":105},{"user_id":442,"name":"Gotta Move That Gear Up","steam_id":76561197993467034,"connected_time":32000000000,"state":"active","ping":47},{"user_id":420,"name":"qory","steam_id":76561198152064890,"connected_time":1815000000000,"state":"active","ping":47},{"user_id":427,"name":"ButYouDisagree","steam_id":76561198044128052,"connected_time":1016000000000,"state":"active","ping":63},{"user_id":292,"name":"Elias","steam_id":76561198106431732,"connected_time":8554000000000,"state":"active","ping":53},{"user_id":392,"name":"Zodyxajon","steam_id":76561198165561581,"connected_time":3025000000000,"state":"active","ping":73},{"user_id":432,"name":"Anthid","steam_id":76561198074493797,"connected_time":665000000000,"state":"active","ping":63},{"user_id":352,"name":"No |HM|","steam_id":76561198181534443,"connected_time":5465000000000,"state":"active","ping":165},{"user_id":430,"name":"Uso Oxy!","steam_id":76561198025455273,"connected_time":818000000000,"state":"active","ping":182},{"user_id":398,"name":"Lia_Rein","steam_id":76561198151569597,"connected_time":2870000000000,"state":"active","ping":162},{"user_id":440,"name":"Satan-2","steam_id":76561199231742764,"connected_time":55000000000,"state":"active","ping":58},{"user_id":417,"name":"seats","steam_id":76561197998756039,"connected_time":1936000000000,"state":"active","ping":98},{"user_id":378,"name":"TableCroissants(YT)","steam_id":76561198402326563,"connected_time":3541000000000,"state":"active","ping":68},{"user_id":321,"name":"HumFreY","steam_id":76561198076639682,"connected_time":6757000000000,"state":"active","ping":78},{"user_id":437,"name":"Oopsie Daisy ‚ùã","steam_id":76561198042144492,"connected_time":362000000000,"state":"active","ping":60}]},{"server_id":36,"name":"Uncletopia | Chicago | 5 | All Maps","name_short":"chi-5","host":"chi-2.us.uncletopia.com","port":27015,"enabled":true,"region":"us-central","cc":"us","latitude":41.881832,"longitude":-87.62318,"reserved":0,"last_update":"0001-01-01T00:00:00Z","name_a2s":"Uncletopia | Chicago | 5 | All Maps","protocol":17,"map":"pl_barnblitz","folder":"tf","game":"Team Fortress","app_id":440,"player_count":24,"max_players":24,"Bots":0,"server_type":"Dedicated","server_os":"Linux","password":true,"vac":true,"version":"7961495","steam_id":85568392924866362,"keywords":["nocrits","nodmgspread","payload","uncletopia"],"game_id":440,"stv_port":27016,"stv_name":"Uncletopia | Chicago | 5 | All Maps | STV","players":[{"user_id":353,"name":"Fredrick","steam_id":76561197981419964,"connected_time":2735000000000,"state":"active","ping":60},{"user_id":398,"name":"qki","steam_id":76561198056198168,"connected_time":595000000000,"state":"active","ping":60},{"user_id":305,"name":"Gheeotine","steam_id":76561198010181698,"connected_time":3994000000000,"state":"active","ping":80},{"user_id":329,"name":"Godmode","steam_id":76561198076240365,"connected_time":3181000000000,"state":"active","ping":66},{"user_id":379,"name":"H0wlr","steam_id":76561198012332824,"connected_time":2128000000000,"state":"active","ping":58},{"user_id":382,"name":"Professor","steam_id":76561198097038169,"connected_time":2081000000000,"state":"active","ping":48},{"user_id":384,"name":"trash star","steam_id":76561198078395002,"connected_time":1705000000000,"state":"active","ping":60},{"user_id":330,"name":"MillerWhite","steam_id":76561198076060357,"connected_time":3176000000000,"state":"active","ping":72},{"user_id":348,"name":"SerenityDnB","steam_id":76561198026189583,"connected_time":2778000000000,"state":"active","ping":98},{"user_id":388,"name":"The Guy","steam_id":76561198049476046,"connected_time":1239000000000,"state":"active","ping":74},{"user_id":332,"name":"Kitt(eh)  ‚àë:3","steam_id":76561198110858518,"connected_time":3158000000000,"state":"active","ping":63},{"user_id":340,"name":"Krissy","steam_id":76561197960848174,"connected_time":2864000000000,"state":"active","ping":70},{"user_id":386,"name":"chen","steam_id":76561198064872330,"connected_time":1658000000000,"state":"active","ping":85},{"user_id":396,"name":"AzurVul","steam_id":76561197991959722,"connected_time":709000000000,"state":"active","ping":88},{"user_id":380,"name":"BarrowBaron","steam_id":76561198013633236,"connected_time":2125000000000,"state":"active","ping":64},{"user_id":389,"name":"PK","steam_id":76561198368722500,"connected_time":989000000000,"state":"active","ping":64},{"user_id":381,"name":"Bobby Ray","steam_id":76561198044131188,"connected_time":2122000000000,"state":"active","ping":89},{"user_id":390,"name":"Micahlele","steam_id":76561198155872356,"connected_time":942000000000,"state":"active","ping":60},{"user_id":344,"name":"Sleepy Icarus","steam_id":76561198145533630,"connected_time":2824000000000,"state":"active","ping":54},{"user_id":397,"name":"Shulgin_4-HO_MET","steam_id":76561198038784254,"connected_time":607000000000,"state":"active","ping":58},{"user_id":395,"name":"babylon","steam_id":76561198170642407,"connected_time":721000000000,"state":"active","ping":84},{"user_id":345,"name":"A Trigger Happy Chipmunk","steam_id":76561198013608736,"connected_time":2811000000000,"state":"active","ping":49},{"user_id":400,"name":"Dokkibai","steam_id":76561198355935693,"connected_time":123000000000,"state":"active","ping":58},{"user_id":331,"name":"Œõlxium","steam_id":76561198131272900,"connected_time":3169000000000,"state":"active","ping":61}]},{"server_id":37,"name":"Uncletopia | Chicago | 6 | All Maps","name_short":"chi-6","host":"chi-2.us.uncletopia.com","port":27025,"enabled":true,"region":"us-central","cc":"us","latitude":41.881832,"longitude":-87.62318,"reserved":0,"last_update":"0001-01-01T00:00:00Z","name_a2s":"Uncletopia | Chicago | 6 | All Maps","protocol":17,"map":"cp_dustbowl","folder":"tf","game":"Team Fortress","app_id":440,"player_count":24,"max_players":24,"Bots":0,"server_type":"Dedicated","server_os":"Linux","password":true,"vac":true,"version":"7961495","steam_id":85568392924866363,"keywords":["cp","nocrits","nodmgspread","uncletopia"],"game_id":440,"stv_port":27026,"stv_name":"Uncletopia | Chicago | 6 | All Maps | STV","players":[{"user_id":234,"name":"Dr. Han","steam_id":76561198811130843,"connected_time":2369000000000,"state":"active","ping":70},{"user_id":155,"name":"Aegle","steam_id":76561198871463455,"connected_time":6885000000000,"state":"active","ping":91},{"user_id":258,"name":"Kdwag","steam_id":76561198030761042,"connected_time":1013000000000,"state":"active","ping":83},{"user_id":250,"name":"GreenApples","steam_id":76561198120559543,"connected_time":1549000000000,"state":"active","ping":110},{"user_id":260,"name":"Actually Playing Runescape","steam_id":76561198060807197,"connected_time":117000000000,"state":"active","ping":53},{"user_id":256,"name":"Dullahan","steam_id":76561198119668908,"connected_time":1098000000000,"state":"active","ping":109},{"user_id":263,"name":"Steel Tombstone","steam_id":76561199160542103,"connected_time":48000000000,"state":"active","ping":60},{"user_id":243,"name":"Theballman","steam_id":76561199142402851,"connected_time":1639000000000,"state":"active","ping":64},{"user_id":214,"name":"astrobob911","steam_id":76561199099110654,"connected_time":3269000000000,"state":"active","ping":68},{"user_id":262,"name":"thecal","steam_id":76561198307893384,"connected_time":58000000000,"state":"active","ping":60},{"user_id":244,"name":"Ricky-Dicky Doo-Da Grimes","steam_id":76561198016095410,"connected_time":1637000000000,"state":"active","ping":60},{"user_id":251,"name":"A  cute cat who has a knife and","steam_id":76561199017719018,"connected_time":1524000000000,"state":"active","ping":71},{"user_id":254,"name":"Rango","steam_id":76561198222234172,"connected_time":1395000000000,"state":"active","ping":75},{"user_id":232,"name":"Uncle Majic the Hip Hop Magicia","steam_id":76561198107924303,"connected_time":2425000000000,"state":"active","ping":64},{"user_id":246,"name":"CHILL WEED VIBEüòéüçÅ","steam_id":76561198150678492,"connected_time":1625000000000,"state":"active","ping":76},{"user_id":222,"name":"hatsune.miku.2004","steam_id":76561198360184510,"connected_time":2939000000000,"state":"active","ping":73},{"user_id":257,"name":"carrot cake","steam_id":76561198055174915,"connected_time":1094000000000,"state":"active","ping":68},{"user_id":261,"name":"Rhutebeer","steam_id":76561198018302761,"connected_time":62000000000,"state":"active","ping":90},{"user_id":264,"name":"endwalker simp","steam_id":76561198066177299,"connected_time":44000000000,"state":"active","ping":92},{"user_id":259,"name":"Raccoon","steam_id":76561199189494190,"connected_time":419000000000,"state":"active","ping":74},{"user_id":227,"name":"Dragus","steam_id":76561198032967285,"connected_time":2803000000000,"state":"active","ping":48},{"user_id":265,"name":"Swag Messiah","steam_id":76561198400058665,"connected_time":37000000000,"state":"active","ping":70},{"user_id":240,"name":"pinkissocool {f2p}","steam_id":76561198989599828,"connected_time":1744000000000,"state":"active","ping":55},{"user_id":230,"name":"violent monkey porn","steam_id":76561199285074344,"connected_time":2709000000000,"state":"active","ping":49}]},{"server_id":38,"name":"Uncletopia | Chicago | 7 | Stopwatch","name_short":"chi-7","host":"chi-2.us.uncletopia.com","port":27035,"enabled":true,"region":"us-central","cc":"us","latitude":41.881832,"longitude":-87.62318,"reserved":0,"last_update":"0001-01-01T00:00:00Z","name_a2s":"Uncletopia | Chicago | 7 | Stopwatch","protocol":17,"map":"pl_upward","folder":"tf","game":"Team Fortress","app_id":440,"player_count":23,"max_players":24,"Bots":0,"server_type":"Dedicated","server_os":"Linux","password":true,"vac":true,"version":"7961495","steam_id":85568392924866364,"keywords":["nocrits","nodmgspread","payload","uncletopia"],"game_id":440,"stv_port":27036,"stv_name":"Uncletopia | Chicago | 7 | Stopwatch | STV","players":[{"user_id":181,"name":"chunk milk","steam_id":76561199027208532,"connected_time":3296000000000,"state":"active","ping":53},{"user_id":229,"name":"Zoramine Fae","steam_id":76561198346753422,"connected_time":92000000000,"state":"active","ping":34},{"user_id":197,"name":"Travorski","steam_id":76561198072493142,"connected_time":2122000000000,"state":"active","ping":77},{"user_id":172,"name":"cardsfish","steam_id":76561199195316687,"connected_time":4065000000000,"state":"active","ping":45},{"user_id":177,"name":"StillNotGinger","steam_id":76561198063419189,"connected_time":3635000000000,"state":"active","ping":72},{"user_id":198,"name":"freedom staff","steam_id":76561199123218315,"connected_time":2121000000000,"state":"active","ping":64},{"user_id":221,"name":"Window Licker #pride","steam_id":76561198386717007,"connected_time":425000000000,"state":"active","ping":59},{"user_id":179,"name":"Voskei","steam_id":76561197980576820,"connected_time":3365000000000,"state":"active","ping":105},{"user_id":219,"name":"JOE","steam_id":76561198099118498,"connected_time":452000000000,"state":"active","ping":78},{"user_id":158,"name":"Enderbot64","steam_id":76561198155398070,"connected_time":4543000000000,"state":"active","ping":37},{"user_id":215,"name":"nhbiker","steam_id":76561198081277675,"connected_time":786000000000,"state":"active","ping":59},{"user_id":196,"name":"Momo","steam_id":76561198815067088,"connected_time":2354000000000,"state":"active","ping":59},{"user_id":201,"name":"Peter griffin","steam_id":76561198277602752,"connected_time":1850000000000,"state":"active","ping":228},{"user_id":213,"name":"im on my demon time","steam_id":76561198418882213,"connected_time":1069000000000,"state":"active","ping":58},{"user_id":211,"name":"Albert Whiskers","steam_id":76561198124081839,"connected_time":1092000000000,"state":"active","ping":68},{"user_id":222,"name":"JellyParrot","steam_id":76561199190990163,"connected_time":386000000000,"state":"active","ping":60},{"user_id":228,"name":"Cthulwho?","steam_id":76561198165550810,"connected_time":161000000000,"state":"active","ping":63},{"user_id":223,"name":"TuBz","steam_id":76561198967971442,"connected_time":368000000000,"state":"active","ping":75},{"user_id":171,"name":"n√Æsh√©‚Ñ¢ #saveTF2","steam_id":76561198046869760,"connected_time":4142000000000,"state":"active","ping":45},{"user_id":224,"name":"The Grungler","steam_id":76561198126561438,"connected_time":358000000000,"state":"active","ping":99},{"user_id":226,"name":"Harley [Ramiel]","steam_id":76561198079510840,"connected_time":218000000000,"state":"active","ping":92},{"user_id":225,"name":"Blue_car_Reid","steam_id":76561198161120719,"connected_time":357000000000,"state":"active","ping":45},{"user_id":207,"name":"your local dipshit","steam_id":76561198291984726,"connected_time":1322000000000,"state":"active","ping":67}]},{"server_id":39,"name":"Uncletopia | Chicago | 8 | Community","name_short":"chi-8","host":"chi-2.us.uncletopia.com","port":27045,"enabled":true,"region":"us-central","cc":"us","latitude":41.881832,"longitude":-87.62318,"reserved":0,"last_update":"0001-01-01T00:00:00Z","name_a2s":"Uncletopia | Chicago | 8 | Community","protocol":17,"map":"workshop/pl_barnblitz_pro7.ugc582280235","folder":"tf","game":"Team Fortress","app_id":440,"player_count":0,"max_players":24,"Bots":0,"server_type":"Dedicated","server_os":"Linux","password":true,"vac":true,"version":"7961495","steam_id":85568392924866365,"keywords":["nocrits","nodmgspread","payload","uncletopia"],"game_id":440,"stv_port":27046,"stv_name":"Uncletopia | Chicago | 8 | Community | STV","players":null},{"server_id":8,"name":"Uncletopia | Dallas | 1 | All Maps","name_short":"dal-1","host":"dal-1.us.uncletopia.com","port":27015,"enabled":true,"region":"us-central","cc":"us","latitude":32.779167,"longitude":-96.80889,"reserved":0,"last_update":"0001-01-01T00:00:00Z","name_a2s":"Uncletopia | Dallas | 1 | All Maps","protocol":17,"map":"cp_dustbowl","folder":"tf","game":"Team Fortress","app_id":440,"player_count":24,"max_players":24,"Bots":0,"server_type":"Dedicated","server_os":"Linux","password":true,"vac":true,"version":"7961495","steam_id":85568392924469986,"keywords":["cp","nocrits","nodmgspread","uncletopia"],"game_id":440,"stv_port":27016,"stv_name":"Uncletopia | Dallas | 1 | All Maps | STV","players":[{"user_id":21,"name":"errant","steam_id":76561197961758410,"connected_time":3410000000000,"state":"active","ping":37},{"user_id":22,"name":"[cf] Captain Terror","steam_id":76561198028034742,"connected_time":3376000000000,"state":"active","ping":76},{"user_id":60,"name":"Major Woody","steam_id":76561198835541533,"connected_time":1220000000000,"state":"active","ping":59},{"user_id":25,"name":"ridge","steam_id":76561198381568825,"connected_time":2444000000000,"state":"active","ping":89},{"user_id":55,"name":"S H ‚óé K A","steam_id":76561198068084541,"connected_time":1439000000000,"state":"active","ping":57},{"user_id":70,"name":"tsz","steam_id":76561199246231090,"connected_time":759000000000,"state":"active","ping":64},{"user_id":28,"name":"MILKJUGG","steam_id":76561198153332955,"connected_time":2318000000000,"state":"active","ping":85},{"user_id":58,"name":"penzfan","steam_id":76561198230422640,"connected_time":1378000000000,"state":"active","ping":72},{"user_id":36,"name":"paulos231","steam_id":76561198032533302,"connected_time":2106000000000,"state":"active","ping":110},{"user_id":79,"name":"barker bill","steam_id":76561198018451994,"connected_time":112000000000,"state":"active","ping":56},{"user_id":52,"name":"Dwanor","steam_id":76561198039571887,"connected_time":1806000000000,"state":"active","ping":83},{"user_id":75,"name":"schmuck","steam_id":76561198143789773,"connected_time":133000000000,"state":"active","ping":53},{"user_id":65,"name":"Pol","steam_id":76561198232094892,"connected_time":1004000000000,"state":"active","ping":91},{"user_id":74,"name":"Wahaha hee","steam_id":76561198098017157,"connected_time":151000000000,"state":"active","ping":59},{"user_id":39,"name":"GabetIV femboy","steam_id":76561198145700338,"connected_time":2006000000000,"state":"active","ping":48},{"user_id":50,"name":"arcticzero77","steam_id":76561198040874381,"connected_time":1928000000000,"state":"active","ping":54},{"user_id":41,"name":"MrPeanutBetter","steam_id":76561199149697526,"connected_time":1994000000000,"state":"active","ping":102},{"user_id":42,"name":"Steak hater","steam_id":76561199103876021,"connected_time":1990000000000,"state":"active","ping":89},{"user_id":66,"name":"Donkski","steam_id":76561198406895347,"connected_time":968000000000,"state":"active","ping":74},{"user_id":53,"name":"An Engineer","steam_id":76561198110381643,"connected_time":1639000000000,"state":"active","ping":60},{"user_id":45,"name":"Hoodie_85","steam_id":76561199471600489,"connected_time":1963000000000,"state":"active","ping":94},{"user_id":73,"name":"Û†Å≥ ‚Åßhomo56K","steam_id":76561198404564240,"connected_time":530000000000,"state":"active","ping":90},{"user_id":48,"name":"Stupid? Probably :(","steam_id":76561198298310744,"connected_time":1948000000000,"state":"active","ping":97},{"user_id":78,"name":"hamburger time","steam_id":76561198882758067,"connected_time":130000000000,"state":"active","ping":91}]},{"server_id":108,"name":"Uncletopia | Dallas | 2 | All Maps","name_short":"dal-2","host":"dal-1.us.uncletopia.com","port":27025,"enabled":true,"region":"us-central","cc":"us","latitude":32.779167,"longitude":-96.80889,"reserved":0,"last_update":"0001-01-01T00:00:00Z","name_a2s":"Uncletopia | Dallas | 2 | All Maps","protocol":17,"map":"koth_sawmill","folder":"tf","game":"Team Fortress","app_id":440,"player_count":23,"max_players":24,"Bots":0,"server_type":"Dedicated","server_os":"Linux","password":true,"vac":true,"version":"7961495","steam_id":85568392924469988,"keywords":["cp","nocrits","nodmgspread","uncletopia"],"game_id":440,"stv_port":27026,"stv_name":"Uncletopia | Dallas | 2 | All Maps | STV","players":[{"user_id":294,"name":"Aperture Science Intern","steam_id":76561198040553272,"connected_time":826000000000,"state":"active","ping":84},{"user_id":295,"name":"Orange Triangle","steam_id":76561198320498182,"connected_time":316000000000,"state":"active","ping":74},{"user_id":220,"name":"MrSourLemmon","steam_id":76561199367994914,"connected_time":5882000000000,"state":"active","ping":45},{"user_id":291,"name":"MangoMaster7834","steam_id":76561199231165397,"connected_time":944000000000,"state":"active","ping":107},{"user_id":271,"name":"Levin","steam_id":76561198410302974,"connected_time":2285000000000,"state":"active","ping":77},{"user_id":284,"name":"RectalExam","steam_id":76561197970502312,"connected_time":1173000000000,"state":"active","ping":68},{"user_id":298,"name":"ImmenseWraith","steam_id":76561198963757884,"connected_time":123000000000,"state":"active","ping":82},{"user_id":273,"name":"Lain","steam_id":76561198029303534,"connected_time":1840000000000,"state":"active","ping":61},{"user_id":274,"name":"McDonald's drive through","steam_id":76561198152736160,"connected_time":1833000000000,"state":"active","ping":76},{"user_id":292,"name":"Slopshit","steam_id":76561199105238226,"connected_time":927000000000,"state":"active","ping":78},{"user_id":135,"name":"TacoMan4Life","steam_id":76561198832562728,"connected_time":11478000000000,"state":"active","ping":75},{"user_id":300,"name":"Steben","steam_id":76561198182247921,"connected_time":70000000000,"state":"active","ping":47},{"user_id":296,"name":"Menacing","steam_id":76561198009093788,"connected_time":283000000000,"state":"active","ping":46},{"user_id":283,"name":"Kylesicle","steam_id":76561198154341285,"connected_time":1190000000000,"state":"active","ping":62},{"user_id":281,"name":"oz","steam_id":76561198176547317,"connected_time":1212000000000,"state":"active","ping":106},{"user_id":268,"name":"Cyxzar","steam_id":76561198214066477,"connected_time":2610000000000,"state":"active","ping":50},{"user_id":286,"name":"zogs","steam_id":76561198323491654,"connected_time":1137000000000,"state":"active","ping":60},{"user_id":258,"name":"Colonel Salt","steam_id":76561198207009563,"connected_time":3765000000000,"state":"active","ping":61},{"user_id":288,"name":"Conner","steam_id":76561198042801153,"connected_time":1033000000000,"state":"active","ping":76},{"user_id":272,"name":"Scelo","steam_id":76561197987805095,"connected_time":1967000000000,"state":"active","ping":81},{"user_id":254,"name":"Ryzema","steam_id":76561198165594229,"connected_time":4270000000000,"state":"active","ping":76},{"user_id":290,"name":"rgl banned for vandalism","steam_id":76561198194471251,"connected_time":1005000000000,"state":"active","ping":60},{"user_id":267,"name":"Alex G Piss Pants","steam_id":76561199406829810,"connected_time":2892000000000,"state":"active","ping":87}]},{"server_id":404,"name":"Uncletopia | Dallas | 3 | All Maps","name_short":"dal-3","host":"dal-1.us.uncletopia.com","port":27035,"enabled":true,"region":"us-central","cc":"us","latitude":32.779167,"longitude":-96.80889,"reserved":0,"last_update":"0001-01-01T00:00:00Z","name_a2s":"Uncletopia | Dallas | 3 | All Maps","protocol":17,"map":"cp_altitude","folder":"tf","game":"Team Fortress","app_id":440,"player_count":24,"max_players":24,"Bots":0,"server_type":"Dedicated","server_os":"Linux","password":true,"vac":true,"version":"7961495","steam_id":85568392924515219,"keywords":["cp","nocrits","nodmgspread","uncletopia"],"game_id":440,"stv_port":27036,"stv_name":"Uncletopia | Dallas | 3 | All Maps | STV","players":[{"user_id":84,"name":"mkl","steam_id":76561197986401685,"connected_time":1621000000000,"state":"active","ping":58},{"user_id":83,"name":"Captain Underbelly","steam_id":76561198811270935,"connected_time":1690000000000,"state":"active","ping":79},{"user_id":88,"name":"paisano","steam_id":76561198065575472,"connected_time":1092000000000,"state":"active","ping":75},{"user_id":57,"name":"Sanic","steam_id":76561198083124962,"connected_time":4974000000000,"state":"active","ping":73},{"user_id":87,"name":"REALLINUSJEWTIP.","steam_id":76561198056647983,"connected_time":1096000000000,"state":"active","ping":90},{"user_id":73,"name":"plickles","steam_id":76561199032117349,"connected_time":3252000000000,"state":"active","ping":90},{"user_id":17,"name":"Da Policia","steam_id":76561198012762789,"connected_time":8021000000000,"state":"active","ping":45},{"user_id":90,"name":"Certified Hood Classic","steam_id":76561199086159354,"connected_time":1070000000000,"state":"active","ping":67},{"user_id":71,"name":"[_Dr.Scythe_]","steam_id":76561198845245858,"connected_time":3789000000000,"state":"active","ping":55},{"user_id":43,"name":"Xtar","steam_id":76561198301774048,"connected_time":6252000000000,"state":"active","ping":79},{"user_id":44,"name":"cbagels","steam_id":76561198453866972,"connected_time":6201000000000,"state":"active","ping":91},{"user_id":89,"name":"crankshaft","steam_id":76561197992798282,"connected_time":1086000000000,"state":"active","ping":75},{"user_id":79,"name":"Ockulus","steam_id":76561199069638460,"connected_time":2419000000000,"state":"active","ping":87},{"user_id":92,"name":"slafflow","steam_id":76561199381012350,"connected_time":174000000000,"state":"active","ping":77},{"user_id":72,"name":"MenInHatz","steam_id":76561198825094263,"connected_time":3285000000000,"state":"active","ping":66},{"user_id":94,"name":"herb","steam_id":76561198185980055,"connected_time":43000000000,"state":"active","ping":76},{"user_id":35,"name":"Mr.Pan","steam_id":76561198069030613,"connected_time":6646000000000,"state":"active","ping":68},{"user_id":69,"name":"CeLeb144","steam_id":76561199089907740,"connected_time":3828000000000,"state":"active","ping":87},{"user_id":38,"name":"King Cotton","steam_id":76561198292444376,"connected_time":6515000000000,"state":"active","ping":58},{"user_id":48,"name":"ruyon","steam_id":76561198376916657,"connected_time":6123000000000,"state":"active","ping":139},{"user_id":61,"name":"$2.99 grease cups","steam_id":76561198077272494,"connected_time":4899000000000,"state":"active","ping":70},{"user_id":62,"name":"beardedchinchilla","steam_id":76561198106462464,"connected_time":4838000000000,"state":"active","ping":60},{"user_id":91,"name":"Starfruit66","steam_id":76561198069917277,"connected_time":1056000000000,"state":"active","ping":84},{"user_id":93,"name":"Addy \u003c3","steam_id":76561198045819723,"connected_time":122000000000,"state":"active","ping":100}]},{"server_id":405,"name":"Uncletopia | Dallas | 4 | Community","name_short":"dal-4","host":"dal-1.us.uncletopia.com","port":27045,"enabled":true,"region":"us-central","cc":"us","latitude":32.779167,"longitude":-96.80889,"reserved":0,"last_update":"0001-01-01T00:00:00Z","name_a2s":"Uncletopia | Dallas | 4 | Community","protocol":17,"map":"workshop/koth_product_final.ugc454272353","folder":"tf","game":"Team Fortress","app_id":440,"player_count":0,"max_players":24,"Bots":0,"server_type":"Dedicated","server_os":"Linux","password":true,"vac":true,"version":"7961495","steam_id":85568392924515220,"keywords":["cp","nocrits","nodmgspread","uncletopia"],"game_id":440,"stv_port":27046,"stv_name":"Uncletopia | Dallas | 4 | Community | STV","players":null},{"server_id":5,"name":"Uncletopia | Frankfurt | 1 | All Maps","name_short":"frk-1","host":"frk-1.de.uncletopia.com","port":27015,"enabled":true,"region":"eu","cc":"de","latitude":50.110924,"longitude":8.682127,"reserved":0,"last_update":"0001-01-01T00:00:00Z","name_a2s":"Uncletopia | Frankfurt | 1 | All Maps","protocol":17,"map":"koth_cascade","folder":"tf","game":"Team Fortress","app_id":440,"player_count":0,"max_players":24,"Bots":0,"server_type":"Dedicated","server_os":"Linux","password":true,"vac":true,"version":"7961495","steam_id":85568392924469989,"keywords":["cp","nocrits","nodmgspread","uncletopia"],"game_id":440,"stv_port":27016,"stv_name":"Uncletopia | Frankfurt | 1 | All Maps | STV","players":null},{"server_id":110,"name":"Uncletopia | Frankfurt | 2 | All Maps","name_short":"frk-2","host":"frk-1.de.uncletopia.com","port":27025,"enabled":true,"region":"eu","cc":"de","latitude":50.110924,"longitude":8.682127,"reserved":0,"last_update":"0001-01-01T00:00:00Z","name_a2s":"Uncletopia | Frankfurt | 2 | All Maps","protocol":17,"map":"koth_cascade","folder":"tf","game":"Team Fortress","app_id":440,"player_count":0,"max_players":24,"Bots":0,"server_type":"Dedicated","server_os":"Linux","password":true,"vac":true,"version":"7961495","steam_id":85568392924469990,"keywords":["cp","nocrits","nodmgspread","uncletopia"],"game_id":440,"stv_port":27026,"stv_name":"Uncletopia | Frankfurt | 2 | All Maps | STV","players":null},{"server_id":308,"name":"Uncletopia | Frankfurt | 3 | All Maps","name_short":"frk-3","host":"frk-1.de.uncletopia.com","port":27035,"enabled":true,"region":"eu","cc":"de","latitude":50.110924,"longitude":8.682127,"reserved":0,"last_update":"0001-01-01T00:00:00Z","name_a2s":"Uncletopia | Frankfurt | 3 | All Maps","protocol":17,"map":"pl_pier","folder":"tf","game":"Team Fortress","app_id":440,"player_count":7,"max_players":24,"Bots":0,"server_type":"Dedicated","server_os":"Linux","password":true,"vac":true,"version":"7961495","steam_id":85568392924504274,"keywords":["nocrits","nodmgspread","payload","uncletopia"],"game_id":440,"stv_port":27036,"stv_name":"Uncletopia | Frankfurt | 3 | All Maps | STV","players":[{"user_id":507,"name":"ChesseKnight","steam_id":76561198102476339,"connected_time":4614000000000,"state":"active","ping":60},{"user_id":539,"name":"Galzra87","steam_id":76561198063414443,"connected_time":1672000000000,"state":"active","ping":73},{"user_id":537,"name":"Zoom, Tilt and PAN","steam_id":76561198029627990,"connected_time":1898000000000,"state":"active","ping":56},{"user_id":544,"name":"Cg Studios","steam_id":76561198286908002,"connected_time":1437000000000,"state":"active","ping":61},{"user_id":517,"name":"Dr Bondus Bolongus Dongus","steam_id":76561198378657692,"connected_time":3762000000000,"state":"active","ping":59},{"user_id":545,"name":"Bagel","steam_id":76561198167747447,"connected_time":1341000000000,"state":"active","ping":140},{"user_id":547,"name":"cheesewall","steam_id":76561198355317374,"connected_time":1094000000000,"state":"active","ping":161}]},{"server_id":309,"name":"Uncletopia | Frankfurt | 4 | All Maps","name_short":"frk-4","host":"frk-1.de.uncletopia.com","port":27045,"enabled":true,"region":"eu","cc":"de","latitude":50.110924,"longitude":8.682127,"reserved":0,"last_update":"0001-01-01T00:00:00Z","name_a2s":"Uncletopia | Frankfurt | 4 | All Maps","protocol":17,"map":"koth_lakeside_final","folder":"tf","game":"Team Fortress","app_id":440,"player_count":0,"max_players":24,"Bots":0,"server_type":"Dedicated","server_os":"Linux","password":true,"vac":true,"version":"7961495","steam_id":85568392924504275,"keywords":["cp","nocrits","nodmgspread","uncletopia"],"game_id":440,"stv_port":27046,"stv_name":"Uncletopia | Frankfurt | 4 | All Maps | STV","players":null},{"server_id":310,"name":"Uncletopia | Frankfurt | 5 | All Maps","name_short":"frk-5","host":"frk-1.de.uncletopia.com","port":27055,"enabled":true,"region":"eu","cc":"de","latitude":50.110924,"longitude":8.682127,"reserved":0,"last_update":"0001-01-01T00:00:00Z","name_a2s":"Uncletopia | Frankfurt | 5 | All Maps","protocol":17,"map":"pl_upward","folder":"tf","game":"Team Fortress","app_id":440,"player_count":0,"max_players":24,"Bots":0,"server_type":"Dedicated","server_os":"Linux","password":true,"vac":true,"version":"7961495","steam_id":85568392924504277,"keywords":["nocrits","nodmgspread","payload","uncletopia"],"game_id":440,"stv_port":27056,"stv_name":"Uncletopia | Frankfurt | 5 | All Maps | STV","players":null},{"server_id":311,"name":"Uncletopia | Frankfurt | 6 | All Maps","name_short":"frk-6","host":"frk-1.de.uncletopia.com","port":27065,"enabled":true,"region":"eu","cc":"de","latitude":50.110924,"longitude":8.682127,"reserved":0,"last_update":"0001-01-01T00:00:00Z","name_a2s":"Uncletopia | Frankfurt | 6 | All Maps","protocol":17,"map":"koth_lakeside_final","folder":"tf","game":"Team Fortress","app_id":440,"player_count":0,"max_players":24,"Bots":0,"server_type":"Dedicated","server_os":"Linux","password":true,"vac":true,"version":"7961495","steam_id":85568392924504278,"keywords":["cp","nocrits","nodmgspread","uncletopia"],"game_id":440,"stv_port":27066,"stv_name":"Uncletopia | Frankfurt | 6 | All Maps | STV","players":null},{"server_id":23,"name":"Uncletopia | Frankfurt | 7 | Stopwatch","name_short":"frk-7","host":"frk-1.de.uncletopia.com","port":27075,"enabled":true,"region":"eu","cc":"de","latitude":50.110924,"longitude":8.682127,"reserved":0,"last_update":"0001-01-01T00:00:00Z","name_a2s":"Uncletopia | Frankfurt | 7 | Stopwatch","protocol":17,"map":"pl_upward","folder":"tf","game":"Team Fortress","app_id":440,"player_count":15,"max_players":24,"Bots":0,"server_type":"Dedicated","server_os":"Linux","password":true,"vac":true,"version":"7961495","steam_id":85568392924742827,"keywords":["nocrits","nodmgspread","payload","uncletopia"],"game_id":440,"stv_port":27076,"stv_name":"Uncletopia | Frankfurt | 7 | Stopwatch | STV","players":[{"user_id":705,"name":"Voks_","steam_id":76561198159687785,"connected_time":2334000000000,"state":"active","ping":60},{"user_id":724,"name":"Emails","steam_id":76561198836919458,"connected_time":506000000000,"state":"active","ping":159},{"user_id":728,"name":"Infantile Pillock","steam_id":76561198283851362,"connected_time":128000000000,"state":"active","ping":46},{"user_id":723,"name":"CBT","steam_id":76561199439141531,"connected_time":639000000000,"state":"active","ping":50},{"user_id":716,"name":"one piece.","steam_id":76561198992371280,"connected_time":1140000000000,"state":"active","ping":239},{"user_id":687,"name":"NHS Issued Amphetamines","steam_id":76561198303429751,"connected_time":3700000000000,"state":"active","ping":58},{"user_id":648,"name":"Ran33","steam_id":76561197991474499,"connected_time":7365000000000,"state":"active","ping":104},{"user_id":727,"name":"MEGOS","steam_id":76561198172740637,"connected_time":167000000000,"state":"active","ping":56},{"user_id":717,"name":"the trollface experiment","steam_id":76561198237025688,"connected_time":1137000000000,"state":"active","ping":164},{"user_id":729,"name":"IronDizaster","steam_id":76561198130500804,"connected_time":102000000000,"state":"active","ping":39},{"user_id":726,"name":"Bombilla","steam_id":76561198084281798,"connected_time":204000000000,"state":"active","ping":79},{"user_id":725,"name":"Xforp","steam_id":76561198074201325,"connected_time":292000000000,"state":"active","ping":33},{"user_id":722,"name":"GB | Mr. Szillaz","steam_id":76561198273132314,"connected_time":862000000000,"state":"active","ping":58},{"user_id":691,"name":"MrChester","steam_id":76561199213192992,"connected_time":3310000000000,"state":"active","ping":65},{"user_id":698,"name":"Snowmotion","steam_id":76561198075022454,"connected_time":3000000000000,"state":"active","ping":47}]},{"server_id":24,"name":"Uncletopia | Frankfurt | 8 | Community","name_short":"frk-8","host":"frk-1.de.uncletopia.com","port":27085,"enabled":true,"region":"eu","cc":"de","latitude":50.110924,"longitude":8.682127,"reserved":0,"last_update":"0001-01-01T00:00:00Z","name_a2s":"Uncletopia | Frankfurt | 8 | Community","protocol":17,"map":"workshop/koth_trenchfoot_ab1.ugc731436616","folder":"tf","game":"Team Fortress","app_id":440,"player_count":0,"max_players":24,"Bots":0,"server_type":"Dedicated","server_os":"Linux","password":true,"vac":true,"version":"7961495","steam_id":85568392924742828,"keywords":["cp","nocrits","nodmgspread","uncletopia"],"game_id":440,"stv_port":27086,"stv_name":"Uncletopia | Frankfurt | 8 | Community | STV","players":null},{"server_id":202,"name":"Uncletopia | Hong Kong | 1 | All Maps","name_short":"hgk-1","host":"hgk-1.hk.uncletopia.com","port":27015,"enabled":true,"region":"asia","cc":"hk","latitude":22.302711,"longitude":114.177216,"reserved":0,"last_update":"0001-01-01T00:00:00Z","name_a2s":"Uncletopia | Hong Kong | 1 | All Maps","protocol":17,"map":"cp_gravelpit","folder":"tf","game":"Team Fortress","app_id":440,"player_count":0,"max_players":24,"Bots":0,"server_type":"Dedicated","server_os":"Linux","password":true,"vac":true,"version":"7961495","steam_id":85568392924494504,"keywords":["cp","nocrits","nodmgspread","uncletopia"],"game_id":440,"stv_port":27016,"stv_name":"Uncletopia | Hong Kong | 1 | All Maps | STV","players":null},{"server_id":1,"name":"Uncletopia | Los Angeles | 1 | All Maps","name_short":"lax-1","host":"lax-1.us.uncletopia.com","port":27015,"enabled":true,"region":"us-west","cc":"us","latitude":33.94279,"longitude":-118.41004,"reserved":0,"last_update":"0001-01-01T00:00:00Z","name_a2s":"Uncletopia | Los Angeles | 1 | All Maps","protocol":17,"map":"koth_viaduct","folder":"tf","game":"Team Fortress","app_id":440,"player_count":0,"max_players":24,"Bots":0,"server_type":"Dedicated","server_os":"Linux","password":true,"vac":true,"version":"7961495","steam_id":85568392924469991,"keywords":["cp","nocrits","nodmgspread","uncletopia"],"game_id":440,"stv_port":27016,"stv_name":"Uncletopia | Los Angeles | 1 | All Maps | STV","players":null},{"server_id":112,"name":"Uncletopia | Los Angeles | 2 | All Maps","name_short":"lax-2","host":"lax-1.us.uncletopia.com","port":27025,"enabled":true,"region":"us-west","cc":"us","latitude":33.94279,"longitude":-118.41004,"reserved":0,"last_update":"0001-01-01T00:00:00Z","name_a2s":"Uncletopia | Los Angeles | 2 | All Maps","protocol":17,"map":"koth_cascade","folder":"tf","game":"Team Fortress","app_id":440,"player_count":1,"max_players":24,"Bots":0,"server_type":"Dedicated","server_os":"Linux","password":true,"vac":true,"version":"7961495","steam_id":85568392924469992,"keywords":["cp","nocrits","nodmgspread","uncletopia"],"game_id":440,"stv_port":27026,"stv_name":"Uncletopia | Los Angeles | 2 | All Maps | STV","players":[{"user_id":8,"name":"djartemis99","steam_id":76561198085194465,"connected_time":87000000000,"state":"active","ping":84}]},{"server_id":324,"name":"Uncletopia | Los Angeles | 3 | All Maps","name_short":"lax-3","host":"lax-1.us.uncletopia.com","port":27035,"enabled":true,"region":"us-west","cc":"us","latitude":33.94279,"longitude":-118.41004,"reserved":0,"last_update":"0001-01-01T00:00:00Z","name_a2s":"Uncletopia | Los Angeles | 3 | All Maps","protocol":17,"map":"cp_dustbowl","folder":"tf","game":"Team Fortress","app_id":440,"player_count":24,"max_players":24,"Bots":0,"server_type":"Dedicated","server_os":"Linux","password":true,"vac":true,"version":"7961495","steam_id":85568392924510198,"keywords":["cp","nocrits","nodmgspread","uncletopia"],"game_id":440,"stv_port":27036,"stv_name":"Uncletopia | Los Angeles | 3 | All Maps | STV","players":[{"user_id":57,"name":"Zykron","steam_id":76561199056400800,"connected_time":3118000000000,"state":"active","ping":52},{"user_id":99,"name":"omugai_","steam_id":76561198086481768,"connected_time":711000000000,"state":"active","ping":56},{"user_id":92,"name":"jdm","steam_id":76561199497603020,"connected_time":930000000000,"state":"active","ping":45},{"user_id":93,"name":"Peluche Marisa","steam_id":76561199011452659,"connected_time":901000000000,"state":"active","ping":141},{"user_id":100,"name":"day6","steam_id":76561198168492250,"connected_time":709000000000,"state":"active","ping":53},{"user_id":88,"name":"noceof","steam_id":76561198043656816,"connected_time":1496000000000,"state":"active","ping":162},{"user_id":91,"name":"Why Me...","steam_id":76561199124019937,"connected_time":989000000000,"state":"active","ping":53},{"user_id":95,"name":"Foxer57","steam_id":76561197998108860,"connected_time":886000000000,"state":"active","ping":51},{"user_id":72,"name":"KahMei","steam_id":76561198012542769,"connected_time":2728000000000,"state":"active","ping":51},{"user_id":78,"name":"moewa","steam_id":76561198338739253,"connected_time":2314000000000,"state":"active","ping":52},{"user_id":65,"name":"Ickly","steam_id":76561198130225025,"connected_time":2865000000000,"state":"active","ping":59},{"user_id":46,"name":"Lancet","steam_id":76561198123700759,"connected_time":3833000000000,"state":"active","ping":52},{"user_id":84,"name":"yippikeeyakeeyeahyuhkyoh","steam_id":76561199196626333,"connected_time":1893000000000,"state":"active","ping":41},{"user_id":97,"name":"The Pyro","steam_id":76561198041622040,"connected_time":835000000000,"state":"active","ping":89},{"user_id":103,"name":"1989 Honda Civic","steam_id":76561197999420698,"connected_time":310000000000,"state":"active","ping":82},{"user_id":87,"name":"tiddy kong","steam_id":76561198112354850,"connected_time":1641000000000,"state":"active","ping":45},{"user_id":49,"name":"Sir Stanger","steam_id":76561198109281673,"connected_time":3806000000000,"state":"active","ping":75},{"user_id":101,"name":"bansheerubber","steam_id":76561198042009362,"connected_time":500000000000,"state":"active","ping":59},{"user_id":71,"name":"Jon Jon Jon Jon Jon Jon Jon Jon","steam_id":76561198424248616,"connected_time":2753000000000,"state":"active","ping":137},{"user_id":74,"name":"axellinag15","steam_id":76561199188113751,"connected_time":2611000000000,"state":"active","ping":104},{"user_id":56,"name":"Arc","steam_id":76561199190149290,"connected_time":3190000000000,"state":"active","ping":76},{"user_id":90,"name":"Eden","steam_id":76561198081284664,"connected_time":1182000000000,"state":"active","ping":47},{"user_id":50,"name":"Drake from State Farm","steam_id":76561199069029812,"connected_time":3805000000000,"state":"active","ping":75},{"user_id":82,"name":"SunkenSole9132","steam_id":76561198359562446,"connected_time":2206000000000,"state":"active","ping":72}]},{"server_id":25,"name":"Uncletopia | Los Angeles | 4 | Stopwatch","name_short":"lax-4","host":"lax-1.us.uncletopia.com","port":27045,"enabled":true,"region":"us-west","cc":"us","latitude":33.94279,"longitude":-118.41004,"reserved":0,"last_update":"0001-01-01T00:00:00Z","name_a2s":"Uncletopia | Los Angeles | 4 | Stopwatch","protocol":17,"map":"koth_highpass","folder":"tf","game":"Team Fortress","app_id":440,"player_count":0,"max_players":24,"Bots":0,"server_type":"Dedicated","server_os":"Linux","password":true,"vac":true,"version":"7961495","steam_id":85568392924510199,"keywords":["cp","nocrits","nodmgspread","uncletopia"],"game_id":440,"stv_port":27046,"stv_name":"Uncletopia | Los Angeles | 4 | Stopwatch | STV","players":null},{"server_id":11,"name":"Uncletopia | London | 1 | All Maps","name_short":"lon-1","host":"lon-1.uk.uncletopia.com","port":27015,"enabled":true,"region":"eu","cc":"gb","latitude":51.509865,"longitude":-0.118092,"reserved":0,"last_update":"0001-01-01T00:00:00Z","name_a2s":"Uncletopia | London | 1 | All Maps","protocol":17,"map":"cp_steel","folder":"tf","game":"Team Fortress","app_id":440,"player_count":24,"max_players":24,"Bots":0,"server_type":"Dedicated","server_os":"Linux","password":true,"vac":true,"version":"7961495","steam_id":85568392924367362,"keywords":["cp","nocrits","nodmgspread","uncletopia"],"game_id":440,"stv_port":27016,"stv_name":"Uncletopia | London | 1 | All Maps | STV","players":[{"user_id":1208,"name":"Qwerty","steam_id":76561198023525894,"connected_time":672000000000,"state":"active","ping":84},{"user_id":1173,"name":"em ‚ù§","steam_id":76561198156678840,"connected_time":5166000000000,"state":"active","ping":42},{"user_id":1202,"name":"Dan Dan the Furious","steam_id":76561198091032527,"connected_time":1351000000000,"state":"active","ping":41},{"user_id":1140,"name":"Minimi","steam_id":76561198873850443,"connected_time":8216000000000,"state":"active","ping":47},{"user_id":1180,"name":"BreadBubbles","steam_id":76561198174332826,"connected_time":4177000000000,"state":"active","ping":60},{"user_id":1221,"name":"goodvibrations","steam_id":76561198123238801,"connected_time":77000000000,"state":"active","ping":61},{"user_id":1213,"name":"pezza","steam_id":76561197995173247,"connected_time":564000000000,"state":"active","ping":102},{"user_id":1181,"name":"Edsuedi","steam_id":76561198074722832,"connected_time":4112000000000,"state":"active","ping":50},{"user_id":1179,"name":"teddy","steam_id":76561198007436837,"connected_time":4189000000000,"state":"active","ping":43},{"user_id":1210,"name":"Still Alive","steam_id":76561198042523000,"connected_time":646000000000,"state":"active","ping":153},{"user_id":1212,"name":"AlexLordFire","steam_id":76561198328609815,"connected_time":628000000000,"state":"active","ping":39},{"user_id":1211,"name":"Alpha","steam_id":76561199482290132,"connected_time":640000000000,"state":"active","ping":115},{"user_id":1205,"name":"Taste","steam_id":76561197994506978,"connected_time":988000000000,"state":"active","ping":53},{"user_id":1195,"name":"SourMyth","steam_id":76561198071818351,"connected_time":1680000000000,"state":"active","ping":45},{"user_id":1214,"name":"Backup","steam_id":76561197999557567,"connected_time":417000000000,"state":"active","ping":64},{"user_id":1156,"name":"rat","steam_id":76561198130412963,"connected_time":7011000000000,"state":"active","ping":161},{"user_id":1215,"name":"Proto-arc","steam_id":76561198012776747,"connected_time":415000000000,"state":"active","ping":49},{"user_id":1159,"name":"Borat","steam_id":76561198122226417,"connected_time":6666000000000,"state":"active","ping":41},{"user_id":1216,"name":"Piellino","steam_id":76561198156873276,"connected_time":409000000000,"state":"active","ping":103},{"user_id":1200,"name":"vegetable_lover_45","steam_id":76561198361621766,"connected_time":1370000000000,"state":"active","ping":44},{"user_id":1204,"name":"SuperBob103","steam_id":76561199175360012,"connected_time":1009000000000,"state":"active","ping":56},{"user_id":1196,"name":"Purps","steam_id":76561198053886680,"connected_time":1611000000000,"state":"active","ping":43},{"user_id":1218,"name":"Tornado","steam_id":76561198025684320,"connected_time":256000000000,"state":"active","ping":45},{"user_id":1222,"name":"Jussukka","steam_id":76561198122894683,"connected_time":69000000000,"state":"active","ping":78}]},{"server_id":114,"name":"Uncletopia | London | 2 | All Maps","name_short":"lon-2","host":"lon-1.uk.uncletopia.com","port":27025,"enabled":true,"region":"eu","cc":"gb","latitude":51.509865,"longitude":-0.118092,"reserved":0,"last_update":"0001-01-01T00:00:00Z","name_a2s":"Uncletopia | London | 2 | All Maps","protocol":17,"map":"pl_barnblitz","folder":"tf","game":"Team Fortress","app_id":440,"player_count":24,"max_players":24,"Bots":0,"server_type":"Dedicated","server_os":"Linux","password":true,"vac":true,"version":"7961495","steam_id":85568392924470941,"keywords":["nocrits","nodmgspread","payload","uncletopia"],"game_id":440,"stv_port":27026,"stv_name":"Uncletopia | London | 2 | All Maps | STV","players":[{"user_id":554,"name":"ryan","steam_id":76561198091360047,"connected_time":1091000000000,"state":"active","ping":32},{"user_id":555,"name":"xiiski","steam_id":76561198152387747,"connected_time":1072000000000,"state":"active","ping":90},{"user_id":529,"name":"Caramel","steam_id":76561198021214844,"connected_time":2763000000000,"state":"active","ping":40},{"user_id":445,"name":"lexi ‚òÖ","steam_id":76561198988695461,"connected_time":7812000000000,"state":"active","ping":74},{"user_id":553,"name":"Fenrir","steam_id":76561198856956840,"connected_time":1154000000000,"state":"active","ping":148},{"user_id":545,"name":"ChrisBast","steam_id":76561198257444693,"connected_time":1783000000000,"state":"active","ping":54},{"user_id":559,"name":"Envystall","steam_id":76561198134901747,"connected_time":1022000000000,"state":"active","ping":63},{"user_id":525,"name":"Kiogeki","steam_id":76561197996707843,"connected_time":3149000000000,"state":"active","ping":37},{"user_id":542,"name":"Lucky Number 13","steam_id":76561198043951279,"connected_time":1931000000000,"state":"active","ping":48},{"user_id":546,"name":"SparkyDoodles - Artist","steam_id":76561198060128235,"connected_time":1782000000000,"state":"active","ping":50},{"user_id":556,"name":"F4","steam_id":76561198960173064,"connected_time":1050000000000,"state":"active","ping":67},{"user_id":442,"name":"yuri boy","steam_id":76561198024292352,"connected_time":7891000000000,"state":"active","ping":54},{"user_id":557,"name":"1 toke 4 mars bars","steam_id":76561198056460000,"connected_time":1045000000000,"state":"active","ping":46},{"user_id":534,"name":"Labracababrador","steam_id":76561198255280285,"connected_time":2651000000000,"state":"active","ping":56},{"user_id":558,"name":"Summer ‚ô•","steam_id":76561198047723907,"connected_time":1029000000000,"state":"active","ping":31},{"user_id":550,"name":"Wilderhammer","steam_id":76561198132133702,"connected_time":1403000000000,"state":"active","ping":48},{"user_id":561,"name":"¬£blz","steam_id":76561198084804183,"connected_time":12000000000,"state":"spawning","ping":49},{"user_id":536,"name":"‚≠êBv","steam_id":76561198048943710,"connected_time":2503000000000,"state":"active","ping":52},{"user_id":520,"name":"Gnome Hunter","steam_id":76561198878206817,"connected_time":4338000000000,"state":"active","ping":59},{"user_id":551,"name":"Morthunn","steam_id":76561198060062298,"connected_time":1397000000000,"state":"active","ping":49},{"user_id":562,"name":"Triploon","steam_id":76561198173304074,"connected_time":9000000000,"state":"active","ping":179},{"user_id":560,"name":"Rogue","steam_id":76561199143593182,"connected_time":966000000000,"state":"active","ping":46},{"user_id":492,"name":"smiley","steam_id":76561198042245117,"connected_time":5844000000000,"state":"active","ping":52},{"user_id":552,"name":"travis","steam_id":76561198138119811,"connected_time":1216000000000,"state":"active","ping":45}]},{"server_id":320,"name":"Uncletopia | London | 3 | All Maps","name_short":"lon-3","host":"lon-1.uk.uncletopia.com","port":27035,"enabled":true,"region":"eu","cc":"gb","latitude":51.509865,"longitude":-0.118092,"reserved":0,"last_update":"0001-01-01T00:00:00Z","name_a2s":"Uncletopia | London | 3 | All Maps","protocol":17,"map":"koth_lakeside_final","folder":"tf","game":"Team Fortress","app_id":440,"player_count":0,"max_players":24,"Bots":0,"server_type":"Dedicated","server_os":"Linux","password":true,"vac":true,"version":"7961495","steam_id":85568392924510192,"keywords":["cp","nocrits","nodmgspread","uncletopia"],"game_id":440,"stv_port":27036,"stv_name":"Uncletopia | London | 3 | All Maps | STV","players":null},{"server_id":321,"name":"Uncletopia | London | 4 | All Maps","name_short":"lon-4","host":"lon-1.uk.uncletopia.com","port":27045,"enabled":true,"region":"eu","cc":"gb","latitude":51.509865,"longitude":-0.118092,"reserved":0,"last_update":"0001-01-01T00:00:00Z","name_a2s":"Uncletopia | London | 4 | All Maps","protocol":17,"map":"pl_badwater","folder":"tf","game":"Team Fortress","app_id":440,"player_count":22,"max_players":24,"Bots":0,"server_type":"Dedicated","server_os":"Linux","password":true,"vac":true,"version":"7961495","steam_id":85568392924510193,"keywords":["nocrits","nodmgspread","payload","uncletopia"],"game_id":440,"stv_port":27046,"stv_name":"Uncletopia | London | 4 | All Maps | STV","players":[{"user_id":417,"name":"free back real estate","steam_id":76561197999437155,"connected_time":7871000000000,"state":"active","ping":43},{"user_id":481,"name":"Squishie #SaveTF2","steam_id":76561198321025400,"connected_time":3702000000000,"state":"active","ping":42},{"user_id":510,"name":"Adam","steam_id":76561198083655265,"connected_time":983000000000,"state":"active","ping":46},{"user_id":513,"name":"elijah","steam_id":76561198093936708,"connected_time":586000000000,"state":"active","ping":58},{"user_id":497,"name":"bunga_grunga","steam_id":76561199127325952,"connected_time":2293000000000,"state":"active","ping":133},{"user_id":482,"name":"BuzzBees ‚ù§","steam_id":76561198101502273,"connected_time":3702000000000,"state":"active","ping":49},{"user_id":509,"name":"Bobirulez","steam_id":76561198009125458,"connected_time":1294000000000,"state":"active","ping":74},{"user_id":505,"name":"agent youppii","steam_id":76561198055264447,"connected_time":1791000000000,"state":"active","ping":58},{"user_id":484,"name":"Steen","steam_id":76561198122992510,"connected_time":3684000000000,"state":"active","ping":44},{"user_id":498,"name":"Alantheus","steam_id":76561197977408490,"connected_time":2271000000000,"state":"active","ping":75},{"user_id":479,"name":"KittyKate ‚ù§","steam_id":76561198116340817,"connected_time":3833000000000,"state":"active","ping":60},{"user_id":480,"name":"Lemon","steam_id":76561198188535947,"connected_time":3806000000000,"state":"active","ping":67},{"user_id":449,"name":"Luchar","steam_id":76561198065089732,"connected_time":5537000000000,"state":"active","ping":68},{"user_id":471,"name":"Aftiks","steam_id":76561198875182686,"connected_time":4516000000000,"state":"active","ping":89},{"user_id":515,"name":"trans werewolf (it/its)","steam_id":76561198107235989,"connected_time":434000000000,"state":"active","ping":61},{"user_id":516,"name":"Retrogue","steam_id":76561198131776972,"connected_time":48000000000,"state":"active","ping":30},{"user_id":518,"name":"Jaflampe","steam_id":76561198175827647,"connected_time":33000000000,"state":"active","ping":136},{"user_id":517,"name":"Laru","steam_id":76561197998838438,"connected_time":47000000000,"state":"active","ping":75},{"user_id":519,"name":"Cabbch","steam_id":76561198045955679,"connected_time":14000000000,"state":"spawning","ping":122},{"user_id":503,"name":"Vershal Smershal","steam_id":76561198116223995,"connected_time":2026000000000,"state":"active","ping":54},{"user_id":501,"name":"Onions","steam_id":76561198150195195,"connected_time":2204000000000,"state":"active","ping":52},{"user_id":495,"name":"(All Muted) Visphiric","steam_id":76561198071938027,"connected_time":2474000000000,"state":"active","ping":34}]},{"server_id":21,"name":"Uncletopia | London | 5 | All Maps","name_short":"lon-5","host":"lon-1.uk.uncletopia.com","port":27055,"enabled":true,"region":"eu","cc":"gb","latitude":51.509865,"longitude":-0.118092,"reserved":0,"last_update":"0001-01-01T00:00:00Z","name_a2s":"Uncletopia | London | 5 | All Maps","protocol":17,"map":"pl_pier","folder":"tf","game":"Team Fortress","app_id":440,"player_count":0,"max_players":24,"Bots":0,"server_type":"Dedicated","server_os":"Linux","password":true,"vac":true,"version":"7961495","steam_id":85568392924742829,"keywords":["nocrits","nodmgspread","payload","uncletopia"],"game_id":440,"stv_port":27056,"stv_name":"Uncletopia | London | 5 | All Maps | STV","players":null},{"server_id":22,"name":"Uncletopia | London | 6 | All Maps","name_short":"lon-6","host":"lon-1.uk.uncletopia.com","port":27065,"enabled":true,"region":"eu","cc":"gb","latitude":51.509865,"longitude":-0.118092,"reserved":0,"last_update":"0001-01-01T00:00:00Z","name_a2s":"Uncletopia | London | 6 | All Maps","protocol":17,"map":"koth_highpass","folder":"tf","game":"Team Fortress","app_id":440,"player_count":0,"max_players":24,"Bots":0,"server_type":"Dedicated","server_os":"Linux","password":true,"vac":true,"version":"7961495","steam_id":85568392924742830,"keywords":["cp","nocrits","nodmgspread","uncletopia"],"game_id":440,"stv_port":27066,"stv_name":"Uncletopia | London | 6 | All Maps | STV","players":null},{"server_id":40,"name":"Uncletopia | London | 7 | Stopwatch","name_short":"lon-7","host":"lon-1.uk.uncletopia.com","port":27075,"enabled":true,"region":"eu","cc":"gb","latitude":51.509865,"longitude":-0.118092,"reserved":0,"last_update":"0001-01-01T00:00:00Z","name_a2s":"Uncletopia | London | 7 | Stopwatch","protocol":17,"map":"workshop/koth_clearcut_b15.ugc2107050255","folder":"tf","game":"Team Fortress","app_id":440,"player_count":0,"max_players":24,"Bots":0,"server_type":"Dedicated","server_os":"Linux","password":true,"vac":true,"version":"7961495","steam_id":85568392924964314,"keywords":["cp","nocrits","nodmgspread","uncletopia"],"game_id":440,"stv_port":27076,"stv_name":"Uncletopia | London | 7 | Stopwatch | STV","players":null},{"server_id":41,"name":"Uncletopia | London | 8 | Community","name_short":"lon-8","host":"lon-1.uk.uncletopia.com","port":27085,"enabled":true,"region":"eu","cc":"gb","latitude":51.509865,"longitude":-0.118092,"reserved":0,"last_update":"0001-01-01T00:00:00Z","name_a2s":"Uncletopia | London | 8 | Community","protocol":17,"map":"workshop/pl_boundary_final1.ugc456799153","folder":"tf","game":"Team Fortress","app_id":440,"player_count":0,"max_players":24,"Bots":0,"server_type":"Dedicated","server_os":"Linux","password":true,"vac":true,"version":"7961495","steam_id":85568392924964315,"keywords":["nocrits","nodmgspread","payload","uncletopia"],"game_id":440,"stv_port":27086,"stv_name":"Uncletopia | London | 8 | Community | STV","players":null},{"server_id":300,"name":"Uncletopia | Montr√©al | 1 | One Thousand Uncles","name_short":"mtl-1","host":"mtl-1.ca.uncletopia.com","port":27015,"enabled":true,"region":"us-east","cc":"ca","latitude":45.50889,"longitude":-73.56167,"reserved":0,"last_update":"0001-01-01T00:00:00Z","name_a2s":"Uncletopia | Montr√©al | 1 | One Thousand Uncles","protocol":17,"map":"pl_pier","folder":"tf","game":"Team Fortress","app_id":440,"player_count":29,"max_players":32,"Bots":16,"server_type":"Dedicated","server_os":"Linux","password":true,"vac":true,"version":"7961495","steam_id":85568392924500087,"keywords":["alltalk","bots","danepve","increased_maxplayers","norespawntime","payload","uncletopia"],"game_id":440,"stv_port":0,"stv_name":"","players":[{"user_id":280,"name":"giant_dork (dlc)","steam_id":76561199105606956,"connected_time":3488000000000,"state":"active","ping":81},{"user_id":250,"name":"Robert Nutbar","steam_id":76561198062334757,"connected_time":5151000000000,"state":"active","ping":66},{"user_id":293,"name":"Tim the enchanter","steam_id":76561198140046182,"connected_time":2637000000000,"state":"active","ping":72},{"user_id":332,"name":"TheLoneGoat","steam_id":76561198391485266,"connected_time":717000000000,"state":"active","ping":59},{"user_id":207,"name":"flamingo","steam_id":76561198854099251,"connected_time":8175000000000,"state":"active","ping":210},{"user_id":333,"name":"Bearbot5","steam_id":76561198883262617,"connected_time":640000000000,"state":"active","ping":68},{"user_id":274,"name":"Ze Healing","steam_id":76561198292152075,"connected_time":4267000000000,"state":"active","ping":52},{"user_id":334,"name":"nrvvs","steam_id":76561199134714492,"connected_time":606000000000,"state":"active","ping":77},{"user_id":335,"name":"Emotional Cowboy","steam_id":76561198041439581,"connected_time":532000000000,"state":"active","ping":70},{"user_id":336,"name":"Dat Boi","steam_id":76561199101269765,"connected_time":523000000000,"state":"active","ping":63},{"user_id":344,"name":"Fox","steam_id":76561198076635466,"connected_time":114000000000,"state":"active","ping":64},{"user_id":283,"name":"shane (Deluxe Edition)","steam_id":76561198060491451,"connected_time":3456000000000,"state":"active","ping":150},{"user_id":287,"name":"triangleman","steam_id":76561198972733542,"connected_time":3153000000000,"state":"active","ping":77}]},{"server_id":301,"name":"Uncletopia | Montr√©al | 2 | One Thousand Uncles","name_short":"mtl-2","host":"mtl-1.ca.uncletopia.com","port":27025,"enabled":true,"region":"us-east","cc":"ca","latitude":45.50889,"longitude":-73.56167,"reserved":0,"last_update":"0001-01-01T00:00:00Z","name_a2s":"Uncletopia | Montr√©al | 2 | One Thousand Uncles","protocol":17,"map":"pl_chilly","folder":"tf","game":"Team Fortress","app_id":440,"player_count":0,"max_players":32,"Bots":0,"server_type":"Dedicated","server_os":"Linux","password":true,"vac":true,"version":"7961495","steam_id":85568392924500088,"keywords":["alltalk","danepve","increased_maxplayers","norespawntime","payload","uncletopia"],"game_id":440,"stv_port":0,"stv_name":"","players":null},{"server_id":302,"name":"Uncletopia | Montr√©al | 3 | One Thousand Uncles","name_short":"mtl-3","host":"mtl-1.ca.uncletopia.com","port":27035,"enabled":true,"region":"us-east","cc":"ca","latitude":45.50889,"longitude":-73.56167,"reserved":0,"last_update":"0001-01-01T00:00:00Z","name_a2s":"Uncletopia | Montr√©al | 3 | One Thousand Uncles","protocol":17,"map":"pl_upward","folder":"tf","game":"Team Fortress","app_id":440,"player_count":18,"max_players":32,"Bots":16,"server_type":"Dedicated","server_os":"Linux","password":true,"vac":true,"version":"7961495","steam_id":85568392924500089,"keywords":["alltalk","bots","danepve","increased_maxplayers","norespawntime","payload","uncletopia"],"game_id":440,"stv_port":0,"stv_name":"","players":[{"user_id":182,"name":"kevin_minion","steam_id":76561198801147541,"connected_time":1565000000000,"state":"active","ping":88},{"user_id":171,"name":"bruhuk obama","steam_id":76561199465581064,"connected_time":4678000000000,"state":"active","ping":88}]},{"server_id":13,"name":"Uncletopia | New York City | 1 | All Maps","name_short":"nyc-1","host":"nyc-1.us.uncletopia.com","port":27015,"enabled":true,"region":"us-east","cc":"us","latitude":40.73061,"longitude":-73.93524,"reserved":0,"last_update":"0001-01-01T00:00:00Z","name_a2s":"Uncletopia | New York City | 1 | All Maps","protocol":17,"map":"koth_brazil","folder":"tf","game":"Team Fortress","app_id":440,"player_count":1,"max_players":24,"Bots":0,"server_type":"Dedicated","server_os":"Linux","password":true,"vac":true,"version":"7961495","steam_id":85568392924469993,"keywords":["cp","nocrits","nodmgspread","uncletopia"],"game_id":440,"stv_port":27016,"stv_name":"Uncletopia | New York City | 1 | All Maps | STV","players":[{"user_id":59,"name":"Nansral26","steam_id":76561198886650496,"connected_time":436000000000,"state":"active","ping":36}]},{"server_id":14,"name":"Uncletopia | New York City | 2 | All Maps","name_short":"nyc-2","host":"nyc-1.us.uncletopia.com","port":27025,"enabled":true,"region":"us-east","cc":"us","latitude":40.73061,"longitude":-73.93524,"reserved":0,"last_update":"0001-01-01T00:00:00Z","name_a2s":"Uncletopia | New York City | 2 | All Maps","protocol":17,"map":"pl_badwater","folder":"tf","game":"Team Fortress","app_id":440,"player_count":24,"max_players":24,"Bots":0,"server_type":"Dedicated","server_os":"Linux","password":true,"vac":true,"version":"7961495","steam_id":85568392924469994,"keywords":["nocrits","nodmgspread","payload","uncletopia"],"game_id":440,"stv_port":27026,"stv_name":"Uncletopia | New York City | 2 | All Maps | STV","players":[{"user_id":19,"name":"Noobert McGlitchington the 3st","steam_id":76561198073176682,"connected_time":9271000000000,"state":"active","ping":74},{"user_id":20,"name":" è·¥ú·¥ä…™","steam_id":76561198401572620,"connected_time":9224000000000,"state":"active","ping":79},{"user_id":109,"name":"Bacchus","steam_id":76561198113244990,"connected_time":3747000000000,"state":"active","ping":55},{"user_id":139,"name":"NiŒªiwiŒªi, ‚ñºiscount of ‚ñºio","steam_id":76561198009193777,"connected_time":1678000000000,"state":"active","ping":60},{"user_id":147,"name":"Stick","steam_id":76561198001509374,"connected_time":981000000000,"state":"active","ping":76},{"user_id":155,"name":"Al Cabone","steam_id":76561198956823243,"connected_time":562000000000,"state":"active","ping":51},{"user_id":113,"name":"barry steakfries","steam_id":76561199472218520,"connected_time":3468000000000,"state":"active","ping":51},{"user_id":143,"name":"Mipsiek","steam_id":76561198164013471,"connected_time":1441000000000,"state":"active","ping":37},{"user_id":117,"name":"Barry","steam_id":76561198371953939,"connected_time":3317000000000,"state":"active","ping":54},{"user_id":145,"name":"you forgot the sauce","steam_id":76561198387016713,"connected_time":1130000000000,"state":"active","ping":40},{"user_id":128,"name":"Mr. Squirt","steam_id":76561198174755679,"connected_time":2396000000000,"state":"active","ping":47},{"user_id":148,"name":"bony","steam_id":76561198241893988,"connected_time":950000000000,"state":"active","ping":48},{"user_id":156,"name":"VileAura","steam_id":76561198130537165,"connected_time":144000000000,"state":"active","ping":47},{"user_id":151,"name":"Spooni_Boi","steam_id":76561198308140374,"connected_time":846000000000,"state":"active","ping":45},{"user_id":115,"name":"MCATU3","steam_id":76561198210230867,"connected_time":3373000000000,"state":"active","ping":54},{"user_id":108,"name":"Harry S. Truman","steam_id":76561197993339757,"connected_time":3802000000000,"state":"active","ping":54},{"user_id":79,"name":"AquaTsunami","steam_id":76561199085473809,"connected_time":5891000000000,"state":"active","ping":58},{"user_id":99,"name":"Bootes","steam_id":76561197968255551,"connected_time":4126000000000,"state":"active","ping":45},{"user_id":60,"name":"just call me joe","steam_id":76561198043911582,"connected_time":7209000000000,"state":"active","ping":50},{"user_id":121,"name":"Fishybros","steam_id":76561198182045699,"connected_time":2752000000000,"state":"active","ping":50},{"user_id":153,"name":"‚òº girl u my everything bagel","steam_id":76561198074180953,"connected_time":727000000000,"state":"active","ping":45},{"user_id":123,"name":"Berb","steam_id":76561198193911899,"connected_time":2659000000000,"state":"active","ping":105},{"user_id":125,"name":"Tokyo_Timeshift_","steam_id":76561198048677523,"connected_time":2477000000000,"state":"active","ping":62},{"user_id":154,"name":"Order for Delivery","steam_id":76561198070850386,"connected_time":719000000000,"state":"active","ping":75}]},{"server_id":15,"name":"Uncletopia | New York City | 3 | Stopwatch","name_short":"nyc-3","host":"nyc-1.us.uncletopia.com","port":27035,"enabled":true,"region":"us-east","cc":"us","latitude":40.73061,"longitude":-73.93524,"reserved":0,"last_update":"0001-01-01T00:00:00Z","name_a2s":"Uncletopia | New York City | 3 | Stopwatch","protocol":17,"map":"workshop/cp_reckoner_rc6.ugc674719999","folder":"tf","game":"Team Fortress","app_id":440,"player_count":0,"max_players":24,"Bots":0,"server_type":"Dedicated","server_os":"Linux","password":true,"vac":true,"version":"7961495","steam_id":85568392924742820,"keywords":["cp","nocrits","nodmgspread","uncletopia"],"game_id":440,"stv_port":27036,"stv_name":"Uncletopia | New York City | 3 | Stopwatch | STV","players":null},{"server_id":16,"name":"Uncletopia | New York City | 4 | Community","name_short":"nyc-4","host":"nyc-1.us.uncletopia.com","port":27045,"enabled":true,"region":"us-east","cc":"us","latitude":40.73061,"longitude":-73.93524,"reserved":0,"last_update":"0001-01-01T00:00:00Z","name_a2s":"Uncletopia | New York City | 4 | Community","protocol":17,"map":"workshop/cp_coilblaze_rc7.ugc1272700588","folder":"tf","game":"Team Fortress","app_id":440,"player_count":0,"max_players":24,"Bots":0,"server_type":"Dedicated","server_os":"Linux","password":true,"vac":true,"version":"7961495","steam_id":85568392924742821,"keywords":["cp","nocrits","nodmgspread","uncletopia"],"game_id":440,"stv_port":27046,"stv_name":"Uncletopia | New York City | 4 | Community | STV","players":null},{"server_id":142,"name":"Uncletopia | S√£o Paulo | 1 | All Maps","name_short":"sao-1","host":"sao-1.br.uncletopia.com","port":27015,"enabled":true,"region":"sa","cc":"br","latitude":-23.533773,"longitude":-46.62529,"reserved":0,"last_update":"0001-01-01T00:00:00Z","name_a2s":"Uncletopia | S√£o Paulo | 1 | All Maps","protocol":17,"map":"cp_granary","folder":"tf","game":"Team Fortress","app_id":440,"player_count":0,"max_players":24,"Bots":0,"server_type":"Dedicated","server_os":"Linux","password":true,"vac":true,"version":"7961495","steam_id":85568392924469996,"keywords":["cp","nocrits","nodmgspread","uncletopia"],"game_id":440,"stv_port":27016,"stv_name":"Uncletopia | S√£o Paulo | 1 | All Maps | STV","players":null},{"server_id":143,"name":"Uncletopia | S√£o Paulo | 2 | Community","name_short":"sao-2","host":"sao-2.br.uncletopia.com","port":27015,"enabled":true,"region":"sa","cc":"br","latitude":-23.533773,"longitude":-46.62529,"reserved":0,"last_update":"0001-01-01T00:00:00Z","name_a2s":"Uncletopia | S√£o Paulo | 2 | Community","protocol":17,"map":"workshop/koth_product_final.ugc454272353","folder":"tf","game":"Team Fortress","app_id":440,"player_count":0,"max_players":24,"Bots":0,"server_type":"Dedicated","server_os":"Linux","password":true,"vac":true,"version":"7961495","steam_id":85568392924485349,"keywords":["cp","nocrits","nodmgspread","uncletopia"],"game_id":440,"stv_port":27016,"stv_name":"Uncletopia | S√£o Paulo | 2 | Community | STV","players":null},{"server_id":7,"name":"Uncletopia | Seattle | 1 | All Maps","name_short":"sea-1","host":"sea-1.us.uncletopia.com","port":27015,"enabled":true,"region":"us-west","cc":"us","latitude":47.608013,"longitude":-122.33517,"reserved":0,"last_update":"0001-01-01T00:00:00Z","name_a2s":"Uncletopia | Seattle | 1 | All Maps","protocol":17,"map":"pl_barnblitz","folder":"tf","game":"Team Fortress","app_id":440,"player_count":24,"max_players":24,"Bots":0,"server_type":"Dedicated","server_os":"Linux","password":true,"vac":true,"version":"7961495","steam_id":85568392924469997,"keywords":["nocrits","nodmgspread","payload","uncletopia"],"game_id":440,"stv_port":27016,"stv_name":"Uncletopia | Seattle | 1 | All Maps | STV","players":[{"user_id":489,"name":"Douglass Mackey","steam_id":76561198254668621,"connected_time":4370000000000,"state":"active","ping":50},{"user_id":526,"name":"invenomious‚Ñ¢","steam_id":76561199032714821,"connected_time":589000000000,"state":"active","ping":41},{"user_id":450,"name":"OGBobbyJohns","steam_id":76561197964339077,"connected_time":6593000000000,"state":"active","ping":46},{"user_id":530,"name":"Oktayey","steam_id":76561198143213426,"connected_time":548000000000,"state":"active","ping":63},{"user_id":492,"name":"Dongus","steam_id":76561197979056451,"connected_time":4349000000000,"state":"active","ping":54},{"user_id":531,"name":"perfectemu","steam_id":76561199147866624,"connected_time":530000000000,"state":"active","ping":97},{"user_id":520,"name":"Alltrex","steam_id":76561198202254225,"connected_time":975000000000,"state":"active","ping":45},{"user_id":491,"name":"Ridley","steam_id":76561198014857463,"connected_time":4357000000000,"state":"active","ping":108},{"user_id":532,"name":"tmm (theManMan)","steam_id":76561199488457138,"connected_time":514000000000,"state":"active","ping":55},{"user_id":487,"name":"smeasly","steam_id":76561198028718812,"connected_time":4447000000000,"state":"active","ping":38},{"user_id":518,"name":"ATHEIST TIL I REALIZED I AM GOD","steam_id":76561199190800520,"connected_time":1655000000000,"state":"active","ping":41},{"user_id":534,"name":"delight","steam_id":76561197980280272,"connected_time":166000000000,"state":"active","ping":46},{"user_id":486,"name":"Nom Skirrett","steam_id":76561198014600788,"connected_time":4452000000000,"state":"active","ping":63},{"user_id":515,"name":"MrYadaization","steam_id":76561198050770818,"connected_time":2365000000000,"state":"active","ping":60},{"user_id":522,"name":"jorts","steam_id":76561199041179985,"connected_time":730000000000,"state":"active","ping":55},{"user_id":336,"name":"Katie XXII","steam_id":76561198135534297,"connected_time":14528000000000,"state":"active","ping":48},{"user_id":508,"name":"Papa Panda","steam_id":76561198159061475,"connected_time":2534000000000,"state":"active","ping":72},{"user_id":485,"name":"JawnyMac","steam_id":76561198179529599,"connected_time":4505000000000,"state":"active","ping":76},{"user_id":524,"name":"Robert E.T.","steam_id":76561197986439371,"connected_time":589000000000,"state":"active","ping":44},{"user_id":528,"name":"lynks disease no sound","steam_id":76561198043465434,"connected_time":574000000000,"state":"active","ping":74},{"user_id":506,"name":"0","steam_id":76561198450073779,"connected_time":2541000000000,"state":"active","ping":48},{"user_id":503,"name":"alexander the just ok","steam_id":76561199256886895,"connected_time":2951000000000,"state":"active","ping":103},{"user_id":519,"name":"Rude Dog","steam_id":76561197980385816,"connected_time":1655000000000,"state":"active","ping":48},{"user_id":529,"name":"chocky","steam_id":76561198057491296,"connected_time":573000000000,"state":"active","ping":50}]},{"server_id":119,"name":"Uncletopia | Seattle | 2 | All Maps","name_short":"sea-2","host":"sea-1.us.uncletopia.com","port":27025,"enabled":true,"region":"us-west","cc":"us","latitude":47.608013,"longitude":-122.33517,"reserved":0,"last_update":"0001-01-01T00:00:00Z","name_a2s":"Uncletopia | Seattle | 2 | All Maps","protocol":17,"map":"koth_lakeside_final","folder":"tf","game":"Team Fortress","app_id":440,"player_count":0,"max_players":24,"Bots":0,"server_type":"Dedicated","server_os":"Linux","password":true,"vac":true,"version":"7961495","steam_id":85568392924469998,"keywords":["cp","nocrits","nodmgspread","uncletopia"],"game_id":440,"stv_port":27026,"stv_name":"Uncletopia | Seattle | 2 | All Maps | STV","players":null},{"server_id":406,"name":"Uncletopia | Seattle | 3 | Stopwatch","name_short":"sea-3","host":"sea-1.us.uncletopia.com","port":27035,"enabled":true,"region":"us-west","cc":"us","latitude":47.608013,"longitude":-122.33517,"reserved":0,"last_update":"0001-01-01T00:00:00Z","name_a2s":"Uncletopia | Seattle | 3 | Stopwatch","protocol":17,"map":"workshop/koth_jamram_rc1a.ugc2964065613","folder":"tf","game":"Team Fortress","app_id":440,"player_count":0,"max_players":24,"Bots":0,"server_type":"Dedicated","server_os":"Linux","password":true,"vac":true,"version":"7961495","steam_id":85568392924515217,"keywords":["cp","nocrits","nodmgspread","uncletopia"],"game_id":440,"stv_port":27036,"stv_name":"Uncletopia | Seattle | 3 | Stopwatch | STV","players":null},{"server_id":17,"name":"Uncletopia | San Francisco | 1 | All Maps","name_short":"sfo-1","host":"sfo-1.us.uncletopia.com","port":27015,"enabled":true,"region":"us-west","cc":"us","latitude":37.77397,"longitude":-122.4313,"reserved":0,"last_update":"0001-01-01T00:00:00Z","name_a2s":"Uncletopia | San Francisco | 1 | All Maps","protocol":17,"map":"pl_upward","folder":"tf","game":"Team Fortress","app_id":440,"player_count":24,"max_players":24,"Bots":0,"server_type":"Dedicated","server_os":"Linux","password":true,"vac":true,"version":"7961495","steam_id":85568392924469999,"keywords":["nocrits","nodmgspread","payload","uncletopia"],"game_id":440,"stv_port":27016,"stv_name":"Uncletopia | San Francisco | 1 | All Maps | STV","players":[{"user_id":45,"name":"sheep","steam_id":76561198994761483,"connected_time":75000000000,"state":"active","ping":72},{"user_id":13,"name":"Yackaboi","steam_id":76561199444911765,"connected_time":1608000000000,"state":"active","ping":71},{"user_id":46,"name":"Monty","steam_id":76561197993567253,"connected_time":63000000000,"state":"active","ping":68},{"user_id":18,"name":"Soggy Zogg","steam_id":76561198836316052,"connected_time":971000000000,"state":"active","ping":61},{"user_id":19,"name":"goth witch","steam_id":76561198069605283,"connected_time":969000000000,"state":"active","ping":60},{"user_id":21,"name":"Spy Main","steam_id":76561198154715380,"connected_time":947000000000,"state":"active","ping":66},{"user_id":42,"name":"pey kid","steam_id":76561199256859413,"connected_time":166000000000,"state":"active","ping":110},{"user_id":24,"name":"dewey","steam_id":76561198132791511,"connected_time":599000000000,"state":"active","ping":49},{"user_id":47,"name":"Publo","steam_id":76561198161777140,"connected_time":56000000000,"state":"active","ping":91},{"user_id":26,"name":"a sock puppet","steam_id":76561198013513217,"connected_time":586000000000,"state":"active","ping":75},{"user_id":27,"name":"fish (2:3)","steam_id":76561198134331073,"connected_time":576000000000,"state":"active","ping":72},{"user_id":28,"name":"üëÅ sumixodic","steam_id":76561198090770710,"connected_time":560000000000,"state":"active","ping":64},{"user_id":29,"name":"gas station tweaker","steam_id":76561198264288798,"connected_time":540000000000,"state":"active","ping":69},{"user_id":30,"name":"Sleuth","steam_id":76561198418288939,"connected_time":494000000000,"state":"active","ping":74},{"user_id":31,"name":"Other Players, My One Weakness","steam_id":76561197989247588,"connected_time":454000000000,"state":"active","ping":75},{"user_id":32,"name":"Jaxonian Dante","steam_id":76561198844488869,"connected_time":435000000000,"state":"active","ping":56},{"user_id":44,"name":"the rat gets the cheese","steam_id":76561199077027954,"connected_time":158000000000,"state":"active","ping":67},{"user_id":37,"name":"IMPROBABLE FLIPPING","steam_id":76561198045964573,"connected_time":310000000000,"state":"active","ping":56},{"user_id":35,"name":"Giorno Giovanna","steam_id":76561198044106874,"connected_time":384000000000,"state":"active","ping":76},{"user_id":36,"name":"PizzaFratello","steam_id":76561199059951970,"connected_time":370000000000,"state":"active","ping":80},{"user_id":50,"name":"Mystikkal","steam_id":76561198003949147,"connected_time":7000000000,"state":"active","ping":68},{"user_id":39,"name":"Sock","steam_id":76561198315420000,"connected_time":251000000000,"state":"active","ping":98},{"user_id":41,"name":"Chi-Chia","steam_id":76561198067955987,"connected_time":226000000000,"state":"active","ping":71},{"user_id":43,"name":"Ephemeral-chan","steam_id":76561197996001672,"connected_time":164000000000,"state":"active","ping":45}]},{"server_id":18,"name":"Uncletopia | San Francisco | 2 | All Maps","name_short":"sfo-2","host":"sfo-1.us.uncletopia.com","port":27025,"enabled":true,"region":"us-west","cc":"us","latitude":37.77397,"longitude":-122.4313,"reserved":0,"last_update":"0001-01-01T00:00:00Z","name_a2s":"Uncletopia | San Francisco | 2 | All Maps","protocol":17,"map":"koth_cascade","folder":"tf","game":"Team Fortress","app_id":440,"player_count":0,"max_players":24,"Bots":0,"server_type":"Dedicated","server_os":"Linux","password":true,"vac":true,"version":"7961495","steam_id":85568392924470000,"keywords":["cp","nocrits","nodmgspread","uncletopia"],"game_id":440,"stv_port":27026,"stv_name":"Uncletopia | San Francisco | 2 | All Maps | STV","players":null},{"server_id":19,"name":"Uncletopia | San Francisco | 3 | Stopwatch","name_short":"sfo-3","host":"sfo-1.us.uncletopia.com","port":27035,"enabled":true,"region":"us-west","cc":"us","latitude":37.77397,"longitude":-122.4313,"reserved":0,"last_update":"0001-01-01T00:00:00Z","name_a2s":"Uncletopia | San Francisco | 3 | Stopwatch","protocol":17,"map":"pl_swiftwater_final1","folder":"tf","game":"Team Fortress","app_id":440,"player_count":0,"max_players":24,"Bots":0,"server_type":"Dedicated","server_os":"Linux","password":true,"vac":true,"version":"7961495","steam_id":85568392924742824,"keywords":["nocrits","nodmgspread","payload","uncletopia"],"game_id":440,"stv_port":27036,"stv_name":"Uncletopia | San Francisco | 3 | Stopwatch | STV","players":null},{"server_id":20,"name":"Uncletopia | San Francisco | 4 | Community","name_short":"sfo-4","host":"sfo-1.us.uncletopia.com","port":27045,"enabled":true,"region":"us-west","cc":"us","latitude":37.77397,"longitude":-122.4313,"reserved":0,"last_update":"0001-01-01T00:00:00Z","name_a2s":"Uncletopia | San Francisco | 4 | Community","protocol":17,"map":"workshop/pl_shoreleave_rc2.ugc1238849347","folder":"tf","game":"Team Fortress","app_id":440,"player_count":0,"max_players":24,"Bots":0,"server_type":"Dedicated","server_os":"Linux","password":true,"vac":true,"version":"7961495","steam_id":85568392924742826,"keywords":["nocrits","nodmgspread","payload","uncletopia"],"game_id":440,"stv_port":27046,"stv_name":"Uncletopia | San Francisco | 4 | Community | STV","players":null},{"server_id":141,"name":"Uncletopia | Sydney | 1 | All Maps","name_short":"syd-1","host":"syd-1.au.uncletopia.com","port":27015,"enabled":true,"region":"au","cc":"au","latitude":-33.865143,"longitude":151.2099,"reserved":0,"last_update":"0001-01-01T00:00:00Z","name_a2s":"Uncletopia | Sydney | 1 | All Maps","protocol":17,"map":"koth_nucleus","folder":"tf","game":"Team Fortress","app_id":440,"player_count":0,"max_players":24,"Bots":0,"server_type":"Dedicated","server_os":"Linux","password":true,"vac":true,"version":"7961495","steam_id":85568392924470001,"keywords":["cp","nocrits","nodmgspread","uncletopia"],"game_id":440,"stv_port":27016,"stv_name":"Uncletopia | Sydney | 1 | All Maps | STV","players":null},{"server_id":123,"name":"Uncletopia | Sydney | 2 | All Maps","name_short":"syd-2","host":"syd-1.au.uncletopia.com","port":27025,"enabled":true,"region":"au","cc":"au","latitude":-33.865143,"longitude":151.2099,"reserved":0,"last_update":"0001-01-01T00:00:00Z","name_a2s":"Uncletopia | Sydney | 2 | All Maps","protocol":17,"map":"cp_fastlane","folder":"tf","game":"Team Fortress","app_id":440,"player_count":0,"max_players":24,"Bots":0,"server_type":"Dedicated","server_os":"Linux","password":true,"vac":true,"version":"7961495","steam_id":85568392924470002,"keywords":["cp","nocrits","nodmgspread","uncletopia"],"game_id":440,"stv_port":27026,"stv_name":"Uncletopia | Sydney | 2 | All Maps | STV","players":null},{"server_id":395,"name":"Uncletopia | Sydney | 3 | All Maps","name_short":"syd-3","host":"syd-1.au.uncletopia.com","port":27035,"enabled":true,"region":"au","cc":"au","latitude":-33.865143,"longitude":151.2099,"reserved":0,"last_update":"0001-01-01T00:00:00Z","name_a2s":"Uncletopia | Sydney | 3 | All Maps","protocol":17,"map":"cp_metalworks","folder":"tf","game":"Team Fortress","app_id":440,"player_count":0,"max_players":24,"Bots":0,"server_type":"Dedicated","server_os":"Linux","password":true,"vac":true,"version":"7961495","steam_id":85568392925194467,"keywords":["cp","nocrits","nodmgspread","uncletopia"],"game_id":440,"stv_port":27036,"stv_name":"Uncletopia | Sydney | 3 | All Maps | STV","players":null},{"server_id":396,"name":"Uncletopia | Sydney | 4 | All Maps","name_short":"syd-4","host":"syd-1.au.uncletopia.com","port":27045,"enabled":true,"region":"au","cc":"au","latitude":-33.865143,"longitude":151.2099,"reserved":0,"last_update":"0001-01-01T00:00:00Z","name_a2s":"Uncletopia | Sydney | 4 | All Maps","protocol":17,"map":"koth_cascade","folder":"tf","game":"Team Fortress","app_id":440,"player_count":0,"max_players":24,"Bots":0,"server_type":"Dedicated","server_os":"Linux","password":true,"vac":true,"version":"7961495","steam_id":85568392925397958,"keywords":["cp","nocrits","nodmgspread","uncletopia"],"game_id":440,"stv_port":27046,"stv_name":"Uncletopia | Sydney | 4 | All Maps | STV","players":null},{"server_id":58,"name":"Uncletopia | Sydney | 5 | Stopwatch","name_short":"syd-5","host":"syd-1.au.uncletopia.com","port":27055,"enabled":true,"region":"au","cc":"au","latitude":-33.865143,"longitude":151.2099,"reserved":0,"last_update":"0001-01-01T00:00:00Z","name_a2s":"Uncletopia | Sydney | 5 | Stopwatch","protocol":17,"map":"workshop/koth_product_final.ugc454272353","folder":"tf","game":"Team Fortress","app_id":440,"player_count":0,"max_players":24,"Bots":0,"server_type":"Dedicated","server_os":"Linux","password":true,"vac":true,"version":"7961495","steam_id":85568392925397959,"keywords":["cp","nocrits","nodmgspread","uncletopia"],"game_id":440,"stv_port":27056,"stv_name":"Uncletopia | Sydney | 5 | Stopwatch | STV","players":null},{"server_id":59,"name":"Uncletopia | Sydney | 6 | Community","name_short":"syd-6","host":"syd-1.au.uncletopia.com","port":27065,"enabled":true,"region":"au","cc":"au","latitude":-33.865143,"longitude":151.2099,"reserved":0,"last_update":"0001-01-01T00:00:00Z","name_a2s":"Uncletopia | Sydney | 6 | Community","protocol":17,"map":"workshop/koth_trenchfoot_ab1.ugc731436616","folder":"tf","game":"Team Fortress","app_id":440,"player_count":0,"max_players":24,"Bots":0,"server_type":"Dedicated","server_os":"Linux","password":true,"vac":true,"version":"7961495","steam_id":85568392925397960,"keywords":["cp","nocrits","nodmgspread","uncletopia"],"game_id":440,"stv_port":27066,"stv_name":"Uncletopia | Sydney | 6 | Community | STV","players":null},{"server_id":49,"name":"Uncletopia | Warsaw | 1 | One Thousand Uncles","name_short":"waw-1","host":"waw-1.pl.uncletopia.com","port":27015,"enabled":true,"region":"eu","cc":"pl","latitude":52.2297,"longitude":21.017532,"reserved":0,"last_update":"0001-01-01T00:00:00Z","name_a2s":"Uncletopia | Warsaw | 1 | One Thousand Uncles","protocol":17,"map":"pl_swiftwater_final1","folder":"tf","game":"Team Fortress","app_id":440,"player_count":0,"max_players":32,"Bots":0,"server_type":"Dedicated","server_os":"Linux","password":true,"vac":true,"version":"7961495","steam_id":85568392925397850,"keywords":["alltalk","danepve","increased_maxplayers","norespawntime","payload","uncletopia"],"game_id":440,"stv_port":0,"stv_name":"","players":null},{"server_id":50,"name":"Uncletopia | Warsaw | 2 | One Thousand Uncles","name_short":"waw-2","host":"waw-1.pl.uncletopia.com","port":27025,"enabled":true,"region":"eu","cc":"pl","latitude":52.2297,"longitude":21.017532,"reserved":0,"last_update":"0001-01-01T00:00:00Z","name_a2s":"Uncletopia | Warsaw | 2 | One Thousand Uncles","protocol":17,"map":"pl_pier","folder":"tf","game":"Team Fortress","app_id":440,"player_count":0,"max_players":32,"Bots":0,"server_type":"Dedicated","server_os":"Linux","password":true,"vac":true,"version":"7961495","steam_id":85568392925397851,"keywords":["alltalk","danepve","increased_maxplayers","norespawntime","payload","uncletopia"],"game_id":440,"stv_port":0,"stv_name":"","players":null},{"server_id":51,"name":"Uncletopia | Warsaw | 3 | All Maps","name_short":"waw-3","host":"waw-1.pl.uncletopia.com","port":27035,"enabled":true,"region":"eu","cc":"pl","latitude":52.2297,"longitude":21.017532,"reserved":0,"last_update":"0001-01-01T00:00:00Z","name_a2s":"Uncletopia | Warsaw | 3 | All Maps","protocol":17,"map":"cp_dustbowl","folder":"tf","game":"Team Fortress","app_id":440,"player_count":0,"max_players":24,"Bots":0,"server_type":"Dedicated","server_os":"Linux","password":true,"vac":true,"version":"7961495","steam_id":85568392925397852,"keywords":["cp","nocrits","nodmgspread","uncletopia"],"game_id":440,"stv_port":27036,"stv_name":"Uncletopia | Warsaw | 3 | All Maps | STV","players":null},{"server_id":52,"name":"Uncletopia | Warsaw | 4 | All Maps","name_short":"waw-4","host":"waw-1.pl.uncletopia.com","port":27045,"enabled":true,"region":"eu","cc":"pl","latitude":52.2297,"longitude":21.017532,"reserved":0,"last_update":"0001-01-01T00:00:00Z","name_a2s":"Uncletopia | Warsaw | 4 | All Maps","protocol":17,"map":"koth_cascade","folder":"tf","game":"Team Fortress","app_id":440,"player_count":0,"max_players":24,"Bots":0,"server_type":"Dedicated","server_os":"Linux","password":true,"vac":true,"version":"7961495","steam_id":85568392925397853,"keywords":["cp","nocrits","nodmgspread","uncletopia"],"game_id":440,"stv_port":27046,"stv_name":"Uncletopia | Warsaw | 4 | All Maps | STV","players":null},{"server_id":53,"name":"Uncletopia | Warsaw | 5 | Stopwatch","name_short":"waw-5","host":"waw-1.pl.uncletopia.com","port":27055,"enabled":true,"region":"eu","cc":"pl","latitude":52.2297,"longitude":21.017532,"reserved":0,"last_update":"0001-01-01T00:00:00Z","name_a2s":"Uncletopia | Warsaw | 5 | Stopwatch","protocol":17,"map":"koth_highpass","folder":"tf","game":"Team Fortress","app_id":440,"player_count":0,"max_players":24,"Bots":0,"server_type":"Dedicated","server_os":"Linux","password":true,"vac":true,"version":"7961495","steam_id":85568392925397854,"keywords":["cp","nocrits","nodmgspread","uncletopia"],"game_id":440,"stv_port":27056,"stv_name":"Uncletopia | Warsaw | 5 | Stopwatch | STV","players":null},{"server_id":54,"name":"Uncletopia | Warsaw | 6 | Community","name_short":"waw-6","host":"waw-1.pl.uncletopia.com","port":27065,"enabled":true,"region":"eu","cc":"pl","latitude":52.2297,"longitude":21.017532,"reserved":0,"last_update":"0001-01-01T00:00:00Z","name_a2s":"Uncletopia | Warsaw | 6 | Community","protocol":17,"map":"workshop/cp_overgrown_rc8.ugc503939302","folder":"tf","game":"Team Fortress","app_id":440,"player_count":0,"max_players":24,"Bots":0,"server_type":"Dedicated","server_os":"Linux","password":true,"vac":true,"version":"7961495","steam_id":85568392925397856,"keywords":["cp","nocrits","nodmgspread","uncletopia"],"game_id":440,"stv_port":27066,"stv_name":"Uncletopia | Warsaw | 6 | Community | STV","players":null}]}