{"status":true,"message":"","result":[{"server_id":9,"name":"Uncletopia | Atlanta | 1 | All Maps","name_short":"atl-1","host":"atl-1.us.uncletopia.com","port":27015,"enabled":true,"region":"us-east","cc":"us","latitude":33.753746,"longitude":-84.38633,"reserved":0,"last_update":"0001-01-01T00:00:00Z","name_a2s":"Uncletopia | Atlanta | 1 | All Maps","protocol":17,"map":"cp_foundry","folder":"tf","game":"Team Fortress","app_id":440,"player_count":24,"max_players":24,"Bots":0,"server_type":"Dedicated","server_os":"Linux","password":true,"vac":true,"version":"7882260","steam_id":85568392924469982,"keywords":["cp","nocrits","nodmgspread","uncletopia"],"game_id":440,"stv_port":27016,"stv_name":"Uncletopia | Atlanta | 1 | All Maps | STV","players":[{"user_id":77,"name":"trepidotractatos","steam_id":76561198815950232,"connected_time":2671000000000,"state":"active","ping":70},{"user_id":69,"name":"lorelius hogglefart","steam_id":76561198211781375,"connected_time":3081000000000,"state":"active","ping":63},{"user_id":117,"name":"[Ààluk…ë]","steam_id":76561197984462669,"connected_time":213000000000,"state":"active","ping":168},{"user_id":11,"name":"the mcskank (limited time)","steam_id":76561198814096380,"connected_time":6136000000000,"state":"active","ping":74},{"user_id":95,"name":"Lonely Friendless Gamer","steam_id":76561198046728155,"connected_time":2013000000000,"state":"active","ping":76},{"user_id":92,"name":"braindead","steam_id":76561198263631055,"connected_time":2110000000000,"state":"active","ping":70},{"user_id":118,"name":"Slashes","steam_id":76561197968573499,"connected_time":207000000000,"state":"active","ping":60},{"user_id":100,"name":"marguerite","steam_id":76561198170873495,"connected_time":1533000000000,"state":"active","ping":48},{"user_id":106,"name":"_S","steam_id":76561198050136796,"connected_time":1164000000000,"state":"active","ping":90},{"user_id":110,"name":"plushie","steam_id":76561198088103572,"connected_time":1036000000000,"state":"active","ping":114},{"user_id":102,"name":"BackwardsEagle","steam_id":76561199013712612,"connected_time":1324000000000,"state":"active","ping":72},{"user_id":103,"name":"‚ô•Bunny‚ô•Slut‚ô•","steam_id":76561198206376851,"connected_time":1239000000000,"state":"active","ping":106},{"user_id":109,"name":"Clockwork","steam_id":76561198117867460,"connected_time":1068000000000,"state":"active","ping":109},{"user_id":74,"name":"LegendaryMister151","steam_id":76561198064890524,"connected_time":2788000000000,"state":"active","ping":80},{"user_id":116,"name":"A_Malebolgia","steam_id":76561198097722818,"connected_time":216000000000,"state":"active","ping":94},{"user_id":78,"name":"Death By Killing","steam_id":76561198857643139,"connected_time":2648000000000,"state":"active","ping":75},{"user_id":97,"name":"reallyfriendly","steam_id":76561197996819313,"connected_time":1960000000000,"state":"active","ping":55},{"user_id":98,"name":"HarryjusttHarry","steam_id":76561198982810452,"connected_time":1841000000000,"state":"active","ping":73},{"user_id":111,"name":"kiewass","steam_id":76561198870729709,"connected_time":1013000000000,"state":"active","ping":160},{"user_id":108,"name":"Hyunnie simon","steam_id":76561198081327929,"connected_time":1088000000000,"state":"active","ping":181},{"user_id":101,"name":"lil hog","steam_id":76561199230929836,"connected_time":1419000000000,"state":"active","ping":80},{"user_id":62,"name":"Dewie","steam_id":76561199089824120,"connected_time":3482000000000,"state":"active","ping":83},{"user_id":85,"name":"‚Üë‚Üë‚Üì‚Üì‚Üê‚Üí‚Üê‚ÜíB-A","steam_id":76561198378240571,"connected_time":2372000000000,"state":"active","ping":116},{"user_id":113,"name":"1 cel","steam_id":76561198950243192,"connected_time":830000000000,"state":"active","ping":78}]},{"server_id":104,"name":"Uncletopia | Atlanta | 2 | All Maps","name_short":"atl-2","host":"atl-1.us.uncletopia.com","port":27025,"enabled":true,"region":"us-east","cc":"us","latitude":33.753746,"longitude":-84.38633,"reserved":0,"last_update":"0001-01-01T00:00:00Z","name_a2s":"Uncletopia | Atlanta | 2 | All Maps","protocol":17,"map":"koth_lakeside_final","folder":"tf","game":"Team Fortress","app_id":440,"player_count":0,"max_players":24,"Bots":0,"server_type":"Dedicated","server_os":"Linux","password":true,"vac":true,"version":"7882260","steam_id":85568392924469983,"keywords":["cp","nocrits","nodmgspread","uncletopia"],"game_id":440,"stv_port":27026,"stv_name":"Uncletopia | Atlanta | 2 | All Maps | STV","players":null},{"server_id":400,"name":"Uncletopia | Atlanta | 3 | Community","name_short":"atl-3","host":"atl-1.us.uncletopia.com","port":27035,"enabled":true,"region":"us-east","cc":"us","latitude":33.753746,"longitude":-84.38633,"reserved":0,"last_update":"0001-01-01T00:00:00Z","name_a2s":"Uncletopia | Atlanta | 3 | Community","protocol":17,"map":"cp_sunshine","folder":"tf","game":"Team Fortress","app_id":440,"player_count":0,"max_players":24,"Bots":0,"server_type":"Dedicated","server_os":"Linux","password":true,"vac":true,"version":"7882260","steam_id":85568392924515187,"keywords":["cp","nocrits","nodmgspread","uncletopia"],"game_id":440,"stv_port":27036,"stv_name":"Uncletopia | Atlanta | 3 | Community | STV","players":null},{"server_id":401,"name":"Uncletopia | Atlanta | 4 | No Payload","name_short":"atl-4","host":"atl-1.us.uncletopia.com","port":27045,"enabled":true,"region":"us-east","cc":"us","latitude":33.753746,"longitude":-84.38633,"reserved":0,"last_update":"0001-01-01T00:00:00Z","name_a2s":"","protocol":0,"map":"","folder":"","game":"","app_id":0,"player_count":0,"max_players":0,"Bots":0,"server_type":"","server_os":"","password":false,"vac":false,"version":"","steam_id":0,"keywords":null,"game_id":0,"stv_port":0,"stv_name":"","players":null},{"server_id":2,"name":"Uncletopia | Chicago | 1 | All Maps","name_short":"chi-1","host":"chi-1.us.uncletopia.com","port":27015,"enabled":true,"region":"us-central","cc":"us","latitude":41.881832,"longitude":-87.62318,"reserved":0,"last_update":"0001-01-01T00:00:00Z","name_a2s":"Uncletopia | Chicago | 1 | All Maps","protocol":17,"map":"cp_fastlane","folder":"tf","game":"Team Fortress","app_id":440,"player_count":23,"max_players":24,"Bots":0,"server_type":"Dedicated","server_os":"Linux","password":true,"vac":true,"version":"7882260","steam_id":85568392924469984,"keywords":["cp","nocrits","nodmgspread","uncletopia"],"game_id":440,"stv_port":27016,"stv_name":"Uncletopia | Chicago | 1 | All Maps | STV","players":[{"user_id":211,"name":"feenman","steam_id":76561199383834799,"connected_time":934000000000,"state":"active","ping":97},{"user_id":178,"name":"Fobby #Savetf2","steam_id":76561198047681469,"connected_time":2637000000000,"state":"active","ping":92},{"user_id":223,"name":"Dj","steam_id":76561199061993594,"connected_time":581000000000,"state":"active","ping":71},{"user_id":135,"name":"Motreir","steam_id":76561198151717946,"connected_time":6910000000000,"state":"active","ping":81},{"user_id":224,"name":"Filthy Acts at Reasonable Price","steam_id":76561198354615890,"connected_time":388000000000,"state":"active","ping":57},{"user_id":195,"name":"Xx_UrineEnjoyer_xX","steam_id":76561198397991402,"connected_time":1767000000000,"state":"active","ping":142},{"user_id":225,"name":"BaronJ","steam_id":76561198025151133,"connected_time":201000000000,"state":"active","ping":69},{"user_id":212,"name":"i thought you were my friend","steam_id":76561198929646112,"connected_time":925000000000,"state":"active","ping":70},{"user_id":130,"name":"tacofever","steam_id":76561198010966507,"connected_time":7120000000000,"state":"active","ping":103},{"user_id":82,"name":"larry","steam_id":76561198236166288,"connected_time":10718000000000,"state":"active","ping":74},{"user_id":228,"name":"Magitrex","steam_id":76561199088811754,"connected_time":78000000000,"state":"active","ping":75},{"user_id":207,"name":"T9 Raincool","steam_id":76561198042953645,"connected_time":1027000000000,"state":"active","ping":66},{"user_id":208,"name":"drdoofus123","steam_id":76561198016826181,"connected_time":1002000000000,"state":"active","ping":71},{"user_id":198,"name":"Jeeper","steam_id":76561198155583692,"connected_time":1490000000000,"state":"active","ping":79},{"user_id":209,"name":"Tyulmi","steam_id":76561198041432710,"connected_time":998000000000,"state":"active","ping":55},{"user_id":200,"name":"twizted","steam_id":76561197960407274,"connected_time":1282000000000,"state":"active","ping":70},{"user_id":214,"name":"The Goat","steam_id":76561197960432083,"connected_time":917000000000,"state":"active","ping":60},{"user_id":187,"name":"wifi warrior","steam_id":76561198058485742,"connected_time":2502000000000,"state":"active","ping":63},{"user_id":227,"name":"Quark","steam_id":76561198328155605,"connected_time":192000000000,"state":"active","ping":54},{"user_id":154,"name":"HollowMan","steam_id":76561198967266827,"connected_time":5344000000000,"state":"active","ping":77},{"user_id":218,"name":"Sweattadpole","steam_id":76561199456100100,"connected_time":783000000000,"state":"active","ping":130},{"user_id":197,"name":"Enderneer","steam_id":76561198012136653,"connected_time":1581000000000,"state":"active","ping":58},{"user_id":221,"name":"nory","steam_id":76561198031819070,"connected_time":673000000000,"state":"active","ping":95}]},{"server_id":106,"name":"Uncletopia | Chicago | 2 | All Maps","name_short":"chi-2","host":"chi-1.us.uncletopia.com","port":27025,"enabled":true,"region":"us-central","cc":"us","latitude":41.881832,"longitude":-87.62318,"reserved":0,"last_update":"0001-01-01T00:00:00Z","name_a2s":"Uncletopia | Chicago | 2 | All Maps","protocol":17,"map":"pl_swiftwater_final1","folder":"tf","game":"Team Fortress","app_id":440,"player_count":0,"max_players":24,"Bots":0,"server_type":"Dedicated","server_os":"Linux","password":true,"vac":true,"version":"7882260","steam_id":85568392924469985,"keywords":["nocrits","nodmgspread","payload","uncletopia"],"game_id":440,"stv_port":27026,"stv_name":"Uncletopia | Chicago | 2 | All Maps | STV","players":null},{"server_id":402,"name":"Uncletopia | Chicago | 3 | All Maps","name_short":"chi-3","host":"chi-1.us.uncletopia.com","port":27035,"enabled":true,"region":"us-central","cc":"us","latitude":41.881832,"longitude":-87.62318,"reserved":0,"last_update":"0001-01-01T00:00:00Z","name_a2s":"Uncletopia | Chicago | 3 | All Maps","protocol":17,"map":"cp_process_final","folder":"tf","game":"Team Fortress","app_id":440,"player_count":24,"max_players":24,"Bots":0,"server_type":"Dedicated","server_os":"Linux","password":true,"vac":true,"version":"7882260","steam_id":85568392924515191,"keywords":["cp","nocrits","nodmgspread","uncletopia"],"game_id":440,"stv_port":27036,"stv_name":"Uncletopia | Chicago | 3 | All Maps | STV","players":[{"user_id":260,"name":"nhbiker","steam_id":76561198081277675,"connected_time":2161000000000,"state":"active","ping":45},{"user_id":262,"name":"Yayifications","steam_id":76561198066227208,"connected_time":2077000000000,"state":"active","ping":64},{"user_id":267,"name":"tgirl tummy moment","steam_id":76561198159622003,"connected_time":1825000000000,"state":"active","ping":92},{"user_id":191,"name":"Griddy #Hateologist","steam_id":76561199100342013,"connected_time":7241000000000,"state":"active","ping":90},{"user_id":282,"name":"YOU","steam_id":76561198391551932,"connected_time":182000000000,"state":"active","ping":67},{"user_id":291,"name":"CG65","steam_id":76561199440141596,"connected_time":35000000000,"state":"active","ping":70},{"user_id":275,"name":"Grease Monkey","steam_id":76561199073112578,"connected_time":1221000000000,"state":"active","ping":73},{"user_id":276,"name":"a table","steam_id":76561198158461279,"connected_time":1055000000000,"state":"active","ping":59},{"user_id":283,"name":"Coolshroomish","steam_id":76561199109440924,"connected_time":164000000000,"state":"active","ping":98},{"user_id":289,"name":"canakblasteran","steam_id":76561199472518822,"connected_time":89000000000,"state":"active","ping":99},{"user_id":285,"name":"mudman","steam_id":76561198079420187,"connected_time":155000000000,"state":"active","ping":74},{"user_id":254,"name":"teleportless husk","steam_id":76561198882404753,"connected_time":3340000000000,"state":"active","ping":69},{"user_id":280,"name":"PaperJamming","steam_id":76561198042335495,"connected_time":220000000000,"state":"active","ping":70},{"user_id":287,"name":"aroth","steam_id":76561198147300599,"connected_time":151000000000,"state":"active","ping":66},{"user_id":225,"name":"Xx_Monty2k_xX","steam_id":76561198346070981,"connected_time":5066000000000,"state":"active","ping":60},{"user_id":208,"name":"FunH8r","steam_id":76561199013705323,"connected_time":5689000000000,"state":"active","ping":60},{"user_id":269,"name":"Fuzzy","steam_id":76561199100612353,"connected_time":1786000000000,"state":"active","ping":55},{"user_id":279,"name":"Blitzy","steam_id":76561198149472890,"connected_time":227000000000,"state":"active","ping":73},{"user_id":233,"name":"InsertNameHere","steam_id":76561199237340935,"connected_time":4620000000000,"state":"active","ping":105},{"user_id":288,"name":"tasty","steam_id":76561198083839061,"connected_time":121000000000,"state":"active","ping":63},{"user_id":257,"name":"Carpigani","steam_id":76561199472897062,"connected_time":2851000000000,"state":"active","ping":144},{"user_id":292,"name":"[8008135]UgliKumquat420","steam_id":76561199006886644,"connected_time":30000000000,"state":"spawning","ping":1001},{"user_id":286,"name":"F0R93","steam_id":76561198072365833,"connected_time":153000000000,"state":"active","ping":77},{"user_id":293,"name":"Dex","steam_id":76561199230265354,"connected_time":19000000000,"state":"active","ping":62}]},{"server_id":403,"name":"Uncletopia | Chicago | 4 | All Maps","name_short":"chi-4","host":"chi-1.us.uncletopia.com","port":27045,"enabled":true,"region":"us-central","cc":"us","latitude":41.881832,"longitude":-87.62318,"reserved":0,"last_update":"0001-01-01T00:00:00Z","name_a2s":"Uncletopia | Chicago | 4 | All Maps","protocol":17,"map":"cp_snakewater_final1","folder":"tf","game":"Team Fortress","app_id":440,"player_count":1,"max_players":24,"Bots":0,"server_type":"Dedicated","server_os":"Linux","password":true,"vac":true,"version":"7882260","steam_id":85568392924515193,"keywords":["cp","nocrits","nodmgspread","uncletopia"],"game_id":440,"stv_port":27046,"stv_name":"Uncletopia | Chicago | 4 | All Maps | STV","players":[{"user_id":95,"name":"be","steam_id":76561198000824533,"connected_time":9000000000,"state":"spawning","ping":79}]},{"server_id":36,"name":"Uncletopia | Chicago | 5 | All Maps","name_short":"chi-5","host":"chi-2.us.uncletopia.com","port":27015,"enabled":true,"region":"us-central","cc":"us","latitude":41.881832,"longitude":-87.62318,"reserved":0,"last_update":"0001-01-01T00:00:00Z","name_a2s":"Uncletopia | Chicago | 5 | All Maps","protocol":17,"map":"pl_barnblitz","folder":"tf","game":"Team Fortress","app_id":440,"player_count":24,"max_players":24,"Bots":0,"server_type":"Dedicated","server_os":"Linux","password":true,"vac":true,"version":"7882260","steam_id":85568392924866362,"keywords":["nocrits","nodmgspread","payload","uncletopia"],"game_id":440,"stv_port":27016,"stv_name":"Uncletopia | Chicago | 5 | All Maps | STV","players":[{"user_id":69,"name":"Surinferior","steam_id":76561198008953177,"connected_time":846000000000,"state":"active","ping":69},{"user_id":80,"name":"God","steam_id":76561198131089513,"connected_time":329000000000,"state":"active","ping":48},{"user_id":54,"name":"MAXIMUM OVERDRIVE","steam_id":76561198113992547,"connected_time":1699000000000,"state":"active","ping":83},{"user_id":82,"name":"dr peppah chug!","steam_id":76561198068835693,"connected_time":158000000000,"state":"active","ping":86},{"user_id":73,"name":"idosu","steam_id":76561198132225073,"connected_time":528000000000,"state":"active","ping":93},{"user_id":24,"name":"ZBaldTop","steam_id":76561199396318132,"connected_time":2485000000000,"state":"active","ping":57},{"user_id":53,"name":"The DeadMan","steam_id":76561198209955879,"connected_time":2001000000000,"state":"active","ping":81},{"user_id":23,"name":"Mr. Dick‚Ñ¢","steam_id":76561198047309044,"connected_time":2583000000000,"state":"active","ping":58},{"user_id":26,"name":"Cheesi","steam_id":76561199417190840,"connected_time":2470000000000,"state":"active","ping":64},{"user_id":55,"name":"blue drink","steam_id":76561199260739414,"connected_time":1648000000000,"state":"active","ping":75},{"user_id":28,"name":"Á≤æÊ∂≤Blev BlevÁ≤æÊ∂≤","steam_id":76561198208972565,"connected_time":2425000000000,"state":"active","ping":82},{"user_id":72,"name":"AYAYA!!!","steam_id":76561198992102180,"connected_time":534000000000,"state":"active","ping":47},{"user_id":74,"name":"AlmondMilk","steam_id":76561198151229725,"connected_time":518000000000,"state":"active","ping":52},{"user_id":79,"name":"crashdragon1544","steam_id":76561199216082736,"connected_time":382000000000,"state":"active","ping":94},{"user_id":42,"name":"deadface","steam_id":76561198055494297,"connected_time":2222000000000,"state":"active","ping":70},{"user_id":76,"name":"cataconik","steam_id":76561198145530829,"connected_time":439000000000,"state":"active","ping":83},{"user_id":67,"name":"Mr. Call You Back","steam_id":76561198025172811,"connected_time":1099000000000,"state":"active","ping":56},{"user_id":81,"name":"Coup de Grass","steam_id":76561198011643226,"connected_time":279000000000,"state":"active","ping":81},{"user_id":40,"name":"cactus eater","steam_id":76561199107499844,"connected_time":2257000000000,"state":"active","ping":119},{"user_id":44,"name":"give me your baby faces blaster","steam_id":76561199013442982,"connected_time":2196000000000,"state":"active","ping":97},{"user_id":50,"name":"syme","steam_id":76561197990512752,"connected_time":2047000000000,"state":"active","ping":80},{"user_id":46,"name":"‚àô","steam_id":76561199337670307,"connected_time":2182000000000,"state":"active","ping":95},{"user_id":83,"name":"puffy","steam_id":76561198411347037,"connected_time":117000000000,"state":"active","ping":66},{"user_id":70,"name":"VioletSpecs","steam_id":76561198089366466,"connected_time":709000000000,"state":"active","ping":77}]},{"server_id":37,"name":"Uncletopia | Chicago | 6 | All Maps","name_short":"chi-6","host":"chi-2.us.uncletopia.com","port":27025,"enabled":true,"region":"us-central","cc":"us","latitude":41.881832,"longitude":-87.62318,"reserved":0,"last_update":"0001-01-01T00:00:00Z","name_a2s":"Uncletopia | Chicago | 6 | All Maps","protocol":17,"map":"koth_cascade","folder":"tf","game":"Team Fortress","app_id":440,"player_count":0,"max_players":24,"Bots":0,"server_type":"Dedicated","server_os":"Linux","password":true,"vac":true,"version":"7882260","steam_id":85568392924866363,"keywords":["cp","nocrits","nodmgspread","uncletopia"],"game_id":440,"stv_port":27026,"stv_name":"Uncletopia | Chicago | 6 | All Maps | STV","players":null},{"server_id":38,"name":"Uncletopia | Chicago | 7 | Stopwatch Beta","name_short":"chi-7","host":"chi-2.us.uncletopia.com","port":27035,"enabled":true,"region":"us-central","cc":"us","latitude":41.881832,"longitude":-87.62318,"reserved":0,"last_update":"0001-01-01T00:00:00Z","name_a2s":"Uncletopia | Chicago | 7 | Stopwatch Beta","protocol":17,"map":"pl_borneo","folder":"tf","game":"Team Fortress","app_id":440,"player_count":0,"max_players":24,"Bots":0,"server_type":"Dedicated","server_os":"Linux","password":true,"vac":true,"version":"7882260","steam_id":85568392924866364,"keywords":["nocrits","nodmgspread","payload","uncletopia"],"game_id":440,"stv_port":27036,"stv_name":"Uncletopia | Chicago | 7 | Stopwatch Beta | STV","players":null},{"server_id":39,"name":"Uncletopia | Chicago | 8 | Community","name_short":"chi-8","host":"chi-2.us.uncletopia.com","port":27045,"enabled":true,"region":"us-central","cc":"us","latitude":41.881832,"longitude":-87.62318,"reserved":0,"last_update":"0001-01-01T00:00:00Z","name_a2s":"Uncletopia | Chicago | 8 | Community","protocol":17,"map":"workshop/pl_barnblitz_pro7.ugc582280235","folder":"tf","game":"Team Fortress","app_id":440,"player_count":24,"max_players":24,"Bots":0,"server_type":"Dedicated","server_os":"Linux","password":true,"vac":true,"version":"7882260","steam_id":85568392924866365,"keywords":["nocrits","nodmgspread","payload","uncletopia"],"game_id":440,"stv_port":27046,"stv_name":"Uncletopia | Chicago | 8 | Community | STV","players":[{"user_id":82,"name":"Blake...","steam_id":76561198064090974,"connected_time":172000000000,"state":"active","ping":88},{"user_id":62,"name":"Goobed!","steam_id":76561198804349470,"connected_time":1342000000000,"state":"active","ping":65},{"user_id":83,"name":"JelloMotion","steam_id":76561198045892038,"connected_time":149000000000,"state":"active","ping":56},{"user_id":81,"name":"Volks","steam_id":76561198018552479,"connected_time":218000000000,"state":"active","ping":70},{"user_id":84,"name":"creepycrawler","steam_id":76561198352016831,"connected_time":123000000000,"state":"active","ping":61},{"user_id":86,"name":"sailaser","steam_id":76561198035752229,"connected_time":64000000000,"state":"active","ping":70},{"user_id":87,"name":"Xurany","steam_id":76561199005012427,"connected_time":61000000000,"state":"active","ping":67},{"user_id":44,"name":"Sussin'","steam_id":76561198059813696,"connected_time":3538000000000,"state":"active","ping":73},{"user_id":88,"name":"TJGSASQUATCH","steam_id":76561198077806921,"connected_time":61000000000,"state":"active","ping":74},{"user_id":89,"name":"Sobokhan","steam_id":76561197969214734,"connected_time":49000000000,"state":"active","ping":85},{"user_id":69,"name":"spxdeblu","steam_id":76561199025031243,"connected_time":1110000000000,"state":"active","ping":55},{"user_id":24,"name":"bread","steam_id":76561198291298731,"connected_time":4325000000000,"state":"active","ping":66},{"user_id":57,"name":"DOMO_MR_ROBOTO","steam_id":76561198077108345,"connected_time":1903000000000,"state":"active","ping":93},{"user_id":58,"name":"Corpse01","steam_id":76561198153671643,"connected_time":1894000000000,"state":"active","ping":62},{"user_id":90,"name":"avantime","steam_id":76561199203175541,"connected_time":38000000000,"state":"active","ping":84},{"user_id":51,"name":"indi","steam_id":76561198045917538,"connected_time":3017000000000,"state":"active","ping":56},{"user_id":70,"name":"The Pan Man From Slavic Land","steam_id":76561198401875841,"connected_time":1078000000000,"state":"active","ping":81},{"user_id":91,"name":"GPLv2","steam_id":76561198113096772,"connected_time":29000000000,"state":"spawning","ping":222},{"user_id":71,"name":"yoodle doodle","steam_id":76561198054897884,"connected_time":1039000000000,"state":"active","ping":68},{"user_id":80,"name":"s1lence","steam_id":76561198115542047,"connected_time":241000000000,"state":"active","ping":73},{"user_id":53,"name":"Punished Kong","steam_id":76561198973620882,"connected_time":2679000000000,"state":"active","ping":87},{"user_id":75,"name":"TRM Mythias","steam_id":76561198353792754,"connected_time":865000000000,"state":"active","ping":72},{"user_id":92,"name":"Sr. Cleotar","steam_id":76561199125688378,"connected_time":18000000000,"state":"active","ping":101},{"user_id":93,"name":"Servitz","steam_id":76561198194446835,"connected_time":14000000000,"state":"spawning","ping":213}]},{"server_id":8,"name":"Uncletopia | Dallas | 1 | All Maps","name_short":"dal-1","host":"dal-1.us.uncletopia.com","port":27015,"enabled":true,"region":"us-central","cc":"us","latitude":32.779167,"longitude":-96.80889,"reserved":0,"last_update":"0001-01-01T00:00:00Z","name_a2s":"Uncletopia | Dallas | 1 | All Maps","protocol":17,"map":"pl_badwater","folder":"tf","game":"Team Fortress","app_id":440,"player_count":20,"max_players":24,"Bots":0,"server_type":"Dedicated","server_os":"Linux","password":true,"vac":true,"version":"7882260","steam_id":85568392924469986,"keywords":["nocrits","nodmgspread","payload","uncletopia"],"game_id":440,"stv_port":27016,"stv_name":"Uncletopia | Dallas | 1 | All Maps | STV","players":[{"user_id":124,"name":"Utopia","steam_id":76561198330205913,"connected_time":4710000000000,"state":"active","ping":99},{"user_id":193,"name":"BigPimpin","steam_id":76561198119549348,"connected_time":454000000000,"state":"active","ping":45},{"user_id":134,"name":"chestes *\u003c|B^)","steam_id":76561198066223818,"connected_time":3720000000000,"state":"active","ping":85},{"user_id":196,"name":"orange rind (3 cent wifi)","steam_id":76561198130242461,"connected_time":52000000000,"state":"active","ping":48},{"user_id":197,"name":"JJDrowsy","steam_id":76561198274501963,"connected_time":28000000000,"state":"active","ping":62},{"user_id":166,"name":"DeW","steam_id":76561198444061961,"connected_time":2278000000000,"state":"active","ping":79},{"user_id":167,"name":"Dreamzapp","steam_id":76561199084936632,"connected_time":2252000000000,"state":"active","ping":95},{"user_id":189,"name":"pumquinn","steam_id":76561198066386940,"connected_time":736000000000,"state":"active","ping":48},{"user_id":192,"name":"zik","steam_id":76561198122186802,"connected_time":536000000000,"state":"active","ping":61},{"user_id":168,"name":"spats","steam_id":76561198186402167,"connected_time":2252000000000,"state":"active","ping":57},{"user_id":169,"name":"Rasmosis","steam_id":76561198118914598,"connected_time":2248000000000,"state":"active","ping":81},{"user_id":183,"name":"sunny","steam_id":76561198069380992,"connected_time":1058000000000,"state":"active","ping":48},{"user_id":194,"name":"Cretronus","steam_id":76561198160854358,"connected_time":69000000000,"state":"active","ping":79},{"user_id":108,"name":"Ghost","steam_id":76561198426370628,"connected_time":5908000000000,"state":"active","ping":65},{"user_id":171,"name":"y=mx+b","steam_id":76561198119826352,"connected_time":2242000000000,"state":"active","ping":50},{"user_id":172,"name":"boylover54","steam_id":76561199030726701,"connected_time":2229000000000,"state":"active","ping":115},{"user_id":182,"name":"Kurayami","steam_id":76561198089630547,"connected_time":1075000000000,"state":"active","ping":64},{"user_id":82,"name":"Pyrite","steam_id":76561198158817820,"connected_time":8511000000000,"state":"active","ping":75},{"user_id":185,"name":"rawrie","steam_id":76561198005371178,"connected_time":977000000000,"state":"active","ping":60},{"user_id":195,"name":"Pete The \"Plummer\"","steam_id":76561199097450685,"connected_time":67000000000,"state":"spawning","ping":75}]},{"server_id":108,"name":"Uncletopia | Dallas | 2 | All Maps","name_short":"dal-2","host":"dal-1.us.uncletopia.com","port":27025,"enabled":true,"region":"us-central","cc":"us","latitude":32.779167,"longitude":-96.80889,"reserved":0,"last_update":"0001-01-01T00:00:00Z","name_a2s":"Uncletopia | Dallas | 2 | All Maps","protocol":17,"map":"cp_steel","folder":"tf","game":"Team Fortress","app_id":440,"player_count":24,"max_players":24,"Bots":0,"server_type":"Dedicated","server_os":"Linux","password":true,"vac":true,"version":"7882260","steam_id":85568392924469988,"keywords":["cp","nocrits","nodmgspread","uncletopia"],"game_id":440,"stv_port":27026,"stv_name":"Uncletopia | Dallas | 2 | All Maps | STV","players":[{"user_id":58,"name":"Danitom","steam_id":76561198000717813,"connected_time":1274000000000,"state":"active","ping":89},{"user_id":70,"name":"Bandanadee","steam_id":76561199014194373,"connected_time":666000000000,"state":"active","ping":106},{"user_id":76,"name":"bear","steam_id":76561198301165813,"connected_time":431000000000,"state":"active","ping":62},{"user_id":74,"name":"Zetta","steam_id":76561198045710113,"connected_time":549000000000,"state":"active","ping":79},{"user_id":38,"name":"Drakon","steam_id":76561198078210822,"connected_time":3192000000000,"state":"active","ping":97},{"user_id":68,"name":"sofa king","steam_id":76561198353638591,"connected_time":1055000000000,"state":"active","ping":74},{"user_id":11,"name":"Nonok","steam_id":76561199480685498,"connected_time":4143000000000,"state":"active","ping":168},{"user_id":12,"name":"andyiscolorless","steam_id":76561199239870921,"connected_time":4059000000000,"state":"active","ping":143},{"user_id":18,"name":"Monsieur Peque√±o","steam_id":76561198327271041,"connected_time":3707000000000,"state":"active","ping":105},{"user_id":77,"name":"TheDanmanz","steam_id":76561198870519817,"connected_time":408000000000,"state":"active","ping":113},{"user_id":71,"name":"carrot cake","steam_id":76561198055174915,"connected_time":660000000000,"state":"active","ping":90},{"user_id":66,"name":"GreaticusDane","steam_id":76561198878411140,"connected_time":1134000000000,"state":"active","ping":99},{"user_id":75,"name":"LACTOSE","steam_id":76561198282604344,"connected_time":515000000000,"state":"active","ping":86},{"user_id":20,"name":"Grand Theft Intellect","steam_id":76561198048461337,"connected_time":3645000000000,"state":"active","ping":93},{"user_id":21,"name":"jackhillard83","steam_id":76561199057098390,"connected_time":3578000000000,"state":"active","ping":68},{"user_id":26,"name":"Malevo","steam_id":76561198148606522,"connected_time":3410000000000,"state":"active","ping":58},{"user_id":83,"name":"BELADIT","steam_id":76561198011911501,"connected_time":53000000000,"state":"active","ping":167},{"user_id":82,"name":"Phosu","steam_id":76561198180162801,"connected_time":221000000000,"state":"active","ping":63},{"user_id":57,"name":"‚éæ Ethereal ‚èå","steam_id":76561199385170644,"connected_time":1913000000000,"state":"active","ping":76},{"user_id":69,"name":"dicksnip","steam_id":76561198356515396,"connected_time":949000000000,"state":"active","ping":60},{"user_id":67,"name":"Don Day el Bano","steam_id":76561198392985381,"connected_time":1085000000000,"state":"active","ping":91},{"user_id":80,"name":"MoonZote","steam_id":76561199166574130,"connected_time":334000000000,"state":"active","ping":196},{"user_id":36,"name":"Skill Saw Stan","steam_id":76561199013064727,"connected_time":3267000000000,"state":"active","ping":96},{"user_id":37,"name":"Jonatello","steam_id":76561198045699189,"connected_time":3261000000000,"state":"active","ping":135}]},{"server_id":5,"name":"Uncletopia | Frankfurt | 1 | All Maps","name_short":"frk-1","host":"frk-1.de.uncletopia.com","port":27015,"enabled":true,"region":"eu","cc":"de","latitude":50.110924,"longitude":8.682127,"reserved":0,"last_update":"0001-01-01T00:00:00Z","name_a2s":"Uncletopia | Frankfurt | 1 | All Maps","protocol":17,"map":"ctf_2fort","folder":"tf","game":"Team Fortress","app_id":440,"player_count":24,"max_players":24,"Bots":0,"server_type":"Dedicated","server_os":"Linux","password":true,"vac":true,"version":"7882260","steam_id":85568392924469989,"keywords":["ctf","nocrits","nodmgspread","uncletopia"],"game_id":440,"stv_port":27016,"stv_name":"Uncletopia | Frankfurt | 1 | All Maps | STV","players":[{"user_id":490,"name":"TEETOO","steam_id":76561199073540887,"connected_time":636000000000,"state":"active","ping":81},{"user_id":496,"name":"zefi76","steam_id":76561198013125570,"connected_time":369000000000,"state":"active","ping":83},{"user_id":459,"name":"oops, all crits!","steam_id":76561198288618846,"connected_time":1255000000000,"state":"active","ping":134},{"user_id":466,"name":"The.Real.Genesis","steam_id":76561198999652040,"connected_time":930000000000,"state":"active","ping":35},{"user_id":502,"name":"Rob Rotten","steam_id":76561198170543542,"connected_time":192000000000,"state":"active","ping":154},{"user_id":463,"name":"Volky","steam_id":76561199027614048,"connected_time":1020000000000,"state":"active","ping":59},{"user_id":497,"name":"Fortnite Gamer","steam_id":76561198265001787,"connected_time":356000000000,"state":"active","ping":77},{"user_id":489,"name":"wee woo","steam_id":76561198147277460,"connected_time":644000000000,"state":"active","ping":49},{"user_id":494,"name":"Magnum","steam_id":76561198189321846,"connected_time":493000000000,"state":"active","ping":60},{"user_id":499,"name":"EGirl | Klarra","steam_id":76561198077745407,"connected_time":353000000000,"state":"active","ping":56},{"user_id":469,"name":"mud","steam_id":76561198141497461,"connected_time":904000000000,"state":"active","ping":58},{"user_id":470,"name":"gaming","steam_id":76561199199456092,"connected_time":887000000000,"state":"active","ping":102},{"user_id":471,"name":"ùïäùïíùïüùïïùïûùïíùïü\ufffd\ufffd\ufffd","steam_id":76561199012566222,"connected_time":880000000000,"state":"active","ping":53},{"user_id":480,"name":"fluury","steam_id":76561198040769881,"connected_time":711000000000,"state":"active","ping":49},{"user_id":495,"name":"CharmingDevil","steam_id":76561198083070872,"connected_time":471000000000,"state":"active","ping":97},{"user_id":481,"name":"CornoRosso","steam_id":76561198095455862,"connected_time":705000000000,"state":"active","ping":76},{"user_id":478,"name":"kita ikuYOOOOOOOOOOOOOOOOOOOOOO","steam_id":76561198148074472,"connected_time":770000000000,"state":"active","ping":44},{"user_id":482,"name":"Eggcracker","steam_id":76561199274850641,"connected_time":688000000000,"state":"active","ping":99},{"user_id":483,"name":"Vermuth","steam_id":76561198013515390,"connected_time":685000000000,"state":"active","ping":50},{"user_id":484,"name":"CollDragon","steam_id":76561198067534450,"connected_time":679000000000,"state":"active","ping":137},{"user_id":503,"name":"betonomeshalka","steam_id":76561198304548337,"connected_time":20000000000,"state":"active","ping":92},{"user_id":487,"name":"Rz!","steam_id":76561198364380889,"connected_time":669000000000,"state":"active","ping":123},{"user_id":504,"name":"Emma","steam_id":76561198076724979,"connected_time":17000000000,"state":"active","ping":59},{"user_id":493,"name":"Andreus","steam_id":76561199403926001,"connected_time":532000000000,"state":"active","ping":71}]},{"server_id":110,"name":"Uncletopia | Frankfurt | 2 | All Maps","name_short":"frk-2","host":"frk-1.de.uncletopia.com","port":27025,"enabled":true,"region":"eu","cc":"de","latitude":50.110924,"longitude":8.682127,"reserved":0,"last_update":"0001-01-01T00:00:00Z","name_a2s":"Uncletopia | Frankfurt | 2 | All Maps","protocol":17,"map":"pl_pier","folder":"tf","game":"Team Fortress","app_id":440,"player_count":24,"max_players":24,"Bots":0,"server_type":"Dedicated","server_os":"Linux","password":true,"vac":true,"version":"7882260","steam_id":85568392924469990,"keywords":["nocrits","nodmgspread","payload","uncletopia"],"game_id":440,"stv_port":27026,"stv_name":"Uncletopia | Frankfurt | 2 | All Maps | STV","players":[{"user_id":158,"name":"CKenny.js","steam_id":76561198063245962,"connected_time":3574000000000,"state":"active","ping":69},{"user_id":195,"name":"BabyYodaIsMySoda","steam_id":76561198321846861,"connected_time":1220000000000,"state":"active","ping":71},{"user_id":189,"name":"Zeta","steam_id":76561198101917105,"connected_time":1522000000000,"state":"active","ping":147},{"user_id":199,"name":"Fr0sty","steam_id":76561198125024338,"connected_time":738000000000,"state":"active","ping":83},{"user_id":180,"name":"\u003c blank \u003e","steam_id":76561198059375315,"connected_time":1962000000000,"state":"active","ping":67},{"user_id":203,"name":"Faraday's Law","steam_id":76561198105385977,"connected_time":609000000000,"state":"active","ping":62},{"user_id":193,"name":"Garos","steam_id":76561198370643382,"connected_time":1333000000000,"state":"active","ping":77},{"user_id":170,"name":"Proto-arc","steam_id":76561198012776747,"connected_time":2610000000000,"state":"active","ping":56},{"user_id":197,"name":"Samuel L. Jackson","steam_id":76561198130427881,"connected_time":757000000000,"state":"active","ping":161},{"user_id":181,"name":"Jack","steam_id":76561198325505238,"connected_time":1958000000000,"state":"active","ping":87},{"user_id":176,"name":"MM Murda OFFICIAL","steam_id":76561198076871529,"connected_time":2202000000000,"state":"active","ping":54},{"user_id":200,"name":"Ë™∞„Åã„ÅåË¶ã„Å¶„ÅÑ„Çã","steam_id":76561198834913692,"connected_time":736000000000,"state":"active","ping":66},{"user_id":207,"name":"day","steam_id":76561198260265302,"connected_time":445000000000,"state":"active","ping":54},{"user_id":206,"name":"Cars","steam_id":76561198173329977,"connected_time":463000000000,"state":"active","ping":61},{"user_id":204,"name":"Ê≤°ÊúâÊØçÁãóÂêóÔºü","steam_id":76561199113335203,"connected_time":609000000000,"state":"active","ping":64},{"user_id":136,"name":"david","steam_id":76561198843793834,"connected_time":4788000000000,"state":"active","ping":81},{"user_id":182,"name":"Dr.Livesey","steam_id":76561198423099559,"connected_time":1955000000000,"state":"active","ping":72},{"user_id":178,"name":"gegit08","steam_id":76561199040010283,"connected_time":2113000000000,"state":"active","ping":88},{"user_id":150,"name":"OreHaX","steam_id":76561198272166623,"connected_time":4263000000000,"state":"active","ping":74},{"user_id":208,"name":"pizzaschnoesel","steam_id":76561198143534694,"connected_time":442000000000,"state":"active","ping":70},{"user_id":183,"name":"goblin","steam_id":76561198004520848,"connected_time":1937000000000,"state":"active","ping":45},{"user_id":209,"name":"Diggity","steam_id":76561198297157085,"connected_time":410000000000,"state":"active","ping":56},{"user_id":205,"name":"steve","steam_id":76561198335143890,"connected_time":595000000000,"state":"active","ping":64},{"user_id":186,"name":"vdl","steam_id":76561198044583116,"connected_time":1644000000000,"state":"active","ping":95}]},{"server_id":308,"name":"Uncletopia | Frankfurt | 3 | All Maps","name_short":"frk-3","host":"frk-1.de.uncletopia.com","port":27035,"enabled":true,"region":"eu","cc":"de","latitude":50.110924,"longitude":8.682127,"reserved":0,"last_update":"0001-01-01T00:00:00Z","name_a2s":"Uncletopia | Frankfurt | 3 | All Maps","protocol":17,"map":"pl_badwater","folder":"tf","game":"Team Fortress","app_id":440,"player_count":22,"max_players":24,"Bots":0,"server_type":"Dedicated","server_os":"Linux","password":true,"vac":true,"version":"7882260","steam_id":85568392924504274,"keywords":["nocrits","nodmgspread","payload","uncletopia"],"game_id":440,"stv_port":27036,"stv_name":"Uncletopia | Frankfurt | 3 | All Maps | STV","players":[{"user_id":133,"name":"10 Years in the joint","steam_id":76561198371280938,"connected_time":50000000000,"state":"active","ping":60},{"user_id":120,"name":"your favourite earthling","steam_id":76561198334042273,"connected_time":1904000000000,"state":"active","ping":66},{"user_id":129,"name":"REN","steam_id":76561198000596385,"connected_time":605000000000,"state":"active","ping":74},{"user_id":107,"name":"dac","steam_id":76561198057745983,"connected_time":2176000000000,"state":"active","ping":67},{"user_id":101,"name":"Slifer the Sky Dragon","steam_id":76561198062255803,"connected_time":2853000000000,"state":"active","ping":57},{"user_id":134,"name":"megamash","steam_id":76561198042672341,"connected_time":6000000000,"state":"spawning","ping":286},{"user_id":104,"name":"Nigelson","steam_id":76561198259261287,"connected_time":2216000000000,"state":"active","ping":75},{"user_id":130,"name":"slim skulla","steam_id":76561198048721726,"connected_time":365000000000,"state":"active","ping":45},{"user_id":77,"name":"The Grave Hunter","steam_id":76561198143586002,"connected_time":4450000000000,"state":"active","ping":66},{"user_id":127,"name":"Joy","steam_id":76561198155314925,"connected_time":728000000000,"state":"active","ping":64},{"user_id":91,"name":"lulu","steam_id":76561199147764133,"connected_time":3943000000000,"state":"active","ping":60},{"user_id":132,"name":"MisterSixtyFour","steam_id":76561198929352959,"connected_time":61000000000,"state":"active","ping":215},{"user_id":123,"name":"lettuce out of stock","steam_id":76561199401283123,"connected_time":1289000000000,"state":"active","ping":59},{"user_id":95,"name":"Dictatorial Karelian","steam_id":76561198196736457,"connected_time":3601000000000,"state":"active","ping":72},{"user_id":112,"name":"WATANG!","steam_id":76561198040478926,"connected_time":2074000000000,"state":"active","ping":73},{"user_id":113,"name":"Poleeyan","steam_id":76561198885522435,"connected_time":2062000000000,"state":"active","ping":65},{"user_id":121,"name":"Soerlssoelss√∂en","steam_id":76561197993060585,"connected_time":1784000000000,"state":"active","ping":73},{"user_id":128,"name":"Fridge","steam_id":76561198071665589,"connected_time":694000000000,"state":"active","ping":104},{"user_id":86,"name":"XPullaHiiri","steam_id":76561198031652375,"connected_time":4252000000000,"state":"active","ping":94},{"user_id":124,"name":"tallen","steam_id":76561198061708595,"connected_time":1028000000000,"state":"active","ping":76},{"user_id":70,"name":"AestheticalZ","steam_id":76561198269554197,"connected_time":5263000000000,"state":"active","ping":71},{"user_id":71,"name":"gagalak","steam_id":76561198089979108,"connected_time":5261000000000,"state":"active","ping":90}]},{"server_id":309,"name":"Uncletopia | Frankfurt | 4 | All Maps","name_short":"frk-4","host":"frk-1.de.uncletopia.com","port":27045,"enabled":true,"region":"eu","cc":"de","latitude":50.110924,"longitude":8.682127,"reserved":0,"last_update":"0001-01-01T00:00:00Z","name_a2s":"Uncletopia | Frankfurt | 4 | All Maps","protocol":17,"map":"koth_lakeside_final","folder":"tf","game":"Team Fortress","app_id":440,"player_count":0,"max_players":24,"Bots":0,"server_type":"Dedicated","server_os":"Linux","password":true,"vac":true,"version":"7882260","steam_id":85568392924504275,"keywords":["cp","nocrits","nodmgspread","uncletopia"],"game_id":440,"stv_port":27046,"stv_name":"Uncletopia | Frankfurt | 4 | All Maps | STV","players":null},{"server_id":310,"name":"Uncletopia | Frankfurt | 5 | All Maps","name_short":"frk-5","host":"frk-1.de.uncletopia.com","port":27055,"enabled":true,"region":"eu","cc":"de","latitude":50.110924,"longitude":8.682127,"reserved":0,"last_update":"0001-01-01T00:00:00Z","name_a2s":"Uncletopia | Frankfurt | 5 | All Maps","protocol":17,"map":"pl_barnblitz","folder":"tf","game":"Team Fortress","app_id":440,"player_count":0,"max_players":24,"Bots":0,"server_type":"Dedicated","server_os":"Linux","password":true,"vac":true,"version":"7882260","steam_id":85568392924504277,"keywords":["nocrits","nodmgspread","payload","uncletopia"],"game_id":440,"stv_port":27056,"stv_name":"Uncletopia | Frankfurt | 5 | All Maps | STV","players":null},{"server_id":311,"name":"Uncletopia | Frankfurt | 6 | All Maps","name_short":"frk-6","host":"frk-1.de.uncletopia.com","port":27065,"enabled":true,"region":"eu","cc":"de","latitude":50.110924,"longitude":8.682127,"reserved":0,"last_update":"0001-01-01T00:00:00Z","name_a2s":"Uncletopia | Frankfurt | 6 | All Maps","protocol":17,"map":"pl_borneo","folder":"tf","game":"Team Fortress","app_id":440,"player_count":0,"max_players":24,"Bots":0,"server_type":"Dedicated","server_os":"Linux","password":true,"vac":true,"version":"7882260","steam_id":85568392924504278,"keywords":["nocrits","nodmgspread","payload","uncletopia"],"game_id":440,"stv_port":27066,"stv_name":"Uncletopia | Frankfurt | 6 | All Maps | STV","players":null},{"server_id":23,"name":"Uncletopia | Frankfurt | 7 | Stopwatch Beta","name_short":"frk-7","host":"frk-1.de.uncletopia.com","port":27075,"enabled":true,"region":"eu","cc":"de","latitude":50.110924,"longitude":8.682127,"reserved":0,"last_update":"0001-01-01T00:00:00Z","name_a2s":"Uncletopia | Frankfurt | 7 | Stopwatch Beta","protocol":17,"map":"workshop/pl_summercoast_rc8e.ugc1761528829","folder":"tf","game":"Team Fortress","app_id":440,"player_count":0,"max_players":24,"Bots":0,"server_type":"Dedicated","server_os":"Linux","password":true,"vac":true,"version":"7882260","steam_id":85568392924742827,"keywords":["nocrits","nodmgspread","payload","uncletopia"],"game_id":440,"stv_port":27076,"stv_name":"Uncletopia | Frankfurt | 7 | Stopwatch Beta | STV","players":null},{"server_id":24,"name":"Uncletopia | Frankfurt | 8 | Community","name_short":"frk-8","host":"frk-1.de.uncletopia.com","port":27085,"enabled":true,"region":"eu","cc":"de","latitude":50.110924,"longitude":8.682127,"reserved":0,"last_update":"0001-01-01T00:00:00Z","name_a2s":"Uncletopia | Frankfurt | 8 | Community","protocol":17,"map":"workshop/cp_glacier_rc6.ugc2905735376","folder":"tf","game":"Team Fortress","app_id":440,"player_count":14,"max_players":24,"Bots":0,"server_type":"Dedicated","server_os":"Linux","password":true,"vac":true,"version":"7882260","steam_id":85568392924742828,"keywords":["cp","nocrits","nodmgspread","uncletopia"],"game_id":440,"stv_port":27086,"stv_name":"Uncletopia | Frankfurt | 8 | Community | STV","players":[{"user_id":105,"name":"YourDoom","steam_id":76561198080790857,"connected_time":268000000000,"state":"active","ping":44},{"user_id":85,"name":"senko","steam_id":76561198002990168,"connected_time":995000000000,"state":"active","ping":59},{"user_id":106,"name":"TheFacade","steam_id":76561199209609279,"connected_time":169000000000,"state":"active","ping":141},{"user_id":107,"name":"Joe","steam_id":76561198061717026,"connected_time":107000000000,"state":"active","ping":60},{"user_id":90,"name":"IVAN","steam_id":76561199013333685,"connected_time":733000000000,"state":"active","ping":86},{"user_id":102,"name":"HarMala","steam_id":76561198055298143,"connected_time":374000000000,"state":"active","ping":86},{"user_id":80,"name":"God's Goofiest Goober","steam_id":76561198103175187,"connected_time":1302000000000,"state":"active","ping":63},{"user_id":108,"name":"Hudri Wudri","steam_id":76561198064115286,"connected_time":18000000000,"state":"spawning","ping":182},{"user_id":101,"name":"Kirbemo","steam_id":76561198970581067,"connected_time":391000000000,"state":"active","ping":61},{"user_id":78,"name":"Penology","steam_id":76561198192805279,"connected_time":1410000000000,"state":"active","ping":98},{"user_id":55,"name":"lightsabers","steam_id":76561198101292843,"connected_time":3110000000000,"state":"active","ping":44},{"user_id":93,"name":"Jolper","steam_id":76561198313821666,"connected_time":688000000000,"state":"active","ping":93},{"user_id":104,"name":"miiq130","steam_id":76561198188010666,"connected_time":317000000000,"state":"active","ping":71},{"user_id":68,"name":"Topme","steam_id":76561198091734693,"connected_time":2201000000000,"state":"active","ping":67}]},{"server_id":202,"name":"Uncletopia | Hong Kong | 1 | All Maps","name_short":"hgk-1","host":"hgk-1.hk.uncletopia.com","port":27015,"enabled":true,"region":"asia","cc":"hk","latitude":22.302711,"longitude":114.177216,"reserved":0,"last_update":"0001-01-01T00:00:00Z","name_a2s":"Uncletopia | Hong Kong | 1 | All Maps","protocol":17,"map":"pl_frontier_final","folder":"tf","game":"Team Fortress","app_id":440,"player_count":11,"max_players":24,"Bots":0,"server_type":"Dedicated","server_os":"Linux","password":true,"vac":true,"version":"7882260","steam_id":85568392924494504,"keywords":["nocrits","nodmgspread","payload","uncletopia"],"game_id":440,"stv_port":27016,"stv_name":"Uncletopia | Hong Kong | 1 | All Maps | STV","players":[{"user_id":479,"name":"Guru","steam_id":76561198301456164,"connected_time":1008000000000,"state":"active","ping":123},{"user_id":485,"name":"ÊØç„ÅÆËÇâÂõ£Â≠ê@hao123.com","steam_id":76561198069561896,"connected_time":249000000000,"state":"active","ping":30},{"user_id":486,"name":"i lost my wife to dogecoin","steam_id":76561198068967983,"connected_time":181000000000,"state":"active","ping":117},{"user_id":487,"name":"In The Balls","steam_id":76561198830756098,"connected_time":27000000000,"state":"active","ping":87},{"user_id":474,"name":"ok","steam_id":76561199041677307,"connected_time":1461000000000,"state":"active","ping":241},{"user_id":417,"name":"WhereAmai","steam_id":76561199122491157,"connected_time":10090000000000,"state":"active","ping":89},{"user_id":415,"name":"scorchshot gaming","steam_id":76561198092969425,"connected_time":10145000000000,"state":"active","ping":112},{"user_id":463,"name":"P","steam_id":76561198304514505,"connected_time":3352000000000,"state":"active","ping":69},{"user_id":446,"name":"killman47","steam_id":76561198348487408,"connected_time":4523000000000,"state":"active","ping":40},{"user_id":429,"name":"domjni","steam_id":76561198287931508,"connected_time":7467000000000,"state":"active","ping":56},{"user_id":443,"name":"17","steam_id":76561198241530712,"connected_time":6055000000000,"state":"active","ping":55}]},{"server_id":1,"name":"Uncletopia | Los Angeles | 1 | All Maps","name_short":"lax-1","host":"lax-1.us.uncletopia.com","port":27015,"enabled":true,"region":"us-west","cc":"us","latitude":33.94279,"longitude":-118.41004,"reserved":0,"last_update":"0001-01-01T00:00:00Z","name_a2s":"Uncletopia | Los Angeles | 1 | All Maps","protocol":17,"map":"koth_brazil","folder":"tf","game":"Team Fortress","app_id":440,"player_count":23,"max_players":24,"Bots":0,"server_type":"Dedicated","server_os":"Linux","password":true,"vac":true,"version":"7882260","steam_id":85568392924469991,"keywords":["cp","nocrits","nodmgspread","uncletopia"],"game_id":440,"stv_port":27016,"stv_name":"Uncletopia | Los Angeles | 1 | All Maps | STV","players":[{"user_id":26,"name":"Cam","steam_id":76561198285054047,"connected_time":1009000000000,"state":"active","ping":80},{"user_id":43,"name":"Void","steam_id":76561198308290211,"connected_time":425000000000,"state":"active","ping":59},{"user_id":16,"name":"Sniper","steam_id":76561199482262282,"connected_time":1528000000000,"state":"active","ping":125},{"user_id":6,"name":"ApplesMate","steam_id":76561198832763278,"connected_time":3116000000000,"state":"active","ping":45},{"user_id":7,"name":"momus","steam_id":76561198966979196,"connected_time":3090000000000,"state":"active","ping":46},{"user_id":17,"name":"silver","steam_id":76561199020503397,"connected_time":1476000000000,"state":"active","ping":31},{"user_id":44,"name":"Bombat","steam_id":76561198083096946,"connected_time":382000000000,"state":"active","ping":71},{"user_id":10,"name":"CSharp","steam_id":76561199185191710,"connected_time":2656000000000,"state":"active","ping":110},{"user_id":45,"name":"AestheticDoom","steam_id":76561198159882084,"connected_time":341000000000,"state":"active","ping":70},{"user_id":42,"name":"Throws Before BrosÛ†Ä°","steam_id":76561197992905530,"connected_time":485000000000,"state":"active","ping":70},{"user_id":32,"name":"BANGARANG","steam_id":76561198816597453,"connected_time":760000000000,"state":"active","ping":104},{"user_id":31,"name":"‚ú™ Y V E S","steam_id":76561198299479796,"connected_time":779000000000,"state":"active","ping":46},{"user_id":22,"name":"Compress Dong","steam_id":76561198018950826,"connected_time":1300000000000,"state":"active","ping":52},{"user_id":23,"name":"balls_970","steam_id":76561198967711558,"connected_time":1296000000000,"state":"active","ping":92},{"user_id":46,"name":"gaming with sam (awesomegamer)","steam_id":76561198370578975,"connected_time":328000000000,"state":"active","ping":119},{"user_id":47,"name":"Jones","steam_id":76561198046037216,"connected_time":327000000000,"state":"active","ping":110},{"user_id":28,"name":"Centipede on a Game Boy","steam_id":76561199016285746,"connected_time":903000000000,"state":"active","ping":104},{"user_id":29,"name":"james may","steam_id":76561198043857339,"connected_time":888000000000,"state":"active","ping":57},{"user_id":33,"name":"Good Dog Carl","steam_id":76561198026574153,"connected_time":745000000000,"state":"active","ping":86},{"user_id":48,"name":"slimjim557","steam_id":76561199094710853,"connected_time":306000000000,"state":"active","ping":112},{"user_id":40,"name":"OminousNoises","steam_id":76561198263320321,"connected_time":563000000000,"state":"active","ping":113},{"user_id":50,"name":"Drive-By-Fish-Guy","steam_id":76561198105513652,"connected_time":147000000000,"state":"active","ping":61},{"user_id":37,"name":"Nekro Kitty","steam_id":76561198025054596,"connected_time":697000000000,"state":"active","ping":94}]},{"server_id":112,"name":"Uncletopia | Los Angeles | 2 | All Maps","name_short":"lax-2","host":"lax-1.us.uncletopia.com","port":27025,"enabled":true,"region":"us-west","cc":"us","latitude":33.94279,"longitude":-118.41004,"reserved":0,"last_update":"0001-01-01T00:00:00Z","name_a2s":"Uncletopia | Los Angeles | 2 | All Maps","protocol":17,"map":"koth_lakeside_final","folder":"tf","game":"Team Fortress","app_id":440,"player_count":0,"max_players":24,"Bots":0,"server_type":"Dedicated","server_os":"Linux","password":true,"vac":true,"version":"7882260","steam_id":85568392924469992,"keywords":["cp","nocrits","nodmgspread","uncletopia"],"game_id":440,"stv_port":27026,"stv_name":"Uncletopia | Los Angeles | 2 | All Maps | STV","players":null},{"server_id":324,"name":"Uncletopia | Los Angeles | 3 | All Maps","name_short":"lax-3","host":"lax-1.us.uncletopia.com","port":27035,"enabled":true,"region":"us-west","cc":"us","latitude":33.94279,"longitude":-118.41004,"reserved":0,"last_update":"0001-01-01T00:00:00Z","name_a2s":"Uncletopia | Los Angeles | 3 | All Maps","protocol":17,"map":"koth_lakeside_final","folder":"tf","game":"Team Fortress","app_id":440,"player_count":0,"max_players":24,"Bots":0,"server_type":"Dedicated","server_os":"Linux","password":true,"vac":true,"version":"7882260","steam_id":85568392924510198,"keywords":["cp","nocrits","nodmgspread","uncletopia"],"game_id":440,"stv_port":27036,"stv_name":"Uncletopia | Los Angeles | 3 | All Maps | STV","players":null},{"server_id":25,"name":"Uncletopia | Los Angeles | 4 | Stopwatch Beta","name_short":"lax-4","host":"lax-1.us.uncletopia.com","port":27045,"enabled":true,"region":"us-west","cc":"us","latitude":33.94279,"longitude":-118.41004,"reserved":0,"last_update":"0001-01-01T00:00:00Z","name_a2s":"Uncletopia | Los Angeles | 4 | Stopwatch Beta","protocol":17,"map":"workshop/pl_barnblitz_pro7.ugc582280235","folder":"tf","game":"Team Fortress","app_id":440,"player_count":0,"max_players":24,"Bots":0,"server_type":"Dedicated","server_os":"Linux","password":true,"vac":true,"version":"7882260","steam_id":85568392924510199,"keywords":["nocrits","nodmgspread","payload","uncletopia"],"game_id":440,"stv_port":27046,"stv_name":"Uncletopia | Los Angeles | 4 | Stopwatch Beta | STV","players":null},{"server_id":11,"name":"Uncletopia | London | 1 | All Maps","name_short":"lon-1","host":"lon-1.uk.uncletopia.com","port":27015,"enabled":true,"region":"eu","cc":"gb","latitude":51.509865,"longitude":-0.118092,"reserved":0,"last_update":"0001-01-01T00:00:00Z","name_a2s":"Uncletopia | London | 1 | All Maps","protocol":17,"map":"pl_frontier_final","folder":"tf","game":"Team Fortress","app_id":440,"player_count":24,"max_players":24,"Bots":0,"server_type":"Dedicated","server_os":"Linux","password":true,"vac":true,"version":"7882260","steam_id":85568392924367362,"keywords":["nocrits","nodmgspread","payload","uncletopia"],"game_id":440,"stv_port":27016,"stv_name":"Uncletopia | London | 1 | All Maps | STV","players":[{"user_id":249,"name":"Unvid","steam_id":76561198031588080,"connected_time":762000000000,"state":"active","ping":70},{"user_id":242,"name":"Gio'sMonkey","steam_id":76561198892432223,"connected_time":1237000000000,"state":"active","ping":75},{"user_id":198,"name":"dec","steam_id":76561198009660168,"connected_time":3990000000000,"state":"active","ping":50},{"user_id":235,"name":"Nifi","steam_id":76561198102682566,"connected_time":1895000000000,"state":"active","ping":74},{"user_id":236,"name":"biden blast","steam_id":76561198059699043,"connected_time":1714000000000,"state":"active","ping":81},{"user_id":237,"name":"t√Øger","steam_id":76561198260483157,"connected_time":1658000000000,"state":"active","ping":82},{"user_id":201,"name":"Fwebbie","steam_id":76561199006875621,"connected_time":3832000000000,"state":"active","ping":49},{"user_id":243,"name":"Providence","steam_id":76561198003920270,"connected_time":1189000000000,"state":"active","ping":70},{"user_id":252,"name":"hoos","steam_id":76561198045985910,"connected_time":305000000000,"state":"active","ping":130},{"user_id":188,"name":"Kurage","steam_id":76561198021221288,"connected_time":5016000000000,"state":"active","ping":74},{"user_id":227,"name":"The Mysterious Shadow Man","steam_id":76561198349648942,"connected_time":2158000000000,"state":"active","ping":75},{"user_id":209,"name":"SuperBob103","steam_id":76561199175360012,"connected_time":3067000000000,"state":"active","ping":59},{"user_id":230,"name":"Topia","steam_id":76561198163571788,"connected_time":2063000000000,"state":"active","ping":97},{"user_id":244,"name":"mercurial","steam_id":76561198046227550,"connected_time":1147000000000,"state":"active","ping":44},{"user_id":203,"name":"‚ú™ qua ‚ú™","steam_id":76561198066408333,"connected_time":3695000000000,"state":"active","ping":89},{"user_id":225,"name":"luu","steam_id":76561197994492154,"connected_time":2272000000000,"state":"active","ping":78},{"user_id":251,"name":"Jinx my beloved","steam_id":76561198819986745,"connected_time":342000000000,"state":"active","ping":98},{"user_id":231,"name":"Egor Pomidor","steam_id":76561199175688390,"connected_time":2059000000000,"state":"active","ping":90},{"user_id":207,"name":"Croy","steam_id":76561197972552579,"connected_time":3308000000000,"state":"active","ping":45},{"user_id":250,"name":"Minimi","steam_id":76561198873850443,"connected_time":365000000000,"state":"active","ping":50},{"user_id":245,"name":"Priceybay","steam_id":76561198055389492,"connected_time":1147000000000,"state":"active","ping":43},{"user_id":248,"name":"TheBeardedM1G","steam_id":76561198040208946,"connected_time":829000000000,"state":"active","ping":45},{"user_id":253,"name":"Jirro","steam_id":76561198193581143,"connected_time":294000000000,"state":"active","ping":86},{"user_id":220,"name":"Prome","steam_id":76561199050383942,"connected_time":2453000000000,"state":"active","ping":60}]},{"server_id":114,"name":"Uncletopia | London | 2 | All Maps","name_short":"lon-2","host":"lon-1.uk.uncletopia.com","port":27025,"enabled":true,"region":"eu","cc":"gb","latitude":51.509865,"longitude":-0.118092,"reserved":0,"last_update":"0001-01-01T00:00:00Z","name_a2s":"Uncletopia | London | 2 | All Maps","protocol":17,"map":"pl_borneo","folder":"tf","game":"Team Fortress","app_id":440,"player_count":24,"max_players":24,"Bots":0,"server_type":"Dedicated","server_os":"Linux","password":true,"vac":true,"version":"7882260","steam_id":85568392924470941,"keywords":["nocrits","nodmgspread","payload","uncletopia"],"game_id":440,"stv_port":27026,"stv_name":"Uncletopia | London | 2 | All Maps | STV","players":[{"user_id":573,"name":"ZingyBot_","steam_id":76561198284732624,"connected_time":3167000000000,"state":"active","ping":61},{"user_id":601,"name":"Frylock","steam_id":76561198050292560,"connected_time":1238000000000,"state":"active","ping":42},{"user_id":608,"name":"minitel","steam_id":76561198056336216,"connected_time":972000000000,"state":"active","ping":54},{"user_id":581,"name":"fshfkr","steam_id":76561198095979282,"connected_time":2524000000000,"state":"active","ping":44},{"user_id":616,"name":"stonebum","steam_id":76561198057004606,"connected_time":751000000000,"state":"active","ping":61},{"user_id":603,"name":"'Starburst' Foxky","steam_id":76561198056919905,"connected_time":1180000000000,"state":"active","ping":136},{"user_id":592,"name":"Grillem Dafoe","steam_id":76561198306874574,"connected_time":1646000000000,"state":"active","ping":64},{"user_id":617,"name":"TryX","steam_id":76561199356781475,"connected_time":748000000000,"state":"active","ping":84},{"user_id":623,"name":"flub_","steam_id":76561198337519315,"connected_time":333000000000,"state":"active","ping":44},{"user_id":612,"name":"EDJRMorpheus95","steam_id":76561198830669778,"connected_time":851000000000,"state":"active","ping":142},{"user_id":620,"name":"Hooli","steam_id":76561198083632269,"connected_time":479000000000,"state":"active","ping":91},{"user_id":622,"name":"wicked","steam_id":76561198164376035,"connected_time":342000000000,"state":"active","ping":77},{"user_id":540,"name":"Penis Contortionist","steam_id":76561198073663784,"connected_time":4461000000000,"state":"active","ping":36},{"user_id":527,"name":"Cyberpsycho","steam_id":76561198013528365,"connected_time":5163000000000,"state":"active","ping":60},{"user_id":618,"name":"comet vomet3","steam_id":76561198377327685,"connected_time":743000000000,"state":"active","ping":171},{"user_id":619,"name":"Tayuya","steam_id":76561199122771351,"connected_time":740000000000,"state":"active","ping":45},{"user_id":543,"name":"Bodeine Brazy","steam_id":76561198122181176,"connected_time":4369000000000,"state":"active","ping":48},{"user_id":621,"name":"Milk","steam_id":76561198125876588,"connected_time":471000000000,"state":"active","ping":41},{"user_id":560,"name":"Dr. Funkenstein","steam_id":76561197977816210,"connected_time":3519000000000,"state":"active","ping":48},{"user_id":606,"name":"shrek 0","steam_id":76561197997837306,"connected_time":1046000000000,"state":"active","ping":111},{"user_id":614,"name":"[O\u0026O]YaboiDucki","steam_id":76561198195976589,"connected_time":840000000000,"state":"active","ping":74},{"user_id":546,"name":"taulak√§√§p√§","steam_id":76561198093458326,"connected_time":4228000000000,"state":"active","ping":70},{"user_id":551,"name":"YeetusFeetus","steam_id":76561199043598948,"connected_time":3950000000000,"state":"active","ping":109},{"user_id":615,"name":"average enjoyer.","steam_id":76561199234018836,"connected_time":821000000000,"state":"active","ping":97}]},{"server_id":320,"name":"Uncletopia | London | 3 | All Maps","name_short":"lon-3","host":"lon-1.uk.uncletopia.com","port":27035,"enabled":true,"region":"eu","cc":"gb","latitude":51.509865,"longitude":-0.118092,"reserved":0,"last_update":"0001-01-01T00:00:00Z","name_a2s":"Uncletopia | London | 3 | All Maps","protocol":17,"map":"pl_upward","folder":"tf","game":"Team Fortress","app_id":440,"player_count":24,"max_players":24,"Bots":0,"server_type":"Dedicated","server_os":"Linux","password":true,"vac":true,"version":"7882260","steam_id":85568392924510192,"keywords":["nocrits","nodmgspread","payload","uncletopia"],"game_id":440,"stv_port":27036,"stv_name":"Uncletopia | London | 3 | All Maps | STV","players":[{"user_id":317,"name":"Ark-e","steam_id":76561198261870909,"connected_time":2547000000000,"state":"active","ping":38},{"user_id":345,"name":"Wardruna96","steam_id":76561199057083828,"connected_time":247000000000,"state":"active","ping":85},{"user_id":349,"name":"Superiumentarius","steam_id":76561198081642249,"connected_time":47000000000,"state":"active","ping":58},{"user_id":307,"name":"united chunk","steam_id":76561199017850298,"connected_time":2902000000000,"state":"active","ping":75},{"user_id":295,"name":"dash.","steam_id":76561198084796149,"connected_time":3920000000000,"state":"active","ping":43},{"user_id":339,"name":"Dr.Sees [F2P]","steam_id":76561199219233587,"connected_time":1295000000000,"state":"active","ping":85},{"user_id":348,"name":"Jughead","steam_id":76561198000355410,"connected_time":70000000000,"state":"active","ping":44},{"user_id":347,"name":"–±–∞–≥—Å_–±–∞–Ω–Ω–∏256","steam_id":76561198129314304,"connected_time":89000000000,"state":"active","ping":142},{"user_id":341,"name":"Combat Wombat","steam_id":76561197994720068,"connected_time":1268000000000,"state":"active","ping":64},{"user_id":329,"name":"Jonathan","steam_id":76561198087988880,"connected_time":1803000000000,"state":"active","ping":54},{"user_id":328,"name":"T - Bone","steam_id":76561198107005109,"connected_time":2131000000000,"state":"active","ping":97},{"user_id":239,"name":"Ross from F.R.I.E.N.D.S.","steam_id":76561198008511665,"connected_time":7600000000000,"state":"active","ping":57},{"user_id":346,"name":"The Shotgun","steam_id":76561198044008976,"connected_time":102000000000,"state":"active","ping":64},{"user_id":338,"name":"schmick h_stt 0","steam_id":76561198039537958,"connected_time":1335000000000,"state":"active","ping":51},{"user_id":342,"name":"Mrbluuub","steam_id":76561199273847084,"connected_time":1046000000000,"state":"active","ping":89},{"user_id":296,"name":"sareena","steam_id":76561198810194062,"connected_time":3800000000000,"state":"active","ping":74},{"user_id":324,"name":"based tryhard","steam_id":76561198084470380,"connected_time":2287000000000,"state":"active","ping":61},{"user_id":291,"name":"Sensei","steam_id":76561198383582429,"connected_time":4341000000000,"state":"active","ping":99},{"user_id":325,"name":"putrid weasel","steam_id":76561198012955043,"connected_time":2286000000000,"state":"active","ping":59},{"user_id":336,"name":"ÍßÅ‡πñ‰π°√êe¬∑SexyLion‰π°ÍßÇ","steam_id":76561198123539320,"connected_time":1534000000000,"state":"active","ping":99},{"user_id":340,"name":"cof","steam_id":76561199128417805,"connected_time":1284000000000,"state":"active","ping":60},{"user_id":283,"name":"nop","steam_id":76561198064180797,"connected_time":5604000000000,"state":"active","ping":72},{"user_id":343,"name":"unsafequeen","steam_id":76561199088126900,"connected_time":789000000000,"state":"active","ping":163},{"user_id":301,"name":"Cabbch","steam_id":76561198045955679,"connected_time":3576000000000,"state":"active","ping":59}]},{"server_id":321,"name":"Uncletopia | London | 4 | All Maps","name_short":"lon-4","host":"lon-1.uk.uncletopia.com","port":27045,"enabled":true,"region":"eu","cc":"gb","latitude":51.509865,"longitude":-0.118092,"reserved":0,"last_update":"0001-01-01T00:00:00Z","name_a2s":"Uncletopia | London | 4 | All Maps","protocol":17,"map":"cp_dustbowl","folder":"tf","game":"Team Fortress","app_id":440,"player_count":24,"max_players":24,"Bots":0,"server_type":"Dedicated","server_os":"Linux","password":true,"vac":true,"version":"7882260","steam_id":85568392924510193,"keywords":["cp","nocrits","nodmgspread","uncletopia"],"game_id":440,"stv_port":27046,"stv_name":"Uncletopia | London | 4 | All Maps | STV","players":[{"user_id":149,"name":"JGV","steam_id":76561198094654971,"connected_time":805000000000,"state":"active","ping":78},{"user_id":74,"name":"YuraGreek","steam_id":76561198050182252,"connected_time":4640000000000,"state":"active","ping":86},{"user_id":144,"name":"1ggy","steam_id":76561199051285912,"connected_time":1208000000000,"state":"active","ping":86},{"user_id":147,"name":"chocolate flavoured femboy","steam_id":76561198819353867,"connected_time":1028000000000,"state":"active","ping":37},{"user_id":11,"name":"SlowMode","steam_id":76561198039631442,"connected_time":8083000000000,"state":"active","ping":76},{"user_id":152,"name":"maurice.paine1","steam_id":76561198342260915,"connected_time":461000000000,"state":"active","ping":73},{"user_id":160,"name":"Big Slime","steam_id":76561198801805642,"connected_time":228000000000,"state":"active","ping":156},{"user_id":135,"name":"gamehost157","steam_id":76561199291272836,"connected_time":1434000000000,"state":"active","ping":64},{"user_id":131,"name":"Enigmus","steam_id":76561197994063627,"connected_time":1460000000000,"state":"active","ping":77},{"user_id":43,"name":"LivEssense","steam_id":76561198052476979,"connected_time":7425000000000,"state":"active","ping":89},{"user_id":130,"name":"romaingallo","steam_id":76561198268112907,"connected_time":1475000000000,"state":"active","ping":60},{"user_id":153,"name":"wolffy","steam_id":76561198083145076,"connected_time":414000000000,"state":"active","ping":61},{"user_id":157,"name":"Marky","steam_id":76561199474556920,"connected_time":259000000000,"state":"active","ping":123},{"user_id":150,"name":"TTK","steam_id":76561198444561078,"connected_time":592000000000,"state":"active","ping":92},{"user_id":105,"name":"blurst of times","steam_id":76561197972325640,"connected_time":2622000000000,"state":"active","ping":48},{"user_id":137,"name":"Saucy_Jack","steam_id":76561198088559588,"connected_time":1429000000000,"state":"active","ping":39},{"user_id":50,"name":"poliakov.noam","steam_id":76561199259322961,"connected_time":7048000000000,"state":"active","ping":102},{"user_id":127,"name":"Richard_MF_Nixon","steam_id":76561198011398728,"connected_time":1576000000000,"state":"active","ping":162},{"user_id":138,"name":"likuor","steam_id":76561198802944473,"connected_time":1422000000000,"state":"active","ping":81},{"user_id":158,"name":"WolfmanCZ","steam_id":76561199157141414,"connected_time":256000000000,"state":"active","ping":82},{"user_id":145,"name":"Wire  Bash","steam_id":76561198033268371,"connected_time":1119000000000,"state":"active","ping":59},{"user_id":81,"name":"Qwertuss","steam_id":76561198026305366,"connected_time":3772000000000,"state":"active","ping":63},{"user_id":143,"name":"avatar51751","steam_id":76561198129795032,"connected_time":1311000000000,"state":"active","ping":80},{"user_id":155,"name":"strideŒî","steam_id":76561199007826093,"connected_time":400000000000,"state":"active","ping":64}]},{"server_id":21,"name":"Uncletopia | London | 5 | All Maps","name_short":"lon-5","host":"lon-1.uk.uncletopia.com","port":27055,"enabled":true,"region":"eu","cc":"gb","latitude":51.509865,"longitude":-0.118092,"reserved":0,"last_update":"0001-01-01T00:00:00Z","name_a2s":"Uncletopia | London | 5 | All Maps","protocol":17,"map":"pl_badwater","folder":"tf","game":"Team Fortress","app_id":440,"player_count":24,"max_players":24,"Bots":0,"server_type":"Dedicated","server_os":"Linux","password":true,"vac":true,"version":"7882260","steam_id":85568392924742829,"keywords":["nocrits","nodmgspread","payload","uncletopia"],"game_id":440,"stv_port":27056,"stv_name":"Uncletopia | London | 5 | All Maps | STV","players":[{"user_id":462,"name":"unforeseen consequences","steam_id":76561198377702281,"connected_time":266000000000,"state":"active","ping":56},{"user_id":451,"name":"kin","steam_id":76561198002155937,"connected_time":651000000000,"state":"active","ping":45},{"user_id":453,"name":"Moto_Moto2402","steam_id":76561199122173952,"connected_time":587000000000,"state":"active","ping":64},{"user_id":448,"name":"Brinier","steam_id":76561199012604288,"connected_time":674000000000,"state":"active","ping":70},{"user_id":449,"name":"Weed Garfield","steam_id":76561199077027954,"connected_time":671000000000,"state":"active","ping":152},{"user_id":434,"name":"yeyegoncas","steam_id":76561198061217656,"connected_time":1784000000000,"state":"active","ping":70},{"user_id":431,"name":"pfear","steam_id":76561197999207328,"connected_time":2163000000000,"state":"active","ping":83},{"user_id":452,"name":"Polarity","steam_id":76561198220120544,"connected_time":645000000000,"state":"active","ping":77},{"user_id":463,"name":"Rabamonki","steam_id":76561199009987174,"connected_time":173000000000,"state":"active","ping":182},{"user_id":455,"name":"Pyrolander","steam_id":76561198050785450,"connected_time":536000000000,"state":"active","ping":50},{"user_id":450,"name":"Sch","steam_id":76561198071341689,"connected_time":662000000000,"state":"active","ping":72},{"user_id":460,"name":"xiiski","steam_id":76561198152387747,"connected_time":352000000000,"state":"active","ping":100},{"user_id":438,"name":"Rodia","steam_id":76561197968293161,"connected_time":1528000000000,"state":"active","ping":75},{"user_id":439,"name":"ùî±ùî¥ùî≤ùîßùî∞ùî±ùîû\ufffd\ufffd\ufffd","steam_id":76561198155944450,"connected_time":1509000000000,"state":"active","ping":119},{"user_id":464,"name":"üå≠ HugeE","steam_id":76561198245495152,"connected_time":163000000000,"state":"active","ping":62},{"user_id":369,"name":"big poo","steam_id":76561199088284199,"connected_time":5716000000000,"state":"active","ping":66},{"user_id":435,"name":"piss‚Ñ¢","steam_id":76561198108098760,"connected_time":1717000000000,"state":"active","ping":45},{"user_id":417,"name":"Rizz","steam_id":76561198192135953,"connected_time":2822000000000,"state":"active","ping":81},{"user_id":461,"name":"ducks","steam_id":76561198166148685,"connected_time":324000000000,"state":"active","ping":44},{"user_id":419,"name":"Locke","steam_id":76561198339408300,"connected_time":2762000000000,"state":"active","ping":61},{"user_id":440,"name":"axl#pizdaaim","steam_id":76561198991661832,"connected_time":1497000000000,"state":"active","ping":115},{"user_id":396,"name":"jill valentine","steam_id":76561198075068529,"connected_time":4365000000000,"state":"active","ping":70},{"user_id":459,"name":"Woa","steam_id":76561198345683201,"connected_time":423000000000,"state":"active","ping":47},{"user_id":399,"name":"peso enjoyer","steam_id":76561198798177799,"connected_time":4159000000000,"state":"active","ping":77}]},{"server_id":22,"name":"Uncletopia | London | 6 | All Maps","name_short":"lon-6","host":"lon-1.uk.uncletopia.com","port":27065,"enabled":true,"region":"eu","cc":"gb","latitude":51.509865,"longitude":-0.118092,"reserved":0,"last_update":"0001-01-01T00:00:00Z","name_a2s":"Uncletopia | London | 6 | All Maps","protocol":17,"map":"pl_pier","folder":"tf","game":"Team Fortress","app_id":440,"player_count":24,"max_players":24,"Bots":0,"server_type":"Dedicated","server_os":"Linux","password":true,"vac":true,"version":"7882260","steam_id":85568392924742830,"keywords":["nocrits","nodmgspread","payload","uncletopia"],"game_id":440,"stv_port":27066,"stv_name":"Uncletopia | London | 6 | All Maps | STV","players":[{"user_id":460,"name":"RedBandit","steam_id":76561199366178362,"connected_time":1017000000000,"state":"active","ping":85},{"user_id":396,"name":"Gorogaz","steam_id":76561198207157679,"connected_time":5284000000000,"state":"active","ping":69},{"user_id":461,"name":"TJ1212","steam_id":76561199013575313,"connected_time":957000000000,"state":"active","ping":67},{"user_id":414,"name":"Noob_with_source","steam_id":76561198870362103,"connected_time":3136000000000,"state":"active","ping":60},{"user_id":416,"name":"Flying skyhigh","steam_id":76561198372971096,"connected_time":3048000000000,"state":"active","ping":75},{"user_id":449,"name":"El_Kommadante","steam_id":76561198079551685,"connected_time":1792000000000,"state":"active","ping":65},{"user_id":454,"name":"Lessoz","steam_id":76561199211572036,"connected_time":1290000000000,"state":"active","ping":90},{"user_id":455,"name":"Derotzka","steam_id":76561198009322611,"connected_time":1270000000000,"state":"active","ping":45},{"user_id":440,"name":"Harex3360 #Savetf2","steam_id":76561199122302529,"connected_time":2221000000000,"state":"active","ping":45},{"user_id":463,"name":"Rook","steam_id":76561197995204779,"connected_time":573000000000,"state":"active","ping":45},{"user_id":464,"name":"dust","steam_id":76561199475179568,"connected_time":387000000000,"state":"active","ping":112},{"user_id":411,"name":"Mr. Luigi","steam_id":76561198167312951,"connected_time":3819000000000,"state":"active","ping":39},{"user_id":447,"name":"Sham!","steam_id":76561198050434275,"connected_time":2037000000000,"state":"active","ping":54},{"user_id":465,"name":"Abaddon","steam_id":76561199205559813,"connected_time":379000000000,"state":"active","ping":61},{"user_id":467,"name":"Shovelhalfrusty","steam_id":76561198346447513,"connected_time":215000000000,"state":"active","ping":68},{"user_id":457,"name":"Staffy","steam_id":76561198859722036,"connected_time":1241000000000,"state":"active","ping":111},{"user_id":393,"name":"jones","steam_id":76561198044434971,"connected_time":5371000000000,"state":"active","ping":68},{"user_id":443,"name":"Marukuso","steam_id":76561198154229845,"connected_time":2148000000000,"state":"active","ping":68},{"user_id":458,"name":"senior pomidor","steam_id":76561198123659806,"connected_time":1220000000000,"state":"active","ping":99},{"user_id":466,"name":"Mommy O.","steam_id":76561198122933193,"connected_time":375000000000,"state":"active","ping":99},{"user_id":446,"name":"Punchy","steam_id":76561197961020896,"connected_time":2080000000000,"state":"active","ping":52},{"user_id":426,"name":"medicinal man","steam_id":76561198202668788,"connected_time":2697000000000,"state":"active","ping":69},{"user_id":427,"name":"Fofenho","steam_id":76561198436817109,"connected_time":2690000000000,"state":"active","ping":51},{"user_id":459,"name":"Choirboy (He/Hymn)","steam_id":76561198183949987,"connected_time":1217000000000,"state":"active","ping":57}]},{"server_id":40,"name":"Uncletopia | London | 7 | No Payload","name_short":"lon-7","host":"lon-1.uk.uncletopia.com","port":27075,"enabled":true,"region":"eu","cc":"gb","latitude":51.509865,"longitude":-0.118092,"reserved":0,"last_update":"0001-01-01T00:00:00Z","name_a2s":"Uncletopia | London | 7 | No Payload","protocol":17,"map":"plr_hightower","folder":"tf","game":"Team Fortress","app_id":440,"player_count":10,"max_players":24,"Bots":0,"server_type":"Dedicated","server_os":"Linux","password":true,"vac":true,"version":"7882260","steam_id":85568392924964314,"keywords":["nocrits","nodmgspread","payload","uncletopia"],"game_id":440,"stv_port":27076,"stv_name":"Uncletopia | London | 7 | No Payload | STV","players":[{"user_id":277,"name":"The Bread Bringer","steam_id":76561198264079743,"connected_time":584000000000,"state":"active","ping":46},{"user_id":281,"name":"FATTY","steam_id":76561198087962709,"connected_time":348000000000,"state":"active","ping":73},{"user_id":282,"name":"PANAANI","steam_id":76561198322322739,"connected_time":267000000000,"state":"active","ping":91},{"user_id":271,"name":"nvmHastee","steam_id":76561199371458295,"connected_time":1143000000000,"state":"active","ping":78},{"user_id":273,"name":"Nah","steam_id":76561199061891148,"connected_time":886000000000,"state":"active","ping":73},{"user_id":274,"name":"serioussam1968","steam_id":76561198293922542,"connected_time":820000000000,"state":"active","ping":73},{"user_id":276,"name":"Nobaddy","steam_id":76561198037871007,"connected_time":684000000000,"state":"active","ping":79},{"user_id":278,"name":"Le Chevalier Pingouin","steam_id":76561198221355000,"connected_time":528000000000,"state":"active","ping":35},{"user_id":283,"name":"Bartis","steam_id":76561198119512221,"connected_time":84000000000,"state":"active","ping":120},{"user_id":284,"name":"barack obama tf2","steam_id":76561199375975842,"connected_time":42000000000,"state":"active","ping":48}]},{"server_id":41,"name":"Uncletopia | London | 8 | Community","name_short":"lon-8","host":"lon-1.uk.uncletopia.com","port":27085,"enabled":true,"region":"eu","cc":"gb","latitude":51.509865,"longitude":-0.118092,"reserved":0,"last_update":"0001-01-01T00:00:00Z","name_a2s":"Uncletopia | London | 8 | Community","protocol":17,"map":"workshop/cp_propaganda_b18.ugc1603743849","folder":"tf","game":"Team Fortress","app_id":440,"player_count":0,"max_players":24,"Bots":0,"server_type":"Dedicated","server_os":"Linux","password":true,"vac":true,"version":"7882260","steam_id":85568392924964315,"keywords":["cp","nocrits","nodmgspread","uncletopia"],"game_id":440,"stv_port":27086,"stv_name":"Uncletopia | London | 8 | Community | STV","players":null},{"server_id":300,"name":"Uncletopia | Montr√©al | 1 | All Maps","name_short":"mtl-1","host":"mtl-1.ca.uncletopia.com","port":27015,"enabled":true,"region":"us-east","cc":"ca","latitude":45.50889,"longitude":-73.56167,"reserved":0,"last_update":"0001-01-01T00:00:00Z","name_a2s":"Uncletopia | Montr√©al | 1 | All Maps","protocol":17,"map":"pl_upward","folder":"tf","game":"Team Fortress","app_id":440,"player_count":0,"max_players":24,"Bots":0,"server_type":"Dedicated","server_os":"Linux","password":true,"vac":true,"version":"7882260","steam_id":85568392924500087,"keywords":["nocrits","nodmgspread","payload","uncletopia"],"game_id":440,"stv_port":27016,"stv_name":"Uncletopia | Montr√©al | 1 | All Maps | STV","players":null},{"server_id":301,"name":"Uncletopia | Montr√©al | 2 | All Maps","name_short":"mtl-2","host":"mtl-1.ca.uncletopia.com","port":27025,"enabled":true,"region":"us-east","cc":"ca","latitude":45.50889,"longitude":-73.56167,"reserved":0,"last_update":"0001-01-01T00:00:00Z","name_a2s":"Uncletopia | Montr√©al | 2 | All Maps","protocol":17,"map":"cp_sunshine","folder":"tf","game":"Team Fortress","app_id":440,"player_count":0,"max_players":24,"Bots":0,"server_type":"Dedicated","server_os":"Linux","password":true,"vac":true,"version":"7882260","steam_id":85568392924500088,"keywords":["cp","nocrits","nodmgspread","uncletopia"],"game_id":440,"stv_port":27026,"stv_name":"Uncletopia | Montr√©al | 2 | All Maps | STV","players":null},{"server_id":302,"name":"Uncletopia | Montr√©al | 3 | All Maps","name_short":"mtl-3","host":"mtl-1.ca.uncletopia.com","port":27035,"enabled":true,"region":"us-east","cc":"ca","latitude":45.50889,"longitude":-73.56167,"reserved":0,"last_update":"0001-01-01T00:00:00Z","name_a2s":"Uncletopia | Montr√©al | 3 | All Maps","protocol":17,"map":"cp_sunshine","folder":"tf","game":"Team Fortress","app_id":440,"player_count":0,"max_players":24,"Bots":0,"server_type":"Dedicated","server_os":"Linux","password":true,"vac":true,"version":"7882260","steam_id":85568392924500089,"keywords":["cp","nocrits","nodmgspread","uncletopia"],"game_id":440,"stv_port":27036,"stv_name":"Uncletopia | Montr√©al | 3 | All Maps | STV","players":null},{"server_id":303,"name":"Uncletopia | Montr√©al | 4 | No Payload","name_short":"mtl-4","host":"mtl-1.ca.uncletopia.com","port":27045,"enabled":true,"region":"us-east","cc":"ca","latitude":45.50889,"longitude":-73.56167,"reserved":0,"last_update":"0001-01-01T00:00:00Z","name_a2s":"Uncletopia | Montr√©al | 4 | No Payload","protocol":17,"map":"cp_altitude","folder":"tf","game":"Team Fortress","app_id":440,"player_count":0,"max_players":24,"Bots":0,"server_type":"Dedicated","server_os":"Linux","password":true,"vac":true,"version":"7882260","steam_id":85568392924500090,"keywords":["cp","nocrits","nodmgspread","uncletopia"],"game_id":440,"stv_port":27046,"stv_name":"Uncletopia | Montr√©al | 4 | No Payload | STV","players":null},{"server_id":13,"name":"Uncletopia | New York City | 1 | All Maps","name_short":"nyc-1","host":"nyc-1.us.uncletopia.com","port":27015,"enabled":true,"region":"us-east","cc":"us","latitude":40.73061,"longitude":-73.93524,"reserved":0,"last_update":"0001-01-01T00:00:00Z","name_a2s":"Uncletopia | New York City | 1 | All Maps","protocol":17,"map":"koth_viaduct","folder":"tf","game":"Team Fortress","app_id":440,"player_count":24,"max_players":24,"Bots":0,"server_type":"Dedicated","server_os":"Linux","password":true,"vac":true,"version":"7882260","steam_id":85568392924469993,"keywords":["cp","nocrits","nodmgspread","uncletopia"],"game_id":440,"stv_port":27016,"stv_name":"Uncletopia | New York City | 1 | All Maps | STV","players":[{"user_id":170,"name":"Monsieur l'INGENIEUR","steam_id":76561198090504334,"connected_time":1181000000000,"state":"active","ping":68},{"user_id":151,"name":"hidden flavonoid","steam_id":76561198201259645,"connected_time":2524000000000,"state":"active","ping":56},{"user_id":178,"name":"Scatter (She/Her)","steam_id":76561198405168492,"connected_time":643000000000,"state":"active","ping":83},{"user_id":164,"name":"coffeeghost","steam_id":76561198155142385,"connected_time":1242000000000,"state":"active","ping":71},{"user_id":169,"name":"Lyxfex","steam_id":76561198050166082,"connected_time":1205000000000,"state":"active","ping":67},{"user_id":177,"name":"Nyko","steam_id":76561198143197549,"connected_time":773000000000,"state":"active","ping":58},{"user_id":161,"name":"Lancer Fan Club","steam_id":76561198355495948,"connected_time":1366000000000,"state":"active","ping":74},{"user_id":119,"name":"nalezinik","steam_id":76561198030026119,"connected_time":4539000000000,"state":"active","ping":64},{"user_id":154,"name":"abed","steam_id":76561198072856511,"connected_time":2166000000000,"state":"active","ping":67},{"user_id":182,"name":"Mango","steam_id":76561199209533440,"connected_time":182000000000,"state":"active","ping":61},{"user_id":149,"name":"toastJP","steam_id":76561199028751406,"connected_time":2552000000000,"state":"active","ping":83},{"user_id":156,"name":"Jeffenthropus","steam_id":76561198134204248,"connected_time":2127000000000,"state":"active","ping":46},{"user_id":171,"name":"Reflector","steam_id":76561198078999855,"connected_time":1168000000000,"state":"active","ping":73},{"user_id":135,"name":"drank","steam_id":76561198249206656,"connected_time":4143000000000,"state":"active","ping":70},{"user_id":166,"name":"L«òc–öŒ≥ ⁄©≈¶ri–∫Œæ","steam_id":76561198057723275,"connected_time":1237000000000,"state":"active","ping":120},{"user_id":132,"name":"*‚ÄßÀökitsu  ö‚ô•…û","steam_id":76561198091741658,"connected_time":4198000000000,"state":"active","ping":90},{"user_id":162,"name":"Araaksa","steam_id":76561198931153864,"connected_time":1275000000000,"state":"active","ping":60},{"user_id":155,"name":"African Despot","steam_id":76561198169966346,"connected_time":2146000000000,"state":"active","ping":67},{"user_id":167,"name":"Stupid","steam_id":76561198127348089,"connected_time":1237000000000,"state":"active","ping":57},{"user_id":145,"name":"xiii","steam_id":76561198079416036,"connected_time":3201000000000,"state":"active","ping":84},{"user_id":146,"name":"Washburne","steam_id":76561198032810579,"connected_time":3185000000000,"state":"active","ping":125},{"user_id":168,"name":"FoxKyo","steam_id":76561198038651735,"connected_time":1234000000000,"state":"active","ping":59},{"user_id":173,"name":"Smooth - Santana ft. Rob Thomas","steam_id":76561198145283389,"connected_time":1048000000000,"state":"active","ping":58},{"user_id":180,"name":"Crows!","steam_id":76561198150086324,"connected_time":441000000000,"state":"active","ping":101}]},{"server_id":14,"name":"Uncletopia | New York City | 2 | All Maps","name_short":"nyc-2","host":"nyc-1.us.uncletopia.com","port":27025,"enabled":true,"region":"us-east","cc":"us","latitude":40.73061,"longitude":-73.93524,"reserved":0,"last_update":"0001-01-01T00:00:00Z","name_a2s":"Uncletopia | New York City | 2 | All Maps","protocol":17,"map":"pl_upward","folder":"tf","game":"Team Fortress","app_id":440,"player_count":24,"max_players":24,"Bots":0,"server_type":"Dedicated","server_os":"Linux","password":true,"vac":true,"version":"7882260","steam_id":85568392924469994,"keywords":["nocrits","nodmgspread","payload","uncletopia"],"game_id":440,"stv_port":27026,"stv_name":"Uncletopia | New York City | 2 | All Maps | STV","players":[{"user_id":122,"name":"Whole Wheat Lemon","steam_id":76561199025265182,"connected_time":154000000000,"state":"active","ping":51},{"user_id":7,"name":"Fish","steam_id":76561199258053772,"connected_time":8928000000000,"state":"active","ping":73},{"user_id":63,"name":"meat glasses","steam_id":76561198046742645,"connected_time":5303000000000,"state":"active","ping":48},{"user_id":103,"name":"Finnedorb","steam_id":76561199057066957,"connected_time":1657000000000,"state":"active","ping":137},{"user_id":89,"name":"ThatGamingKiwi","steam_id":76561199170522237,"connected_time":3155000000000,"state":"active","ping":70},{"user_id":119,"name":"Toaster Strudel Enjoyer","steam_id":76561199048699541,"connected_time":424000000000,"state":"active","ping":70},{"user_id":79,"name":"The Fragrance of Dark Coffee","steam_id":76561198013111370,"connected_time":3793000000000,"state":"active","ping":52},{"user_id":121,"name":"ReptilianUniverse","steam_id":76561198172286786,"connected_time":176000000000,"state":"active","ping":69},{"user_id":40,"name":"the pest","steam_id":76561198826298849,"connected_time":6278000000000,"state":"active","ping":87},{"user_id":127,"name":"CORGI.EXE","steam_id":76561198077093432,"connected_time":18000000000,"state":"spawning","ping":82},{"user_id":97,"name":"bobbymcbobington","steam_id":76561199089411172,"connected_time":1987000000000,"state":"active","ping":114},{"user_id":68,"name":"Dipdoof","steam_id":76561198077634776,"connected_time":4976000000000,"state":"active","ping":58},{"user_id":125,"name":"Lil' Croissant","steam_id":76561198059494343,"connected_time":112000000000,"state":"active","ping":120},{"user_id":115,"name":"NerforNothing","steam_id":76561198378503656,"connected_time":884000000000,"state":"active","ping":60},{"user_id":123,"name":"sqerkbo","steam_id":76561198080012700,"connected_time":148000000000,"state":"active","ping":46},{"user_id":107,"name":"Lin","steam_id":76561198143746480,"connected_time":1152000000000,"state":"active","ping":171},{"user_id":124,"name":"steven","steam_id":76561198173047169,"connected_time":136000000000,"state":"active","ping":43},{"user_id":126,"name":"_Inki_","steam_id":76561198355060118,"connected_time":71000000000,"state":"active","ping":363},{"user_id":113,"name":"Mr. Snatched Yo Nutsack","steam_id":76561199075873174,"connected_time":931000000000,"state":"active","ping":107},{"user_id":53,"name":"TheCaberMagnet","steam_id":76561198796383697,"connected_time":5992000000000,"state":"active","ping":61},{"user_id":64,"name":"glue sniffer","steam_id":76561198044689778,"connected_time":5223000000000,"state":"active","ping":45},{"user_id":85,"name":"suns","steam_id":76561198079583278,"connected_time":3309000000000,"state":"active","ping":70},{"user_id":114,"name":"ChebJeb","steam_id":76561198981377081,"connected_time":929000000000,"state":"active","ping":56},{"user_id":111,"name":"Rornir","steam_id":76561198081829615,"connected_time":1062000000000,"state":"active","ping":50}]},{"server_id":15,"name":"Uncletopia | New York City | 3 | Stopwatch Beta","name_short":"nyc-3","host":"nyc-1.us.uncletopia.com","port":27035,"enabled":true,"region":"us-east","cc":"us","latitude":40.73061,"longitude":-73.93524,"reserved":0,"last_update":"0001-01-01T00:00:00Z","name_a2s":"Uncletopia | New York City | 3 | Stopwatch Beta","protocol":17,"map":"koth_lakeside_final","folder":"tf","game":"Team Fortress","app_id":440,"player_count":0,"max_players":24,"Bots":0,"server_type":"Dedicated","server_os":"Linux","password":true,"vac":true,"version":"7882260","steam_id":85568392924742820,"keywords":["cp","nocrits","nodmgspread","uncletopia"],"game_id":440,"stv_port":27036,"stv_name":"Uncletopia | New York City | 3 | Stopwatch Beta | STV","players":null},{"server_id":16,"name":"Uncletopia | New York City | 4 | Community","name_short":"nyc-4","host":"nyc-1.us.uncletopia.com","port":27045,"enabled":true,"region":"us-east","cc":"us","latitude":40.73061,"longitude":-73.93524,"reserved":0,"last_update":"0001-01-01T00:00:00Z","name_a2s":"Uncletopia | New York City | 4 | Community","protocol":17,"map":"workshop/koth_ramjam_rc1.ugc459778887","folder":"tf","game":"Team Fortress","app_id":440,"player_count":0,"max_players":24,"Bots":0,"server_type":"Dedicated","server_os":"Linux","password":true,"vac":true,"version":"7882260","steam_id":85568392924742821,"keywords":["cp","nocrits","nodmgspread","uncletopia"],"game_id":440,"stv_port":27046,"stv_name":"Uncletopia | New York City | 4 | Community | STV","players":null},{"server_id":142,"name":"Uncletopia | S√£o Paulo | 1 | All Maps","name_short":"sao-1","host":"sao-1.br.uncletopia.com","port":27015,"enabled":true,"region":"sa","cc":"br","latitude":-23.533773,"longitude":-46.62529,"reserved":0,"last_update":"0001-01-01T00:00:00Z","name_a2s":"Uncletopia | S√£o Paulo | 1 | All Maps","protocol":17,"map":"koth_lakeside_final","folder":"tf","game":"Team Fortress","app_id":440,"player_count":0,"max_players":24,"Bots":0,"server_type":"Dedicated","server_os":"Linux","password":true,"vac":true,"version":"7882260","steam_id":85568392924469996,"keywords":["cp","nocrits","nodmgspread","uncletopia"],"game_id":440,"stv_port":27016,"stv_name":"Uncletopia | S√£o Paulo | 1 | All Maps | STV","players":null},{"server_id":143,"name":"Uncletopia | S√£o Paulo | 2 | All Maps","name_short":"sao-2","host":"sao-2.br.uncletopia.com","port":27015,"enabled":true,"region":"sa","cc":"br","latitude":-23.533773,"longitude":-46.62529,"reserved":0,"last_update":"0001-01-01T00:00:00Z","name_a2s":"Uncletopia | S√£o Paulo | 2 | All Maps","protocol":17,"map":"pl_swiftwater_final1","folder":"tf","game":"Team Fortress","app_id":440,"player_count":0,"max_players":24,"Bots":0,"server_type":"Dedicated","server_os":"Linux","password":true,"vac":true,"version":"7882260","steam_id":85568392924485349,"keywords":["nocrits","nodmgspread","payload","uncletopia"],"game_id":440,"stv_port":27016,"stv_name":"Uncletopia | S√£o Paulo | 2 | All Maps | STV","players":null},{"server_id":7,"name":"Uncletopia | Seattle | 1 | All Maps","name_short":"sea-1","host":"sea-1.us.uncletopia.com","port":27015,"enabled":true,"region":"us-west","cc":"us","latitude":47.608013,"longitude":-122.33517,"reserved":0,"last_update":"0001-01-01T00:00:00Z","name_a2s":"Uncletopia | Seattle | 1 | All Maps","protocol":17,"map":"pl_enclosure_final","folder":"tf","game":"Team Fortress","app_id":440,"player_count":24,"max_players":24,"Bots":0,"server_type":"Dedicated","server_os":"Linux","password":true,"vac":true,"version":"7882260","steam_id":85568392924469997,"keywords":["nocrits","nodmgspread","payload","uncletopia"],"game_id":440,"stv_port":27016,"stv_name":"Uncletopia | Seattle | 1 | All Maps | STV","players":[{"user_id":140,"name":"YahYeeterson","steam_id":76561198120480906,"connected_time":1270000000000,"state":"active","ping":62},{"user_id":117,"name":"fancyfreak","steam_id":76561198326466375,"connected_time":3823000000000,"state":"active","ping":76},{"user_id":123,"name":"RED","steam_id":76561198030282308,"connected_time":2871000000000,"state":"active","ping":57},{"user_id":116,"name":"evilOlive","steam_id":76561198106222025,"connected_time":3923000000000,"state":"active","ping":76},{"user_id":96,"name":"Stiffy Magnum","steam_id":76561198000036722,"connected_time":5175000000000,"state":"active","ping":84},{"user_id":134,"name":"thedoud1201","steam_id":76561199007734851,"connected_time":1650000000000,"state":"active","ping":111},{"user_id":105,"name":"Midi","steam_id":76561199179087677,"connected_time":4621000000000,"state":"active","ping":110},{"user_id":118,"name":"paean","steam_id":76561198347225801,"connected_time":3784000000000,"state":"active","ping":51},{"user_id":142,"name":"\\m/ Cyfun (she/it)","steam_id":76561197960882221,"connected_time":1209000000000,"state":"active","ping":105},{"user_id":72,"name":"HiFivr","steam_id":76561198285190162,"connected_time":7905000000000,"state":"active","ping":62},{"user_id":144,"name":"Lazy-assed Prophet","steam_id":76561198214400452,"connected_time":592000000000,"state":"active","ping":65},{"user_id":132,"name":"Gimme a Banana","steam_id":76561198087861668,"connected_time":1731000000000,"state":"active","ping":98},{"user_id":130,"name":"soda","steam_id":76561198105924953,"connected_time":1834000000000,"state":"active","ping":70},{"user_id":125,"name":"dust | she/it","steam_id":76561198045218909,"connected_time":2753000000000,"state":"active","ping":42},{"user_id":135,"name":"Tibetan Pop Star","steam_id":76561198844903984,"connected_time":1442000000000,"state":"active","ping":80},{"user_id":81,"name":"CTOAN","steam_id":76561198958617680,"connected_time":6970000000000,"state":"active","ping":85},{"user_id":131,"name":"Gourmet Swain","steam_id":76561198046942967,"connected_time":1834000000000,"state":"active","ping":96},{"user_id":145,"name":" ≥·µí ∏·µí","steam_id":76561198155447646,"connected_time":592000000000,"state":"active","ping":76},{"user_id":143,"name":"Pseudotriangle","steam_id":76561198058247667,"connected_time":1139000000000,"state":"active","ping":123},{"user_id":122,"name":"Themasterman75","steam_id":76561199385573293,"connected_time":3137000000000,"state":"active","ping":71},{"user_id":50,"name":"Unlock The Shock (She/They)","steam_id":76561198823616667,"connected_time":10200000000000,"state":"active","ping":103},{"user_id":124,"name":"SibilantSerpent","steam_id":76561198154488754,"connected_time":2853000000000,"state":"active","ping":55},{"user_id":127,"name":"gmagnum","steam_id":76561199034260371,"connected_time":1859000000000,"state":"active","ping":73},{"user_id":111,"name":"sushimomo","steam_id":76561198152131605,"connected_time":4541000000000,"state":"active","ping":139}]},{"server_id":119,"name":"Uncletopia | Seattle | 2 | All Maps","name_short":"sea-2","host":"sea-1.us.uncletopia.com","port":27025,"enabled":true,"region":"us-west","cc":"us","latitude":47.608013,"longitude":-122.33517,"reserved":0,"last_update":"0001-01-01T00:00:00Z","name_a2s":"Uncletopia | Seattle | 2 | All Maps","protocol":17,"map":"koth_highpass","folder":"tf","game":"Team Fortress","app_id":440,"player_count":0,"max_players":24,"Bots":0,"server_type":"Dedicated","server_os":"Linux","password":true,"vac":true,"version":"7882260","steam_id":85568392924469998,"keywords":["cp","nocrits","nodmgspread","uncletopia"],"game_id":440,"stv_port":27026,"stv_name":"Uncletopia | Seattle | 2 | All Maps | STV","players":null},{"server_id":406,"name":"Uncletopia | Seattle | 3 | Stopwatch Beta","name_short":"sea-3","host":"sea-1.us.uncletopia.com","port":27035,"enabled":true,"region":"us-west","cc":"us","latitude":47.608013,"longitude":-122.33517,"reserved":0,"last_update":"0001-01-01T00:00:00Z","name_a2s":"Uncletopia | Seattle | 3 | Stopwatch Beta","protocol":17,"map":"workshop/koth_ashville_final.ugc2130459942","folder":"tf","game":"Team Fortress","app_id":440,"player_count":0,"max_players":24,"Bots":0,"server_type":"Dedicated","server_os":"Linux","password":true,"vac":true,"version":"7882260","steam_id":85568392924515217,"keywords":["cp","nocrits","nodmgspread","uncletopia"],"game_id":440,"stv_port":27036,"stv_name":"Uncletopia | Seattle | 3 | Stopwatch Beta | STV","players":null},{"server_id":17,"name":"Uncletopia | San Francisco | 1 | All Maps","name_short":"sfo-1","host":"sfo-1.us.uncletopia.com","port":27015,"enabled":true,"region":"us-west","cc":"us","latitude":37.77397,"longitude":-122.4313,"reserved":0,"last_update":"0001-01-01T00:00:00Z","name_a2s":"Uncletopia | San Francisco | 1 | All Maps","protocol":17,"map":"cp_process_final","folder":"tf","game":"Team Fortress","app_id":440,"player_count":0,"max_players":24,"Bots":0,"server_type":"Dedicated","server_os":"Linux","password":true,"vac":true,"version":"7757534","steam_id":85568392924469999,"keywords":["cp","nocrits","nodmgspread","uncletopia"],"game_id":440,"stv_port":27016,"stv_name":"Uncletopia | San Francisco | 1 | All Maps | STV","players":null},{"server_id":18,"name":"Uncletopia | San Francisco | 2 | All Maps","name_short":"sfo-2","host":"sfo-1.us.uncletopia.com","port":27025,"enabled":true,"region":"us-west","cc":"us","latitude":37.77397,"longitude":-122.4313,"reserved":0,"last_update":"0001-01-01T00:00:00Z","name_a2s":"Uncletopia | San Francisco | 2 | All Maps","protocol":17,"map":"koth_highpass","folder":"tf","game":"Team Fortress","app_id":440,"player_count":0,"max_players":24,"Bots":0,"server_type":"Dedicated","server_os":"Linux","password":true,"vac":true,"version":"7757534","steam_id":85568392924470000,"keywords":["cp","nocrits","nodmgspread","uncletopia"],"game_id":440,"stv_port":27026,"stv_name":"Uncletopia | San Francisco | 2 | All Maps | STV","players":null},{"server_id":19,"name":"Uncletopia | San Francisco | 3 | Stopwatch Beta","name_short":"sfo-3","host":"sfo-1.us.uncletopia.com","port":27035,"enabled":true,"region":"us-west","cc":"us","latitude":37.77397,"longitude":-122.4313,"reserved":0,"last_update":"0001-01-01T00:00:00Z","name_a2s":"Uncletopia | San Francisco | 3 | Stopwatch Beta","protocol":17,"map":"koth_lakeside_final","folder":"tf","game":"Team Fortress","app_id":440,"player_count":0,"max_players":24,"Bots":0,"server_type":"Dedicated","server_os":"Linux","password":true,"vac":true,"version":"7757534","steam_id":85568392924742824,"keywords":["cp","nocrits","nodmgspread","uncletopia"],"game_id":440,"stv_port":27036,"stv_name":"Uncletopia | San Francisco | 3 | Stopwatch Beta | STV","players":null},{"server_id":20,"name":"Uncletopia | San Francisco | 4 | Community","name_short":"sfo-4","host":"sfo-1.us.uncletopia.com","port":27045,"enabled":true,"region":"us-west","cc":"us","latitude":37.77397,"longitude":-122.4313,"reserved":0,"last_update":"0001-01-01T00:00:00Z","name_a2s":"Uncletopia | San Francisco | 4 | Community","protocol":17,"map":"cp_altitude","folder":"tf","game":"Team Fortress","app_id":440,"player_count":0,"max_players":24,"Bots":0,"server_type":"Dedicated","server_os":"Linux","password":true,"vac":true,"version":"7757534","steam_id":85568392924742826,"keywords":["cp","nocrits","nodmgspread","uncletopia"],"game_id":440,"stv_port":27046,"stv_name":"Uncletopia | San Francisco | 4 | Community | STV","players":null},{"server_id":141,"name":"Uncletopia | Sydney | 1 | All Maps","name_short":"syd-1","host":"syd-1.au.uncletopia.com","port":27015,"enabled":true,"region":"au","cc":"au","latitude":-33.865143,"longitude":151.2099,"reserved":0,"last_update":"0001-01-01T00:00:00Z","name_a2s":"Uncletopia | Sydney | 1 | All Maps","protocol":17,"map":"koth_viaduct","folder":"tf","game":"Team Fortress","app_id":440,"player_count":0,"max_players":24,"Bots":0,"server_type":"Dedicated","server_os":"Linux","password":true,"vac":true,"version":"7882260","steam_id":85568392924470001,"keywords":["cp","nocrits","nodmgspread","uncletopia"],"game_id":440,"stv_port":27016,"stv_name":"Uncletopia | Sydney | 1 | All Maps | STV","players":null},{"server_id":123,"name":"Uncletopia | Sydney | 2 | All Maps","name_short":"syd-2","host":"syd-1.au.uncletopia.com","port":27025,"enabled":true,"region":"au","cc":"au","latitude":-33.865143,"longitude":151.2099,"reserved":0,"last_update":"0001-01-01T00:00:00Z","name_a2s":"Uncletopia | Sydney | 2 | All Maps","protocol":17,"map":"koth_viaduct","folder":"tf","game":"Team Fortress","app_id":440,"player_count":0,"max_players":24,"Bots":0,"server_type":"Dedicated","server_os":"Linux","password":true,"vac":true,"version":"7882260","steam_id":85568392924470002,"keywords":["cp","nocrits","nodmgspread","uncletopia"],"game_id":440,"stv_port":27026,"stv_name":"Uncletopia | Sydney | 2 | All Maps | STV","players":null},{"server_id":395,"name":"Uncletopia | Sydney | 3 | All Maps","name_short":"syd-3","host":"syd-1.au.uncletopia.com","port":27035,"enabled":true,"region":"au","cc":"au","latitude":-33.865143,"longitude":151.2099,"reserved":0,"last_update":"0001-01-01T00:00:00Z","name_a2s":"Uncletopia | Sydney | 3 | All Maps","protocol":17,"map":"pl_pier","folder":"tf","game":"Team Fortress","app_id":440,"player_count":0,"max_players":24,"Bots":0,"server_type":"Dedicated","server_os":"Linux","password":true,"vac":true,"version":"7882260","steam_id":85568392925194467,"keywords":["nocrits","nodmgspread","payload","uncletopia"],"game_id":440,"stv_port":27036,"stv_name":"Uncletopia | Sydney | 3 | All Maps | STV","players":null},{"server_id":396,"name":"Uncletopia | Sydney | 4 | All Maps","name_short":"syd-4","host":"syd-1.au.uncletopia.com","port":27045,"enabled":true,"region":"au","cc":"au","latitude":-33.865143,"longitude":151.2099,"reserved":0,"last_update":"0001-01-01T00:00:00Z","name_a2s":"Uncletopia | Sydney | 4 | All Maps","protocol":17,"map":"koth_viaduct","folder":"tf","game":"Team Fortress","app_id":440,"player_count":0,"max_players":24,"Bots":0,"server_type":"Dedicated","server_os":"Linux","password":true,"vac":true,"version":"7882260","steam_id":85568392925397958,"keywords":["cp","nocrits","nodmgspread","uncletopia"],"game_id":440,"stv_port":27046,"stv_name":"Uncletopia | Sydney | 4 | All Maps | STV","players":null},{"server_id":58,"name":"Uncletopia | Sydney | 5 | Stopwatch Beta","name_short":"syd-5","host":"syd-1.au.uncletopia.com","port":27055,"enabled":true,"region":"au","cc":"au","latitude":-33.865143,"longitude":151.2099,"reserved":0,"last_update":"0001-01-01T00:00:00Z","name_a2s":"Uncletopia | Sydney | 5 | Stopwatch Beta","protocol":17,"map":"cp_granary","folder":"tf","game":"Team Fortress","app_id":440,"player_count":0,"max_players":24,"Bots":0,"server_type":"Dedicated","server_os":"Linux","password":true,"vac":true,"version":"7882260","steam_id":85568392925397959,"keywords":["cp","nocrits","nodmgspread","uncletopia"],"game_id":440,"stv_port":27056,"stv_name":"Uncletopia | Sydney | 5 | Stopwatch Beta | STV","players":null},{"server_id":59,"name":"Uncletopia | Sydney | 6 | Community","name_short":"syd-6","host":"syd-1.au.uncletopia.com","port":27065,"enabled":true,"region":"au","cc":"au","latitude":-33.865143,"longitude":151.2099,"reserved":0,"last_update":"0001-01-01T00:00:00Z","name_a2s":"Uncletopia | Sydney | 6 | Community","protocol":17,"map":"workshop/koth_product_final.ugc454272353","folder":"tf","game":"Team Fortress","app_id":440,"player_count":0,"max_players":24,"Bots":0,"server_type":"Dedicated","server_os":"Linux","password":true,"vac":true,"version":"7882260","steam_id":85568392925397960,"keywords":["cp","nocrits","nodmgspread","uncletopia"],"game_id":440,"stv_port":27066,"stv_name":"Uncletopia | Sydney | 6 | Community | STV","players":null},{"server_id":49,"name":"Uncletopia | Warsaw | 1 | All Maps","name_short":"waw-1","host":"waw-1.pl.uncletopia.com","port":27015,"enabled":true,"region":"eu","cc":"pl","latitude":52.2297,"longitude":21.017532,"reserved":0,"last_update":"0001-01-01T00:00:00Z","name_a2s":"","protocol":0,"map":"","folder":"","game":"","app_id":0,"player_count":0,"max_players":0,"Bots":0,"server_type":"","server_os":"","password":false,"vac":false,"version":"","steam_id":0,"keywords":null,"game_id":0,"stv_port":0,"stv_name":"","players":null},{"server_id":50,"name":"Uncletopia | Warsaw | 2 | All Maps","name_short":"waw-2","host":"waw-1.pl.uncletopia.com","port":27025,"enabled":true,"region":"eu","cc":"pl","latitude":52.2297,"longitude":21.017532,"reserved":0,"last_update":"0001-01-01T00:00:00Z","name_a2s":"Uncletopia | Warsaw | 2 | All Maps","protocol":17,"map":"koth_highpass","folder":"tf","game":"Team Fortress","app_id":440,"player_count":0,"max_players":24,"Bots":0,"server_type":"Dedicated","server_os":"Linux","password":true,"vac":true,"version":"7882260","steam_id":85568392925397851,"keywords":["cp","nocrits","nodmgspread","uncletopia"],"game_id":440,"stv_port":27026,"stv_name":"Uncletopia | Warsaw | 2 | All Maps | STV","players":null},{"server_id":51,"name":"Uncletopia | Warsaw | 3 | All Maps","name_short":"waw-3","host":"waw-1.pl.uncletopia.com","port":27035,"enabled":true,"region":"eu","cc":"pl","latitude":52.2297,"longitude":21.017532,"reserved":0,"last_update":"0001-01-01T00:00:00Z","name_a2s":"Uncletopia | Warsaw | 3 | All Maps","protocol":17,"map":"koth_viaduct","folder":"tf","game":"Team Fortress","app_id":440,"player_count":0,"max_players":24,"Bots":0,"server_type":"Dedicated","server_os":"Linux","password":true,"vac":true,"version":"7882260","steam_id":85568392925397852,"keywords":["cp","nocrits","nodmgspread","uncletopia"],"game_id":440,"stv_port":27036,"stv_name":"Uncletopia | Warsaw | 3 | All Maps | STV","players":null},{"server_id":52,"name":"Uncletopia | Warsaw | 4 | All Maps","name_short":"waw-4","host":"waw-1.pl.uncletopia.com","port":27045,"enabled":true,"region":"eu","cc":"pl","latitude":52.2297,"longitude":21.017532,"reserved":0,"last_update":"0001-01-01T00:00:00Z","name_a2s":"Uncletopia | Warsaw | 4 | All Maps","protocol":17,"map":"pl_pier","folder":"tf","game":"Team Fortress","app_id":440,"player_count":0,"max_players":24,"Bots":0,"server_type":"Dedicated","server_os":"Linux","password":true,"vac":true,"version":"7882260","steam_id":85568392925397853,"keywords":["nocrits","nodmgspread","payload","uncletopia"],"game_id":440,"stv_port":27046,"stv_name":"Uncletopia | Warsaw | 4 | All Maps | STV","players":null},{"server_id":53,"name":"Uncletopia | Warsaw | 5 | Stopwatch Beta","name_short":"waw-5","host":"waw-1.pl.uncletopia.com","port":27055,"enabled":true,"region":"eu","cc":"pl","latitude":52.2297,"longitude":21.017532,"reserved":0,"last_update":"0001-01-01T00:00:00Z","name_a2s":"Uncletopia | Warsaw | 5 | Stopwatch Beta","protocol":17,"map":"cp_gullywash_final1","folder":"tf","game":"Team Fortress","app_id":440,"player_count":0,"max_players":24,"Bots":0,"server_type":"Dedicated","server_os":"Linux","password":true,"vac":true,"version":"7882260","steam_id":85568392925397854,"keywords":["cp","nocrits","nodmgspread","uncletopia"],"game_id":440,"stv_port":27056,"stv_name":"Uncletopia | Warsaw | 5 | Stopwatch Beta | STV","players":null},{"server_id":54,"name":"Uncletopia | Warsaw | 6 | Community","name_short":"waw-6","host":"waw-1.pl.uncletopia.com","port":27065,"enabled":true,"region":"eu","cc":"pl","latitude":52.2297,"longitude":21.017532,"reserved":0,"last_update":"0001-01-01T00:00:00Z","name_a2s":"Uncletopia | Warsaw | 6 | Community","protocol":17,"map":"koth_viaduct","folder":"tf","game":"Team Fortress","app_id":440,"player_count":0,"max_players":24,"Bots":0,"server_type":"Dedicated","server_os":"Linux","password":true,"vac":true,"version":"7882260","steam_id":85568392925397856,"keywords":["cp","nocrits","nodmgspread","uncletopia"],"game_id":440,"stv_port":27066,"stv_name":"Uncletopia | Warsaw | 6 | Community | STV","players":null}]}