{"status":true,"message":"","result":[{"server_id":9,"name":"Uncletopia | Atlanta | 1 | All Maps","name_short":"atl-1","host":"atl-1.us.uncletopia.com","port":27015,"enabled":true,"region":"us-east","cc":"us","latitude":33.753746,"longitude":-84.38633,"reserved":0,"last_update":"0001-01-01T00:00:00Z","name_a2s":"Uncletopia | Atlanta | 1 | All Maps","protocol":17,"map":"pl_swiftwater_final1","folder":"tf","game":"Team Fortress","app_id":440,"player_count":24,"max_players":24,"Bots":0,"server_type":"Dedicated","server_os":"Linux","password":true,"vac":true,"version":"7723704","steam_id":85568392924469982,"keywords":["nocrits","nodmgspread","payload","uncletopia"],"game_id":440,"stv_port":27016,"stv_name":"Uncletopia | Atlanta | 1 | All Maps | STV","players":[{"user_id":598,"name":"Avo","steam_id":76561197993340494,"connected_time":1002000000000,"state":"active","ping":60},{"user_id":552,"name":"schizo","steam_id":76561198016121536,"connected_time":6382000000000,"state":"active","ping":89},{"user_id":610,"name":"ATL1 | J O V A","steam_id":76561198090333536,"connected_time":81000000000,"state":"active","ping":74},{"user_id":512,"name":"ATL1 | eish","steam_id":76561198089463603,"connected_time":9715000000000,"state":"active","ping":125},{"user_id":595,"name":"ATL0 Dedi Le4n!!!","steam_id":76561198045522596,"connected_time":1036000000000,"state":"active","ping":67},{"user_id":592,"name":"MOTORTREND TRUCK OF THE YEAR","steam_id":76561198077654131,"connected_time":1469000000000,"state":"active","ping":74},{"user_id":514,"name":"sansa musa","steam_id":76561198163723555,"connected_time":8946000000000,"state":"active","ping":73},{"user_id":597,"name":"Festive Fire Starting Rock","steam_id":76561198066547582,"connected_time":1016000000000,"state":"active","ping":109},{"user_id":605,"name":"festivestuntman","steam_id":76561198056911537,"connected_time":819000000000,"state":"active","ping":60},{"user_id":553,"name":"Boop","steam_id":76561198376703875,"connected_time":6351000000000,"state":"active","ping":72},{"user_id":578,"name":"Regi","steam_id":76561198271508598,"connected_time":3091000000000,"state":"active","ping":75},{"user_id":558,"name":"Mage","steam_id":76561198285026879,"connected_time":5207000000000,"state":"active","ping":75},{"user_id":603,"name":"JellyParrot","steam_id":76561199190990163,"connected_time":848000000000,"state":"active","ping":64},{"user_id":604,"name":"crit","steam_id":76561198813574552,"connected_time":832000000000,"state":"active","ping":44},{"user_id":589,"name":"Dreszerg","steam_id":76561198838757422,"connected_time":2082000000000,"state":"active","ping":79},{"user_id":609,"name":"saywhat_","steam_id":76561198088191503,"connected_time":336000000000,"state":"active","ping":64},{"user_id":526,"name":"Intro Bonito","steam_id":76561198119478838,"connected_time":8020000000000,"state":"active","ping":60},{"user_id":607,"name":"femboy beats","steam_id":76561199245717718,"connected_time":676000000000,"state":"active","ping":75},{"user_id":585,"name":"ATL1 | Lav4ie They/Them","steam_id":76561198825997674,"connected_time":2117000000000,"state":"active","ping":74},{"user_id":508,"name":"♡Alyx♡","steam_id":76561198024303978,"connected_time":9728000000000,"state":"active","ping":60},{"user_id":563,"name":"terrible ancient weasel","steam_id":76561198067487745,"connected_time":4821000000000,"state":"active","ping":62},{"user_id":519,"name":"ATL1 | Rat","steam_id":76561198137925582,"connected_time":8913000000000,"state":"active","ping":83},{"user_id":581,"name":"انتحر يا ابن المت","steam_id":76561198326987939,"connected_time":2952000000000,"state":"active","ping":71},{"user_id":596,"name":"yomokha","steam_id":76561198063175935,"connected_time":1036000000000,"state":"active","ping":63}]},{"server_id":400,"name":"Uncletopia | Atlanta | 3 | Stopwatch Beta","name_short":"atl-3","host":"atl-1.us.uncletopia.com","port":27035,"enabled":true,"region":"us-east","cc":"us","latitude":33.753746,"longitude":-84.38633,"reserved":0,"last_update":"0001-01-01T00:00:00Z","name_a2s":"Uncletopia | Atlanta | 3 | Stopwatch Beta","protocol":17,"map":"cp_snakewater_final1","folder":"tf","game":"Team Fortress","app_id":440,"player_count":7,"max_players":24,"Bots":0,"server_type":"Dedicated","server_os":"Linux","password":true,"vac":true,"version":"7723704","steam_id":85568392924515187,"keywords":["cp","nocrits","nodmgspread","uncletopia"],"game_id":440,"stv_port":27036,"stv_name":"Uncletopia | Atlanta | 3 | Stopwatch Beta | STV","players":[{"user_id":407,"name":"Mengle","steam_id":76561198001953684,"connected_time":137000000000,"state":"active","ping":74},{"user_id":290,"name":"leonardo doujinshi","steam_id":76561198025810326,"connected_time":10026000000000,"state":"active","ping":68},{"user_id":406,"name":"Stay Sigma","steam_id":76561199168680069,"connected_time":289000000000,"state":"active","ping":54},{"user_id":403,"name":"CosmiCat","steam_id":76561198858792096,"connected_time":459000000000,"state":"active","ping":106},{"user_id":408,"name":"// SOILD GOLD //","steam_id":76561199144640325,"connected_time":51000000000,"state":"active","ping":57},{"user_id":378,"name":"★ ★ AL ★ ★","steam_id":76561199020764069,"connected_time":2473000000000,"state":"active","ping":94},{"user_id":382,"name":"Shoe™","steam_id":76561199114397881,"connected_time":2329000000000,"state":"active","ping":45}]},{"server_id":401,"name":"Uncletopia | Atlanta | 4 | No Payload","name_short":"atl-4","host":"atl-1.us.uncletopia.com","port":27045,"enabled":true,"region":"us-east","cc":"us","latitude":33.753746,"longitude":-84.38633,"reserved":0,"last_update":"0001-01-01T00:00:00Z","name_a2s":"Uncletopia | Atlanta | 4 | No Payload","protocol":17,"map":"cp_dustbowl","folder":"tf","game":"Team Fortress","app_id":440,"player_count":0,"max_players":24,"Bots":0,"server_type":"Dedicated","server_os":"Linux","password":true,"vac":true,"version":"7723704","steam_id":85568392924515188,"keywords":["cp","nocrits","nodmgspread","uncletopia"],"game_id":440,"stv_port":27046,"stv_name":"Uncletopia | Atlanta | 4 | No Payload | STV","players":null},{"server_id":2,"name":"Uncletopia | Chicago | 1 | All Maps","name_short":"chi-1","host":"chi-1.us.uncletopia.com","port":27015,"enabled":true,"region":"us-central","cc":"us","latitude":41.881832,"longitude":-87.62318,"reserved":0,"last_update":"0001-01-01T00:00:00Z","name_a2s":"Uncletopia | Chicago | 1 | All Maps","protocol":17,"map":"pl_frontier_final","folder":"tf","game":"Team Fortress","app_id":440,"player_count":24,"max_players":24,"Bots":0,"server_type":"Dedicated","server_os":"Linux","password":true,"vac":true,"version":"7723704","steam_id":85568392924469984,"keywords":["nocrits","nodmgspread","payload","uncletopia"],"game_id":440,"stv_port":27016,"stv_name":"Uncletopia | Chicago | 1 | All Maps | STV","players":[{"user_id":718,"name":"hej","steam_id":76561197996366940,"connected_time":6377000000000,"state":"active","ping":59},{"user_id":777,"name":"pandora da king","steam_id":76561198075490385,"connected_time":856000000000,"state":"active","ping":101},{"user_id":760,"name":"Razz","steam_id":76561198119698950,"connected_time":2707000000000,"state":"active","ping":120},{"user_id":795,"name":"Suz","steam_id":76561198038659429,"connected_time":272000000000,"state":"active","ping":62},{"user_id":603,"name":"Gamut","steam_id":76561199185822800,"connected_time":13908000000000,"state":"active","ping":68},{"user_id":678,"name":"Space⭐Taffy","steam_id":76561198002271720,"connected_time":8360000000000,"state":"active","ping":62},{"user_id":753,"name":"carrion goat","steam_id":76561198262064871,"connected_time":3036000000000,"state":"active","ping":65},{"user_id":783,"name":"kayk","steam_id":76561198170471502,"connected_time":639000000000,"state":"active","ping":70},{"user_id":774,"name":"Money Collector","steam_id":76561198046249467,"connected_time":899000000000,"state":"active","ping":47},{"user_id":784,"name":"peachy","steam_id":76561198026664629,"connected_time":628000000000,"state":"active","ping":54},{"user_id":726,"name":"MedRed™ #IATAH","steam_id":76561198002962970,"connected_time":5855000000000,"state":"active","ping":101},{"user_id":770,"name":"BitterSweet","steam_id":76561198161342377,"connected_time":1108000000000,"state":"active","ping":105},{"user_id":749,"name":"Gabinator32","steam_id":76561198872467183,"connected_time":3593000000000,"state":"active","ping":47},{"user_id":793,"name":"Fever Dreams","steam_id":76561198116614620,"connected_time":348000000000,"state":"active","ping":68},{"user_id":778,"name":"jello","steam_id":76561198094320477,"connected_time":853000000000,"state":"active","ping":74},{"user_id":794,"name":"ScoobyBlue","steam_id":76561198054656885,"connected_time":342000000000,"state":"active","ping":79},{"user_id":767,"name":"stop","steam_id":76561198268686419,"connected_time":1689000000000,"state":"active","ping":55},{"user_id":792,"name":"Thatoneguybunchanumbers","steam_id":76561198028039160,"connected_time":384000000000,"state":"active","ping":85},{"user_id":720,"name":"kermitcreeper(ZAZA)","steam_id":76561199222829972,"connected_time":6367000000000,"state":"active","ping":56},{"user_id":786,"name":"goopgrabber","steam_id":76561199029951083,"connected_time":608000000000,"state":"active","ping":131},{"user_id":761,"name":"Deterrent","steam_id":76561198256763734,"connected_time":2692000000000,"state":"active","ping":106},{"user_id":771,"name":"Ras","steam_id":76561198123546775,"connected_time":916000000000,"state":"active","ping":65},{"user_id":780,"name":"Now I'm a Little Motivated","steam_id":76561198069580305,"connected_time":839000000000,"state":"active","ping":50},{"user_id":788,"name":"MY DIET DR. KELP?! (Lamp)","steam_id":76561198319543841,"connected_time":577000000000,"state":"active","ping":149}]},{"server_id":106,"name":"Uncletopia | Chicago | 2 | All Maps","name_short":"chi-2","host":"chi-1.us.uncletopia.com","port":27025,"enabled":true,"region":"us-central","cc":"us","latitude":41.881832,"longitude":-87.62318,"reserved":0,"last_update":"0001-01-01T00:00:00Z","name_a2s":"Uncletopia | Chicago | 2 | All Maps","protocol":17,"map":"ctf_2fort","folder":"tf","game":"Team Fortress","app_id":440,"player_count":24,"max_players":24,"Bots":0,"server_type":"Dedicated","server_os":"Linux","password":true,"vac":true,"version":"7723704","steam_id":85568392924469985,"keywords":["ctf","nocrits","nodmgspread","uncletopia"],"game_id":440,"stv_port":27026,"stv_name":"Uncletopia | Chicago | 2 | All Maps | STV","players":[{"user_id":649,"name":"fishfin","steam_id":76561198255819115,"connected_time":701000000000,"state":"active","ping":61},{"user_id":610,"name":"SLOPPYMCFLOPPY","steam_id":76561198100788239,"connected_time":4602000000000,"state":"active","ping":60},{"user_id":653,"name":"Weebalicious","steam_id":76561197990724129,"connected_time":481000000000,"state":"active","ping":69},{"user_id":646,"name":"8bean","steam_id":76561198239138132,"connected_time":815000000000,"state":"active","ping":62},{"user_id":647,"name":"8core","steam_id":76561198131163454,"connected_time":795000000000,"state":"active","ping":80},{"user_id":617,"name":"sly1","steam_id":76561198049014977,"connected_time":4011000000000,"state":"active","ping":59},{"user_id":572,"name":"Battlemedic27","steam_id":76561198121818007,"connected_time":7337000000000,"state":"active","ping":70},{"user_id":613,"name":"Whorse","steam_id":76561198114141445,"connected_time":4118000000000,"state":"active","ping":65},{"user_id":650,"name":"soggymonki236","steam_id":76561198046953937,"connected_time":655000000000,"state":"active","ping":114},{"user_id":568,"name":"Piyono","steam_id":76561197962188504,"connected_time":7454000000000,"state":"active","ping":63},{"user_id":651,"name":"gonurlight","steam_id":76561198935839416,"connected_time":650000000000,"state":"active","ping":93},{"user_id":652,"name":"wepry","steam_id":76561198114091417,"connected_time":555000000000,"state":"active","ping":77},{"user_id":654,"name":"A-Train","steam_id":76561199031775779,"connected_time":443000000000,"state":"active","ping":75},{"user_id":594,"name":"glitchy","steam_id":76561199009135766,"connected_time":5852000000000,"state":"active","ping":45},{"user_id":659,"name":"Mcfighter2","steam_id":76561198168073956,"connected_time":253000000000,"state":"active","ping":48},{"user_id":638,"name":"i suffer from ligma","steam_id":76561199158496518,"connected_time":1120000000000,"state":"active","ping":79},{"user_id":631,"name":"Queueue","steam_id":76561198070804012,"connected_time":1991000000000,"state":"active","ping":60},{"user_id":596,"name":"Merchants of Misery","steam_id":76561199188142396,"connected_time":5654000000000,"state":"active","ping":74},{"user_id":657,"name":"Sonata","steam_id":76561198088165440,"connected_time":323000000000,"state":"active","ping":87},{"user_id":627,"name":"savagedachshund","steam_id":76561199208468955,"connected_time":2652000000000,"state":"active","ping":75},{"user_id":660,"name":"Zell Da Sheepy","steam_id":76561198978753666,"connected_time":183000000000,"state":"active","ping":96},{"user_id":629,"name":"Unlit Slim Alberta Spruce","steam_id":76561198124081839,"connected_time":2527000000000,"state":"active","ping":65},{"user_id":634,"name":"Madrox Who?","steam_id":76561197988859134,"connected_time":1917000000000,"state":"active","ping":69},{"user_id":418,"name":"RaddahRaddah","steam_id":76561198194462829,"connected_time":16731000000000,"state":"active","ping":53}]},{"server_id":402,"name":"Uncletopia | Chicago | 3 | All Maps","name_short":"chi-3","host":"chi-1.us.uncletopia.com","port":27035,"enabled":true,"region":"us-central","cc":"us","latitude":41.881832,"longitude":-87.62318,"reserved":0,"last_update":"0001-01-01T00:00:00Z","name_a2s":"Uncletopia | Chicago | 3 | All Maps","protocol":17,"map":"cp_dustbowl","folder":"tf","game":"Team Fortress","app_id":440,"player_count":0,"max_players":24,"Bots":0,"server_type":"Dedicated","server_os":"Linux","password":true,"vac":true,"version":"7723704","steam_id":85568392924515191,"keywords":["cp","nocrits","nodmgspread","uncletopia"],"game_id":440,"stv_port":27036,"stv_name":"Uncletopia | Chicago | 3 | All Maps | STV","players":null},{"server_id":403,"name":"Uncletopia | Chicago | 4 | All Maps","name_short":"chi-4","host":"chi-1.us.uncletopia.com","port":27045,"enabled":true,"region":"us-central","cc":"us","latitude":41.881832,"longitude":-87.62318,"reserved":0,"last_update":"0001-01-01T00:00:00Z","name_a2s":"Uncletopia | Chicago | 4 | All Maps","protocol":17,"map":"pl_swiftwater_final1","folder":"tf","game":"Team Fortress","app_id":440,"player_count":24,"max_players":24,"Bots":0,"server_type":"Dedicated","server_os":"Linux","password":true,"vac":true,"version":"7723704","steam_id":85568392924515193,"keywords":["nocrits","nodmgspread","payload","uncletopia"],"game_id":440,"stv_port":27046,"stv_name":"Uncletopia | Chicago | 4 | All Maps | STV","players":[{"user_id":452,"name":"Christoph Waltz eating a burger","steam_id":76561199215811448,"connected_time":258000000000,"state":"active","ping":84},{"user_id":453,"name":"DSM-IVCE","steam_id":76561199438515797,"connected_time":240000000000,"state":"active","ping":122},{"user_id":440,"name":"Trox","steam_id":76561198263581464,"connected_time":1278000000000,"state":"active","ping":81},{"user_id":423,"name":"Ford Truck Gaming","steam_id":76561199042674833,"connected_time":2685000000000,"state":"active","ping":78},{"user_id":454,"name":"SpycyNoodles","steam_id":76561198309439750,"connected_time":221000000000,"state":"active","ping":68},{"user_id":459,"name":"BowlzingShoes","steam_id":76561199127110073,"connected_time":137000000000,"state":"active","ping":57},{"user_id":439,"name":"Cosmic Echoes","steam_id":76561198019227201,"connected_time":1317000000000,"state":"active","ping":78},{"user_id":455,"name":"Professor Piper","steam_id":76561198156041205,"connected_time":186000000000,"state":"active","ping":47},{"user_id":399,"name":"deepmeta","steam_id":76561199053600691,"connected_time":4688000000000,"state":"active","ping":62},{"user_id":393,"name":"Harrison","steam_id":76561198931423191,"connected_time":4814000000000,"state":"active","ping":66},{"user_id":418,"name":"Stone Toad Steve Austin","steam_id":76561198030622861,"connected_time":3164000000000,"state":"active","ping":83},{"user_id":460,"name":"beatrix-mas","steam_id":76561199057103062,"connected_time":96000000000,"state":"active","ping":99},{"user_id":426,"name":"Gerald Jay Sussman","steam_id":76561198114515026,"connected_time":2509000000000,"state":"active","ping":50},{"user_id":450,"name":"DeadlyAnomalies","steam_id":76561198125818085,"connected_time":516000000000,"state":"active","ping":90},{"user_id":447,"name":"Morefun8","steam_id":76561198274524278,"connected_time":823000000000,"state":"active","ping":45},{"user_id":456,"name":"MR. MODE","steam_id":76561198046775352,"connected_time":178000000000,"state":"active","ping":98},{"user_id":400,"name":"beec","steam_id":76561198837644144,"connected_time":4684000000000,"state":"active","ping":76},{"user_id":403,"name":"Apetometrist","steam_id":76561198045391635,"connected_time":4467000000000,"state":"active","ping":58},{"user_id":446,"name":"I'm a Jenius!","steam_id":76561197999129732,"connected_time":1023000000000,"state":"active","ping":76},{"user_id":457,"name":"Blitz","steam_id":76561197993050595,"connected_time":155000000000,"state":"active","ping":69},{"user_id":463,"name":"jennydude","steam_id":76561198119132813,"connected_time":5000000000,"state":"spawning","ping":80},{"user_id":461,"name":"chilis baby back ribs","steam_id":76561198813516435,"connected_time":71000000000,"state":"active","ping":101},{"user_id":462,"name":"ghostyAlchemist","steam_id":76561198448078291,"connected_time":56000000000,"state":"active","ping":67},{"user_id":451,"name":"CPUnit","steam_id":76561198162881878,"connected_time":460000000000,"state":"active","ping":75}]},{"server_id":36,"name":"Uncletopia | Chicago | 5 | All Maps","name_short":"chi-5","host":"chi-2.us.uncletopia.com","port":27015,"enabled":true,"region":"us-central","cc":"us","latitude":41.881832,"longitude":-87.62318,"reserved":0,"last_update":"0001-01-01T00:00:00Z","name_a2s":"Uncletopia | Chicago | 5 | All Maps","protocol":17,"map":"cp_altitude","folder":"tf","game":"Team Fortress","app_id":440,"player_count":24,"max_players":24,"Bots":0,"server_type":"Dedicated","server_os":"Linux","password":true,"vac":true,"version":"7723704","steam_id":85568392924866362,"keywords":["cp","nocrits","nodmgspread","uncletopia"],"game_id":440,"stv_port":27016,"stv_name":"Uncletopia | Chicago | 5 | All Maps | STV","players":[{"user_id":551,"name":"KingSteve42","steam_id":76561198409455888,"connected_time":1023000000000,"state":"active","ping":103},{"user_id":563,"name":"Arbiter Soul (Urine Enthusiast)","steam_id":76561198067798973,"connected_time":97000000000,"state":"active","ping":119},{"user_id":538,"name":"jrmadmallard","steam_id":76561198275994616,"connected_time":1641000000000,"state":"active","ping":106},{"user_id":550,"name":"pie gaming","steam_id":76561198072592880,"connected_time":1305000000000,"state":"active","ping":43},{"user_id":504,"name":"SlippyPunk","steam_id":76561198048551455,"connected_time":4173000000000,"state":"active","ping":73},{"user_id":483,"name":"HurricanePootis","steam_id":76561198152518803,"connected_time":5612000000000,"state":"active","ping":59},{"user_id":559,"name":"alex","steam_id":76561198239024244,"connected_time":497000000000,"state":"active","ping":79},{"user_id":527,"name":"Nexusuxen","steam_id":76561198117547131,"connected_time":2424000000000,"state":"active","ping":64},{"user_id":532,"name":"footoftheday","steam_id":76561198052712449,"connected_time":2030000000000,"state":"active","ping":73},{"user_id":555,"name":"travisoscotoso","steam_id":76561198041168780,"connected_time":796000000000,"state":"active","ping":139},{"user_id":484,"name":"2003 chevy malibu","steam_id":76561199075669125,"connected_time":5609000000000,"state":"active","ping":69},{"user_id":564,"name":"hue","steam_id":76561198039368798,"connected_time":92000000000,"state":"active","ping":76},{"user_id":554,"name":"donti","steam_id":76561197977223197,"connected_time":854000000000,"state":"active","ping":45},{"user_id":542,"name":"CherryYeti","steam_id":76561199221441151,"connected_time":1548000000000,"state":"active","ping":103},{"user_id":565,"name":"Big Pete","steam_id":76561198100754827,"connected_time":90000000000,"state":"active","ping":112},{"user_id":533,"name":"Sunvaar","steam_id":76561198852679851,"connected_time":2012000000000,"state":"active","ping":64},{"user_id":560,"name":"trobin120","steam_id":76561199122420273,"connected_time":416000000000,"state":"active","ping":66},{"user_id":553,"name":"flip","steam_id":76561198262478540,"connected_time":938000000000,"state":"active","ping":60},{"user_id":552,"name":"lokm","steam_id":76561198030374238,"connected_time":959000000000,"state":"active","ping":114},{"user_id":562,"name":"Lemony Lilly (She/Her)","steam_id":76561198042479066,"connected_time":282000000000,"state":"active","ping":79},{"user_id":547,"name":"nosebleed","steam_id":76561198194471251,"connected_time":1462000000000,"state":"active","ping":63},{"user_id":487,"name":"ROCKSTAR MADE","steam_id":76561197961371271,"connected_time":5563000000000,"state":"active","ping":89},{"user_id":494,"name":"Cinnabun","steam_id":76561198155346702,"connected_time":4818000000000,"state":"active","ping":74},{"user_id":548,"name":"GrummBlumm","steam_id":76561198243035656,"connected_time":1460000000000,"state":"active","ping":61}]},{"server_id":37,"name":"Uncletopia | Chicago | 6 | All Maps","name_short":"chi-6","host":"chi-2.us.uncletopia.com","port":27025,"enabled":true,"region":"us-central","cc":"us","latitude":41.881832,"longitude":-87.62318,"reserved":0,"last_update":"0001-01-01T00:00:00Z","name_a2s":"Uncletopia | Chicago | 6 | All Maps","protocol":17,"map":"pl_barnblitz","folder":"tf","game":"Team Fortress","app_id":440,"player_count":0,"max_players":24,"Bots":0,"server_type":"Dedicated","server_os":"Linux","password":true,"vac":true,"version":"7723704","steam_id":85568392924866363,"keywords":["nocrits","nodmgspread","payload","uncletopia"],"game_id":440,"stv_port":27026,"stv_name":"Uncletopia | Chicago | 6 | All Maps | STV","players":null},{"server_id":38,"name":"Uncletopia | Chicago | 7 | Stopwatch Beta","name_short":"chi-7","host":"chi-2.us.uncletopia.com","port":27035,"enabled":true,"region":"us-central","cc":"us","latitude":41.881832,"longitude":-87.62318,"reserved":0,"last_update":"0001-01-01T00:00:00Z","name_a2s":"Uncletopia | Chicago | 7 | Stopwatch Beta","protocol":17,"map":"workshop/pl_badwater_pro_v12.ugc2142942074","folder":"tf","game":"Team Fortress","app_id":440,"player_count":9,"max_players":24,"Bots":0,"server_type":"Dedicated","server_os":"Linux","password":true,"vac":true,"version":"7723704","steam_id":85568392924866364,"keywords":["nocrits","nodmgspread","payload","uncletopia"],"game_id":440,"stv_port":27036,"stv_name":"Uncletopia | Chicago | 7 | Stopwatch Beta | STV","players":[{"user_id":538,"name":"griff928","steam_id":76561198149614679,"connected_time":4214000000000,"state":"active","ping":34},{"user_id":553,"name":"Soap Man","steam_id":76561198000490235,"connected_time":1407000000000,"state":"active","ping":105},{"user_id":556,"name":"void monad","steam_id":76561198117012334,"connected_time":694000000000,"state":"active","ping":171},{"user_id":540,"name":"Sonar","steam_id":76561198149299507,"connected_time":4053000000000,"state":"active","ping":70},{"user_id":548,"name":"PootisPowHAHA","steam_id":76561199023536209,"connected_time":2570000000000,"state":"active","ping":86},{"user_id":558,"name":"golia","steam_id":76561198000264266,"connected_time":305000000000,"state":"active","ping":88},{"user_id":560,"name":"starer","steam_id":76561199229966290,"connected_time":29000000000,"state":"active","ping":81},{"user_id":557,"name":"Willow Wolf","steam_id":76561198112826512,"connected_time":664000000000,"state":"active","ping":45},{"user_id":559,"name":"pickle","steam_id":76561198011396219,"connected_time":135000000000,"state":"active","ping":64}]},{"server_id":39,"name":"Uncletopia | Chicago | 8 | Community","name_short":"chi-8","host":"chi-2.us.uncletopia.com","port":27045,"enabled":true,"region":"us-central","cc":"us","latitude":41.881832,"longitude":-87.62318,"reserved":0,"last_update":"0001-01-01T00:00:00Z","name_a2s":"Uncletopia | Chicago | 8 | Community","protocol":17,"map":"workshop/koth_slaughter_rc1.ugc1712845210","folder":"tf","game":"Team Fortress","app_id":440,"player_count":22,"max_players":24,"Bots":0,"server_type":"Dedicated","server_os":"Linux","password":true,"vac":true,"version":"7723704","steam_id":85568392924866365,"keywords":["cp","nocrits","nodmgspread","uncletopia"],"game_id":440,"stv_port":27046,"stv_name":"Uncletopia | Chicago | 8 | Community | STV","players":[{"user_id":160,"name":"Black_chestnut","steam_id":76561198155524915,"connected_time":1680000000000,"state":"active","ping":80},{"user_id":178,"name":"Spicy Within Reason","steam_id":76561198066700370,"connected_time":99000000000,"state":"active","ping":85},{"user_id":168,"name":"sayad","steam_id":76561198080897870,"connected_time":385000000000,"state":"active","ping":72},{"user_id":170,"name":"Dethscream","steam_id":76561197997322964,"connected_time":289000000000,"state":"active","ping":105},{"user_id":171,"name":"Hunter","steam_id":76561198050617754,"connected_time":285000000000,"state":"active","ping":102},{"user_id":127,"name":"Goofball","steam_id":76561198061211537,"connected_time":3159000000000,"state":"active","ping":62},{"user_id":110,"name":"Reversed","steam_id":76561198136433466,"connected_time":4688000000000,"state":"active","ping":43},{"user_id":179,"name":"just jazz","steam_id":76561198010637797,"connected_time":64000000000,"state":"active","ping":79},{"user_id":158,"name":"TÖZI","steam_id":76561198045268695,"connected_time":1843000000000,"state":"active","ping":57},{"user_id":173,"name":"Brison","steam_id":76561197993377761,"connected_time":225000000000,"state":"active","ping":102},{"user_id":180,"name":"the real big santa","steam_id":76561197999945358,"connected_time":24000000000,"state":"spawning","ping":231},{"user_id":181,"name":"MrLeftTurn","steam_id":76561198856743969,"connected_time":3000000000,"state":"spawning","ping":141},{"user_id":147,"name":"vince","steam_id":76561198054144974,"connected_time":2019000000000,"state":"active","ping":54},{"user_id":142,"name":"AlbinoShrimp","steam_id":76561198105093150,"connected_time":2393000000000,"state":"active","ping":68},{"user_id":164,"name":"hugo","steam_id":76561198119139218,"connected_time":1210000000000,"state":"active","ping":63},{"user_id":140,"name":"Your Local Jester","steam_id":76561199120223717,"connected_time":2479000000000,"state":"active","ping":67},{"user_id":166,"name":"Vladimir Puddin","steam_id":76561198139674520,"connected_time":802000000000,"state":"active","ping":53},{"user_id":148,"name":"Ricola102","steam_id":76561198119692259,"connected_time":2010000000000,"state":"active","ping":61},{"user_id":162,"name":"bee","steam_id":76561198025553902,"connected_time":1553000000000,"state":"active","ping":45},{"user_id":156,"name":"ok i pull up","steam_id":76561198057054984,"connected_time":1894000000000,"state":"active","ping":105},{"user_id":153,"name":"Fermenting Kiwi","steam_id":76561198253303497,"connected_time":1915000000000,"state":"active","ping":82},{"user_id":165,"name":"FrostStorm","steam_id":76561198142685151,"connected_time":1148000000000,"state":"active","ping":64}]},{"server_id":8,"name":"Uncletopia | Dallas | 1 | All Maps","name_short":"dal-1","host":"dal-1.us.uncletopia.com","port":27015,"enabled":true,"region":"us-central","cc":"us","latitude":32.779167,"longitude":-96.80889,"reserved":0,"last_update":"0001-01-01T00:00:00Z","name_a2s":"Uncletopia | Dallas | 1 | All Maps","protocol":17,"map":"pl_barnblitz","folder":"tf","game":"Team Fortress","app_id":440,"player_count":24,"max_players":24,"Bots":0,"server_type":"Dedicated","server_os":"Linux","password":true,"vac":true,"version":"7723704","steam_id":85568392924469986,"keywords":["nocrits","nodmgspread","payload","uncletopia"],"game_id":440,"stv_port":27016,"stv_name":"Uncletopia | Dallas | 1 | All Maps | STV","players":[{"user_id":586,"name":"tj3002rocks","steam_id":76561199017921546,"connected_time":1458000000000,"state":"active","ping":55},{"user_id":571,"name":"Imrgrim","steam_id":76561198135866481,"connected_time":2051000000000,"state":"active","ping":69},{"user_id":594,"name":"ᕕ( ᐛ )ᕗ Wakko","steam_id":76561198049850471,"connected_time":937000000000,"state":"active","ping":54},{"user_id":574,"name":"Reloadstudios","steam_id":76561198064775507,"connected_time":2012000000000,"state":"active","ping":55},{"user_id":572,"name":"The Krinkler","steam_id":76561198020308956,"connected_time":2046000000000,"state":"active","ping":60},{"user_id":555,"name":"Stauxie","steam_id":76561198255030077,"connected_time":4096000000000,"state":"active","ping":85},{"user_id":596,"name":"leopardo123atl","steam_id":76561198872648238,"connected_time":918000000000,"state":"active","ping":81},{"user_id":601,"name":"Owl_Eye","steam_id":76561198386200439,"connected_time":654000000000,"state":"active","ping":78},{"user_id":556,"name":"nbwingdinger","steam_id":76561198412627015,"connected_time":4092000000000,"state":"active","ping":101},{"user_id":590,"name":"amagicowl","steam_id":76561199060487814,"connected_time":1266000000000,"state":"active","ping":74},{"user_id":599,"name":"Med","steam_id":76561199276331525,"connected_time":695000000000,"state":"active","ping":73},{"user_id":577,"name":"Moonflower ✦","steam_id":76561198191782483,"connected_time":1868000000000,"state":"active","ping":54},{"user_id":587,"name":"Dinger","steam_id":76561198030119710,"connected_time":1328000000000,"state":"active","ping":84},{"user_id":559,"name":"Agent Bowtie","steam_id":76561198175839279,"connected_time":3935000000000,"state":"active","ping":58},{"user_id":588,"name":"Damiano","steam_id":76561198065585796,"connected_time":1310000000000,"state":"active","ping":77},{"user_id":600,"name":"DOMO_MR_ROBOTO","steam_id":76561198077108345,"connected_time":684000000000,"state":"active","ping":71},{"user_id":598,"name":"Phosu","steam_id":76561198180162801,"connected_time":716000000000,"state":"active","ping":78},{"user_id":602,"name":"tacofever","steam_id":76561198010966507,"connected_time":295000000000,"state":"active","ping":81},{"user_id":595,"name":"An00bissmas","steam_id":76561198044084508,"connected_time":931000000000,"state":"active","ping":71},{"user_id":584,"name":"Hattara","steam_id":76561198268710858,"connected_time":1734000000000,"state":"active","ping":73},{"user_id":589,"name":"task","steam_id":76561198284992433,"connected_time":1307000000000,"state":"active","ping":75},{"user_id":564,"name":"furrein","steam_id":76561198318777982,"connected_time":2948000000000,"state":"active","ping":59},{"user_id":585,"name":"Drilly22","steam_id":76561198068838338,"connected_time":1726000000000,"state":"active","ping":64},{"user_id":568,"name":"kirbothebrony","steam_id":76561198971911330,"connected_time":2285000000000,"state":"active","ping":67}]},{"server_id":108,"name":"Uncletopia | Dallas | 2 | All Maps","name_short":"dal-2","host":"dal-1.us.uncletopia.com","port":27025,"enabled":true,"region":"us-central","cc":"us","latitude":32.779167,"longitude":-96.80889,"reserved":0,"last_update":"0001-01-01T00:00:00Z","name_a2s":"Uncletopia | Dallas | 2 | All Maps","protocol":17,"map":"pl_borneo","folder":"tf","game":"Team Fortress","app_id":440,"player_count":1,"max_players":24,"Bots":0,"server_type":"Dedicated","server_os":"Linux","password":true,"vac":true,"version":"7723704","steam_id":85568392924469988,"keywords":["nocrits","nodmgspread","payload","uncletopia"],"game_id":440,"stv_port":27026,"stv_name":"Uncletopia | Dallas | 2 | All Maps | STV","players":[{"user_id":485,"name":"kid squid","steam_id":76561198167016289,"connected_time":4000000000,"state":"spawning","ping":85}]},{"server_id":5,"name":"Uncletopia | Frankfurt | 1 | All Maps","name_short":"frk-1","host":"frk-1.de.uncletopia.com","port":27015,"enabled":true,"region":"eu","cc":"de","latitude":50.110924,"longitude":8.682127,"reserved":0,"last_update":"0001-01-01T00:00:00Z","name_a2s":"Uncletopia | Frankfurt | 1 | All Maps","protocol":17,"map":"cp_dustbowl","folder":"tf","game":"Team Fortress","app_id":440,"player_count":0,"max_players":24,"Bots":0,"server_type":"Dedicated","server_os":"Linux","password":true,"vac":true,"version":"7723704","steam_id":85568392924469989,"keywords":["cp","nocrits","nodmgspread","uncletopia"],"game_id":440,"stv_port":27016,"stv_name":"Uncletopia | Frankfurt | 1 | All Maps | STV","players":null},{"server_id":110,"name":"Uncletopia | Frankfurt | 2 | All Maps","name_short":"frk-2","host":"frk-1.de.uncletopia.com","port":27025,"enabled":true,"region":"eu","cc":"de","latitude":50.110924,"longitude":8.682127,"reserved":0,"last_update":"0001-01-01T00:00:00Z","name_a2s":"Uncletopia | Frankfurt | 2 | All Maps","protocol":17,"map":"koth_highpass","folder":"tf","game":"Team Fortress","app_id":440,"player_count":0,"max_players":24,"Bots":0,"server_type":"Dedicated","server_os":"Linux","password":true,"vac":true,"version":"7723704","steam_id":85568392924469990,"keywords":["cp","nocrits","nodmgspread","uncletopia"],"game_id":440,"stv_port":27026,"stv_name":"Uncletopia | Frankfurt | 2 | All Maps | STV","players":null},{"server_id":308,"name":"Uncletopia | Frankfurt | 3 | All Maps","name_short":"frk-3","host":"frk-1.de.uncletopia.com","port":27035,"enabled":true,"region":"eu","cc":"de","latitude":50.110924,"longitude":8.682127,"reserved":0,"last_update":"0001-01-01T00:00:00Z","name_a2s":"Uncletopia | Frankfurt | 3 | All Maps","protocol":17,"map":"koth_cascade","folder":"tf","game":"Team Fortress","app_id":440,"player_count":0,"max_players":24,"Bots":0,"server_type":"Dedicated","server_os":"Linux","password":true,"vac":true,"version":"7723704","steam_id":85568392924504274,"keywords":["cp","nocrits","nodmgspread","uncletopia"],"game_id":440,"stv_port":27036,"stv_name":"Uncletopia | Frankfurt | 3 | All Maps | STV","players":null},{"server_id":309,"name":"Uncletopia | Frankfurt | 4 | All Maps","name_short":"frk-4","host":"frk-1.de.uncletopia.com","port":27045,"enabled":true,"region":"eu","cc":"de","latitude":50.110924,"longitude":8.682127,"reserved":0,"last_update":"0001-01-01T00:00:00Z","name_a2s":"Uncletopia | Frankfurt | 4 | All Maps","protocol":17,"map":"cp_snakewater_final1","folder":"tf","game":"Team Fortress","app_id":440,"player_count":0,"max_players":24,"Bots":0,"server_type":"Dedicated","server_os":"Linux","password":true,"vac":true,"version":"7723704","steam_id":85568392924504275,"keywords":["cp","nocrits","nodmgspread","uncletopia"],"game_id":440,"stv_port":27046,"stv_name":"Uncletopia | Frankfurt | 4 | All Maps | STV","players":null},{"server_id":310,"name":"Uncletopia | Frankfurt | 5 | All Maps","name_short":"frk-5","host":"frk-1.de.uncletopia.com","port":27055,"enabled":true,"region":"eu","cc":"de","latitude":50.110924,"longitude":8.682127,"reserved":0,"last_update":"0001-01-01T00:00:00Z","name_a2s":"Uncletopia | Frankfurt | 5 | All Maps","protocol":17,"map":"koth_highpass","folder":"tf","game":"Team Fortress","app_id":440,"player_count":0,"max_players":24,"Bots":0,"server_type":"Dedicated","server_os":"Linux","password":true,"vac":true,"version":"7723704","steam_id":85568392924504277,"keywords":["cp","nocrits","nodmgspread","uncletopia"],"game_id":440,"stv_port":27056,"stv_name":"Uncletopia | Frankfurt | 5 | All Maps | STV","players":null},{"server_id":311,"name":"Uncletopia | Frankfurt | 6 | All Maps","name_short":"frk-6","host":"frk-1.de.uncletopia.com","port":27065,"enabled":true,"region":"eu","cc":"de","latitude":50.110924,"longitude":8.682127,"reserved":0,"last_update":"0001-01-01T00:00:00Z","name_a2s":"Uncletopia | Frankfurt | 6 | All Maps","protocol":17,"map":"koth_highpass","folder":"tf","game":"Team Fortress","app_id":440,"player_count":0,"max_players":24,"Bots":0,"server_type":"Dedicated","server_os":"Linux","password":true,"vac":true,"version":"7723704","steam_id":85568392924504278,"keywords":["cp","nocrits","nodmgspread","uncletopia"],"game_id":440,"stv_port":27066,"stv_name":"Uncletopia | Frankfurt | 6 | All Maps | STV","players":null},{"server_id":23,"name":"Uncletopia | Frankfurt | 7 | Stopwatch Beta","name_short":"frk-7","host":"frk-1.de.uncletopia.com","port":27075,"enabled":true,"region":"eu","cc":"de","latitude":50.110924,"longitude":8.682127,"reserved":0,"last_update":"0001-01-01T00:00:00Z","name_a2s":"Uncletopia | Frankfurt | 7 | Stopwatch Beta","protocol":17,"map":"workshop/pl_barnblitz_pro7.ugc582280235","folder":"tf","game":"Team Fortress","app_id":440,"player_count":0,"max_players":24,"Bots":0,"server_type":"Dedicated","server_os":"Linux","password":true,"vac":true,"version":"7723704","steam_id":85568392924742827,"keywords":["nocrits","nodmgspread","payload","uncletopia"],"game_id":440,"stv_port":27076,"stv_name":"Uncletopia | Frankfurt | 7 | Stopwatch Beta | STV","players":null},{"server_id":24,"name":"Uncletopia | Frankfurt | 8 | Community","name_short":"frk-8","host":"frk-1.de.uncletopia.com","port":27085,"enabled":true,"region":"eu","cc":"de","latitude":50.110924,"longitude":8.682127,"reserved":0,"last_update":"0001-01-01T00:00:00Z","name_a2s":"Uncletopia | Frankfurt | 8 | Community","protocol":17,"map":"workshop/cp_sulfur_rc2.ugc619869471","folder":"tf","game":"Team Fortress","app_id":440,"player_count":0,"max_players":24,"Bots":0,"server_type":"Dedicated","server_os":"Linux","password":true,"vac":true,"version":"7723704","steam_id":85568392924742828,"keywords":["cp","nocrits","nodmgspread","uncletopia"],"game_id":440,"stv_port":27086,"stv_name":"Uncletopia | Frankfurt | 8 | Community | STV","players":null},{"server_id":202,"name":"Uncletopia | Hong Kong | 1 | All Maps","name_short":"hgk-1","host":"hgk-1.hk.uncletopia.com","port":27015,"enabled":true,"region":"asia","cc":"hk","latitude":22.302711,"longitude":114.177216,"reserved":0,"last_update":"0001-01-01T00:00:00Z","name_a2s":"Uncletopia | Hong Kong | 1 | All Maps","protocol":17,"map":"pl_barnblitz","folder":"tf","game":"Team Fortress","app_id":440,"player_count":24,"max_players":24,"Bots":0,"server_type":"Dedicated","server_os":"Linux","password":true,"vac":true,"version":"7723704","steam_id":85568392924494504,"keywords":["nocrits","nodmgspread","payload","uncletopia"],"game_id":440,"stv_port":27016,"stv_name":"Uncletopia | Hong Kong | 1 | All Maps | STV","players":[{"user_id":125,"name":"Sinyeon","steam_id":76561198125363469,"connected_time":1734000000000,"state":"active","ping":82},{"user_id":110,"name":"-Alastor-Reaps","steam_id":76561198421652689,"connected_time":3333000000000,"state":"active","ping":62},{"user_id":119,"name":"cucumber","steam_id":76561198157549908,"connected_time":2513000000000,"state":"active","ping":104},{"user_id":126,"name":"SissyFemboy♡","steam_id":76561198841376347,"connected_time":1506000000000,"state":"active","ping":53},{"user_id":139,"name":"FrankOceanLover911","steam_id":76561198400698408,"connected_time":808000000000,"state":"active","ping":83},{"user_id":134,"name":"Bruh","steam_id":76561199334609494,"connected_time":1098000000000,"state":"active","ping":63},{"user_id":122,"name":"ogey","steam_id":76561198074339034,"connected_time":2388000000000,"state":"active","ping":73},{"user_id":140,"name":"Tin-Tin \u003c3","steam_id":76561199247983065,"connected_time":800000000000,"state":"active","ping":68},{"user_id":112,"name":"o2mo","steam_id":76561198412329672,"connected_time":3277000000000,"state":"active","ping":102},{"user_id":132,"name":"XperiaSai","steam_id":76561199249606454,"connected_time":1208000000000,"state":"active","ping":82},{"user_id":124,"name":"Kiyomi","steam_id":76561198240627872,"connected_time":2070000000000,"state":"active","ping":50},{"user_id":123,"name":"screaming sniper","steam_id":76561199085568674,"connected_time":2146000000000,"state":"active","ping":64},{"user_id":143,"name":"brizzard","steam_id":76561198048438653,"connected_time":338000000000,"state":"active","ping":47},{"user_id":141,"name":"MR.SAM","steam_id":76561198014846677,"connected_time":771000000000,"state":"active","ping":51},{"user_id":144,"name":"JayJ","steam_id":76561198324008555,"connected_time":192000000000,"state":"active","ping":55},{"user_id":108,"name":"薄荷猫轰轰","steam_id":76561198094558846,"connected_time":3575000000000,"state":"active","ping":58},{"user_id":117,"name":"IRA car dealership","steam_id":76561199224577498,"connected_time":3121000000000,"state":"active","ping":75},{"user_id":131,"name":"deadass sleepless","steam_id":76561198255521007,"connected_time":1350000000000,"state":"active","ping":39},{"user_id":136,"name":"T.","steam_id":76561198337887896,"connected_time":1014000000000,"state":"active","ping":80},{"user_id":116,"name":"vintage","steam_id":76561198230213828,"connected_time":3136000000000,"state":"active","ping":70},{"user_id":147,"name":"Giouri","steam_id":76561199152247162,"connected_time":159000000000,"state":"active","ping":80},{"user_id":137,"name":"Puddin","steam_id":76561198140052918,"connected_time":1002000000000,"state":"active","ping":88},{"user_id":138,"name":"sooth","steam_id":76561198376711660,"connected_time":916000000000,"state":"active","ping":60},{"user_id":148,"name":"Checkyoursix","steam_id":76561199080781578,"connected_time":78000000000,"state":"active","ping":64}]},{"server_id":1,"name":"Uncletopia | Los Angeles | 1 | All Maps","name_short":"lax-1","host":"lax-1.us.uncletopia.com","port":27015,"enabled":true,"region":"us-west","cc":"us","latitude":33.94279,"longitude":-118.41004,"reserved":0,"last_update":"0001-01-01T00:00:00Z","name_a2s":"Uncletopia | Los Angeles | 1 | All Maps","protocol":17,"map":"cp_steel","folder":"tf","game":"Team Fortress","app_id":440,"player_count":24,"max_players":24,"Bots":0,"server_type":"Dedicated","server_os":"Linux","password":true,"vac":true,"version":"7723704","steam_id":85568392924469991,"keywords":["cp","nocrits","nodmgspread","uncletopia"],"game_id":440,"stv_port":27016,"stv_name":"Uncletopia | Los Angeles | 1 | All Maps | STV","players":[{"user_id":342,"name":"Fred","steam_id":76561197983870604,"connected_time":5460000000000,"state":"active","ping":53},{"user_id":396,"name":"Smokin' Joe Rudeboy","steam_id":76561198122136432,"connected_time":799000000000,"state":"active","ping":76},{"user_id":397,"name":"jessica","steam_id":76561198178958761,"connected_time":666000000000,"state":"active","ping":98},{"user_id":391,"name":"Battery_Included","steam_id":76561198067164431,"connected_time":1337000000000,"state":"active","ping":54},{"user_id":378,"name":"Morbius","steam_id":76561198387984694,"connected_time":2820000000000,"state":"active","ping":75},{"user_id":368,"name":"S p a f f y","steam_id":76561198047892151,"connected_time":3666000000000,"state":"active","ping":63},{"user_id":395,"name":"Rx Auntie","steam_id":76561198051618393,"connected_time":887000000000,"state":"active","ping":52},{"user_id":398,"name":"Jayme","steam_id":76561198383110081,"connected_time":634000000000,"state":"active","ping":119},{"user_id":399,"name":"zonk","steam_id":76561198207253121,"connected_time":614000000000,"state":"active","ping":53},{"user_id":400,"name":"luigiclub112233","steam_id":76561198180548194,"connected_time":412000000000,"state":"active","ping":149},{"user_id":382,"name":"Reem0h","steam_id":76561198169848690,"connected_time":2082000000000,"state":"active","ping":110},{"user_id":405,"name":"Phantom, Release.","steam_id":76561198031487573,"connected_time":210000000000,"state":"active","ping":78},{"user_id":367,"name":"Nugakku","steam_id":76561198082346219,"connected_time":3816000000000,"state":"active","ping":55},{"user_id":402,"name":"Fijiッ","steam_id":76561198181234706,"connected_time":324000000000,"state":"active","ping":56},{"user_id":345,"name":"Mignyanne :3","steam_id":76561198048754056,"connected_time":5334000000000,"state":"active","ping":64},{"user_id":407,"name":"DannyM","steam_id":76561198351165570,"connected_time":90000000000,"state":"active","ping":69},{"user_id":326,"name":"ena - d","steam_id":76561198072329335,"connected_time":6828000000000,"state":"active","ping":117},{"user_id":327,"name":"jungus","steam_id":76561198129862008,"connected_time":6826000000000,"state":"active","ping":49},{"user_id":392,"name":"mañ","steam_id":76561199179477466,"connected_time":1301000000000,"state":"active","ping":59},{"user_id":359,"name":"Painkiller","steam_id":76561198049787400,"connected_time":4117000000000,"state":"active","ping":55},{"user_id":404,"name":"Tannenbaum Trotsky","steam_id":76561199101638460,"connected_time":276000000000,"state":"active","ping":85},{"user_id":406,"name":"rumes","steam_id":76561198349219467,"connected_time":187000000000,"state":"active","ping":94},{"user_id":357,"name":"NooBHatteR","steam_id":76561198077662703,"connected_time":4345000000000,"state":"active","ping":61},{"user_id":373,"name":"CaveMann","steam_id":76561198063049297,"connected_time":3418000000000,"state":"active","ping":58}]},{"server_id":112,"name":"Uncletopia | Los Angeles | 2 | All Maps","name_short":"lax-2","host":"lax-1.us.uncletopia.com","port":27025,"enabled":true,"region":"us-west","cc":"us","latitude":33.94279,"longitude":-118.41004,"reserved":0,"last_update":"0001-01-01T00:00:00Z","name_a2s":"Uncletopia | Los Angeles | 2 | All Maps","protocol":17,"map":"pl_wutville_event","folder":"tf","game":"Team Fortress","app_id":440,"player_count":14,"max_players":24,"Bots":0,"server_type":"Dedicated","server_os":"Linux","password":true,"vac":true,"version":"7723704","steam_id":85568392924469992,"keywords":["nocrits","nodmgspread","payload","uncletopia"],"game_id":440,"stv_port":27026,"stv_name":"Uncletopia | Los Angeles | 2 | All Maps | STV","players":[{"user_id":102,"name":"lost df player","steam_id":76561198042003968,"connected_time":411000000000,"state":"active","ping":66},{"user_id":86,"name":"greg.alden","steam_id":76561199022839084,"connected_time":1068000000000,"state":"active","ping":61},{"user_id":106,"name":"Fresh Salt","steam_id":76561198405501885,"connected_time":72000000000,"state":"active","ping":55},{"user_id":105,"name":"Cuno Doesn't Care!","steam_id":76561198007372782,"connected_time":240000000000,"state":"active","ping":50},{"user_id":22,"name":"The Glizzanator","steam_id":76561198115355451,"connected_time":6766000000000,"state":"active","ping":33},{"user_id":23,"name":"darkness.danny3481","steam_id":76561198132808002,"connected_time":6745000000000,"state":"active","ping":44},{"user_id":104,"name":"WalkinMan","steam_id":76561198047941142,"connected_time":362000000000,"state":"active","ping":45},{"user_id":66,"name":"TheGhostThatWas","steam_id":76561198055836483,"connected_time":2742000000000,"state":"active","ping":102},{"user_id":74,"name":"manbearswineflu","steam_id":76561198083945137,"connected_time":2455000000000,"state":"active","ping":103},{"user_id":79,"name":"BrightOrangeMango","steam_id":76561198023144607,"connected_time":2237000000000,"state":"active","ping":52},{"user_id":85,"name":"Trollage","steam_id":76561198165396407,"connected_time":1242000000000,"state":"active","ping":90},{"user_id":69,"name":"Honeybunch","steam_id":76561198014850580,"connected_time":2642000000000,"state":"active","ping":64},{"user_id":75,"name":"G. Howard Dee","steam_id":76561198058382812,"connected_time":2445000000000,"state":"active","ping":50},{"user_id":99,"name":"ingjess09","steam_id":76561199339732059,"connected_time":776000000000,"state":"active","ping":61}]},{"server_id":324,"name":"Uncletopia | Los Angeles | 3 | All Maps","name_short":"lax-3","host":"lax-1.us.uncletopia.com","port":27035,"enabled":true,"region":"us-west","cc":"us","latitude":33.94279,"longitude":-118.41004,"reserved":0,"last_update":"0001-01-01T00:00:00Z","name_a2s":"Uncletopia | Los Angeles | 3 | All Maps","protocol":17,"map":"koth_viaduct","folder":"tf","game":"Team Fortress","app_id":440,"player_count":0,"max_players":24,"Bots":0,"server_type":"Dedicated","server_os":"Linux","password":true,"vac":true,"version":"7723704","steam_id":85568392924510198,"keywords":["cp","nocrits","nodmgspread","uncletopia"],"game_id":440,"stv_port":27036,"stv_name":"Uncletopia | Los Angeles | 3 | All Maps | STV","players":null},{"server_id":25,"name":"Uncletopia | Los Angeles | 4 | Stopwatch Beta","name_short":"lax-4","host":"lax-1.us.uncletopia.com","port":27045,"enabled":true,"region":"us-west","cc":"us","latitude":33.94279,"longitude":-118.41004,"reserved":0,"last_update":"0001-01-01T00:00:00Z","name_a2s":"Uncletopia | Los Angeles | 4 | Stopwatch Beta","protocol":17,"map":"cp_sunshine","folder":"tf","game":"Team Fortress","app_id":440,"player_count":0,"max_players":24,"Bots":0,"server_type":"Dedicated","server_os":"Linux","password":true,"vac":true,"version":"7723704","steam_id":85568392924510199,"keywords":["cp","nocrits","nodmgspread","uncletopia"],"game_id":440,"stv_port":27046,"stv_name":"Uncletopia | Los Angeles | 4 | Stopwatch Beta | STV","players":null},{"server_id":11,"name":"Uncletopia | London | 1 | All Maps","name_short":"lon-1","host":"lon-1.uk.uncletopia.com","port":27015,"enabled":true,"region":"eu","cc":"gb","latitude":51.509865,"longitude":-0.118092,"reserved":0,"last_update":"0001-01-01T00:00:00Z","name_a2s":"Uncletopia | London | 1 | All Maps","protocol":17,"map":"pl_upward","folder":"tf","game":"Team Fortress","app_id":440,"player_count":24,"max_players":24,"Bots":0,"server_type":"Dedicated","server_os":"Linux","password":true,"vac":true,"version":"7723704","steam_id":85568392924367362,"keywords":["nocrits","nodmgspread","payload","uncletopia"],"game_id":440,"stv_port":27016,"stv_name":"Uncletopia | London | 1 | All Maps | STV","players":[{"user_id":1002,"name":"SuperBob103","steam_id":76561199175360012,"connected_time":6841000000000,"state":"active","ping":47},{"user_id":1024,"name":"sjerruf","steam_id":76561198078434681,"connected_time":5211000000000,"state":"active","ping":49},{"user_id":1146,"name":"toototabon","steam_id":76561198058085535,"connected_time":958000000000,"state":"active","ping":44},{"user_id":1167,"name":"leaf eater","steam_id":76561198083359604,"connected_time":11000000000,"state":"active","ping":126},{"user_id":954,"name":"SuntanPikachu","steam_id":76561198121242476,"connected_time":9205000000000,"state":"active","ping":48},{"user_id":1023,"name":"The Duke","steam_id":76561198063644325,"connected_time":5272000000000,"state":"active","ping":57},{"user_id":1162,"name":"ALOHADAWN","steam_id":76561198308282217,"connected_time":258000000000,"state":"active","ping":116},{"user_id":1135,"name":"the","steam_id":76561198968160899,"connected_time":2029000000000,"state":"active","ping":67},{"user_id":988,"name":"Hati","steam_id":76561198135520039,"connected_time":7473000000000,"state":"active","ping":74},{"user_id":1025,"name":"GoodGuyVv","steam_id":76561198256656295,"connected_time":5202000000000,"state":"active","ping":61},{"user_id":1138,"name":"Mir","steam_id":76561198271925474,"connected_time":1646000000000,"state":"active","ping":62},{"user_id":1126,"name":"Czech Mate","steam_id":76561198239905206,"connected_time":3326000000000,"state":"active","ping":57},{"user_id":942,"name":"Proto-arc","steam_id":76561198012776747,"connected_time":10389000000000,"state":"active","ping":58},{"user_id":1133,"name":"bur","steam_id":76561198824712597,"connected_time":2221000000000,"state":"active","ping":45},{"user_id":1164,"name":"Joji - Tick Tock","steam_id":76561198418414338,"connected_time":103000000000,"state":"active","ping":150},{"user_id":1131,"name":"Groose","steam_id":76561198261094295,"connected_time":2443000000000,"state":"active","ping":66},{"user_id":1132,"name":"Grand Wizard","steam_id":76561199414716848,"connected_time":2432000000000,"state":"active","ping":75},{"user_id":1141,"name":"jonbob","steam_id":76561197963506620,"connected_time":1029000000000,"state":"active","ping":47},{"user_id":1140,"name":"Rcki","steam_id":76561198164291462,"connected_time":1494000000000,"state":"active","ping":77},{"user_id":1044,"name":"Iru","steam_id":76561198077602040,"connected_time":4998000000000,"state":"active","ping":59},{"user_id":1124,"name":"Not Sussy Tanuki","steam_id":76561198137289375,"connected_time":3381000000000,"state":"active","ping":112},{"user_id":1144,"name":"Blue is ez","steam_id":76561198081239400,"connected_time":999000000000,"state":"active","ping":44},{"user_id":1128,"name":"r0la","steam_id":76561198128315340,"connected_time":3174000000000,"state":"active","ping":77},{"user_id":1137,"name":"Rat head","steam_id":76561198184360615,"connected_time":1944000000000,"state":"active","ping":103}]},{"server_id":114,"name":"Uncletopia | London | 2 | All Maps","name_short":"lon-2","host":"lon-1.uk.uncletopia.com","port":27025,"enabled":true,"region":"eu","cc":"gb","latitude":51.509865,"longitude":-0.118092,"reserved":0,"last_update":"0001-01-01T00:00:00Z","name_a2s":"Uncletopia | London | 2 | All Maps","protocol":17,"map":"koth_highpass","folder":"tf","game":"Team Fortress","app_id":440,"player_count":0,"max_players":24,"Bots":0,"server_type":"Dedicated","server_os":"Linux","password":true,"vac":true,"version":"7723704","steam_id":85568392924470941,"keywords":["cp","nocrits","nodmgspread","uncletopia"],"game_id":440,"stv_port":27026,"stv_name":"Uncletopia | London | 2 | All Maps | STV","players":null},{"server_id":320,"name":"Uncletopia | London | 3 | All Maps","name_short":"lon-3","host":"lon-1.uk.uncletopia.com","port":27035,"enabled":true,"region":"eu","cc":"gb","latitude":51.509865,"longitude":-0.118092,"reserved":0,"last_update":"0001-01-01T00:00:00Z","name_a2s":"Uncletopia | London | 3 | All Maps","protocol":17,"map":"pl_borneo","folder":"tf","game":"Team Fortress","app_id":440,"player_count":0,"max_players":24,"Bots":0,"server_type":"Dedicated","server_os":"Linux","password":true,"vac":true,"version":"7723704","steam_id":85568392924510192,"keywords":["nocrits","nodmgspread","payload","uncletopia"],"game_id":440,"stv_port":27036,"stv_name":"Uncletopia | London | 3 | All Maps | STV","players":null},{"server_id":321,"name":"Uncletopia | London | 4 | All Maps","name_short":"lon-4","host":"lon-1.uk.uncletopia.com","port":27045,"enabled":true,"region":"eu","cc":"gb","latitude":51.509865,"longitude":-0.118092,"reserved":0,"last_update":"0001-01-01T00:00:00Z","name_a2s":"Uncletopia | London | 4 | All Maps","protocol":17,"map":"koth_viaduct","folder":"tf","game":"Team Fortress","app_id":440,"player_count":0,"max_players":24,"Bots":0,"server_type":"Dedicated","server_os":"Linux","password":true,"vac":true,"version":"7723704","steam_id":85568392924510193,"keywords":["cp","nocrits","nodmgspread","uncletopia"],"game_id":440,"stv_port":27046,"stv_name":"Uncletopia | London | 4 | All Maps | STV","players":null},{"server_id":21,"name":"Uncletopia | London | 5 | All Maps","name_short":"lon-5","host":"lon-1.uk.uncletopia.com","port":27055,"enabled":true,"region":"eu","cc":"gb","latitude":51.509865,"longitude":-0.118092,"reserved":0,"last_update":"0001-01-01T00:00:00Z","name_a2s":"Uncletopia | London | 5 | All Maps","protocol":17,"map":"koth_lakeside_final","folder":"tf","game":"Team Fortress","app_id":440,"player_count":0,"max_players":24,"Bots":0,"server_type":"Dedicated","server_os":"Linux","password":true,"vac":true,"version":"7723704","steam_id":85568392924742829,"keywords":["cp","nocrits","nodmgspread","uncletopia"],"game_id":440,"stv_port":27056,"stv_name":"Uncletopia | London | 5 | All Maps | STV","players":null},{"server_id":22,"name":"Uncletopia | London | 6 | All Maps","name_short":"lon-6","host":"lon-1.uk.uncletopia.com","port":27065,"enabled":true,"region":"eu","cc":"gb","latitude":51.509865,"longitude":-0.118092,"reserved":0,"last_update":"0001-01-01T00:00:00Z","name_a2s":"Uncletopia | London | 6 | All Maps","protocol":17,"map":"koth_sawmill","folder":"tf","game":"Team Fortress","app_id":440,"player_count":0,"max_players":24,"Bots":0,"server_type":"Dedicated","server_os":"Linux","password":true,"vac":true,"version":"7723704","steam_id":85568392924742830,"keywords":["cp","nocrits","nodmgspread","uncletopia"],"game_id":440,"stv_port":27066,"stv_name":"Uncletopia | London | 6 | All Maps | STV","players":null},{"server_id":40,"name":"Uncletopia | London | 7 | No Payload","name_short":"lon-7","host":"lon-1.uk.uncletopia.com","port":27075,"enabled":true,"region":"eu","cc":"gb","latitude":51.509865,"longitude":-0.118092,"reserved":0,"last_update":"0001-01-01T00:00:00Z","name_a2s":"Uncletopia | London | 7 | No Payload","protocol":17,"map":"cp_process_final","folder":"tf","game":"Team Fortress","app_id":440,"player_count":0,"max_players":24,"Bots":0,"server_type":"Dedicated","server_os":"Linux","password":true,"vac":true,"version":"7723704","steam_id":85568392924964314,"keywords":["cp","nocrits","nodmgspread","uncletopia"],"game_id":440,"stv_port":27076,"stv_name":"Uncletopia | London | 7 | No Payload | STV","players":null},{"server_id":41,"name":"Uncletopia | London | 8 | Community","name_short":"lon-8","host":"lon-1.uk.uncletopia.com","port":27085,"enabled":true,"region":"eu","cc":"gb","latitude":51.509865,"longitude":-0.118092,"reserved":0,"last_update":"0001-01-01T00:00:00Z","name_a2s":"Uncletopia | London | 8 | Community","protocol":17,"map":"workshop/koth_ramjam_v2_b2.ugc2865676487","folder":"tf","game":"Team Fortress","app_id":440,"player_count":0,"max_players":24,"Bots":0,"server_type":"Dedicated","server_os":"Linux","password":true,"vac":true,"version":"7723704","steam_id":85568392924964315,"keywords":["cp","nocrits","nodmgspread","uncletopia"],"game_id":440,"stv_port":27086,"stv_name":"Uncletopia | London | 8 | Community | STV","players":null},{"server_id":300,"name":"Uncletopia | Montréal | 1 | All Maps","name_short":"mtl-1","host":"mtl-1.ca.uncletopia.com","port":27015,"enabled":true,"region":"us-east","cc":"ca","latitude":45.50889,"longitude":-73.56167,"reserved":0,"last_update":"0001-01-01T00:00:00Z","name_a2s":"Uncletopia | Montréal | 1 | All Maps","protocol":17,"map":"pl_swiftwater_final1","folder":"tf","game":"Team Fortress","app_id":440,"player_count":2,"max_players":24,"Bots":0,"server_type":"Dedicated","server_os":"Linux","password":true,"vac":true,"version":"7723704","steam_id":85568392924500087,"keywords":["nocrits","nodmgspread","payload","uncletopia"],"game_id":440,"stv_port":27016,"stv_name":"Uncletopia | Montréal | 1 | All Maps | STV","players":[{"user_id":20,"name":"matrixg2","steam_id":76561199237173512,"connected_time":2628000000000,"state":"active","ping":103},{"user_id":21,"name":"tested","steam_id":76561199168178765,"connected_time":2603000000000,"state":"active","ping":80}]},{"server_id":301,"name":"Uncletopia | Montréal | 2 | All Maps","name_short":"mtl-2","host":"mtl-1.ca.uncletopia.com","port":27025,"enabled":true,"region":"us-east","cc":"ca","latitude":45.50889,"longitude":-73.56167,"reserved":0,"last_update":"0001-01-01T00:00:00Z","name_a2s":"Uncletopia | Montréal | 2 | All Maps","protocol":17,"map":"koth_king","folder":"tf","game":"Team Fortress","app_id":440,"player_count":0,"max_players":24,"Bots":0,"server_type":"Dedicated","server_os":"Linux","password":true,"vac":true,"version":"7723704","steam_id":85568392924500088,"keywords":["cp","nocrits","nodmgspread","uncletopia"],"game_id":440,"stv_port":27026,"stv_name":"Uncletopia | Montréal | 2 | All Maps | STV","players":null},{"server_id":302,"name":"Uncletopia | Montréal | 3 | All Maps","name_short":"mtl-3","host":"mtl-1.ca.uncletopia.com","port":27035,"enabled":true,"region":"us-east","cc":"ca","latitude":45.50889,"longitude":-73.56167,"reserved":0,"last_update":"0001-01-01T00:00:00Z","name_a2s":"Uncletopia | Montréal | 3 | All Maps","protocol":17,"map":"cp_snakewater_final1","folder":"tf","game":"Team Fortress","app_id":440,"player_count":0,"max_players":24,"Bots":0,"server_type":"Dedicated","server_os":"Linux","password":true,"vac":true,"version":"7723704","steam_id":85568392924500089,"keywords":["cp","nocrits","nodmgspread","uncletopia"],"game_id":440,"stv_port":27036,"stv_name":"Uncletopia | Montréal | 3 | All Maps | STV","players":null},{"server_id":303,"name":"Uncletopia | Montréal | 4 | No Payload","name_short":"mtl-4","host":"mtl-1.ca.uncletopia.com","port":27045,"enabled":true,"region":"us-east","cc":"ca","latitude":45.50889,"longitude":-73.56167,"reserved":0,"last_update":"0001-01-01T00:00:00Z","name_a2s":"Uncletopia | Montréal | 4 | No Payload","protocol":17,"map":"koth_harvest_final","folder":"tf","game":"Team Fortress","app_id":440,"player_count":6,"max_players":24,"Bots":0,"server_type":"Dedicated","server_os":"Linux","password":true,"vac":true,"version":"7723704","steam_id":85568392924500090,"keywords":["cp","nocrits","nodmgspread","uncletopia"],"game_id":440,"stv_port":27046,"stv_name":"Uncletopia | Montréal | 4 | No Payload | STV","players":[{"user_id":15,"name":"Dorsalgull","steam_id":76561199098217729,"connected_time":1379000000000,"state":"active","ping":104},{"user_id":16,"name":"Knightking309","steam_id":76561199076546834,"connected_time":1337000000000,"state":"active","ping":95},{"user_id":17,"name":"gravityguard2008","steam_id":76561199125717725,"connected_time":1333000000000,"state":"active","ping":97},{"user_id":20,"name":"Rikka._.Pikka","steam_id":76561199002826853,"connected_time":66000000000,"state":"active","ping":116},{"user_id":19,"name":"Fribas","steam_id":76561198138502813,"connected_time":468000000000,"state":"active","ping":54},{"user_id":21,"name":"GREAT VALUE MILK","steam_id":76561198214702431,"connected_time":55000000000,"state":"active","ping":64}]},{"server_id":13,"name":"Uncletopia | New York City | 1 | All Maps","name_short":"nyc-1","host":"nyc-1.us.uncletopia.com","port":27015,"enabled":true,"region":"us-east","cc":"us","latitude":40.73061,"longitude":-73.93524,"reserved":0,"last_update":"0001-01-01T00:00:00Z","name_a2s":"Uncletopia | New York City | 1 | All Maps","protocol":17,"map":"koth_cascade","folder":"tf","game":"Team Fortress","app_id":440,"player_count":24,"max_players":24,"Bots":0,"server_type":"Dedicated","server_os":"Linux","password":true,"vac":true,"version":"7723704","steam_id":85568392924469993,"keywords":["cp","nocrits","nodmgspread","uncletopia"],"game_id":440,"stv_port":27016,"stv_name":"Uncletopia | New York City | 1 | All Maps | STV","players":[{"user_id":87,"name":"Diamond Jack","steam_id":76561198321304762,"connected_time":2544000000000,"state":"active","ping":45},{"user_id":88,"name":"Lion","steam_id":76561198848879603,"connected_time":2506000000000,"state":"active","ping":52},{"user_id":89,"name":"Uhonlapjanteszika","steam_id":76561199431280503,"connected_time":2455000000000,"state":"active","ping":53},{"user_id":123,"name":"ᗜˬᗜ","steam_id":76561198049076233,"connected_time":165000000000,"state":"active","ping":45},{"user_id":125,"name":"ICE CUBE","steam_id":76561198851912896,"connected_time":32000000000,"state":"active","ping":75},{"user_id":91,"name":"A Puppy","steam_id":76561198828184456,"connected_time":2381000000000,"state":"active","ping":49},{"user_id":124,"name":"Anhkrehg","steam_id":76561197963201684,"connected_time":162000000000,"state":"active","ping":72},{"user_id":122,"name":"²⁹³Ts","steam_id":76561198217955315,"connected_time":452000000000,"state":"active","ping":80},{"user_id":108,"name":"M249 | Spectre","steam_id":76561198118334485,"connected_time":1143000000000,"state":"active","ping":66},{"user_id":112,"name":"Joy #savetf2","steam_id":76561198073690173,"connected_time":966000000000,"state":"active","ping":54},{"user_id":85,"name":"LividALX","steam_id":76561198145429015,"connected_time":2870000000000,"state":"active","ping":40},{"user_id":64,"name":"Drizzle","steam_id":76561198152143806,"connected_time":5802000000000,"state":"active","ping":63},{"user_id":105,"name":"Chris Dorner","steam_id":76561198123828188,"connected_time":1638000000000,"state":"active","ping":49},{"user_id":82,"name":"ShaqtusHD","steam_id":76561199138286233,"connected_time":3253000000000,"state":"active","ping":53},{"user_id":107,"name":"Kronk","steam_id":76561198010276205,"connected_time":1620000000000,"state":"active","ping":62},{"user_id":86,"name":"PinkLemonade","steam_id":76561198799286228,"connected_time":2645000000000,"state":"active","ping":46},{"user_id":51,"name":"SRV","steam_id":76561198026589960,"connected_time":6417000000000,"state":"active","ping":69},{"user_id":52,"name":"atserc","steam_id":76561197997570349,"connected_time":6411000000000,"state":"active","ping":93},{"user_id":115,"name":"buzz","steam_id":76561198107899101,"connected_time":828000000000,"state":"active","ping":52},{"user_id":119,"name":"desktop","steam_id":76561198161385366,"connected_time":711000000000,"state":"active","ping":52},{"user_id":117,"name":"Chimpe","steam_id":76561198066228209,"connected_time":761000000000,"state":"active","ping":64},{"user_id":118,"name":"DJ Chalice","steam_id":76561197974872458,"connected_time":749000000000,"state":"active","ping":52},{"user_id":120,"name":"Infinitee","steam_id":76561198125409130,"connected_time":708000000000,"state":"active","ping":42},{"user_id":58,"name":"Crabbymic","steam_id":76561197979418745,"connected_time":6394000000000,"state":"active","ping":50}]},{"server_id":14,"name":"Uncletopia | New York City | 2 | All Maps","name_short":"nyc-2","host":"nyc-1.us.uncletopia.com","port":27025,"enabled":true,"region":"us-east","cc":"us","latitude":40.73061,"longitude":-73.93524,"reserved":0,"last_update":"0001-01-01T00:00:00Z","name_a2s":"Uncletopia | New York City | 2 | All Maps","protocol":17,"map":"pl_borneo","folder":"tf","game":"Team Fortress","app_id":440,"player_count":24,"max_players":24,"Bots":0,"server_type":"Dedicated","server_os":"Linux","password":true,"vac":true,"version":"7723704","steam_id":85568392924469994,"keywords":["nocrits","nodmgspread","payload","uncletopia"],"game_id":440,"stv_port":27026,"stv_name":"Uncletopia | New York City | 2 | All Maps | STV","players":[{"user_id":327,"name":"Draconic Ballad","steam_id":76561198027191515,"connected_time":1122000000000,"state":"active","ping":69},{"user_id":272,"name":"festive Λlxium","steam_id":76561198131272900,"connected_time":5534000000000,"state":"active","ping":74},{"user_id":320,"name":"PunchGhost","steam_id":76561198041668043,"connected_time":2259000000000,"state":"active","ping":64},{"user_id":312,"name":"Lore","steam_id":76561198098407538,"connected_time":3158000000000,"state":"active","ping":66},{"user_id":314,"name":"Jolly evil little man","steam_id":76561198311053471,"connected_time":3150000000000,"state":"active","ping":79},{"user_id":332,"name":"schwicky shwag","steam_id":76561198037921140,"connected_time":421000000000,"state":"active","ping":113},{"user_id":298,"name":"Godmode","steam_id":76561198076240365,"connected_time":4788000000000,"state":"active","ping":76},{"user_id":328,"name":"McNamJam","steam_id":76561198028128686,"connected_time":1116000000000,"state":"active","ping":118},{"user_id":321,"name":"Plinko","steam_id":76561197968530638,"connected_time":2087000000000,"state":"active","ping":59},{"user_id":309,"name":"Sir Quacksalot","steam_id":76561198048942777,"connected_time":3285000000000,"state":"active","ping":91},{"user_id":306,"name":"C papi","steam_id":76561198027779564,"connected_time":3953000000000,"state":"active","ping":62},{"user_id":307,"name":"Braamklauw","steam_id":76561198283287697,"connected_time":3473000000000,"state":"active","ping":141},{"user_id":319,"name":"Luis wid a mic","steam_id":76561198349570006,"connected_time":2602000000000,"state":"active","ping":37},{"user_id":316,"name":"Mr. Squidward","steam_id":76561198103821671,"connected_time":3140000000000,"state":"active","ping":61},{"user_id":322,"name":"Voyager","steam_id":76561199128786637,"connected_time":2046000000000,"state":"active","ping":96},{"user_id":323,"name":"canadian birds","steam_id":76561198059466588,"connected_time":2035000000000,"state":"active","ping":51},{"user_id":241,"name":"Dusty Bucket","steam_id":76561198037064732,"connected_time":8122000000000,"state":"active","ping":40},{"user_id":243,"name":"monoculus man","steam_id":76561198065108835,"connected_time":8104000000000,"state":"active","ping":61},{"user_id":333,"name":"Charpop","steam_id":76561198067164133,"connected_time":206000000000,"state":"active","ping":82},{"user_id":263,"name":"layabout","steam_id":76561198130892117,"connected_time":6228000000000,"state":"active","ping":49},{"user_id":334,"name":"hashmap","steam_id":76561198043794014,"connected_time":33000000000,"state":"active","ping":59},{"user_id":247,"name":"Sideshow Penguin","steam_id":76561198128024135,"connected_time":7922000000000,"state":"active","ping":48},{"user_id":297,"name":"bikerkid207","steam_id":76561198390782783,"connected_time":4843000000000,"state":"active","ping":44},{"user_id":326,"name":"HAT-WEARING™ Maggot Gamer Cat","steam_id":76561197973992705,"connected_time":1294000000000,"state":"active","ping":118}]},{"server_id":15,"name":"Uncletopia | New York City | 3 | Stopwatch Beta","name_short":"nyc-3","host":"nyc-1.us.uncletopia.com","port":27035,"enabled":true,"region":"us-east","cc":"us","latitude":40.73061,"longitude":-73.93524,"reserved":0,"last_update":"0001-01-01T00:00:00Z","name_a2s":"Uncletopia | New York City | 3 | Stopwatch Beta","protocol":17,"map":"cp_process_final","folder":"tf","game":"Team Fortress","app_id":440,"player_count":0,"max_players":24,"Bots":0,"server_type":"Dedicated","server_os":"Linux","password":true,"vac":true,"version":"7723704","steam_id":85568392924742820,"keywords":["cp","nocrits","nodmgspread","uncletopia"],"game_id":440,"stv_port":27036,"stv_name":"Uncletopia | New York City | 3 | Stopwatch Beta | STV","players":null},{"server_id":16,"name":"Uncletopia | New York City | 4 | Community","name_short":"nyc-4","host":"nyc-1.us.uncletopia.com","port":27045,"enabled":true,"region":"us-east","cc":"us","latitude":40.73061,"longitude":-73.93524,"reserved":0,"last_update":"0001-01-01T00:00:00Z","name_a2s":"Uncletopia | New York City | 4 | Community","protocol":17,"map":"workshop/pl_eruption_b8c.ugc2865677281","folder":"tf","game":"Team Fortress","app_id":440,"player_count":7,"max_players":24,"Bots":0,"server_type":"Dedicated","server_os":"Linux","password":true,"vac":true,"version":"7723704","steam_id":85568392924742821,"keywords":["nocrits","nodmgspread","payload","uncletopia"],"game_id":440,"stv_port":27046,"stv_name":"Uncletopia | New York City | 4 | Community | STV","players":[{"user_id":46,"name":"name420","steam_id":76561198129374525,"connected_time":5220000000000,"state":"active","ping":62},{"user_id":45,"name":"Chillin Turt","steam_id":76561198025796849,"connected_time":5255000000000,"state":"active","ping":62},{"user_id":56,"name":"spaghetti man","steam_id":76561199020253203,"connected_time":2995000000000,"state":"active","ping":104},{"user_id":70,"name":"Chap","steam_id":76561198294226443,"connected_time":471000000000,"state":"active","ping":133},{"user_id":55,"name":"cwaemy","steam_id":76561198325105447,"connected_time":3183000000000,"state":"active","ping":92},{"user_id":69,"name":"TheDemoDeux","steam_id":76561198150157133,"connected_time":848000000000,"state":"active","ping":61},{"user_id":61,"name":"tomatofrog","steam_id":76561199166803296,"connected_time":1827000000000,"state":"active","ping":80}]},{"server_id":142,"name":"Uncletopia | São Paulo | 1 | All Maps","name_short":"sao-1","host":"sao-1.br.uncletopia.com","port":27015,"enabled":true,"region":"sa","cc":"br","latitude":-23.533773,"longitude":-46.62529,"reserved":0,"last_update":"0001-01-01T00:00:00Z","name_a2s":"Uncletopia | São Paulo | 1 | All Maps","protocol":17,"map":"pl_barnblitz","folder":"tf","game":"Team Fortress","app_id":440,"player_count":0,"max_players":24,"Bots":0,"server_type":"Dedicated","server_os":"Linux","password":true,"vac":true,"version":"7723704","steam_id":85568392924469996,"keywords":["nocrits","nodmgspread","payload","uncletopia"],"game_id":440,"stv_port":27016,"stv_name":"Uncletopia | São Paulo | 1 | All Maps | STV","players":null},{"server_id":143,"name":"Uncletopia | São Paulo | 2 | All Maps","name_short":"sao-2","host":"sao-2.br.uncletopia.com","port":27015,"enabled":true,"region":"sa","cc":"br","latitude":-23.533773,"longitude":-46.62529,"reserved":0,"last_update":"0001-01-01T00:00:00Z","name_a2s":"Uncletopia | São Paulo | 2 | All Maps","protocol":17,"map":"pl_borneo","folder":"tf","game":"Team Fortress","app_id":440,"player_count":0,"max_players":24,"Bots":0,"server_type":"Dedicated","server_os":"Linux","password":true,"vac":true,"version":"7723704","steam_id":85568392924485349,"keywords":["nocrits","nodmgspread","payload","uncletopia"],"game_id":440,"stv_port":27016,"stv_name":"Uncletopia | São Paulo | 2 | All Maps | STV","players":null},{"server_id":7,"name":"Uncletopia | Seattle | 1 | All Maps","name_short":"sea-1","host":"sea-1.us.uncletopia.com","port":27015,"enabled":true,"region":"us-west","cc":"us","latitude":47.608013,"longitude":-122.33517,"reserved":0,"last_update":"0001-01-01T00:00:00Z","name_a2s":"Uncletopia | Seattle | 1 | All Maps","protocol":17,"map":"cp_freight_final1","folder":"tf","game":"Team Fortress","app_id":440,"player_count":24,"max_players":24,"Bots":0,"server_type":"Dedicated","server_os":"Linux","password":true,"vac":true,"version":"7723704","steam_id":85568392924469997,"keywords":["cp","nocrits","nodmgspread","uncletopia"],"game_id":440,"stv_port":27016,"stv_name":"Uncletopia | Seattle | 1 | All Maps | STV","players":[{"user_id":407,"name":"COOL master_9","steam_id":76561198073041151,"connected_time":1330000000000,"state":"active","ping":128},{"user_id":420,"name":"Cheeseoid","steam_id":76561198073836524,"connected_time":377000000000,"state":"active","ping":109},{"user_id":410,"name":"the","steam_id":76561198079418310,"connected_time":1241000000000,"state":"active","ping":54},{"user_id":306,"name":"Luca","steam_id":76561198125087140,"connected_time":10447000000000,"state":"active","ping":54},{"user_id":372,"name":"zoo music girl","steam_id":76561198325306660,"connected_time":4297000000000,"state":"active","ping":57},{"user_id":408,"name":"PorgyPork","steam_id":76561198824399078,"connected_time":1317000000000,"state":"active","ping":59},{"user_id":400,"name":"cyra","steam_id":76561198025454291,"connected_time":2310000000000,"state":"active","ping":36},{"user_id":419,"name":"Blitzvandel","steam_id":76561198129249706,"connected_time":459000000000,"state":"active","ping":50},{"user_id":418,"name":"Naffers","steam_id":76561198195957335,"connected_time":478000000000,"state":"active","ping":43},{"user_id":388,"name":"squash","steam_id":76561198150281353,"connected_time":2575000000000,"state":"active","ping":56},{"user_id":411,"name":"U of SC Office of Financial Aid","steam_id":76561198182294378,"connected_time":1231000000000,"state":"active","ping":70},{"user_id":379,"name":"rat gets the cheese","steam_id":76561198031234032,"connected_time":4161000000000,"state":"active","ping":100},{"user_id":395,"name":"Bottom Trans Cowgirl","steam_id":76561198304239680,"connected_time":2533000000000,"state":"active","ping":107},{"user_id":373,"name":"Dr. Banana boy","steam_id":76561199012105803,"connected_time":4200000000000,"state":"active","ping":51},{"user_id":414,"name":"Hatefulz/Joker","steam_id":76561198964535584,"connected_time":1131000000000,"state":"active","ping":85},{"user_id":421,"name":"Piper Knightley","steam_id":76561198040865392,"connected_time":309000000000,"state":"active","ping":84},{"user_id":340,"name":"lili.winters","steam_id":76561199391478575,"connected_time":8027000000000,"state":"active","ping":65},{"user_id":403,"name":"[TrC] Nosy","steam_id":76561197978859310,"connected_time":1901000000000,"state":"active","ping":62},{"user_id":422,"name":"trackpad gaming | f2p","steam_id":76561198840414371,"connected_time":120000000000,"state":"active","ping":161},{"user_id":417,"name":"sockman","steam_id":76561198108408235,"connected_time":728000000000,"state":"active","ping":93},{"user_id":423,"name":"Kromeousible","steam_id":76561198087317232,"connected_time":118000000000,"state":"active","ping":94},{"user_id":416,"name":"Level 99 Mudcrab","steam_id":76561198077452771,"connected_time":846000000000,"state":"active","ping":62},{"user_id":406,"name":"[TrC] Dackstrus","steam_id":76561197973518509,"connected_time":1698000000000,"state":"active","ping":61},{"user_id":376,"name":"Be Gay, Do Crimes, Smoke Weed!","steam_id":76561198092419868,"connected_time":4175000000000,"state":"active","ping":50}]},{"server_id":119,"name":"Uncletopia | Seattle | 2 | All Maps","name_short":"sea-2","host":"sea-1.us.uncletopia.com","port":27025,"enabled":true,"region":"us-west","cc":"us","latitude":47.608013,"longitude":-122.33517,"reserved":0,"last_update":"0001-01-01T00:00:00Z","name_a2s":"Uncletopia | Seattle | 2 | All Maps","protocol":17,"map":"koth_lakeside_final","folder":"tf","game":"Team Fortress","app_id":440,"player_count":3,"max_players":24,"Bots":0,"server_type":"Dedicated","server_os":"Linux","password":true,"vac":true,"version":"7723704","steam_id":85568392924469998,"keywords":["cp","nocrits","nodmgspread","uncletopia"],"game_id":440,"stv_port":27026,"stv_name":"Uncletopia | Seattle | 2 | All Maps | STV","players":[{"user_id":403,"name":"Ms. BirD","steam_id":76561198309058062,"connected_time":1055000000000,"state":"active","ping":188},{"user_id":408,"name":"TheBold","steam_id":76561199194787298,"connected_time":239000000000,"state":"active","ping":48},{"user_id":267,"name":"gaming","steam_id":76561198338610196,"connected_time":7344000000000,"state":"active","ping":80}]},{"server_id":406,"name":"Uncletopia | Seattle | 3 | Stopwatch Beta","name_short":"sea-3","host":"sea-1.us.uncletopia.com","port":27035,"enabled":true,"region":"us-west","cc":"us","latitude":47.608013,"longitude":-122.33517,"reserved":0,"last_update":"0001-01-01T00:00:00Z","name_a2s":"Uncletopia | Seattle | 3 | Stopwatch Beta","protocol":17,"map":"cp_altitude","folder":"tf","game":"Team Fortress","app_id":440,"player_count":0,"max_players":24,"Bots":0,"server_type":"Dedicated","server_os":"Linux","password":true,"vac":false,"version":"7723704","steam_id":0,"keywords":["cp","nocrits","nodmgspread","uncletopia"],"game_id":440,"stv_port":27036,"stv_name":"Uncletopia | Seattle | 3 | Stopwatch Beta | STV","players":null},{"server_id":17,"name":"Uncletopia | San Francisco | 1 | All Maps","name_short":"sfo-1","host":"sfo-1.us.uncletopia.com","port":27015,"enabled":true,"region":"us-west","cc":"us","latitude":37.77397,"longitude":-122.4313,"reserved":0,"last_update":"0001-01-01T00:00:00Z","name_a2s":"Uncletopia | San Francisco | 1 | All Maps","protocol":17,"map":"pl_hoodoo_final","folder":"tf","game":"Team Fortress","app_id":440,"player_count":24,"max_players":24,"Bots":0,"server_type":"Dedicated","server_os":"Linux","password":true,"vac":true,"version":"7723704","steam_id":85568392924469999,"keywords":["nocrits","nodmgspread","payload","uncletopia"],"game_id":440,"stv_port":27016,"stv_name":"Uncletopia | San Francisco | 1 | All Maps | STV","players":[{"user_id":316,"name":"Steve Obi Wan Ben Larry Kenobi","steam_id":76561199154188122,"connected_time":2828000000000,"state":"active","ping":100},{"user_id":328,"name":"N0_J0K3","steam_id":76561198287102197,"connected_time":1551000000000,"state":"active","ping":87},{"user_id":325,"name":"Jax O'Gaytor","steam_id":76561198288922168,"connected_time":1579000000000,"state":"active","ping":66},{"user_id":307,"name":"im new to these things","steam_id":76561198425027856,"connected_time":3361000000000,"state":"active","ping":45},{"user_id":298,"name":"beheeyem","steam_id":76561198042867745,"connected_time":3966000000000,"state":"active","ping":65},{"user_id":337,"name":"French Cowboy, Moncree","steam_id":76561198182999801,"connected_time":891000000000,"state":"active","ping":75},{"user_id":323,"name":"45 Cent","steam_id":76561198048690188,"connected_time":1979000000000,"state":"active","ping":122},{"user_id":326,"name":"SirArza","steam_id":76561198196214655,"connected_time":1562000000000,"state":"active","ping":103},{"user_id":344,"name":"TROY","steam_id":76561197983852176,"connected_time":311000000000,"state":"active","ping":60},{"user_id":313,"name":"Xmas Xtar","steam_id":76561198301774048,"connected_time":3099000000000,"state":"active","ping":72},{"user_id":339,"name":"VinnyTheRoo","steam_id":76561198844650441,"connected_time":858000000000,"state":"active","ping":62},{"user_id":329,"name":"SD","steam_id":76561198217410988,"connected_time":1519000000000,"state":"active","ping":51},{"user_id":309,"name":"MarshallMellows","steam_id":76561198231561020,"connected_time":3320000000000,"state":"active","ping":66},{"user_id":310,"name":"Zephyrtf","steam_id":76561198019820961,"connected_time":3315000000000,"state":"active","ping":52},{"user_id":341,"name":"yo quiero bacon","steam_id":76561198875054696,"connected_time":793000000000,"state":"active","ping":52},{"user_id":347,"name":"oh god i'm gonna CHUM","steam_id":76561198019210187,"connected_time":294000000000,"state":"active","ping":89},{"user_id":348,"name":"Dabois","steam_id":76561199147193419,"connected_time":277000000000,"state":"active","ping":68},{"user_id":324,"name":"Elias","steam_id":76561198031295139,"connected_time":1762000000000,"state":"active","ping":65},{"user_id":333,"name":"SHADOW (he/him)","steam_id":76561198207768148,"connected_time":1150000000000,"state":"active","ping":66},{"user_id":349,"name":"Vanguard","steam_id":76561198044844135,"connected_time":231000000000,"state":"active","ping":97},{"user_id":343,"name":"General Fisticuffs","steam_id":76561198255721392,"connected_time":331000000000,"state":"active","ping":98},{"user_id":346,"name":"Dali","steam_id":76561198077593486,"connected_time":307000000000,"state":"active","ping":66},{"user_id":331,"name":"ChefBoyardee","steam_id":76561199059293147,"connected_time":1495000000000,"state":"active","ping":58},{"user_id":287,"name":"Saiopun","steam_id":76561199011832069,"connected_time":4862000000000,"state":"active","ping":64}]},{"server_id":18,"name":"Uncletopia | San Francisco | 2 | All Maps","name_short":"sfo-2","host":"sfo-1.us.uncletopia.com","port":27025,"enabled":true,"region":"us-west","cc":"us","latitude":37.77397,"longitude":-122.4313,"reserved":0,"last_update":"0001-01-01T00:00:00Z","name_a2s":"Uncletopia | San Francisco | 2 | All Maps","protocol":17,"map":"pl_borneo","folder":"tf","game":"Team Fortress","app_id":440,"player_count":0,"max_players":24,"Bots":0,"server_type":"Dedicated","server_os":"Linux","password":true,"vac":true,"version":"7723704","steam_id":85568392924470000,"keywords":["nocrits","nodmgspread","payload","uncletopia"],"game_id":440,"stv_port":27026,"stv_name":"Uncletopia | San Francisco | 2 | All Maps | STV","players":null},{"server_id":19,"name":"Uncletopia | San Francisco | 3 | Stopwatch Beta","name_short":"sfo-3","host":"sfo-1.us.uncletopia.com","port":27035,"enabled":true,"region":"us-west","cc":"us","latitude":37.77397,"longitude":-122.4313,"reserved":0,"last_update":"0001-01-01T00:00:00Z","name_a2s":"Uncletopia | San Francisco | 3 | Stopwatch Beta","protocol":17,"map":"pl_pier","folder":"tf","game":"Team Fortress","app_id":440,"player_count":0,"max_players":24,"Bots":0,"server_type":"Dedicated","server_os":"Linux","password":true,"vac":true,"version":"7723704","steam_id":85568392924742824,"keywords":["nocrits","nodmgspread","payload","uncletopia"],"game_id":440,"stv_port":27036,"stv_name":"Uncletopia | San Francisco | 3 | Stopwatch Beta | STV","players":null},{"server_id":20,"name":"Uncletopia | San Francisco | 4 | Community","name_short":"sfo-4","host":"sfo-1.us.uncletopia.com","port":27045,"enabled":true,"region":"us-west","cc":"us","latitude":37.77397,"longitude":-122.4313,"reserved":0,"last_update":"0001-01-01T00:00:00Z","name_a2s":"Uncletopia | San Francisco | 4 | Community","protocol":17,"map":"koth_cascade","folder":"tf","game":"Team Fortress","app_id":440,"player_count":0,"max_players":24,"Bots":0,"server_type":"Dedicated","server_os":"Linux","password":true,"vac":true,"version":"7723704","steam_id":85568392924742826,"keywords":["cp","nocrits","nodmgspread","uncletopia"],"game_id":440,"stv_port":27046,"stv_name":"Uncletopia | San Francisco | 4 | Community | STV","players":null},{"server_id":141,"name":"Uncletopia | Sydney | 1 | All Maps","name_short":"syd-1","host":"syd-1.au.uncletopia.com","port":27015,"enabled":true,"region":"au","cc":"au","latitude":-33.865143,"longitude":151.2099,"reserved":0,"last_update":"0001-01-01T00:00:00Z","name_a2s":"Uncletopia | Sydney | 1 | All Maps","protocol":17,"map":"pl_snowycoast","folder":"tf","game":"Team Fortress","app_id":440,"player_count":0,"max_players":24,"Bots":0,"server_type":"Dedicated","server_os":"Linux","password":true,"vac":true,"version":"7723704","steam_id":85568392924470001,"keywords":["nocrits","nodmgspread","payload","uncletopia"],"game_id":440,"stv_port":27016,"stv_name":"Uncletopia | Sydney | 1 | All Maps | STV","players":null},{"server_id":123,"name":"Uncletopia | Sydney | 2 | All Maps","name_short":"syd-2","host":"syd-1.au.uncletopia.com","port":27025,"enabled":true,"region":"au","cc":"au","latitude":-33.865143,"longitude":151.2099,"reserved":0,"last_update":"0001-01-01T00:00:00Z","name_a2s":"Uncletopia | Sydney | 2 | All Maps","protocol":17,"map":"cp_mountainlab","folder":"tf","game":"Team Fortress","app_id":440,"player_count":0,"max_players":24,"Bots":0,"server_type":"Dedicated","server_os":"Linux","password":true,"vac":true,"version":"7723704","steam_id":85568392924470002,"keywords":["cp","nocrits","nodmgspread","uncletopia"],"game_id":440,"stv_port":27026,"stv_name":"Uncletopia | Sydney | 2 | All Maps | STV","players":null},{"server_id":395,"name":"Uncletopia | Sydney | 3 | All Maps","name_short":"syd-3","host":"syd-1.au.uncletopia.com","port":27035,"enabled":true,"region":"au","cc":"au","latitude":-33.865143,"longitude":151.2099,"reserved":0,"last_update":"0001-01-01T00:00:00Z","name_a2s":"Uncletopia | Sydney | 3 | All Maps","protocol":17,"map":"pl_swiftwater_final1","folder":"tf","game":"Team Fortress","app_id":440,"player_count":24,"max_players":24,"Bots":0,"server_type":"Dedicated","server_os":"Linux","password":true,"vac":true,"version":"7723704","steam_id":85568392925194467,"keywords":["nocrits","nodmgspread","payload","uncletopia"],"game_id":440,"stv_port":27036,"stv_name":"Uncletopia | Sydney | 3 | All Maps | STV","players":[{"user_id":96,"name":"speed bomb","steam_id":76561198277363788,"connected_time":6489000000000,"state":"active","ping":72},{"user_id":187,"name":"SkoKiE","steam_id":76561198283542986,"connected_time":277000000000,"state":"active","ping":61},{"user_id":181,"name":"cimpact","steam_id":76561198452258917,"connected_time":938000000000,"state":"active","ping":127},{"user_id":186,"name":"F2P","steam_id":76561198042064910,"connected_time":407000000000,"state":"active","ping":43},{"user_id":153,"name":"electro599","steam_id":76561198058148858,"connected_time":2815000000000,"state":"active","ping":53},{"user_id":116,"name":"bweegus wagoogus glumbus","steam_id":76561198063481761,"connected_time":4704000000000,"state":"active","ping":41},{"user_id":188,"name":"大きい男","steam_id":76561199089531604,"connected_time":237000000000,"state":"active","ping":56},{"user_id":114,"name":"Rizeo","steam_id":76561198147901488,"connected_time":4726000000000,"state":"active","ping":67},{"user_id":185,"name":"lavanderpumpernickle","steam_id":76561199093611800,"connected_time":541000000000,"state":"active","ping":56},{"user_id":178,"name":"void","steam_id":76561198241303512,"connected_time":1109000000000,"state":"active","ping":58},{"user_id":189,"name":"Swiggityswooty","steam_id":76561198045060731,"connected_time":180000000000,"state":"active","ping":80},{"user_id":194,"name":"UrDeadMan","steam_id":76561199082839801,"connected_time":43000000000,"state":"active","ping":54},{"user_id":191,"name":"Angel Sherling","steam_id":76561198374293303,"connected_time":89000000000,"state":"active","ping":43},{"user_id":118,"name":"the rot consumes","steam_id":76561199445490119,"connected_time":4645000000000,"state":"active","ping":33},{"user_id":168,"name":"zen","steam_id":76561198302670452,"connected_time":1633000000000,"state":"active","ping":60},{"user_id":195,"name":"Zeron","steam_id":76561198125778202,"connected_time":29000000000,"state":"active","ping":53},{"user_id":193,"name":"pooping on the sun","steam_id":76561198163369325,"connected_time":77000000000,"state":"active","ping":46},{"user_id":157,"name":"terrablade_master","steam_id":76561198997249192,"connected_time":2644000000000,"state":"active","ping":66},{"user_id":169,"name":"a can of beans","steam_id":76561199005815714,"connected_time":1632000000000,"state":"active","ping":49},{"user_id":196,"name":"Karou","steam_id":76561198821508617,"connected_time":21000000000,"state":"spawning","ping":330},{"user_id":174,"name":"fluffyselby","steam_id":76561199142645274,"connected_time":1471000000000,"state":"active","ping":47},{"user_id":162,"name":"Moral Sandwich","steam_id":76561198028535226,"connected_time":2106000000000,"state":"active","ping":86},{"user_id":175,"name":"xXkanyegamingXx","steam_id":76561198863936261,"connected_time":1393000000000,"state":"active","ping":47},{"user_id":159,"name":"Novix","steam_id":76561198255494226,"connected_time":2516000000000,"state":"active","ping":50}]},{"server_id":396,"name":"Uncletopia | Sydney | 4 | All Maps","name_short":"syd-4","host":"syd-1.au.uncletopia.com","port":27045,"enabled":true,"region":"au","cc":"au","latitude":-33.865143,"longitude":151.2099,"reserved":0,"last_update":"0001-01-01T00:00:00Z","name_a2s":"Uncletopia | Sydney | 4 | All Maps","protocol":17,"map":"koth_lakeside_final","folder":"tf","game":"Team Fortress","app_id":440,"player_count":0,"max_players":24,"Bots":0,"server_type":"Dedicated","server_os":"Linux","password":true,"vac":true,"version":"7723704","steam_id":85568392925397958,"keywords":["cp","nocrits","nodmgspread","uncletopia"],"game_id":440,"stv_port":27046,"stv_name":"Uncletopia | Sydney | 4 | All Maps | STV","players":null},{"server_id":58,"name":"Uncletopia | Sydney | 5 | Stopwatch Beta","name_short":"syd-5","host":"syd-1.au.uncletopia.com","port":27055,"enabled":true,"region":"au","cc":"au","latitude":-33.865143,"longitude":151.2099,"reserved":0,"last_update":"0001-01-01T00:00:00Z","name_a2s":"Uncletopia | Sydney | 5 | Stopwatch Beta","protocol":17,"map":"cp_altitude","folder":"tf","game":"Team Fortress","app_id":440,"player_count":0,"max_players":24,"Bots":0,"server_type":"Dedicated","server_os":"Linux","password":true,"vac":true,"version":"7723704","steam_id":85568392925397959,"keywords":["cp","nocrits","nodmgspread","uncletopia"],"game_id":440,"stv_port":27056,"stv_name":"Uncletopia | Sydney | 5 | Stopwatch Beta | STV","players":null},{"server_id":59,"name":"Uncletopia | Sydney | 6 | Community","name_short":"syd-6","host":"syd-1.au.uncletopia.com","port":27065,"enabled":true,"region":"au","cc":"au","latitude":-33.865143,"longitude":151.2099,"reserved":0,"last_update":"0001-01-01T00:00:00Z","name_a2s":"Uncletopia | Sydney | 6 | Community","protocol":17,"map":"workshop/koth_ramjam_v2_b2.ugc2865676487","folder":"tf","game":"Team Fortress","app_id":440,"player_count":1,"max_players":24,"Bots":0,"server_type":"Dedicated","server_os":"Linux","password":true,"vac":true,"version":"7723704","steam_id":85568392925397960,"keywords":["cp","nocrits","nodmgspread","uncletopia"],"game_id":440,"stv_port":27066,"stv_name":"Uncletopia | Sydney | 6 | Community | STV","players":[{"user_id":4,"name":"the spy is a lie","steam_id":76561198181615222,"connected_time":61000000000,"state":"active","ping":57}]},{"server_id":49,"name":"Uncletopia | Warsaw | 1 | All Maps","name_short":"waw-1","host":"waw-1.pl.uncletopia.com","port":27015,"enabled":true,"region":"eu","cc":"pl","latitude":52.2297,"longitude":21.017532,"reserved":0,"last_update":"0001-01-01T00:00:00Z","name_a2s":"Uncletopia | Warsaw | 1 | All Maps","protocol":17,"map":"pl_badwater","folder":"tf","game":"Team Fortress","app_id":440,"player_count":0,"max_players":24,"Bots":0,"server_type":"Dedicated","server_os":"Linux","password":true,"vac":true,"version":"7723704","steam_id":85568392925397850,"keywords":["nocrits","nodmgspread","payload","uncletopia"],"game_id":440,"stv_port":27016,"stv_name":"Uncletopia | Warsaw | 1 | All Maps | STV","players":null},{"server_id":50,"name":"Uncletopia | Warsaw | 2 | All Maps","name_short":"waw-2","host":"waw-1.pl.uncletopia.com","port":27025,"enabled":true,"region":"eu","cc":"pl","latitude":52.2297,"longitude":21.017532,"reserved":0,"last_update":"0001-01-01T00:00:00Z","name_a2s":"Uncletopia | Warsaw | 2 | All Maps","protocol":17,"map":"koth_lakeside_final","folder":"tf","game":"Team Fortress","app_id":440,"player_count":0,"max_players":24,"Bots":0,"server_type":"Dedicated","server_os":"Linux","password":true,"vac":true,"version":"7723704","steam_id":85568392925397851,"keywords":["cp","nocrits","nodmgspread","uncletopia"],"game_id":440,"stv_port":27026,"stv_name":"Uncletopia | Warsaw | 2 | All Maps | STV","players":null},{"server_id":51,"name":"Uncletopia | Warsaw | 3 | All Maps","name_short":"waw-3","host":"waw-1.pl.uncletopia.com","port":27035,"enabled":true,"region":"eu","cc":"pl","latitude":52.2297,"longitude":21.017532,"reserved":0,"last_update":"0001-01-01T00:00:00Z","name_a2s":"Uncletopia | Warsaw | 3 | All Maps","protocol":17,"map":"koth_viaduct","folder":"tf","game":"Team Fortress","app_id":440,"player_count":0,"max_players":24,"Bots":0,"server_type":"Dedicated","server_os":"Linux","password":true,"vac":true,"version":"7723704","steam_id":85568392925397852,"keywords":["cp","nocrits","nodmgspread","uncletopia"],"game_id":440,"stv_port":27036,"stv_name":"Uncletopia | Warsaw | 3 | All Maps | STV","players":null},{"server_id":52,"name":"Uncletopia | Warsaw | 4 | All Maps","name_short":"waw-4","host":"waw-1.pl.uncletopia.com","port":27045,"enabled":true,"region":"eu","cc":"pl","latitude":52.2297,"longitude":21.017532,"reserved":0,"last_update":"0001-01-01T00:00:00Z","name_a2s":"Uncletopia | Warsaw | 4 | All Maps","protocol":17,"map":"cp_altitude","folder":"tf","game":"Team Fortress","app_id":440,"player_count":0,"max_players":24,"Bots":0,"server_type":"Dedicated","server_os":"Linux","password":true,"vac":true,"version":"7723704","steam_id":85568392925397853,"keywords":["cp","nocrits","nodmgspread","uncletopia"],"game_id":440,"stv_port":27046,"stv_name":"Uncletopia | Warsaw | 4 | All Maps | STV","players":null},{"server_id":53,"name":"Uncletopia | Warsaw | 5 | Stopwatch Beta","name_short":"waw-5","host":"waw-1.pl.uncletopia.com","port":27055,"enabled":true,"region":"eu","cc":"pl","latitude":52.2297,"longitude":21.017532,"reserved":0,"last_update":"0001-01-01T00:00:00Z","name_a2s":"Uncletopia | Warsaw | 5 | Stopwatch Beta","protocol":17,"map":"cp_sunshine","folder":"tf","game":"Team Fortress","app_id":440,"player_count":0,"max_players":24,"Bots":0,"server_type":"Dedicated","server_os":"Linux","password":true,"vac":true,"version":"7723704","steam_id":85568392925397854,"keywords":["cp","nocrits","nodmgspread","uncletopia"],"game_id":440,"stv_port":27056,"stv_name":"Uncletopia | Warsaw | 5 | Stopwatch Beta | STV","players":null},{"server_id":54,"name":"Uncletopia | Warsaw | 6 | Community","name_short":"waw-6","host":"waw-1.pl.uncletopia.com","port":27065,"enabled":true,"region":"eu","cc":"pl","latitude":52.2297,"longitude":21.017532,"reserved":0,"last_update":"0001-01-01T00:00:00Z","name_a2s":"Uncletopia | Warsaw | 6 | Community","protocol":17,"map":"workshop/koth_synthetic_rc6a.ugc1549817316","folder":"tf","game":"Team Fortress","app_id":440,"player_count":0,"max_players":24,"Bots":0,"server_type":"Dedicated","server_os":"Linux","password":true,"vac":true,"version":"7723704","steam_id":85568392925397856,"keywords":["cp","nocrits","nodmgspread","uncletopia"],"game_id":440,"stv_port":27066,"stv_name":"Uncletopia | Warsaw | 6 | Community | STV","players":null}]}