{"status":true,"message":"","result":[{"server_id":9,"name":"Uncletopia | Atlanta | 1 | All Maps","name_short":"atl-1","host":"atl-1.us.uncletopia.com","port":27015,"enabled":true,"region":"us-east","cc":"us","latitude":33.753746,"longitude":-84.38633,"reserved":0,"last_update":"0001-01-01T00:00:00Z","name_a2s":"Uncletopia | Atlanta | 1 | All Maps","protocol":17,"map":"pl_borneo","folder":"tf","game":"Team Fortress","app_id":440,"player_count":24,"max_players":24,"Bots":0,"server_type":"Dedicated","server_os":"Linux","password":true,"vac":true,"version":"7708610","steam_id":85568392924469982,"keywords":["nocrits","nodmgspread","payload","uncletopia"],"game_id":440,"stv_port":27016,"stv_name":"Uncletopia | Atlanta | 1 | All Maps | STV","players":[{"user_id":445,"name":"TasteMaple","steam_id":76561199103760177,"connected_time":7456000000000,"state":"active","ping":71},{"user_id":539,"name":"BNTF","steam_id":76561198062740087,"connected_time":147000000000,"state":"active","ping":61},{"user_id":523,"name":"Shame","steam_id":76561198100490994,"connected_time":1351000000000,"state":"active","ping":63},{"user_id":540,"name":"BOB","steam_id":76561198282965733,"connected_time":87000000000,"state":"active","ping":62},{"user_id":496,"name":"MrSixtyFour","steam_id":76561198192342110,"connected_time":3204000000000,"state":"active","ping":100},{"user_id":538,"name":"sand mountain sam","steam_id":76561198929605128,"connected_time":208000000000,"state":"active","ping":55},{"user_id":510,"name":"McGangBang","steam_id":76561198862379865,"connected_time":2147000000000,"state":"active","ping":104},{"user_id":522,"name":"--_Cook_--","steam_id":76561198080855748,"connected_time":1441000000000,"state":"active","ping":46},{"user_id":505,"name":"Dressereg","steam_id":76561198838757422,"connected_time":2879000000000,"state":"active","ping":78},{"user_id":492,"name":"snoops","steam_id":76561197986760351,"connected_time":3288000000000,"state":"active","ping":76},{"user_id":494,"name":"SomeFunGai","steam_id":76561198083021042,"connected_time":3266000000000,"state":"active","ping":44},{"user_id":517,"name":"coal","steam_id":76561198027252280,"connected_time":1749000000000,"state":"active","ping":38},{"user_id":533,"name":"Riske","steam_id":76561198115840568,"connected_time":797000000000,"state":"active","ping":85},{"user_id":520,"name":"PinkLemonade","steam_id":76561198799286228,"connected_time":1650000000000,"state":"active","ping":78},{"user_id":535,"name":"guy","steam_id":76561198830293087,"connected_time":379000000000,"state":"active","ping":60},{"user_id":534,"name":"dude","steam_id":76561198284992433,"connected_time":732000000000,"state":"active","ping":65},{"user_id":509,"name":"Wumbologist","steam_id":76561198188729514,"connected_time":2288000000000,"state":"active","ping":49},{"user_id":529,"name":"Angel","steam_id":76561198175654911,"connected_time":997000000000,"state":"active","ping":70},{"user_id":485,"name":"ATL1 | on my hunting trip","steam_id":76561198315341646,"connected_time":4039000000000,"state":"active","ping":73},{"user_id":506,"name":"TheGhostThatWas","steam_id":76561198055836483,"connected_time":2585000000000,"state":"active","ping":60},{"user_id":518,"name":"King Wizard","steam_id":76561198156049731,"connected_time":1736000000000,"state":"active","ping":69},{"user_id":468,"name":"Mr.Mug (Festive)","steam_id":76561199282207802,"connected_time":5889000000000,"state":"active","ping":67},{"user_id":521,"name":"Hawkborne","steam_id":76561198107249245,"connected_time":1526000000000,"state":"active","ping":75},{"user_id":527,"name":".Alex","steam_id":76561199036099287,"connected_time":1317000000000,"state":"active","ping":54}]},{"server_id":400,"name":"Uncletopia | Atlanta | 3 | All Maps","name_short":"atl-3","host":"atl-1.us.uncletopia.com","port":27035,"enabled":true,"region":"us-east","cc":"us","latitude":33.753746,"longitude":-84.38633,"reserved":0,"last_update":"0001-01-01T00:00:00Z","name_a2s":"Uncletopia | Atlanta | 3 | All Maps","protocol":17,"map":"pl_barnblitz","folder":"tf","game":"Team Fortress","app_id":440,"player_count":23,"max_players":24,"Bots":0,"server_type":"Dedicated","server_os":"Linux","password":true,"vac":true,"version":"7708610","steam_id":85568392924515187,"keywords":["nocrits","nodmgspread","payload","uncletopia"],"game_id":440,"stv_port":27036,"stv_name":"Uncletopia | Atlanta | 3 | All Maps | STV","players":[{"user_id":421,"name":"ford truck","steam_id":76561198051823844,"connected_time":2339000000000,"state":"active","ping":35},{"user_id":424,"name":"â—†whitefurâ—†","steam_id":76561198825658971,"connected_time":2257000000000,"state":"active","ping":121},{"user_id":429,"name":"Michaelpc1","steam_id":76561198088365519,"connected_time":1660000000000,"state":"active","ping":74},{"user_id":344,"name":"Madkiller Max","steam_id":76561197974470705,"connected_time":7022000000000,"state":"active","ping":59},{"user_id":448,"name":"DREW PEACOCK","steam_id":76561198065057392,"connected_time":683000000000,"state":"active","ping":72},{"user_id":377,"name":"tminator64","steam_id":76561197997576273,"connected_time":4648000000000,"state":"active","ping":85},{"user_id":444,"name":"goggothy","steam_id":76561198428033086,"connected_time":1038000000000,"state":"active","ping":75},{"user_id":450,"name":"LightBulbGlue #SaveTF2","steam_id":76561198329573529,"connected_time":230000000000,"state":"active","ping":76},{"user_id":427,"name":"Uung","steam_id":76561198183956731,"connected_time":1898000000000,"state":"active","ping":46},{"user_id":428,"name":"Mr. Sun","steam_id":76561198081338822,"connected_time":1757000000000,"state":"active","ping":39},{"user_id":451,"name":"GLEEKY","steam_id":76561198287245599,"connected_time":80000000000,"state":"active","ping":57},{"user_id":442,"name":"Discourse","steam_id":76561198984286678,"connected_time":1346000000000,"state":"active","ping":75},{"user_id":435,"name":"10footlongschlong","steam_id":76561198291160259,"connected_time":1580000000000,"state":"active","ping":51},{"user_id":436,"name":"YASAI JUICE","steam_id":76561198131971992,"connected_time":1560000000000,"state":"active","ping":59},{"user_id":443,"name":"LynBoByn","steam_id":76561198052911142,"connected_time":1206000000000,"state":"active","ping":69},{"user_id":410,"name":"Goatking","steam_id":76561198068447650,"connected_time":2998000000000,"state":"active","ping":75},{"user_id":412,"name":"mr.edderkopper","steam_id":76561198152614478,"connected_time":2995000000000,"state":"active","ping":97},{"user_id":418,"name":"fudge lord","steam_id":76561198118318422,"connected_time":2675000000000,"state":"active","ping":63},{"user_id":438,"name":"Pitifulpancake","steam_id":76561198123494063,"connected_time":1526000000000,"state":"active","ping":81},{"user_id":439,"name":"NoonCity","steam_id":76561198010165479,"connected_time":1519000000000,"state":"active","ping":69},{"user_id":440,"name":"KORF","steam_id":76561197981904410,"connected_time":1477000000000,"state":"active","ping":75},{"user_id":446,"name":"sam","steam_id":76561198088504281,"connected_time":949000000000,"state":"active","ping":73},{"user_id":313,"name":"Fausto Murillo","steam_id":76561198936120487,"connected_time":9084000000000,"state":"active","ping":123}]},{"server_id":401,"name":"Uncletopia | Atlanta | 4 | No Payload","name_short":"atl-4","host":"atl-1.us.uncletopia.com","port":27045,"enabled":true,"region":"us-east","cc":"us","latitude":33.753746,"longitude":-84.38633,"reserved":0,"last_update":"0001-01-01T00:00:00Z","name_a2s":"Uncletopia | Atlanta | 4 | No Payload","protocol":17,"map":"plr_bananabay","folder":"tf","game":"Team Fortress","app_id":440,"player_count":0,"max_players":24,"Bots":0,"server_type":"Dedicated","server_os":"Linux","password":true,"vac":true,"version":"7708610","steam_id":85568392924515188,"keywords":["nocrits","nodmgspread","payload","uncletopia"],"game_id":440,"stv_port":27046,"stv_name":"Uncletopia | Atlanta | 4 | No Payload | STV","players":null},{"server_id":2,"name":"Uncletopia | Chicago | 1 | All Maps","name_short":"chi-1","host":"chi-1.us.uncletopia.com","port":27015,"enabled":true,"region":"us-central","cc":"us","latitude":41.881832,"longitude":-87.62318,"reserved":0,"last_update":"0001-01-01T00:00:00Z","name_a2s":"Uncletopia | Chicago | 1 | All Maps","protocol":17,"map":"koth_lakeside_final","folder":"tf","game":"Team Fortress","app_id":440,"player_count":24,"max_players":24,"Bots":0,"server_type":"Dedicated","server_os":"Linux","password":true,"vac":true,"version":"7708610","steam_id":85568392924469984,"keywords":["cp","nocrits","nodmgspread","uncletopia"],"game_id":440,"stv_port":27016,"stv_name":"Uncletopia | Chicago | 1 | All Maps | STV","players":[{"user_id":617,"name":"Mori","steam_id":76561198355935693,"connected_time":2861000000000,"state":"active","ping":45},{"user_id":585,"name":"Tallywyn","steam_id":76561197998572962,"connected_time":4947000000000,"state":"active","ping":69},{"user_id":607,"name":"HUMAN KITE","steam_id":76561198271701138,"connected_time":3401000000000,"state":"active","ping":83},{"user_id":659,"name":"user","steam_id":76561198077272494,"connected_time":576000000000,"state":"active","ping":41},{"user_id":665,"name":"BigOrca54","steam_id":76561198181360271,"connected_time":146000000000,"state":"active","ping":60},{"user_id":666,"name":"the truth","steam_id":76561198017539604,"connected_time":27000000000,"state":"active","ping":66},{"user_id":621,"name":"Peter Griffin","steam_id":76561198119784475,"connected_time":2579000000000,"state":"active","ping":124},{"user_id":651,"name":"Farseer Ulwithy","steam_id":76561197965179245,"connected_time":891000000000,"state":"active","ping":81},{"user_id":639,"name":"Snom","steam_id":76561198333827920,"connected_time":2169000000000,"state":"active","ping":94},{"user_id":656,"name":"eryn ðŸ—º","steam_id":76561198004433070,"connected_time":830000000000,"state":"active","ping":81},{"user_id":653,"name":"MrVegasAguitar","steam_id":76561198084466946,"connected_time":884000000000,"state":"active","ping":89},{"user_id":641,"name":"kezia","steam_id":76561198059815894,"connected_time":2101000000000,"state":"active","ping":46},{"user_id":637,"name":"Majozoe","steam_id":76561198007563292,"connected_time":2203000000000,"state":"active","ping":73},{"user_id":655,"name":"t","steam_id":76561198175988929,"connected_time":852000000000,"state":"active","ping":76},{"user_id":622,"name":"jingle.JIFF","steam_id":76561198045181760,"connected_time":2573000000000,"state":"active","ping":58},{"user_id":657,"name":"John Darksoul","steam_id":76561198031675881,"connected_time":802000000000,"state":"active","ping":48},{"user_id":658,"name":"st3shk4a","steam_id":76561198025322638,"connected_time":763000000000,"state":"active","ping":81},{"user_id":664,"name":"hop","steam_id":76561198039914843,"connected_time":181000000000,"state":"active","ping":61},{"user_id":648,"name":"Lots0","steam_id":76561198043143145,"connected_time":1449000000000,"state":"active","ping":95},{"user_id":596,"name":"TallBit","steam_id":76561199059748976,"connected_time":4641000000000,"state":"active","ping":52},{"user_id":601,"name":"Ras","steam_id":76561198123546775,"connected_time":4257000000000,"state":"active","ping":60},{"user_id":650,"name":"Liquid Oxycodone","steam_id":76561198154162664,"connected_time":1181000000000,"state":"active","ping":73},{"user_id":629,"name":"Mister Frank","steam_id":76561198161473385,"connected_time":2344000000000,"state":"active","ping":58},{"user_id":526,"name":"Lia_Reindeer","steam_id":76561198151569597,"connected_time":10031000000000,"state":"active","ping":139}]},{"server_id":106,"name":"Uncletopia | Chicago | 2 | All Maps","name_short":"chi-2","host":"chi-1.us.uncletopia.com","port":27025,"enabled":true,"region":"us-central","cc":"us","latitude":41.881832,"longitude":-87.62318,"reserved":0,"last_update":"0001-01-01T00:00:00Z","name_a2s":"Uncletopia | Chicago | 2 | All Maps","protocol":17,"map":"pl_borneo","folder":"tf","game":"Team Fortress","app_id":440,"player_count":24,"max_players":24,"Bots":0,"server_type":"Dedicated","server_os":"Linux","password":true,"vac":true,"version":"7708610","steam_id":85568392924469985,"keywords":["nocrits","nodmgspread","payload","uncletopia"],"game_id":440,"stv_port":27026,"stv_name":"Uncletopia | Chicago | 2 | All Maps | STV","players":[{"user_id":496,"name":"JUNE","steam_id":76561198975039481,"connected_time":1736000000000,"state":"active","ping":82},{"user_id":522,"name":"Speedy Gonzales","steam_id":76561198005301688,"connected_time":267000000000,"state":"active","ping":93},{"user_id":527,"name":"WATCHOUT!","steam_id":76561198850428601,"connected_time":84000000000,"state":"active","ping":67},{"user_id":516,"name":"God of bread","steam_id":76561198373688035,"connected_time":387000000000,"state":"active","ping":68},{"user_id":520,"name":"Magnet Dood","steam_id":76561198364178746,"connected_time":305000000000,"state":"active","ping":52},{"user_id":498,"name":"CHODIE LAND","steam_id":76561198057116531,"connected_time":1683000000000,"state":"active","ping":60},{"user_id":499,"name":"Harley [Ramiel]","steam_id":76561198079510840,"connected_time":1672000000000,"state":"active","ping":102},{"user_id":518,"name":"BIG BOOBS!!","steam_id":76561198096334078,"connected_time":317000000000,"state":"active","ping":75},{"user_id":523,"name":"bobby peanstalk","steam_id":76561198040495463,"connected_time":230000000000,"state":"active","ping":68},{"user_id":519,"name":"Pinapley","steam_id":76561198063130298,"connected_time":314000000000,"state":"active","ping":60},{"user_id":487,"name":"WhoIsFrosty","steam_id":76561198880588117,"connected_time":2438000000000,"state":"active","ping":64},{"user_id":514,"name":"Shockman","steam_id":76561197971281270,"connected_time":448000000000,"state":"active","ping":76},{"user_id":474,"name":"CassandraRC7","steam_id":76561198094123940,"connected_time":3400000000000,"state":"active","ping":54},{"user_id":521,"name":"brian eno","steam_id":76561198109901138,"connected_time":304000000000,"state":"active","ping":74},{"user_id":471,"name":"IRAcide","steam_id":76561198236149504,"connected_time":3576000000000,"state":"active","ping":97},{"user_id":501,"name":"EvilMrPotoo ï½¡â—•â€¿â—•ï½¡","steam_id":76561198012566870,"connected_time":1665000000000,"state":"active","ping":58},{"user_id":511,"name":"GooniOoni","steam_id":76561198102154561,"connected_time":1110000000000,"state":"active","ping":44},{"user_id":524,"name":"Slashuur","steam_id":76561198157385316,"connected_time":225000000000,"state":"active","ping":79},{"user_id":422,"name":"Nate","steam_id":76561198068225765,"connected_time":7686000000000,"state":"active","ping":62},{"user_id":525,"name":"mike wazowski ranch puddle","steam_id":76561198001781616,"connected_time":215000000000,"state":"active","ping":48},{"user_id":506,"name":"Gay Cake","steam_id":76561198004388831,"connected_time":1638000000000,"state":"active","ping":62},{"user_id":512,"name":"1rhythm","steam_id":76561199159347310,"connected_time":1030000000000,"state":"active","ping":91},{"user_id":526,"name":"I'm Only 4 Inches","steam_id":76561198055542546,"connected_time":188000000000,"state":"active","ping":45},{"user_id":515,"name":"LILZ","steam_id":76561198037698650,"connected_time":447000000000,"state":"active","ping":68}]},{"server_id":402,"name":"Uncletopia | Chicago | 3 | All Maps","name_short":"chi-3","host":"chi-1.us.uncletopia.com","port":27035,"enabled":true,"region":"us-central","cc":"us","latitude":41.881832,"longitude":-87.62318,"reserved":0,"last_update":"0001-01-01T00:00:00Z","name_a2s":"Uncletopia | Chicago | 3 | All Maps","protocol":17,"map":"cp_dustbowl","folder":"tf","game":"Team Fortress","app_id":440,"player_count":23,"max_players":24,"Bots":0,"server_type":"Dedicated","server_os":"Linux","password":true,"vac":true,"version":"7708610","steam_id":85568392924515191,"keywords":["cp","nocrits","nodmgspread","uncletopia"],"game_id":440,"stv_port":27036,"stv_name":"Uncletopia | Chicago | 3 | All Maps | STV","players":[{"user_id":158,"name":"russianpenguin","steam_id":76561198870453115,"connected_time":5188000000000,"state":"active","ping":64},{"user_id":176,"name":"xenolith","steam_id":76561198041496496,"connected_time":4257000000000,"state":"active","ping":60},{"user_id":135,"name":"LooseJuice","steam_id":76561198042181014,"connected_time":6815000000000,"state":"active","ping":98},{"user_id":183,"name":"Dieu-Sama","steam_id":76561198002075862,"connected_time":3338000000000,"state":"active","ping":79},{"user_id":199,"name":"sevanial","steam_id":76561198071532126,"connected_time":426000000000,"state":"active","ping":61},{"user_id":203,"name":"cwireman13","steam_id":76561198426474300,"connected_time":285000000000,"state":"active","ping":50},{"user_id":128,"name":"Drunkineer","steam_id":76561198256401292,"connected_time":7547000000000,"state":"active","ping":51},{"user_id":170,"name":"MR.Badatgames","steam_id":76561198820423721,"connected_time":4675000000000,"state":"active","ping":56},{"user_id":201,"name":"Chechens Spotted","steam_id":76561199028910893,"connected_time":322000000000,"state":"active","ping":97},{"user_id":194,"name":"FrostStorm","steam_id":76561198142685151,"connected_time":2210000000000,"state":"active","ping":62},{"user_id":175,"name":"MALLION","steam_id":76561198125539384,"connected_time":4364000000000,"state":"active","ping":53},{"user_id":172,"name":"Swamp Fever","steam_id":76561198096836451,"connected_time":4546000000000,"state":"active","ping":135},{"user_id":191,"name":"The Assistant Regional Manager","steam_id":76561199221484936,"connected_time":2385000000000,"state":"active","ping":105},{"user_id":159,"name":"Derpy Banana","steam_id":76561198831085285,"connected_time":5171000000000,"state":"active","ping":53},{"user_id":196,"name":"Jaguar the sick","steam_id":76561197971152439,"connected_time":1474000000000,"state":"active","ping":77},{"user_id":179,"name":"2 Amps","steam_id":76561198439410410,"connected_time":3993000000000,"state":"active","ping":86},{"user_id":186,"name":"Throckmorton627","steam_id":76561199147734259,"connected_time":3028000000000,"state":"active","ping":65},{"user_id":200,"name":"Uncle Majic the Hip Hop Magicia","steam_id":76561198107924303,"connected_time":426000000000,"state":"active","ping":52},{"user_id":182,"name":"Fredorando","steam_id":76561198242546842,"connected_time":3368000000000,"state":"active","ping":64},{"user_id":151,"name":"Re-Loaded_Game","steam_id":76561199097136515,"connected_time":5855000000000,"state":"active","ping":74},{"user_id":187,"name":"Bottom Trans Cowgirl","steam_id":76561198304239680,"connected_time":2877000000000,"state":"active","ping":69},{"user_id":161,"name":"Antwan","steam_id":76561198246200638,"connected_time":5162000000000,"state":"active","ping":69},{"user_id":198,"name":"chexo4","steam_id":76561198150532531,"connected_time":584000000000,"state":"active","ping":66}]},{"server_id":403,"name":"Uncletopia | Chicago | 4 | All Maps","name_short":"chi-4","host":"chi-1.us.uncletopia.com","port":27045,"enabled":true,"region":"us-central","cc":"us","latitude":41.881832,"longitude":-87.62318,"reserved":0,"last_update":"0001-01-01T00:00:00Z","name_a2s":"Uncletopia | Chicago | 4 | All Maps","protocol":17,"map":"pl_swiftwater_final1","folder":"tf","game":"Team Fortress","app_id":440,"player_count":24,"max_players":24,"Bots":0,"server_type":"Dedicated","server_os":"Linux","password":true,"vac":true,"version":"7708610","steam_id":85568392924515193,"keywords":["nocrits","nodmgspread","payload","uncletopia"],"game_id":440,"stv_port":27046,"stv_name":"Uncletopia | Chicago | 4 | All Maps | STV","players":[{"user_id":152,"name":"sithreis","steam_id":76561198000564263,"connected_time":1891000000000,"state":"active","ping":63},{"user_id":157,"name":"pablo.gonzales.2007","steam_id":76561198955004070,"connected_time":1114000000000,"state":"active","ping":45},{"user_id":108,"name":"MenacinglyMeh","steam_id":76561198841437622,"connected_time":4130000000000,"state":"active","ping":86},{"user_id":173,"name":"money squared","steam_id":76561198046775352,"connected_time":734000000000,"state":"active","ping":103},{"user_id":143,"name":"Johnny Esports","steam_id":76561198115812405,"connected_time":2156000000000,"state":"active","ping":63},{"user_id":169,"name":"Ziggy Q","steam_id":76561197995360978,"connected_time":765000000000,"state":"active","ping":71},{"user_id":177,"name":"Rrockt","steam_id":76561199083451502,"connected_time":96000000000,"state":"active","ping":79},{"user_id":168,"name":"iceball3","steam_id":76561198012040375,"connected_time":786000000000,"state":"active","ping":97},{"user_id":172,"name":"Hero8171","steam_id":76561199239824271,"connected_time":738000000000,"state":"active","ping":52},{"user_id":148,"name":"Nexusuxen","steam_id":76561198117547131,"connected_time":2040000000000,"state":"active","ping":63},{"user_id":159,"name":"MonkyBoo","steam_id":76561198304371716,"connected_time":1099000000000,"state":"active","ping":68},{"user_id":103,"name":"Dr Spaceman","steam_id":76561197969755657,"connected_time":4444000000000,"state":"active","ping":46},{"user_id":167,"name":"King","steam_id":76561198010019214,"connected_time":792000000000,"state":"active","ping":52},{"user_id":176,"name":"Andrestor","steam_id":76561198005934930,"connected_time":594000000000,"state":"active","ping":127},{"user_id":160,"name":"DORATHEEXPLORER","steam_id":76561198124773931,"connected_time":1090000000000,"state":"active","ping":119},{"user_id":132,"name":"motorized bar of soap","steam_id":76561198882404753,"connected_time":2657000000000,"state":"active","ping":78},{"user_id":133,"name":"mentally strange","steam_id":76561198106690989,"connected_time":2635000000000,"state":"active","ping":75},{"user_id":175,"name":"flarp (Naxen)","steam_id":76561198238525296,"connected_time":634000000000,"state":"active","ping":60},{"user_id":138,"name":"Depresso Amber","steam_id":76561198074209737,"connected_time":2317000000000,"state":"active","ping":60},{"user_id":122,"name":"Walkiing","steam_id":76561198074473413,"connected_time":3115000000000,"state":"active","ping":44},{"user_id":161,"name":"footp","steam_id":76561198001027361,"connected_time":1081000000000,"state":"active","ping":71},{"user_id":151,"name":"AlecTheNefarious","steam_id":76561198035291230,"connected_time":1999000000000,"state":"active","ping":67},{"user_id":174,"name":"lucaslane610","steam_id":76561198997885052,"connected_time":665000000000,"state":"active","ping":87},{"user_id":155,"name":"Wally The Fukn Walrus","steam_id":76561198019034045,"connected_time":1823000000000,"state":"active","ping":51}]},{"server_id":36,"name":"Uncletopia | Chicago | 5 | All Maps","name_short":"chi-5","host":"chi-2.us.uncletopia.com","port":27015,"enabled":true,"region":"us-central","cc":"us","latitude":41.881832,"longitude":-87.62318,"reserved":0,"last_update":"0001-01-01T00:00:00Z","name_a2s":"Uncletopia | Chicago | 5 | All Maps","protocol":17,"map":"koth_harvest_final","folder":"tf","game":"Team Fortress","app_id":440,"player_count":20,"max_players":24,"Bots":0,"server_type":"Dedicated","server_os":"Linux","password":true,"vac":true,"version":"7708610","steam_id":85568392924866362,"keywords":["cp","nocrits","nodmgspread","uncletopia"],"game_id":440,"stv_port":27016,"stv_name":"Uncletopia | Chicago | 5 | All Maps | STV","players":[{"user_id":429,"name":"Father Bob","steam_id":76561197961329340,"connected_time":2251000000000,"state":"active","ping":55},{"user_id":444,"name":"Lv4 Gnoll Magus","steam_id":76561198042068995,"connected_time":1604000000000,"state":"active","ping":68},{"user_id":454,"name":"Rein","steam_id":76561198300340427,"connected_time":452000000000,"state":"active","ping":64},{"user_id":458,"name":"A Duck Phone!?","steam_id":76561198044707749,"connected_time":330000000000,"state":"active","ping":58},{"user_id":448,"name":"BullSocks","steam_id":76561198137299537,"connected_time":1359000000000,"state":"active","ping":43},{"user_id":459,"name":"glug slug","steam_id":76561197988690273,"connected_time":303000000000,"state":"active","ping":74},{"user_id":452,"name":"Ford Truck Gaming","steam_id":76561199042674833,"connected_time":682000000000,"state":"active","ping":76},{"user_id":464,"name":"stump","steam_id":76561198012653832,"connected_time":34000000000,"state":"active","ping":52},{"user_id":445,"name":"HyperOrange|#SaveTF2","steam_id":76561198068071327,"connected_time":1462000000000,"state":"active","ping":64},{"user_id":394,"name":"jolo","steam_id":76561198042831480,"connected_time":5756000000000,"state":"active","ping":70},{"user_id":465,"name":"mudturtle","steam_id":76561198292734035,"connected_time":6000000000,"state":"spawning","ping":56},{"user_id":416,"name":"The Animated Gamer","steam_id":76561198120639995,"connected_time":3335000000000,"state":"active","ping":92},{"user_id":460,"name":"gonk","steam_id":76561198061206732,"connected_time":294000000000,"state":"active","ping":81},{"user_id":462,"name":"Notorious_Pat","steam_id":76561198092348214,"connected_time":195000000000,"state":"active","ping":52},{"user_id":435,"name":"Void Raven","steam_id":76561199092669174,"connected_time":1928000000000,"state":"active","ping":74},{"user_id":426,"name":"Dill","steam_id":76561197985091914,"connected_time":2518000000000,"state":"active","ping":61},{"user_id":395,"name":"workin for snapple","steam_id":76561198013732450,"connected_time":5265000000000,"state":"active","ping":58},{"user_id":439,"name":"SquirrelAwayâ„¢","steam_id":76561197998828619,"connected_time":1837000000000,"state":"active","ping":79},{"user_id":431,"name":"Fewny","steam_id":76561198225977000,"connected_time":2072000000000,"state":"active","ping":72},{"user_id":412,"name":"Splinto","steam_id":76561198111260488,"connected_time":3762000000000,"state":"active","ping":50}]},{"server_id":37,"name":"Uncletopia | Chicago | 6 | All Maps","name_short":"chi-6","host":"chi-2.us.uncletopia.com","port":27025,"enabled":true,"region":"us-central","cc":"us","latitude":41.881832,"longitude":-87.62318,"reserved":0,"last_update":"0001-01-01T00:00:00Z","name_a2s":"Uncletopia | Chicago | 6 | All Maps","protocol":17,"map":"koth_cascade","folder":"tf","game":"Team Fortress","app_id":440,"player_count":5,"max_players":24,"Bots":0,"server_type":"Dedicated","server_os":"Linux","password":true,"vac":true,"version":"7708610","steam_id":85568392924866363,"keywords":["cp","nocrits","nodmgspread","uncletopia"],"game_id":440,"stv_port":0,"stv_name":"","players":[{"user_id":7,"name":"the wutville lawyer","steam_id":76561198257531708,"connected_time":1610000000000,"state":"active","ping":56},{"user_id":8,"name":"Wutville Bodyguard","steam_id":76561198255308126,"connected_time":1297000000000,"state":"active","ping":68},{"user_id":9,"name":"Mucho Grassy Ass","steam_id":76561198171708237,"connected_time":973000000000,"state":"active","ping":60},{"user_id":11,"name":"Wutville Mayor","steam_id":76561198189644089,"connected_time":319000000000,"state":"active","ping":50},{"user_id":12,"name":"I missed (Probably)","steam_id":76561199147118923,"connected_time":155000000000,"state":"active","ping":83}]},{"server_id":38,"name":"Uncletopia | Chicago | 7 | No Payload","name_short":"chi-7","host":"chi-2.us.uncletopia.com","port":27035,"enabled":true,"region":"us-central","cc":"us","latitude":41.881832,"longitude":-87.62318,"reserved":0,"last_update":"0001-01-01T00:00:00Z","name_a2s":"Uncletopia | Chicago | 7 | No Payload","protocol":17,"map":"koth_viaduct","folder":"tf","game":"Team Fortress","app_id":440,"player_count":0,"max_players":24,"Bots":0,"server_type":"Dedicated","server_os":"Linux","password":true,"vac":true,"version":"7708610","steam_id":85568392924866364,"keywords":["cp","nocrits","nodmgspread","uncletopia"],"game_id":440,"stv_port":0,"stv_name":"","players":null},{"server_id":39,"name":"Uncletopia | Chicago | 8 | Community","name_short":"chi-8","host":"chi-2.us.uncletopia.com","port":27045,"enabled":true,"region":"us-central","cc":"us","latitude":41.881832,"longitude":-87.62318,"reserved":0,"last_update":"0001-01-01T00:00:00Z","name_a2s":"Uncletopia | Chicago | 8 | Community","protocol":17,"map":"workshop/koth_slaughter_rc1.ugc1712845210","folder":"tf","game":"Team Fortress","app_id":440,"player_count":0,"max_players":24,"Bots":0,"server_type":"Dedicated","server_os":"Linux","password":true,"vac":true,"version":"7708610","steam_id":85568392924866365,"keywords":["cp","nocrits","nodmgspread","uncletopia"],"game_id":440,"stv_port":27046,"stv_name":"Uncletopia | Chicago | 8 | Community | STV","players":null},{"server_id":8,"name":"Uncletopia | Dallas | 1 | All Maps","name_short":"dal-1","host":"dal-1.us.uncletopia.com","port":27015,"enabled":true,"region":"us-central","cc":"us","latitude":32.779167,"longitude":-96.80889,"reserved":0,"last_update":"0001-01-01T00:00:00Z","name_a2s":"Uncletopia | Dallas | 1 | All Maps","protocol":17,"map":"koth_suijin","folder":"tf","game":"Team Fortress","app_id":440,"player_count":21,"max_players":24,"Bots":0,"server_type":"Dedicated","server_os":"Linux","password":true,"vac":true,"version":"7708610","steam_id":85568392924469986,"keywords":["cp","nocrits","nodmgspread","uncletopia"],"game_id":440,"stv_port":27016,"stv_name":"Uncletopia | Dallas | 1 | All Maps | STV","players":[{"user_id":120,"name":"DRI","steam_id":76561198157076858,"connected_time":9665000000000,"state":"active","ping":87},{"user_id":190,"name":"Crusty Demons [REAL]","steam_id":76561198094620058,"connected_time":4461000000000,"state":"active","ping":46},{"user_id":241,"name":"The Phoenix Commissar | APP","steam_id":76561198013286146,"connected_time":1580000000000,"state":"active","ping":51},{"user_id":242,"name":"{ST} Oxythemoron","steam_id":76561198060089965,"connected_time":1354000000000,"state":"active","ping":58},{"user_id":273,"name":"R33se","steam_id":76561198296531992,"connected_time":13000000000,"state":"active","ping":54},{"user_id":224,"name":"Ngsterson","steam_id":76561198162108154,"connected_time":2422000000000,"state":"active","ping":92},{"user_id":247,"name":"Foxyz","steam_id":76561198040642992,"connected_time":1095000000000,"state":"active","ping":167},{"user_id":269,"name":"SkyGod GamingÂ®","steam_id":76561198000855251,"connected_time":328000000000,"state":"active","ping":93},{"user_id":270,"name":"flu walrus","steam_id":76561198207940136,"connected_time":311000000000,"state":"active","ping":59},{"user_id":244,"name":"The Figgler","steam_id":76561198168295944,"connected_time":1197000000000,"state":"active","ping":63},{"user_id":223,"name":"Genius Meme","steam_id":76561198162911254,"connected_time":2551000000000,"state":"active","ping":75},{"user_id":251,"name":"Â¿skitt1eS?","steam_id":76561198330093211,"connected_time":992000000000,"state":"active","ping":60},{"user_id":233,"name":"Semyr","steam_id":76561198125655939,"connected_time":1798000000000,"state":"active","ping":97},{"user_id":268,"name":"Space Goblin","steam_id":76561198170426663,"connected_time":427000000000,"state":"active","ping":107},{"user_id":237,"name":"remedu","steam_id":76561198005152587,"connected_time":1723000000000,"state":"active","ping":40},{"user_id":238,"name":"Pan","steam_id":76561199122755987,"connected_time":1707000000000,"state":"active","ping":57},{"user_id":267,"name":"Fry Enjoyer","steam_id":76561198987191738,"connected_time":440000000000,"state":"active","ping":51},{"user_id":272,"name":"8Z","steam_id":76561198027025876,"connected_time":87000000000,"state":"active","ping":64},{"user_id":220,"name":"Stillkill","steam_id":76561198065069057,"connected_time":2973000000000,"state":"active","ping":41},{"user_id":209,"name":"Tmiracle","steam_id":76561198052375275,"connected_time":3543000000000,"state":"active","ping":60},{"user_id":261,"name":"sora","steam_id":76561198094256973,"connected_time":809000000000,"state":"active","ping":82}]},{"server_id":108,"name":"Uncletopia | Dallas | 2 | All Maps","name_short":"dal-2","host":"dal-1.us.uncletopia.com","port":27025,"enabled":true,"region":"us-central","cc":"us","latitude":32.779167,"longitude":-96.80889,"reserved":0,"last_update":"0001-01-01T00:00:00Z","name_a2s":"Uncletopia | Dallas | 2 | All Maps","protocol":17,"map":"pl_borneo","folder":"tf","game":"Team Fortress","app_id":440,"player_count":23,"max_players":24,"Bots":0,"server_type":"Dedicated","server_os":"Linux","password":true,"vac":true,"version":"7708610","steam_id":85568392924469988,"keywords":["nocrits","nodmgspread","payload","uncletopia"],"game_id":440,"stv_port":27026,"stv_name":"Uncletopia | Dallas | 2 | All Maps | STV","players":[{"user_id":182,"name":"corygaming","steam_id":76561198035669409,"connected_time":7754000000000,"state":"active","ping":115},{"user_id":183,"name":"squishy","steam_id":76561198015034116,"connected_time":7751000000000,"state":"active","ping":73},{"user_id":281,"name":"Moroes","steam_id":76561198085494609,"connected_time":625000000000,"state":"active","ping":49},{"user_id":264,"name":"-W3E- grim10465","steam_id":76561198045698581,"connected_time":2158000000000,"state":"active","ping":75},{"user_id":273,"name":"LuciD","steam_id":76561198242842394,"connected_time":1588000000000,"state":"active","ping":134},{"user_id":269,"name":"PURPLE","steam_id":76561198179838346,"connected_time":2059000000000,"state":"active","ping":85},{"user_id":261,"name":"Pills","steam_id":76561198799440163,"connected_time":2274000000000,"state":"active","ping":106},{"user_id":184,"name":"Yayifications","steam_id":76561198066227208,"connected_time":7748000000000,"state":"active","ping":75},{"user_id":291,"name":"TheGrassMan (He/Him)","steam_id":76561198118984048,"connected_time":36000000000,"state":"active","ping":81},{"user_id":288,"name":"maximusbabaximus","steam_id":76561198419378913,"connected_time":64000000000,"state":"active","ping":105},{"user_id":285,"name":"GLUE ON THE ROACH WHOA","steam_id":76561198073269122,"connected_time":499000000000,"state":"active","ping":89},{"user_id":290,"name":"Joe Shiesty","steam_id":76561198152434348,"connected_time":42000000000,"state":"active","ping":80},{"user_id":284,"name":"derdds","steam_id":76561198034339940,"connected_time":521000000000,"state":"active","ping":75},{"user_id":203,"name":"DeckofDragons","steam_id":76561198057398213,"connected_time":6658000000000,"state":"active","ping":66},{"user_id":249,"name":"Mr.Pan","steam_id":76561198069030613,"connected_time":3514000000000,"state":"active","ping":74},{"user_id":253,"name":"I Swallowed Shampoo","steam_id":76561198075130050,"connected_time":3123000000000,"state":"active","ping":67},{"user_id":274,"name":"Squatchamo","steam_id":76561198012968239,"connected_time":1046000000000,"state":"active","ping":93},{"user_id":267,"name":"Willy","steam_id":76561199240618325,"connected_time":2096000000000,"state":"active","ping":86},{"user_id":276,"name":"the biggest boy","steam_id":76561198061768122,"connected_time":757000000000,"state":"active","ping":97},{"user_id":268,"name":"Rubby","steam_id":76561198967446392,"connected_time":2091000000000,"state":"active","ping":80},{"user_id":282,"name":"uranium fungus","steam_id":76561199016285746,"connected_time":555000000000,"state":"active","ping":75},{"user_id":275,"name":"board certified monkey","steam_id":76561198310502474,"connected_time":907000000000,"state":"active","ping":68},{"user_id":280,"name":"Avem","steam_id":76561198058763710,"connected_time":716000000000,"state":"active","ping":75}]},{"server_id":5,"name":"Uncletopia | Frankfurt | 1 | All Maps","name_short":"frk-1","host":"frk-1.de.uncletopia.com","port":27015,"enabled":true,"region":"eu","cc":"de","latitude":50.110924,"longitude":8.682127,"reserved":0,"last_update":"0001-01-01T00:00:00Z","name_a2s":"Uncletopia | Frankfurt | 1 | All Maps","protocol":17,"map":"pl_barnblitz","folder":"tf","game":"Team Fortress","app_id":440,"player_count":21,"max_players":24,"Bots":0,"server_type":"Dedicated","server_os":"Linux","password":true,"vac":true,"version":"7708610","steam_id":85568392924469989,"keywords":["nocrits","nodmgspread","payload","uncletopia"],"game_id":440,"stv_port":27016,"stv_name":"Uncletopia | Frankfurt | 1 | All Maps | STV","players":[{"user_id":714,"name":"steve","steam_id":76561198076135756,"connected_time":3494000000000,"state":"active","ping":45},{"user_id":697,"name":"Mango","steam_id":76561198139555709,"connected_time":4822000000000,"state":"active","ping":45},{"user_id":716,"name":"medick","steam_id":76561199380849468,"connected_time":3247000000000,"state":"active","ping":60},{"user_id":738,"name":"Canis[Magnus]Pectus","steam_id":76561198363775072,"connected_time":882000000000,"state":"active","ping":114},{"user_id":744,"name":"shiroko","steam_id":76561198211308328,"connected_time":408000000000,"state":"active","ping":123},{"user_id":740,"name":"SimplePig","steam_id":76561198071862153,"connected_time":831000000000,"state":"active","ping":125},{"user_id":731,"name":"Bones","steam_id":76561198065081225,"connected_time":1436000000000,"state":"active","ping":52},{"user_id":737,"name":"BANANAPRO22","steam_id":76561198956554479,"connected_time":946000000000,"state":"active","ping":92},{"user_id":721,"name":"worry about it","steam_id":76561199414716848,"connected_time":2494000000000,"state":"active","ping":71},{"user_id":727,"name":"budo.","steam_id":76561199064189789,"connected_time":2375000000000,"state":"active","ping":66},{"user_id":739,"name":"Lost And Damned","steam_id":76561198453240974,"connected_time":876000000000,"state":"active","ping":160},{"user_id":726,"name":"average schizo machina enjoyer","steam_id":76561198327827635,"connected_time":2462000000000,"state":"active","ping":75},{"user_id":733,"name":"Abstruse","steam_id":76561198084806733,"connected_time":1391000000000,"state":"active","ping":75},{"user_id":711,"name":"arcades","steam_id":76561198062075870,"connected_time":3695000000000,"state":"active","ping":59},{"user_id":718,"name":"ashley","steam_id":76561198448551449,"connected_time":2511000000000,"state":"active","ping":50},{"user_id":717,"name":"Deadlycow","steam_id":76561197980761347,"connected_time":2723000000000,"state":"active","ping":74},{"user_id":722,"name":"SuperBob103","steam_id":76561199175360012,"connected_time":2494000000000,"state":"active","ping":67},{"user_id":730,"name":"Juubast","steam_id":76561198107112856,"connected_time":1774000000000,"state":"active","ping":96},{"user_id":712,"name":"63756d","steam_id":76561198808699024,"connected_time":3657000000000,"state":"active","ping":60},{"user_id":719,"name":"Dapper","steam_id":76561198081694974,"connected_time":2511000000000,"state":"active","ping":61},{"user_id":723,"name":"gamerweed5","steam_id":76561198087651151,"connected_time":2494000000000,"state":"active","ping":49}]},{"server_id":110,"name":"Uncletopia | Frankfurt | 2 | All Maps","name_short":"frk-2","host":"frk-1.de.uncletopia.com","port":27025,"enabled":true,"region":"eu","cc":"de","latitude":50.110924,"longitude":8.682127,"reserved":0,"last_update":"0001-01-01T00:00:00Z","name_a2s":"Uncletopia | Frankfurt | 2 | All Maps","protocol":17,"map":"koth_cascade","folder":"tf","game":"Team Fortress","app_id":440,"player_count":0,"max_players":24,"Bots":0,"server_type":"Dedicated","server_os":"Linux","password":true,"vac":true,"version":"7708610","steam_id":85568392924469990,"keywords":["cp","nocrits","nodmgspread","uncletopia"],"game_id":440,"stv_port":27026,"stv_name":"Uncletopia | Frankfurt | 2 | All Maps | STV","players":null},{"server_id":308,"name":"Uncletopia | Frankfurt | 3 | All Maps","name_short":"frk-3","host":"frk-1.de.uncletopia.com","port":27035,"enabled":true,"region":"eu","cc":"de","latitude":50.110924,"longitude":8.682127,"reserved":0,"last_update":"0001-01-01T00:00:00Z","name_a2s":"Uncletopia | Frankfurt | 3 | All Maps","protocol":17,"map":"koth_highpass","folder":"tf","game":"Team Fortress","app_id":440,"player_count":0,"max_players":24,"Bots":0,"server_type":"Dedicated","server_os":"Linux","password":true,"vac":true,"version":"7708610","steam_id":85568392924504274,"keywords":["cp","nocrits","nodmgspread","uncletopia"],"game_id":440,"stv_port":27036,"stv_name":"Uncletopia | Frankfurt | 3 | All Maps | STV","players":null},{"server_id":309,"name":"Uncletopia | Frankfurt | 4 | All Maps","name_short":"frk-4","host":"frk-1.de.uncletopia.com","port":27045,"enabled":true,"region":"eu","cc":"de","latitude":50.110924,"longitude":8.682127,"reserved":0,"last_update":"0001-01-01T00:00:00Z","name_a2s":"Uncletopia | Frankfurt | 4 | All Maps","protocol":17,"map":"cp_snakewater_final1","folder":"tf","game":"Team Fortress","app_id":440,"player_count":0,"max_players":24,"Bots":0,"server_type":"Dedicated","server_os":"Linux","password":true,"vac":true,"version":"7708610","steam_id":85568392924504275,"keywords":["cp","nocrits","nodmgspread","uncletopia"],"game_id":440,"stv_port":27046,"stv_name":"Uncletopia | Frankfurt | 4 | All Maps | STV","players":null},{"server_id":310,"name":"Uncletopia | Frankfurt | 5 | All Maps","name_short":"frk-5","host":"frk-1.de.uncletopia.com","port":27055,"enabled":true,"region":"eu","cc":"de","latitude":50.110924,"longitude":8.682127,"reserved":0,"last_update":"0001-01-01T00:00:00Z","name_a2s":"Uncletopia | Frankfurt | 5 | All Maps","protocol":17,"map":"koth_lakeside_final","folder":"tf","game":"Team Fortress","app_id":440,"player_count":0,"max_players":24,"Bots":0,"server_type":"Dedicated","server_os":"Linux","password":true,"vac":true,"version":"7708610","steam_id":85568392924504277,"keywords":["cp","nocrits","nodmgspread","uncletopia"],"game_id":440,"stv_port":27056,"stv_name":"Uncletopia | Frankfurt | 5 | All Maps | STV","players":null},{"server_id":311,"name":"Uncletopia | Frankfurt | 6 | All Maps","name_short":"frk-6","host":"frk-1.de.uncletopia.com","port":27065,"enabled":true,"region":"eu","cc":"de","latitude":50.110924,"longitude":8.682127,"reserved":0,"last_update":"0001-01-01T00:00:00Z","name_a2s":"Uncletopia | Frankfurt | 6 | All Maps","protocol":17,"map":"koth_lakeside_final","folder":"tf","game":"Team Fortress","app_id":440,"player_count":0,"max_players":24,"Bots":0,"server_type":"Dedicated","server_os":"Linux","password":true,"vac":true,"version":"7708610","steam_id":85568392924504278,"keywords":["cp","nocrits","nodmgspread","uncletopia"],"game_id":440,"stv_port":27066,"stv_name":"Uncletopia | Frankfurt | 6 | All Maps | STV","players":null},{"server_id":23,"name":"Uncletopia | Frankfurt | 7 | No Payload","name_short":"frk-7","host":"frk-1.de.uncletopia.com","port":27075,"enabled":true,"region":"eu","cc":"de","latitude":50.110924,"longitude":8.682127,"reserved":0,"last_update":"0001-01-01T00:00:00Z","name_a2s":"Uncletopia | Frankfurt | 7 | No Payload","protocol":17,"map":"cp_granary","folder":"tf","game":"Team Fortress","app_id":440,"player_count":0,"max_players":24,"Bots":0,"server_type":"Dedicated","server_os":"Linux","password":true,"vac":true,"version":"7708610","steam_id":85568392924742827,"keywords":["cp","nocrits","nodmgspread","uncletopia"],"game_id":440,"stv_port":27076,"stv_name":"Uncletopia | Frankfurt | 7 | No Payload | STV","players":null},{"server_id":24,"name":"Uncletopia | Frankfurt | 8 | Community","name_short":"frk-8","host":"frk-1.de.uncletopia.com","port":27085,"enabled":true,"region":"eu","cc":"de","latitude":50.110924,"longitude":8.682127,"reserved":0,"last_update":"0001-01-01T00:00:00Z","name_a2s":"Uncletopia | Frankfurt | 8 | Community","protocol":17,"map":"workshop/koth_ramjam_v2_b2.ugc2865676487","folder":"tf","game":"Team Fortress","app_id":440,"player_count":0,"max_players":24,"Bots":0,"server_type":"Dedicated","server_os":"Linux","password":true,"vac":true,"version":"7708610","steam_id":85568392924742828,"keywords":["cp","nocrits","nodmgspread","uncletopia"],"game_id":440,"stv_port":27086,"stv_name":"Uncletopia | Frankfurt | 8 | Community | STV","players":null},{"server_id":202,"name":"Uncletopia | Hong Kong | 1 | All Maps","name_short":"hgk-1","host":"hgk-1.hk.uncletopia.com","port":27015,"enabled":true,"region":"asia","cc":"hk","latitude":22.302711,"longitude":114.177216,"reserved":0,"last_update":"0001-01-01T00:00:00Z","name_a2s":"Uncletopia | Hong Kong | 1 | All Maps","protocol":17,"map":"pl_frontier_final","folder":"tf","game":"Team Fortress","app_id":440,"player_count":1,"max_players":24,"Bots":0,"server_type":"Dedicated","server_os":"Linux","password":true,"vac":true,"version":"7708610","steam_id":85568392924494504,"keywords":["nocrits","nodmgspread","payload","uncletopia"],"game_id":440,"stv_port":27016,"stv_name":"Uncletopia | Hong Kong | 1 | All Maps | STV","players":[{"user_id":15,"name":"Banagi [F2P]","steam_id":76561199373908273,"connected_time":893000000000,"state":"active","ping":73}]},{"server_id":1,"name":"Uncletopia | Los Angeles | 1 | All Maps","name_short":"lax-1","host":"lax-1.us.uncletopia.com","port":27015,"enabled":true,"region":"us-west","cc":"us","latitude":33.94279,"longitude":-118.41004,"reserved":0,"last_update":"0001-01-01T00:00:00Z","name_a2s":"Uncletopia | Los Angeles | 1 | All Maps","protocol":17,"map":"koth_cascade","folder":"tf","game":"Team Fortress","app_id":440,"player_count":0,"max_players":24,"Bots":0,"server_type":"Dedicated","server_os":"Linux","password":true,"vac":true,"version":"7708610","steam_id":85568392924469991,"keywords":["cp","nocrits","nodmgspread","uncletopia"],"game_id":440,"stv_port":27016,"stv_name":"Uncletopia | Los Angeles | 1 | All Maps | STV","players":null},{"server_id":112,"name":"Uncletopia | Los Angeles | 2 | All Maps","name_short":"lax-2","host":"lax-1.us.uncletopia.com","port":27025,"enabled":true,"region":"us-west","cc":"us","latitude":33.94279,"longitude":-118.41004,"reserved":0,"last_update":"0001-01-01T00:00:00Z","name_a2s":"Uncletopia | Los Angeles | 2 | All Maps","protocol":17,"map":"pl_upward","folder":"tf","game":"Team Fortress","app_id":440,"player_count":19,"max_players":24,"Bots":0,"server_type":"Dedicated","server_os":"Linux","password":true,"vac":true,"version":"7708610","steam_id":85568392924469992,"keywords":["nocrits","nodmgspread","payload","uncletopia"],"game_id":440,"stv_port":27026,"stv_name":"Uncletopia | Los Angeles | 2 | All Maps | STV","players":[{"user_id":41,"name":"big car","steam_id":76561198067082350,"connected_time":41000000000,"state":"active","ping":58},{"user_id":18,"name":"June","steam_id":76561198141803658,"connected_time":646000000000,"state":"active","ping":46},{"user_id":16,"name":"BreadGod","steam_id":76561198050665205,"connected_time":799000000000,"state":"active","ping":109},{"user_id":13,"name":"Minerkid2004","steam_id":76561198044262827,"connected_time":807000000000,"state":"active","ping":74},{"user_id":19,"name":"KingSteve42","steam_id":76561198409455888,"connected_time":634000000000,"state":"active","ping":104},{"user_id":24,"name":"DuckyDave","steam_id":76561199080644355,"connected_time":461000000000,"state":"active","ping":142},{"user_id":39,"name":"YellowMonkey","steam_id":76561198859337534,"connected_time":156000000000,"state":"active","ping":42},{"user_id":40,"name":"rowan","steam_id":76561198004481006,"connected_time":147000000000,"state":"active","ping":45},{"user_id":21,"name":"xd Clover","steam_id":76561198038905361,"connected_time":559000000000,"state":"active","ping":96},{"user_id":23,"name":"FUSION","steam_id":76561197972659738,"connected_time":482000000000,"state":"active","ping":102},{"user_id":25,"name":"CrackedSanity","steam_id":76561198279841251,"connected_time":447000000000,"state":"active","ping":51},{"user_id":27,"name":"Plasic74x","steam_id":76561199058981206,"connected_time":433000000000,"state":"active","ping":83},{"user_id":29,"name":"I'm sorry in advance","steam_id":76561198087380785,"connected_time":407000000000,"state":"active","ping":56},{"user_id":30,"name":"trans gaming troll (she/her)","steam_id":76561198085410622,"connected_time":394000000000,"state":"active","ping":77},{"user_id":31,"name":"[DATSâž¡] Sugar Meowth","steam_id":76561197995251793,"connected_time":377000000000,"state":"active","ping":72},{"user_id":32,"name":"Shitty_Wizard","steam_id":76561198047889979,"connected_time":368000000000,"state":"active","ping":84},{"user_id":33,"name":"Blackbeard","steam_id":76561198046952265,"connected_time":366000000000,"state":"active","ping":71},{"user_id":34,"name":"GameGuru the Green Gryphon","steam_id":76561198118495354,"connected_time":343000000000,"state":"active","ping":58},{"user_id":36,"name":"Ryan Gosling Gaming","steam_id":76561198163295584,"connected_time":332000000000,"state":"active","ping":52}]},{"server_id":324,"name":"Uncletopia | Los Angeles | 3 | All Maps","name_short":"lax-3","host":"lax-1.us.uncletopia.com","port":27035,"enabled":true,"region":"us-west","cc":"us","latitude":33.94279,"longitude":-118.41004,"reserved":0,"last_update":"0001-01-01T00:00:00Z","name_a2s":"Uncletopia | Los Angeles | 3 | All Maps","protocol":17,"map":"koth_highpass","folder":"tf","game":"Team Fortress","app_id":440,"player_count":0,"max_players":24,"Bots":0,"server_type":"Dedicated","server_os":"Linux","password":true,"vac":true,"version":"7708610","steam_id":85568392924510198,"keywords":["cp","nocrits","nodmgspread","uncletopia"],"game_id":440,"stv_port":27036,"stv_name":"Uncletopia | Los Angeles | 3 | All Maps | STV","players":null},{"server_id":25,"name":"Uncletopia | Los Angeles | 4 | No Payload","name_short":"lax-4","host":"lax-1.us.uncletopia.com","port":27045,"enabled":true,"region":"us-west","cc":"us","latitude":33.94279,"longitude":-118.41004,"reserved":0,"last_update":"0001-01-01T00:00:00Z","name_a2s":"Uncletopia | Los Angeles | 4 | No Payload","protocol":17,"map":"koth_lazarus","folder":"tf","game":"Team Fortress","app_id":440,"player_count":0,"max_players":24,"Bots":0,"server_type":"Dedicated","server_os":"Linux","password":true,"vac":true,"version":"7708610","steam_id":85568392924510199,"keywords":["cp","nocrits","nodmgspread","uncletopia"],"game_id":440,"stv_port":27046,"stv_name":"Uncletopia | Los Angeles | 4 | No Payload | STV","players":null},{"server_id":11,"name":"Uncletopia | London | 1 | All Maps","name_short":"lon-1","host":"lon-1.uk.uncletopia.com","port":27015,"enabled":true,"region":"eu","cc":"gb","latitude":51.509865,"longitude":-0.118092,"reserved":0,"last_update":"0001-01-01T00:00:00Z","name_a2s":"Uncletopia | London | 1 | All Maps","protocol":17,"map":"pl_pier","folder":"tf","game":"Team Fortress","app_id":440,"player_count":0,"max_players":24,"Bots":0,"server_type":"Dedicated","server_os":"Linux","password":true,"vac":true,"version":"7708610","steam_id":85568392924367362,"keywords":["nocrits","nodmgspread","payload","uncletopia"],"game_id":440,"stv_port":27016,"stv_name":"Uncletopia | London | 1 | All Maps | STV","players":null},{"server_id":114,"name":"Uncletopia | London | 2 | All Maps","name_short":"lon-2","host":"lon-1.uk.uncletopia.com","port":27025,"enabled":true,"region":"eu","cc":"gb","latitude":51.509865,"longitude":-0.118092,"reserved":0,"last_update":"0001-01-01T00:00:00Z","name_a2s":"Uncletopia | London | 2 | All Maps","protocol":17,"map":"cp_snakewater_final1","folder":"tf","game":"Team Fortress","app_id":440,"player_count":0,"max_players":24,"Bots":0,"server_type":"Dedicated","server_os":"Linux","password":true,"vac":true,"version":"7708610","steam_id":85568392924470941,"keywords":["cp","nocrits","nodmgspread","uncletopia"],"game_id":440,"stv_port":27026,"stv_name":"Uncletopia | London | 2 | All Maps | STV","players":null},{"server_id":320,"name":"Uncletopia | London | 3 | All Maps","name_short":"lon-3","host":"lon-1.uk.uncletopia.com","port":27035,"enabled":true,"region":"eu","cc":"gb","latitude":51.509865,"longitude":-0.118092,"reserved":0,"last_update":"0001-01-01T00:00:00Z","name_a2s":"Uncletopia | London | 3 | All Maps","protocol":17,"map":"cp_sunshine","folder":"tf","game":"Team Fortress","app_id":440,"player_count":0,"max_players":24,"Bots":0,"server_type":"Dedicated","server_os":"Linux","password":true,"vac":true,"version":"7708610","steam_id":85568392924510192,"keywords":["cp","nocrits","nodmgspread","uncletopia"],"game_id":440,"stv_port":27036,"stv_name":"Uncletopia | London | 3 | All Maps | STV","players":null},{"server_id":321,"name":"Uncletopia | London | 4 | All Maps","name_short":"lon-4","host":"lon-1.uk.uncletopia.com","port":27045,"enabled":true,"region":"eu","cc":"gb","latitude":51.509865,"longitude":-0.118092,"reserved":0,"last_update":"0001-01-01T00:00:00Z","name_a2s":"Uncletopia | London | 4 | All Maps","protocol":17,"map":"cp_sunshine","folder":"tf","game":"Team Fortress","app_id":440,"player_count":0,"max_players":24,"Bots":0,"server_type":"Dedicated","server_os":"Linux","password":true,"vac":true,"version":"7708610","steam_id":85568392924510193,"keywords":["cp","nocrits","nodmgspread","uncletopia"],"game_id":440,"stv_port":27046,"stv_name":"Uncletopia | London | 4 | All Maps | STV","players":null},{"server_id":21,"name":"Uncletopia | London | 5 | All Maps","name_short":"lon-5","host":"lon-1.uk.uncletopia.com","port":27055,"enabled":true,"region":"eu","cc":"gb","latitude":51.509865,"longitude":-0.118092,"reserved":0,"last_update":"0001-01-01T00:00:00Z","name_a2s":"Uncletopia | London | 5 | All Maps","protocol":17,"map":"koth_lakeside_final","folder":"tf","game":"Team Fortress","app_id":440,"player_count":0,"max_players":24,"Bots":0,"server_type":"Dedicated","server_os":"Linux","password":true,"vac":true,"version":"7708610","steam_id":85568392924742829,"keywords":["cp","nocrits","nodmgspread","uncletopia"],"game_id":440,"stv_port":0,"stv_name":"","players":null},{"server_id":22,"name":"Uncletopia | London | 6 | All Maps","name_short":"lon-6","host":"lon-1.uk.uncletopia.com","port":27065,"enabled":true,"region":"eu","cc":"gb","latitude":51.509865,"longitude":-0.118092,"reserved":0,"last_update":"0001-01-01T00:00:00Z","name_a2s":"Uncletopia | London | 6 | All Maps","protocol":17,"map":"cp_snakewater_final1","folder":"tf","game":"Team Fortress","app_id":440,"player_count":0,"max_players":24,"Bots":0,"server_type":"Dedicated","server_os":"Linux","password":true,"vac":true,"version":"7708610","steam_id":85568392924742830,"keywords":["cp","nocrits","nodmgspread","uncletopia"],"game_id":440,"stv_port":27066,"stv_name":"Uncletopia | London | 6 | All Maps | STV","players":null},{"server_id":40,"name":"Uncletopia | London | 7 | No Payload","name_short":"lon-7","host":"lon-1.uk.uncletopia.com","port":27075,"enabled":true,"region":"eu","cc":"gb","latitude":51.509865,"longitude":-0.118092,"reserved":0,"last_update":"0001-01-01T00:00:00Z","name_a2s":"Uncletopia | London | 7 | No Payload","protocol":17,"map":"plr_hightower","folder":"tf","game":"Team Fortress","app_id":440,"player_count":0,"max_players":24,"Bots":0,"server_type":"Dedicated","server_os":"Linux","password":true,"vac":true,"version":"7708610","steam_id":85568392924964314,"keywords":["nocrits","nodmgspread","payload","uncletopia"],"game_id":440,"stv_port":27076,"stv_name":"Uncletopia | London | 7 | No Payload | STV","players":null},{"server_id":41,"name":"Uncletopia | London | 8 | Community","name_short":"lon-8","host":"lon-1.uk.uncletopia.com","port":27085,"enabled":true,"region":"eu","cc":"gb","latitude":51.509865,"longitude":-0.118092,"reserved":0,"last_update":"0001-01-01T00:00:00Z","name_a2s":"Uncletopia | London | 8 | Community","protocol":17,"map":"workshop/cp_reckoner_rc6.ugc674719999","folder":"tf","game":"Team Fortress","app_id":440,"player_count":0,"max_players":24,"Bots":0,"server_type":"Dedicated","server_os":"Linux","password":true,"vac":true,"version":"7708610","steam_id":85568392924964315,"keywords":["cp","nocrits","nodmgspread","uncletopia"],"game_id":440,"stv_port":27086,"stv_name":"Uncletopia | London | 8 | Community | STV","players":null},{"server_id":300,"name":"Uncletopia | MontrÃ©al | 1 | All Maps","name_short":"mtl-1","host":"mtl-1.ca.uncletopia.com","port":27015,"enabled":true,"region":"us-east","cc":"ca","latitude":45.50889,"longitude":-73.56167,"reserved":0,"last_update":"0001-01-01T00:00:00Z","name_a2s":"Uncletopia | MontrÃ©al | 1 | All Maps","protocol":17,"map":"pl_badwater","folder":"tf","game":"Team Fortress","app_id":440,"player_count":0,"max_players":24,"Bots":0,"server_type":"Dedicated","server_os":"Linux","password":true,"vac":true,"version":"7708610","steam_id":85568392924500087,"keywords":["nocrits","nodmgspread","payload","uncletopia"],"game_id":440,"stv_port":27016,"stv_name":"Uncletopia | MontrÃ©al | 1 | All Maps | STV","players":null},{"server_id":301,"name":"Uncletopia | MontrÃ©al | 2 | All Maps","name_short":"mtl-2","host":"mtl-1.ca.uncletopia.com","port":27025,"enabled":true,"region":"us-east","cc":"ca","latitude":45.50889,"longitude":-73.56167,"reserved":0,"last_update":"0001-01-01T00:00:00Z","name_a2s":"Uncletopia | MontrÃ©al | 2 | All Maps","protocol":17,"map":"koth_cascade","folder":"tf","game":"Team Fortress","app_id":440,"player_count":0,"max_players":24,"Bots":0,"server_type":"Dedicated","server_os":"Linux","password":true,"vac":true,"version":"7708610","steam_id":85568392924500088,"keywords":["cp","nocrits","nodmgspread","uncletopia"],"game_id":440,"stv_port":27026,"stv_name":"Uncletopia | MontrÃ©al | 2 | All Maps | STV","players":null},{"server_id":302,"name":"Uncletopia | MontrÃ©al | 3 | All Maps","name_short":"mtl-3","host":"mtl-1.ca.uncletopia.com","port":27035,"enabled":true,"region":"us-east","cc":"ca","latitude":45.50889,"longitude":-73.56167,"reserved":0,"last_update":"0001-01-01T00:00:00Z","name_a2s":"Uncletopia | MontrÃ©al | 3 | All Maps","protocol":17,"map":"koth_highpass","folder":"tf","game":"Team Fortress","app_id":440,"player_count":0,"max_players":24,"Bots":0,"server_type":"Dedicated","server_os":"Linux","password":true,"vac":true,"version":"7708610","steam_id":85568392924500089,"keywords":["cp","nocrits","nodmgspread","uncletopia"],"game_id":440,"stv_port":27036,"stv_name":"Uncletopia | MontrÃ©al | 3 | All Maps | STV","players":null},{"server_id":303,"name":"Uncletopia | MontrÃ©al | 4 | No Payload","name_short":"mtl-4","host":"mtl-1.ca.uncletopia.com","port":27045,"enabled":true,"region":"us-east","cc":"ca","latitude":45.50889,"longitude":-73.56167,"reserved":0,"last_update":"0001-01-01T00:00:00Z","name_a2s":"Uncletopia | MontrÃ©al | 4 | No Payload","protocol":17,"map":"ctf_sawmill","folder":"tf","game":"Team Fortress","app_id":440,"player_count":0,"max_players":24,"Bots":0,"server_type":"Dedicated","server_os":"Linux","password":true,"vac":true,"version":"7708610","steam_id":85568392924500090,"keywords":["ctf","nocrits","nodmgspread","uncletopia"],"game_id":440,"stv_port":27046,"stv_name":"Uncletopia | MontrÃ©al | 4 | No Payload | STV","players":null},{"server_id":13,"name":"Uncletopia | New York City | 1 | All Maps","name_short":"nyc-1","host":"nyc-1.us.uncletopia.com","port":27015,"enabled":true,"region":"us-east","cc":"us","latitude":40.73061,"longitude":-73.93524,"reserved":0,"last_update":"0001-01-01T00:00:00Z","name_a2s":"Uncletopia | New York City | 1 | All Maps","protocol":17,"map":"pl_pier","folder":"tf","game":"Team Fortress","app_id":440,"player_count":0,"max_players":24,"Bots":0,"server_type":"Dedicated","server_os":"Linux","password":true,"vac":true,"version":"7708610","steam_id":85568392924469993,"keywords":["nocrits","nodmgspread","payload","uncletopia"],"game_id":440,"stv_port":27016,"stv_name":"Uncletopia | New York City | 1 | All Maps | STV","players":null},{"server_id":14,"name":"Uncletopia | New York City | 2 | All Maps","name_short":"nyc-2","host":"nyc-1.us.uncletopia.com","port":27025,"enabled":true,"region":"us-east","cc":"us","latitude":40.73061,"longitude":-73.93524,"reserved":0,"last_update":"0001-01-01T00:00:00Z","name_a2s":"Uncletopia | New York City | 2 | All Maps","protocol":17,"map":"pl_snowycoast","folder":"tf","game":"Team Fortress","app_id":440,"player_count":23,"max_players":24,"Bots":0,"server_type":"Dedicated","server_os":"Linux","password":true,"vac":true,"version":"7708610","steam_id":85568392924469994,"keywords":["nocrits","nodmgspread","payload","uncletopia"],"game_id":440,"stv_port":27026,"stv_name":"Uncletopia | New York City | 2 | All Maps | STV","players":[{"user_id":348,"name":"Tkdnate","steam_id":76561198150318353,"connected_time":2152000000000,"state":"active","ping":61},{"user_id":328,"name":"eeveethecomic66","steam_id":76561199013856854,"connected_time":4300000000000,"state":"active","ping":76},{"user_id":352,"name":"Goose Pyro","steam_id":76561198994984332,"connected_time":1673000000000,"state":"active","ping":118},{"user_id":350,"name":"ç«æ˜Ÿ | Marsy","steam_id":76561198014979892,"connected_time":1975000000000,"state":"active","ping":52},{"user_id":373,"name":"ManBox","steam_id":76561198254180943,"connected_time":920000000000,"state":"active","ping":33},{"user_id":353,"name":"trollface.jpg","steam_id":76561197997096301,"connected_time":1563000000000,"state":"active","ping":88},{"user_id":354,"name":"A Lost CAWs","steam_id":76561198127120212,"connected_time":1428000000000,"state":"active","ping":81},{"user_id":374,"name":"JHLO","steam_id":76561198074359967,"connected_time":911000000000,"state":"active","ping":57},{"user_id":382,"name":"Air Fryer - $39.99 (4 Payments)","steam_id":76561198043572048,"connected_time":28000000000,"state":"active","ping":92},{"user_id":370,"name":"i'll have what you're having","steam_id":76561198035337657,"connected_time":972000000000,"state":"active","ping":47},{"user_id":381,"name":"Ch4rl33","steam_id":76561198037008621,"connected_time":43000000000,"state":"active","ping":88},{"user_id":359,"name":"Graham Crackers","steam_id":76561198089314125,"connected_time":1213000000000,"state":"active","ping":85},{"user_id":360,"name":"waveperson","steam_id":76561198324286099,"connected_time":1194000000000,"state":"active","ping":61},{"user_id":361,"name":"trashed","steam_id":76561199223514262,"connected_time":1184000000000,"state":"active","ping":56},{"user_id":229,"name":"A Puppy","steam_id":76561198828184456,"connected_time":11758000000000,"state":"active","ping":48},{"user_id":372,"name":"DemoKnight tf2 [[Pan Militia]]","steam_id":76561199100258990,"connected_time":958000000000,"state":"active","ping":60},{"user_id":363,"name":"TheArachnidGamer","steam_id":76561198304986752,"connected_time":1112000000000,"state":"active","ping":91},{"user_id":376,"name":"xXPr0_JelqerXx","steam_id":76561198115451034,"connected_time":882000000000,"state":"active","ping":82},{"user_id":377,"name":"svltr","steam_id":76561198164627676,"connected_time":870000000000,"state":"active","ping":65},{"user_id":366,"name":"static","steam_id":76561198364916394,"connected_time":1079000000000,"state":"active","ping":108},{"user_id":378,"name":"Aristotle Voulton","steam_id":76561198100174923,"connected_time":863000000000,"state":"active","ping":69},{"user_id":368,"name":"kibble","steam_id":76561198239909096,"connected_time":1043000000000,"state":"active","ping":55},{"user_id":380,"name":"smocc","steam_id":76561197993726746,"connected_time":133000000000,"state":"active","ping":50}]},{"server_id":15,"name":"Uncletopia | New York City | 3 | All Maps","name_short":"nyc-3","host":"nyc-1.us.uncletopia.com","port":27035,"enabled":true,"region":"us-east","cc":"us","latitude":40.73061,"longitude":-73.93524,"reserved":0,"last_update":"0001-01-01T00:00:00Z","name_a2s":"Uncletopia | New York City | 3 | All Maps","protocol":17,"map":"pl_barnblitz","folder":"tf","game":"Team Fortress","app_id":440,"player_count":15,"max_players":24,"Bots":0,"server_type":"Dedicated","server_os":"Linux","password":true,"vac":true,"version":"7708610","steam_id":85568392924742820,"keywords":["nocrits","nodmgspread","payload","uncletopia"],"game_id":440,"stv_port":27036,"stv_name":"Uncletopia | New York City | 3 | All Maps | STV","players":[{"user_id":358,"name":"nauts salt","steam_id":76561198045832398,"connected_time":2378000000000,"state":"active","ping":75},{"user_id":366,"name":"Censure","steam_id":76561198850891374,"connected_time":1719000000000,"state":"active","ping":51},{"user_id":382,"name":"Skeleton Bones Ghoulie","steam_id":76561199138772722,"connected_time":715000000000,"state":"active","ping":103},{"user_id":359,"name":"CorbanClyffe","steam_id":76561198154114994,"connected_time":2305000000000,"state":"active","ping":45},{"user_id":375,"name":"weeb","steam_id":76561198106945226,"connected_time":1486000000000,"state":"active","ping":87},{"user_id":374,"name":"Kamin","steam_id":76561198255299559,"connected_time":1509000000000,"state":"active","ping":97},{"user_id":357,"name":"Anya Forger's Peanuts","steam_id":76561198008577961,"connected_time":2498000000000,"state":"active","ping":74},{"user_id":386,"name":"dnl","steam_id":76561198096413059,"connected_time":411000000000,"state":"active","ping":123},{"user_id":379,"name":"mudturtle","steam_id":76561198292734035,"connected_time":1141000000000,"state":"active","ping":50},{"user_id":279,"name":"4Lukaska","steam_id":76561198083515060,"connected_time":7033000000000,"state":"active","ping":51},{"user_id":384,"name":"Timon's high on crack cocaine!","steam_id":76561198180396430,"connected_time":488000000000,"state":"active","ping":52},{"user_id":378,"name":"D4rkAngle","steam_id":76561198078573696,"connected_time":1149000000000,"state":"active","ping":49},{"user_id":388,"name":"tame","steam_id":76561198925005855,"connected_time":262000000000,"state":"active","ping":166},{"user_id":383,"name":"the222attacker","steam_id":76561198969690191,"connected_time":677000000000,"state":"active","ping":50},{"user_id":373,"name":"Chilidestroy","steam_id":76561199101551797,"connected_time":1529000000000,"state":"active","ping":76}]},{"server_id":16,"name":"Uncletopia | New York City | 4 | Community","name_short":"nyc-4","host":"nyc-1.us.uncletopia.com","port":27045,"enabled":true,"region":"us-east","cc":"us","latitude":40.73061,"longitude":-73.93524,"reserved":0,"last_update":"0001-01-01T00:00:00Z","name_a2s":"Uncletopia | New York City | 4 | Community","protocol":17,"map":"workshop/koth_ramjam_v2_b2.ugc2865676487","folder":"tf","game":"Team Fortress","app_id":440,"player_count":0,"max_players":24,"Bots":0,"server_type":"Dedicated","server_os":"Linux","password":true,"vac":true,"version":"7708610","steam_id":85568392924742821,"keywords":["cp","nocrits","nodmgspread","uncletopia"],"game_id":440,"stv_port":27046,"stv_name":"Uncletopia | New York City | 4 | Community | STV","players":null},{"server_id":142,"name":"Uncletopia | SÃ£o Paulo | 1 | All Maps","name_short":"sao-1","host":"sao-1.br.uncletopia.com","port":27015,"enabled":true,"region":"sa","cc":"br","latitude":-23.533773,"longitude":-46.62529,"reserved":0,"last_update":"0001-01-01T00:00:00Z","name_a2s":"Uncletopia | SÃ£o Paulo | 1 | All Maps","protocol":17,"map":"koth_viaduct","folder":"tf","game":"Team Fortress","app_id":440,"player_count":0,"max_players":24,"Bots":0,"server_type":"Dedicated","server_os":"Linux","password":true,"vac":true,"version":"7708610","steam_id":85568392924469996,"keywords":["cp","nocrits","nodmgspread","uncletopia"],"game_id":440,"stv_port":27016,"stv_name":"Uncletopia | SÃ£o Paulo | 1 | All Maps | STV","players":null},{"server_id":143,"name":"Uncletopia | SÃ£o Paulo | 2 | All Maps","name_short":"sao-2","host":"sao-2.br.uncletopia.com","port":27015,"enabled":true,"region":"sa","cc":"br","latitude":-23.533773,"longitude":-46.62529,"reserved":0,"last_update":"0001-01-01T00:00:00Z","name_a2s":"Uncletopia | SÃ£o Paulo | 2 | All Maps","protocol":17,"map":"koth_cascade","folder":"tf","game":"Team Fortress","app_id":440,"player_count":0,"max_players":24,"Bots":0,"server_type":"Dedicated","server_os":"Linux","password":true,"vac":true,"version":"7708610","steam_id":85568392924485349,"keywords":["cp","nocrits","nodmgspread","uncletopia"],"game_id":440,"stv_port":27016,"stv_name":"Uncletopia | SÃ£o Paulo | 2 | All Maps | STV","players":null},{"server_id":7,"name":"Uncletopia | Seattle | 1 | All Maps","name_short":"sea-1","host":"sea-1.us.uncletopia.com","port":27015,"enabled":true,"region":"us-west","cc":"us","latitude":47.608013,"longitude":-122.33517,"reserved":0,"last_update":"0001-01-01T00:00:00Z","name_a2s":"Uncletopia | Seattle | 1 | All Maps","protocol":17,"map":"pl_badwater","folder":"tf","game":"Team Fortress","app_id":440,"player_count":24,"max_players":24,"Bots":0,"server_type":"Dedicated","server_os":"Linux","password":true,"vac":true,"version":"7708610","steam_id":85568392924469997,"keywords":["nocrits","nodmgspread","payload","uncletopia"],"game_id":440,"stv_port":27016,"stv_name":"Uncletopia | Seattle | 1 | All Maps | STV","players":[{"user_id":301,"name":"tayzik","steam_id":76561199391478575,"connected_time":737000000000,"state":"active","ping":62},{"user_id":300,"name":"a crazy hobo","steam_id":76561198289650060,"connected_time":904000000000,"state":"active","ping":74},{"user_id":291,"name":"dust","steam_id":76561198045218909,"connected_time":1451000000000,"state":"active","ping":44},{"user_id":302,"name":"The Best Healer","steam_id":76561198079452621,"connected_time":663000000000,"state":"active","ping":50},{"user_id":308,"name":"komi","steam_id":76561198321442747,"connected_time":54000000000,"state":"active","ping":128},{"user_id":307,"name":"oil","steam_id":76561198099980149,"connected_time":100000000000,"state":"active","ping":79},{"user_id":261,"name":"CrazyKermitRubes","steam_id":76561198009065204,"connected_time":3055000000000,"state":"active","ping":128},{"user_id":231,"name":"Empyrean","steam_id":76561198116398716,"connected_time":4327000000000,"state":"active","ping":82},{"user_id":274,"name":"Red Soldier","steam_id":76561198169484186,"connected_time":2657000000000,"state":"active","ping":48},{"user_id":306,"name":"tacofever","steam_id":76561198010966507,"connected_time":157000000000,"state":"active","ping":83},{"user_id":267,"name":"Mom","steam_id":76561198207936000,"connected_time":2919000000000,"state":"active","ping":67},{"user_id":294,"name":"Honeybunch","steam_id":76561198014850580,"connected_time":1352000000000,"state":"active","ping":45},{"user_id":281,"name":"BlockBurst","steam_id":76561199220851075,"connected_time":2182000000000,"state":"active","ping":67},{"user_id":304,"name":"squashbone","steam_id":76561197999466442,"connected_time":355000000000,"state":"active","ping":50},{"user_id":305,"name":"Warlock","steam_id":76561199033164093,"connected_time":259000000000,"state":"active","ping":60},{"user_id":296,"name":"bbbbb","steam_id":76561198095480838,"connected_time":1292000000000,"state":"active","ping":53},{"user_id":279,"name":"Thicctor Belmont","steam_id":76561198841547193,"connected_time":2278000000000,"state":"active","ping":120},{"user_id":288,"name":"shane","steam_id":76561198060491451,"connected_time":1838000000000,"state":"active","ping":90},{"user_id":299,"name":"omugai_","steam_id":76561198086481768,"connected_time":1023000000000,"state":"active","ping":67},{"user_id":246,"name":"b2b","steam_id":76561198082601857,"connected_time":3974000000000,"state":"active","ping":79},{"user_id":249,"name":"Fh","steam_id":76561198000903511,"connected_time":3729000000000,"state":"active","ping":68},{"user_id":253,"name":"melon_eater","steam_id":76561198018714084,"connected_time":3680000000000,"state":"active","ping":40},{"user_id":295,"name":"Gaming","steam_id":76561198327632113,"connected_time":1340000000000,"state":"active","ping":47},{"user_id":303,"name":"Pubk","steam_id":76561198095939571,"connected_time":662000000000,"state":"active","ping":35}]},{"server_id":119,"name":"Uncletopia | Seattle | 2 | All Maps","name_short":"sea-2","host":"sea-1.us.uncletopia.com","port":27025,"enabled":true,"region":"us-west","cc":"us","latitude":47.608013,"longitude":-122.33517,"reserved":0,"last_update":"0001-01-01T00:00:00Z","name_a2s":"Uncletopia | Seattle | 2 | All Maps","protocol":17,"map":"pl_barnblitz","folder":"tf","game":"Team Fortress","app_id":440,"player_count":22,"max_players":24,"Bots":0,"server_type":"Dedicated","server_os":"Linux","password":true,"vac":true,"version":"7708610","steam_id":85568392924469998,"keywords":["nocrits","nodmgspread","payload","uncletopia"],"game_id":440,"stv_port":27026,"stv_name":"Uncletopia | Seattle | 2 | All Maps | STV","players":[{"user_id":191,"name":"Morse","steam_id":76561198039944542,"connected_time":75000000000,"state":"active","ping":50},{"user_id":94,"name":"MCman","steam_id":76561198412110305,"connected_time":6701000000000,"state":"active","ping":78},{"user_id":192,"name":"Walter Malone","steam_id":76561198078661356,"connected_time":33000000000,"state":"active","ping":124},{"user_id":126,"name":"JTuu","steam_id":76561198030606396,"connected_time":5355000000000,"state":"active","ping":42},{"user_id":180,"name":"themadlad67","steam_id":76561199309554436,"connected_time":1169000000000,"state":"active","ping":42},{"user_id":171,"name":"MantisTobboggan","steam_id":76561197969447887,"connected_time":1965000000000,"state":"active","ping":62},{"user_id":169,"name":"Stickey Zelensky","steam_id":76561198202254225,"connected_time":2643000000000,"state":"active","ping":49},{"user_id":186,"name":"Syringe Gun","steam_id":76561198032361889,"connected_time":503000000000,"state":"active","ping":68},{"user_id":155,"name":"corbenis","steam_id":76561199012442511,"connected_time":3448000000000,"state":"active","ping":76},{"user_id":183,"name":"Rootin' Tootin' Cowboy","steam_id":76561197976177017,"connected_time":683000000000,"state":"active","ping":105},{"user_id":174,"name":"Petey","steam_id":76561198007339151,"connected_time":1614000000000,"state":"active","ping":86},{"user_id":162,"name":"Hernandez$","steam_id":76561198019324588,"connected_time":3198000000000,"state":"active","ping":88},{"user_id":157,"name":"tkeati","steam_id":76561198056356574,"connected_time":3388000000000,"state":"active","ping":46},{"user_id":175,"name":"Johnny Lawrence #JohnnyMaxxing","steam_id":76561199367141671,"connected_time":1613000000000,"state":"active","ping":113},{"user_id":134,"name":"Frongus","steam_id":76561197979056451,"connected_time":5265000000000,"state":"active","ping":48},{"user_id":182,"name":"girl in red enthusiast","steam_id":76561199214746769,"connected_time":819000000000,"state":"active","ping":104},{"user_id":190,"name":"Crake","steam_id":76561198001959071,"connected_time":420000000000,"state":"active","ping":55},{"user_id":185,"name":"The Gremlin","steam_id":76561198419066993,"connected_time":598000000000,"state":"active","ping":61},{"user_id":189,"name":"sand","steam_id":76561199166176718,"connected_time":483000000000,"state":"active","ping":66},{"user_id":176,"name":"Wanderer","steam_id":76561197983989461,"connected_time":1600000000000,"state":"active","ping":46},{"user_id":167,"name":"Steve Jobs' cousin Hand Jobs","steam_id":76561198282766831,"connected_time":3062000000000,"state":"active","ping":104},{"user_id":172,"name":"Jorjor Wel","steam_id":76561198059689125,"connected_time":1702000000000,"state":"active","ping":53}]},{"server_id":17,"name":"Uncletopia | San Francisco | 1 | All Maps","name_short":"sfo-1","host":"sfo-1.us.uncletopia.com","port":27015,"enabled":true,"region":"us-west","cc":"us","latitude":37.77397,"longitude":-122.4313,"reserved":0,"last_update":"0001-01-01T00:00:00Z","name_a2s":"Uncletopia | San Francisco | 1 | All Maps","protocol":17,"map":"koth_highpass","folder":"tf","game":"Team Fortress","app_id":440,"player_count":0,"max_players":24,"Bots":0,"server_type":"Dedicated","server_os":"Linux","password":true,"vac":true,"version":"7708610","steam_id":85568392924469999,"keywords":["cp","nocrits","nodmgspread","uncletopia"],"game_id":440,"stv_port":27016,"stv_name":"Uncletopia | San Francisco | 1 | All Maps | STV","players":null},{"server_id":18,"name":"Uncletopia | San Francisco | 2 | All Maps","name_short":"sfo-2","host":"sfo-1.us.uncletopia.com","port":27025,"enabled":true,"region":"us-west","cc":"us","latitude":37.77397,"longitude":-122.4313,"reserved":0,"last_update":"0001-01-01T00:00:00Z","name_a2s":"Uncletopia | San Francisco | 2 | All Maps","protocol":17,"map":"cp_sunshine","folder":"tf","game":"Team Fortress","app_id":440,"player_count":2,"max_players":24,"Bots":0,"server_type":"Dedicated","server_os":"Linux","password":true,"vac":true,"version":"7708610","steam_id":85568392924470000,"keywords":["cp","nocrits","nodmgspread","uncletopia"],"game_id":440,"stv_port":27026,"stv_name":"Uncletopia | San Francisco | 2 | All Maps | STV","players":[{"user_id":6,"name":"Deborp","steam_id":76561198118868430,"connected_time":4113000000000,"state":"active","ping":120},{"user_id":14,"name":"big bertha","steam_id":76561198441032143,"connected_time":1449000000000,"state":"active","ping":60}]},{"server_id":19,"name":"Uncletopia | San Francisco | 3 | No Payload","name_short":"sfo-3","host":"sfo-1.us.uncletopia.com","port":27035,"enabled":true,"region":"us-west","cc":"us","latitude":37.77397,"longitude":-122.4313,"reserved":0,"last_update":"0001-01-01T00:00:00Z","name_a2s":"Uncletopia | San Francisco | 3 | No Payload","protocol":17,"map":"cp_coldfront","folder":"tf","game":"Team Fortress","app_id":440,"player_count":0,"max_players":24,"Bots":0,"server_type":"Dedicated","server_os":"Linux","password":true,"vac":true,"version":"7708610","steam_id":85568392924742824,"keywords":["cp","nocrits","nodmgspread","uncletopia"],"game_id":440,"stv_port":27036,"stv_name":"Uncletopia | San Francisco | 3 | No Payload | STV","players":null},{"server_id":20,"name":"Uncletopia | San Francisco | 4 | Community","name_short":"sfo-4","host":"sfo-1.us.uncletopia.com","port":27045,"enabled":true,"region":"us-west","cc":"us","latitude":37.77397,"longitude":-122.4313,"reserved":0,"last_update":"0001-01-01T00:00:00Z","name_a2s":"Uncletopia | San Francisco | 4 | Community","protocol":17,"map":"workshop/koth_synthetic_rc6a.ugc1549817316","folder":"tf","game":"Team Fortress","app_id":440,"player_count":0,"max_players":24,"Bots":0,"server_type":"Dedicated","server_os":"Linux","password":true,"vac":true,"version":"7708610","steam_id":85568392924742826,"keywords":["cp","nocrits","nodmgspread","uncletopia"],"game_id":440,"stv_port":27046,"stv_name":"Uncletopia | San Francisco | 4 | Community | STV","players":null},{"server_id":141,"name":"Uncletopia | Sydney | 1 | All Maps","name_short":"syd-1","host":"syd-1.au.uncletopia.com","port":27015,"enabled":true,"region":"au","cc":"au","latitude":-33.865143,"longitude":151.2099,"reserved":0,"last_update":"0001-01-01T00:00:00Z","name_a2s":"Uncletopia | Sydney | 1 | All Maps","protocol":17,"map":"koth_viaduct","folder":"tf","game":"Team Fortress","app_id":440,"player_count":16,"max_players":24,"Bots":0,"server_type":"Dedicated","server_os":"Linux","password":true,"vac":true,"version":"7708610","steam_id":85568392924470001,"keywords":["cp","nocrits","nodmgspread","uncletopia"],"game_id":440,"stv_port":27016,"stv_name":"Uncletopia | Sydney | 1 | All Maps | STV","players":[{"user_id":20,"name":"windows vista","steam_id":76561198181194862,"connected_time":1169000000000,"state":"active","ping":61},{"user_id":30,"name":"zen","steam_id":76561198302670452,"connected_time":398000000000,"state":"active","ping":58},{"user_id":22,"name":"John","steam_id":76561198126578228,"connected_time":1028000000000,"state":"active","ping":57},{"user_id":25,"name":"Meihronias","steam_id":76561199163845108,"connected_time":789000000000,"state":"active","ping":58},{"user_id":24,"name":"clout","steam_id":76561198073310502,"connected_time":968000000000,"state":"active","ping":74},{"user_id":32,"name":"sleeply","steam_id":76561198863984018,"connected_time":315000000000,"state":"active","ping":89},{"user_id":27,"name":"Blazey ä¼Šé” æ”¿å®—","steam_id":76561197971082275,"connected_time":734000000000,"state":"active","ping":114},{"user_id":28,"name":"Glockenspe (She/Her)","steam_id":76561199184115241,"connected_time":589000000000,"state":"active","ping":47},{"user_id":33,"name":"Marty Byrde IRL","steam_id":76561199427269098,"connected_time":290000000000,"state":"active","ping":262},{"user_id":34,"name":"cimpact","steam_id":76561198452258917,"connected_time":226000000000,"state":"active","ping":142},{"user_id":35,"name":"Nymrock","steam_id":76561198106974824,"connected_time":165000000000,"state":"active","ping":76},{"user_id":36,"name":"The thing under the bed","steam_id":76561199305879202,"connected_time":156000000000,"state":"active","ping":109},{"user_id":38,"name":"Del Davis","steam_id":76561199365669004,"connected_time":80000000000,"state":"active","ping":54},{"user_id":39,"name":"adammagee","steam_id":76561197972653972,"connected_time":45000000000,"state":"active","ping":53},{"user_id":40,"name":"Lancer","steam_id":76561198122813810,"connected_time":44000000000,"state":"spawning","ping":84},{"user_id":41,"name":"PyroShark","steam_id":76561198199915279,"connected_time":4000000000,"state":"spawning","ping":78}]},{"server_id":123,"name":"Uncletopia | Sydney | 2 | All Maps","name_short":"syd-2","host":"syd-1.au.uncletopia.com","port":27025,"enabled":true,"region":"au","cc":"au","latitude":-33.865143,"longitude":151.2099,"reserved":0,"last_update":"0001-01-01T00:00:00Z","name_a2s":"Uncletopia | Sydney | 2 | All Maps","protocol":17,"map":"koth_viaduct","folder":"tf","game":"Team Fortress","app_id":440,"player_count":0,"max_players":24,"Bots":0,"server_type":"Dedicated","server_os":"Linux","password":true,"vac":true,"version":"7708610","steam_id":85568392924470002,"keywords":["cp","nocrits","nodmgspread","uncletopia"],"game_id":440,"stv_port":27026,"stv_name":"Uncletopia | Sydney | 2 | All Maps | STV","players":null},{"server_id":395,"name":"Uncletopia | Sydney | 3 | All Maps","name_short":"syd-3","host":"syd-1.au.uncletopia.com","port":27035,"enabled":true,"region":"au","cc":"au","latitude":-33.865143,"longitude":151.2099,"reserved":0,"last_update":"0001-01-01T00:00:00Z","name_a2s":"Uncletopia | Sydney | 3 | All Maps","protocol":17,"map":"koth_cascade","folder":"tf","game":"Team Fortress","app_id":440,"player_count":0,"max_players":24,"Bots":0,"server_type":"Dedicated","server_os":"Linux","password":true,"vac":true,"version":"7708610","steam_id":85568392925194467,"keywords":["cp","nocrits","nodmgspread","uncletopia"],"game_id":440,"stv_port":27036,"stv_name":"Uncletopia | Sydney | 3 | All Maps | STV","players":null},{"server_id":396,"name":"Uncletopia | Sydney | 4 | All Maps","name_short":"syd-4","host":"syd-1.au.uncletopia.com","port":27045,"enabled":true,"region":"au","cc":"au","latitude":-33.865143,"longitude":151.2099,"reserved":0,"last_update":"0001-01-01T00:00:00Z","name_a2s":"Uncletopia | Sydney | 4 | All Maps","protocol":17,"map":"koth_lakeside_final","folder":"tf","game":"Team Fortress","app_id":440,"player_count":0,"max_players":24,"Bots":0,"server_type":"Dedicated","server_os":"Linux","password":true,"vac":true,"version":"7708610","steam_id":85568392925397958,"keywords":["cp","nocrits","nodmgspread","uncletopia"],"game_id":440,"stv_port":0,"stv_name":"","players":null},{"server_id":58,"name":"Uncletopia | Sydney | 5 | No Payload","name_short":"syd-5","host":"syd-1.au.uncletopia.com","port":27055,"enabled":true,"region":"au","cc":"au","latitude":-33.865143,"longitude":151.2099,"reserved":0,"last_update":"0001-01-01T00:00:00Z","name_a2s":"Uncletopia | Sydney | 5 | No Payload","protocol":17,"map":"koth_cascade","folder":"tf","game":"Team Fortress","app_id":440,"player_count":0,"max_players":24,"Bots":0,"server_type":"Dedicated","server_os":"Linux","password":true,"vac":true,"version":"7708610","steam_id":85568392925397959,"keywords":["cp","nocrits","nodmgspread","uncletopia"],"game_id":440,"stv_port":0,"stv_name":"","players":null},{"server_id":59,"name":"Uncletopia | Sydney | 6 | Community","name_short":"syd-6","host":"syd-1.au.uncletopia.com","port":27065,"enabled":true,"region":"au","cc":"au","latitude":-33.865143,"longitude":151.2099,"reserved":0,"last_update":"0001-01-01T00:00:00Z","name_a2s":"Uncletopia | Sydney | 6 | Community","protocol":17,"map":"workshop/pl_vigil_rc9.ugc1266210012","folder":"tf","game":"Team Fortress","app_id":440,"player_count":0,"max_players":24,"Bots":0,"server_type":"Dedicated","server_os":"Linux","password":true,"vac":true,"version":"7708610","steam_id":85568392925397960,"keywords":["nocrits","nodmgspread","payload","uncletopia"],"game_id":440,"stv_port":27066,"stv_name":"Uncletopia | Sydney | 6 | Community | STV","players":null},{"server_id":49,"name":"Uncletopia | Warsaw | 1 | All Maps","name_short":"waw-1","host":"waw-1.pl.uncletopia.com","port":27015,"enabled":true,"region":"eu","cc":"pl","latitude":52.2297,"longitude":21.017532,"reserved":0,"last_update":"0001-01-01T00:00:00Z","name_a2s":"Uncletopia | Warsaw | 1 | All Maps","protocol":17,"map":"pl_pier","folder":"tf","game":"Team Fortress","app_id":440,"player_count":0,"max_players":24,"Bots":0,"server_type":"Dedicated","server_os":"Linux","password":true,"vac":true,"version":"7708610","steam_id":85568392925397850,"keywords":["nocrits","nodmgspread","payload","uncletopia"],"game_id":440,"stv_port":27016,"stv_name":"Uncletopia | Warsaw | 1 | All Maps | STV","players":null},{"server_id":50,"name":"Uncletopia | Warsaw | 2 | All Maps","name_short":"waw-2","host":"waw-1.pl.uncletopia.com","port":27025,"enabled":true,"region":"eu","cc":"pl","latitude":52.2297,"longitude":21.017532,"reserved":0,"last_update":"0001-01-01T00:00:00Z","name_a2s":"Uncletopia | Warsaw | 2 | All Maps","protocol":17,"map":"cp_mountainlab","folder":"tf","game":"Team Fortress","app_id":440,"player_count":0,"max_players":24,"Bots":0,"server_type":"Dedicated","server_os":"Linux","password":true,"vac":true,"version":"7708610","steam_id":85568392925397851,"keywords":["cp","nocrits","nodmgspread","uncletopia"],"game_id":440,"stv_port":27026,"stv_name":"Uncletopia | Warsaw | 2 | All Maps | STV","players":null},{"server_id":51,"name":"Uncletopia | Warsaw | 3 | All Maps","name_short":"waw-3","host":"waw-1.pl.uncletopia.com","port":27035,"enabled":true,"region":"eu","cc":"pl","latitude":52.2297,"longitude":21.017532,"reserved":0,"last_update":"0001-01-01T00:00:00Z","name_a2s":"Uncletopia | Warsaw | 3 | All Maps","protocol":17,"map":"koth_cascade","folder":"tf","game":"Team Fortress","app_id":440,"player_count":0,"max_players":24,"Bots":0,"server_type":"Dedicated","server_os":"Linux","password":true,"vac":true,"version":"7708610","steam_id":85568392925397852,"keywords":["cp","nocrits","nodmgspread","uncletopia"],"game_id":440,"stv_port":0,"stv_name":"","players":null},{"server_id":52,"name":"Uncletopia | Warsaw | 4 | All Maps","name_short":"waw-4","host":"waw-1.pl.uncletopia.com","port":27045,"enabled":true,"region":"eu","cc":"pl","latitude":52.2297,"longitude":21.017532,"reserved":0,"last_update":"0001-01-01T00:00:00Z","name_a2s":"Uncletopia | Warsaw | 4 | All Maps","protocol":17,"map":"pl_badwater","folder":"tf","game":"Team Fortress","app_id":440,"player_count":0,"max_players":24,"Bots":0,"server_type":"Dedicated","server_os":"Linux","password":true,"vac":true,"version":"7708610","steam_id":85568392925397853,"keywords":["nocrits","nodmgspread","payload","uncletopia"],"game_id":440,"stv_port":27046,"stv_name":"Uncletopia | Warsaw | 4 | All Maps | STV","players":null},{"server_id":53,"name":"Uncletopia | Warsaw | 5 | No Payload","name_short":"waw-5","host":"waw-1.pl.uncletopia.com","port":27055,"enabled":true,"region":"eu","cc":"pl","latitude":52.2297,"longitude":21.017532,"reserved":0,"last_update":"0001-01-01T00:00:00Z","name_a2s":"Uncletopia | Warsaw | 5 | No Payload","protocol":17,"map":"cp_dustbowl","folder":"tf","game":"Team Fortress","app_id":440,"player_count":0,"max_players":24,"Bots":0,"server_type":"Dedicated","server_os":"Linux","password":true,"vac":true,"version":"7708610","steam_id":85568392925397854,"keywords":["cp","nocrits","nodmgspread","uncletopia"],"game_id":440,"stv_port":0,"stv_name":"","players":null},{"server_id":54,"name":"Uncletopia | Warsaw | 6 | Community","name_short":"waw-6","host":"waw-1.pl.uncletopia.com","port":27065,"enabled":true,"region":"eu","cc":"pl","latitude":52.2297,"longitude":21.017532,"reserved":0,"last_update":"0001-01-01T00:00:00Z","name_a2s":"Uncletopia | Warsaw | 6 | Community","protocol":17,"map":"koth_highpass","folder":"tf","game":"Team Fortress","app_id":440,"player_count":0,"max_players":24,"Bots":0,"server_type":"Dedicated","server_os":"Linux","password":true,"vac":true,"version":"7708610","steam_id":85568392925397856,"keywords":["cp","nocrits","nodmgspread","uncletopia"],"game_id":440,"stv_port":0,"stv_name":"","players":null}]}