{"status":true,"message":"","result":[{"server_id":9,"name":"Uncletopia | Atlanta | 1 | All Maps","name_short":"atl-1","host":"atl-1.us.uncletopia.com","port":27015,"enabled":true,"region":"us-east","cc":"us","latitude":33.753746,"longitude":-84.38633,"reserved":0,"last_update":"0001-01-01T00:00:00Z","name_a2s":"Uncletopia | Atlanta | 1 | All Maps","protocol":17,"map":"cp_sunshine","folder":"tf","game":"Team Fortress","app_id":440,"player_count":24,"max_players":24,"Bots":0,"server_type":"Dedicated","server_os":"Linux","password":true,"vac":true,"version":"7961495","steam_id":85568392924469982,"keywords":["cp","nocrits","nodmgspread","uncletopia"],"game_id":440,"stv_port":27016,"stv_name":"Uncletopia | Atlanta | 1 | All Maps | STV","players":[{"user_id":321,"name":"Motreir","steam_id":76561198151717946,"connected_time":15450000000000,"state":"active","ping":75},{"user_id":624,"name":"Boneless Blithen","steam_id":76561197989955619,"connected_time":305000000000,"state":"active","ping":126},{"user_id":553,"name":"Maestro","steam_id":76561198157325020,"connected_time":5513000000000,"state":"active","ping":60},{"user_id":615,"name":"Im High","steam_id":76561198049954886,"connected_time":1836000000000,"state":"active","ping":74},{"user_id":610,"name":"marguerite","steam_id":76561198170873495,"connected_time":2556000000000,"state":"active","ping":52},{"user_id":621,"name":"loot","steam_id":76561198069954956,"connected_time":693000000000,"state":"active","ping":46},{"user_id":332,"name":"Heathcliff","steam_id":76561198044288534,"connected_time":14142000000000,"state":"active","ping":77},{"user_id":623,"name":"Erchius (she/her)","steam_id":76561198256892300,"connected_time":528000000000,"state":"active","ping":57},{"user_id":617,"name":"OdysseyTen","steam_id":76561198133082665,"connected_time":1000000000000,"state":"active","ping":66},{"user_id":618,"name":"Thotimus Begonimus","steam_id":76561197970275938,"connected_time":998000000000,"state":"active","ping":49},{"user_id":417,"name":"patronshito","steam_id":76561198266063209,"connected_time":12322000000000,"state":"active","ping":110},{"user_id":511,"name":"Doromaina","steam_id":76561198118428095,"connected_time":10684000000000,"state":"active","ping":76},{"user_id":556,"name":"Black Leg Sanji","steam_id":76561198164759620,"connected_time":4826000000000,"state":"active","ping":99},{"user_id":616,"name":"sansa musa","steam_id":76561198163723555,"connected_time":1008000000000,"state":"active","ping":61},{"user_id":438,"name":"Intro Bonito","steam_id":76561198119478838,"connected_time":11774000000000,"state":"active","ping":47},{"user_id":520,"name":"Punchy","steam_id":76561198200000641,"connected_time":9252000000000,"state":"active","ping":65},{"user_id":607,"name":"Fidel Cashflow","steam_id":76561198165508772,"connected_time":2583000000000,"state":"active","ping":77},{"user_id":608,"name":"e0e0","steam_id":76561198293839750,"connected_time":2582000000000,"state":"active","ping":61},{"user_id":564,"name":"PinkLemonade","steam_id":76561198799286228,"connected_time":3932000000000,"state":"active","ping":75},{"user_id":543,"name":"lil hog","steam_id":76561199230929836,"connected_time":6918000000000,"state":"active","ping":87},{"user_id":599,"name":"trianamarco780","steam_id":76561199084319677,"connected_time":3080000000000,"state":"active","ping":109},{"user_id":604,"name":"Lucky","steam_id":76561198418262145,"connected_time":2786000000000,"state":"active","ping":115},{"user_id":570,"name":"DeezNoodlez","steam_id":76561198246700372,"connected_time":3733000000000,"state":"active","ping":65},{"user_id":620,"name":"Aronicus","steam_id":76561198043199487,"connected_time":793000000000,"state":"active","ping":111}]},{"server_id":104,"name":"Uncletopia | Atlanta | 2 | All Maps","name_short":"atl-2","host":"atl-1.us.uncletopia.com","port":27025,"enabled":true,"region":"us-east","cc":"us","latitude":33.753746,"longitude":-84.38633,"reserved":0,"last_update":"0001-01-01T00:00:00Z","name_a2s":"Uncletopia | Atlanta | 2 | All Maps","protocol":17,"map":"pl_badwater","folder":"tf","game":"Team Fortress","app_id":440,"player_count":24,"max_players":24,"Bots":0,"server_type":"Dedicated","server_os":"Linux","password":true,"vac":true,"version":"7961495","steam_id":85568392924469983,"keywords":["nocrits","nodmgspread","payload","uncletopia"],"game_id":440,"stv_port":27026,"stv_name":"Uncletopia | Atlanta | 2 | All Maps | STV","players":[{"user_id":220,"name":"vertix","steam_id":76561198076775654,"connected_time":3073000000000,"state":"active","ping":101},{"user_id":246,"name":"Smooth, Refreshing Bleach‚Ñ¢","steam_id":76561197981060504,"connected_time":518000000000,"state":"active","ping":59},{"user_id":231,"name":"Phoenix","steam_id":76561198068722818,"connected_time":1498000000000,"state":"active","ping":88},{"user_id":257,"name":"Super3D","steam_id":76561199297779078,"connected_time":4000000000,"state":"spawning","ping":61},{"user_id":249,"name":"betterthanyou","steam_id":76561199159928133,"connected_time":311000000000,"state":"active","ping":75},{"user_id":242,"name":"confield","steam_id":76561198004322265,"connected_time":624000000000,"state":"active","ping":46},{"user_id":178,"name":"Jasdocks","steam_id":76561198072275036,"connected_time":7062000000000,"state":"active","ping":39},{"user_id":190,"name":"N√∏rzaq","steam_id":76561198143188802,"connected_time":6150000000000,"state":"active","ping":107},{"user_id":247,"name":"EnderAsteroid","steam_id":76561198176724091,"connected_time":367000000000,"state":"active","ping":73},{"user_id":250,"name":"GreenApples","steam_id":76561198120559543,"connected_time":308000000000,"state":"active","ping":105},{"user_id":251,"name":"gatlinevan79","steam_id":76561199465817675,"connected_time":299000000000,"state":"active","ping":91},{"user_id":219,"name":"Nobody","steam_id":76561198160544586,"connected_time":3589000000000,"state":"active","ping":85},{"user_id":253,"name":"sandy","steam_id":76561198049252575,"connected_time":293000000000,"state":"active","ping":58},{"user_id":254,"name":"KhorneBread Ô∏ª„Éá ‰∏Ä","steam_id":76561198097069958,"connected_time":291000000000,"state":"active","ping":76},{"user_id":255,"name":"Canadian Beb","steam_id":76561198055462395,"connected_time":287000000000,"state":"active","ping":77},{"user_id":232,"name":"schteewpid rat","steam_id":76561199262600666,"connected_time":1462000000000,"state":"active","ping":77},{"user_id":204,"name":"Augustus Gloop","steam_id":76561198145561348,"connected_time":4828000000000,"state":"active","ping":73},{"user_id":213,"name":"Scorch","steam_id":76561198167024005,"connected_time":4020000000000,"state":"active","ping":70},{"user_id":256,"name":":3","steam_id":76561198079892116,"connected_time":249000000000,"state":"active","ping":72},{"user_id":214,"name":"neopets","steam_id":76561199169486012,"connected_time":3871000000000,"state":"active","ping":48},{"user_id":227,"name":"Narnio","steam_id":76561198046416510,"connected_time":1919000000000,"state":"active","ping":80},{"user_id":159,"name":"Vlad","steam_id":76561198150626637,"connected_time":8480000000000,"state":"active","ping":59},{"user_id":175,"name":"orphan","steam_id":76561198212483159,"connected_time":7130000000000,"state":"active","ping":77},{"user_id":184,"name":"double stack biggie bag","steam_id":76561198188967430,"connected_time":6529000000000,"state":"active","ping":92}]},{"server_id":400,"name":"Uncletopia | Atlanta | 3 | Stopwatch","name_short":"atl-3","host":"atl-1.us.uncletopia.com","port":27035,"enabled":true,"region":"us-east","cc":"us","latitude":33.753746,"longitude":-84.38633,"reserved":0,"last_update":"0001-01-01T00:00:00Z","name_a2s":"Uncletopia | Atlanta | 3 | Stopwatch","protocol":17,"map":"workshop/cp_process_f12.ugc2302948105","folder":"tf","game":"Team Fortress","app_id":440,"player_count":1,"max_players":24,"Bots":0,"server_type":"Dedicated","server_os":"Linux","password":true,"vac":true,"version":"7961495","steam_id":85568392924515187,"keywords":["cp","nocrits","nodmgspread","uncletopia"],"game_id":440,"stv_port":27036,"stv_name":"Uncletopia | Atlanta | 3 | Stopwatch | STV","players":[{"user_id":27,"name":"Winona","steam_id":76561198072482289,"connected_time":97000000000,"state":"active","ping":57}]},{"server_id":401,"name":"Uncletopia | Atlanta | 4 | Community","name_short":"atl-4","host":"atl-1.us.uncletopia.com","port":27045,"enabled":true,"region":"us-east","cc":"us","latitude":33.753746,"longitude":-84.38633,"reserved":0,"last_update":"0001-01-01T00:00:00Z","name_a2s":"Uncletopia | Atlanta | 4 | Community","protocol":17,"map":"workshop/cp_hazyfort_rc6.ugc1365963729","folder":"tf","game":"Team Fortress","app_id":440,"player_count":19,"max_players":24,"Bots":0,"server_type":"Dedicated","server_os":"Linux","password":true,"vac":true,"version":"7961495","steam_id":85568392924515188,"keywords":["cp","nocrits","nodmgspread","uncletopia"],"game_id":440,"stv_port":27046,"stv_name":"Uncletopia | Atlanta | 4 | Community | STV","players":[{"user_id":167,"name":"Crazy Insane Proboscis Monkey","steam_id":76561198061011176,"connected_time":5979000000000,"state":"active","ping":85},{"user_id":223,"name":"Dosux2","steam_id":76561198390916062,"connected_time":698000000000,"state":"active","ping":122},{"user_id":222,"name":"(Mage) damn I must be a genius","steam_id":76561198285026879,"connected_time":986000000000,"state":"active","ping":78},{"user_id":227,"name":"DivineBanana","steam_id":76561198026529731,"connected_time":63000000000,"state":"active","ping":86},{"user_id":225,"name":"Albino Jellyfish","steam_id":76561198208561097,"connected_time":232000000000,"state":"active","ping":58},{"user_id":228,"name":"snakeeatr","steam_id":76561198147652684,"connected_time":2000000000,"state":"spawning","ping":83},{"user_id":196,"name":"Therapy Goth","steam_id":76561198048448497,"connected_time":3112000000000,"state":"active","ping":53},{"user_id":191,"name":"the juicer","steam_id":76561198307845869,"connected_time":3530000000000,"state":"active","ping":66},{"user_id":224,"name":"Decolour","steam_id":76561199045608372,"connected_time":243000000000,"state":"active","ping":78},{"user_id":211,"name":"Steven","steam_id":76561198028606174,"connected_time":2265000000000,"state":"active","ping":101},{"user_id":219,"name":"Vee (very cool)","steam_id":76561198330432889,"connected_time":1415000000000,"state":"active","ping":71},{"user_id":212,"name":"Dad","steam_id":76561198028617381,"connected_time":1960000000000,"state":"active","ping":67},{"user_id":203,"name":"SpiderWuss2000","steam_id":76561199116655781,"connected_time":2947000000000,"state":"active","ping":84},{"user_id":226,"name":"Wumbologist","steam_id":76561198188729514,"connected_time":231000000000,"state":"active","ping":59},{"user_id":213,"name":"hazel","steam_id":76561198879911815,"connected_time":1958000000000,"state":"active","ping":57},{"user_id":214,"name":"Avo","steam_id":76561197993340494,"connected_time":1929000000000,"state":"active","ping":51},{"user_id":218,"name":"Skiddy","steam_id":76561198125942665,"connected_time":1565000000000,"state":"active","ping":63},{"user_id":217,"name":"Lv3 Kobold Shadow Sorcerer","steam_id":76561198042068995,"connected_time":1698000000000,"state":"active","ping":75},{"user_id":216,"name":"Pango","steam_id":76561198069811545,"connected_time":1877000000000,"state":"active","ping":34}]},{"server_id":2,"name":"Uncletopia | Chicago | 1 | All Maps","name_short":"chi-1","host":"chi-1.us.uncletopia.com","port":27015,"enabled":true,"region":"us-central","cc":"us","latitude":41.881832,"longitude":-87.62318,"reserved":0,"last_update":"0001-01-01T00:00:00Z","name_a2s":"Uncletopia | Chicago | 1 | All Maps","protocol":17,"map":"pl_pier","folder":"tf","game":"Team Fortress","app_id":440,"player_count":23,"max_players":24,"Bots":0,"server_type":"Dedicated","server_os":"Linux","password":true,"vac":true,"version":"7961495","steam_id":85568392924469984,"keywords":["nocrits","nodmgspread","payload","uncletopia"],"game_id":440,"stv_port":27016,"stv_name":"Uncletopia | Chicago | 1 | All Maps | STV","players":[{"user_id":530,"name":"qory","steam_id":76561198152064890,"connected_time":1836000000000,"state":"active","ping":45},{"user_id":527,"name":"Divine Kitty","steam_id":76561198293490689,"connected_time":1846000000000,"state":"active","ping":115},{"user_id":467,"name":"egg roll","steam_id":76561198090486626,"connected_time":7674000000000,"state":"active","ping":56},{"user_id":542,"name":"DinkleBerg","steam_id":76561198891626233,"connected_time":930000000000,"state":"active","ping":74},{"user_id":540,"name":"Vanilla Rice","steam_id":76561198315725190,"connected_time":1147000000000,"state":"active","ping":51},{"user_id":441,"name":"DoctorDrew","steam_id":76561197962400538,"connected_time":10408000000000,"state":"active","ping":90},{"user_id":545,"name":"sasharudzik","steam_id":76561199126617781,"connected_time":528000000000,"state":"active","ping":54},{"user_id":548,"name":"momlovie","steam_id":76561198843933742,"connected_time":25000000000,"state":"spawning","ping":67},{"user_id":479,"name":"MedRed‚Ñ¢ #IATAH","steam_id":76561198002962970,"connected_time":7076000000000,"state":"active","ping":90},{"user_id":547,"name":"Bookmark","steam_id":76561198210918443,"connected_time":202000000000,"state":"active","ping":96},{"user_id":472,"name":"Liquid Oxycodone","steam_id":76561198154162664,"connected_time":7520000000000,"state":"active","ping":74},{"user_id":510,"name":"Hylic","steam_id":76561199051314589,"connected_time":2924000000000,"state":"active","ping":61},{"user_id":533,"name":"‚ô•Bunny‚ô•Slut‚ô•","steam_id":76561198206376851,"connected_time":1505000000000,"state":"active","ping":81},{"user_id":524,"name":"JOOOOOOOOOOOOO!!!!!!","steam_id":76561199101638460,"connected_time":1876000000000,"state":"active","ping":81},{"user_id":544,"name":"subdromeda","steam_id":76561198884351860,"connected_time":699000000000,"state":"active","ping":70},{"user_id":483,"name":"Swash","steam_id":76561197969421355,"connected_time":6885000000000,"state":"active","ping":59},{"user_id":546,"name":"TallBit","steam_id":76561199059748976,"connected_time":396000000000,"state":"active","ping":53},{"user_id":511,"name":"Stew Eater","steam_id":76561198978307159,"connected_time":2822000000000,"state":"active","ping":74},{"user_id":480,"name":"hej","steam_id":76561197996366940,"connected_time":7075000000000,"state":"active","ping":59},{"user_id":490,"name":"Snom","steam_id":76561198333827920,"connected_time":6026000000000,"state":"active","ping":107},{"user_id":536,"name":"Coinless","steam_id":76561199207586390,"connected_time":1431000000000,"state":"active","ping":56},{"user_id":525,"name":"A2","steam_id":76561198068266632,"connected_time":1875000000000,"state":"active","ping":64},{"user_id":507,"name":"Lia_Rein","steam_id":76561198151569597,"connected_time":3928000000000,"state":"active","ping":146}]},{"server_id":106,"name":"Uncletopia | Chicago | 2 | All Maps","name_short":"chi-2","host":"chi-1.us.uncletopia.com","port":27025,"enabled":true,"region":"us-central","cc":"us","latitude":41.881832,"longitude":-87.62318,"reserved":0,"last_update":"0001-01-01T00:00:00Z","name_a2s":"Uncletopia | Chicago | 2 | All Maps","protocol":17,"map":"pl_pier","folder":"tf","game":"Team Fortress","app_id":440,"player_count":24,"max_players":24,"Bots":0,"server_type":"Dedicated","server_os":"Linux","password":true,"vac":true,"version":"7961495","steam_id":85568392924469985,"keywords":["nocrits","nodmgspread","payload","uncletopia"],"game_id":440,"stv_port":27026,"stv_name":"Uncletopia | Chicago | 2 | All Maps | STV","players":[{"user_id":716,"name":"Shrebbie","steam_id":76561198875230824,"connected_time":1596000000000,"state":"active","ping":60},{"user_id":749,"name":"‡∏∏","steam_id":76561198355935693,"connected_time":141000000000,"state":"active","ping":48},{"user_id":737,"name":"Bunni","steam_id":76561198065169997,"connected_time":549000000000,"state":"active","ping":86},{"user_id":709,"name":"sootyquill","steam_id":76561198186883927,"connected_time":1878000000000,"state":"active","ping":86},{"user_id":635,"name":"Batvision","steam_id":76561198029561301,"connected_time":5228000000000,"state":"active","ping":73},{"user_id":697,"name":"bobby  peanstalk","steam_id":76561198040495463,"connected_time":2301000000000,"state":"active","ping":45},{"user_id":688,"name":"Rhea","steam_id":76561198066626240,"connected_time":2512000000000,"state":"active","ping":75},{"user_id":748,"name":"Vodka Slut","steam_id":76561198079594847,"connected_time":317000000000,"state":"active","ping":60},{"user_id":747,"name":"[El Fail] MR.BadassMCLee","steam_id":76561198043787818,"connected_time":373000000000,"state":"active","ping":117},{"user_id":730,"name":"Sigh","steam_id":76561198044840173,"connected_time":1189000000000,"state":"active","ping":78},{"user_id":750,"name":"callum","steam_id":76561198070918366,"connected_time":119000000000,"state":"active","ping":69},{"user_id":691,"name":"Patrick Jr.","steam_id":76561197991348132,"connected_time":2454000000000,"state":"active","ping":144},{"user_id":692,"name":"EvilMrPotoo ÔΩ°‚óï‚Äø‚óïÔΩ°","steam_id":76561198012566870,"connected_time":2443000000000,"state":"active","ping":59},{"user_id":751,"name":"frank","steam_id":76561198137777483,"connected_time":94000000000,"state":"active","ping":72},{"user_id":693,"name":"YOUNG CHINESE BOY","steam_id":76561198057116531,"connected_time":2415000000000,"state":"active","ping":60},{"user_id":744,"name":"numanis","steam_id":76561199229661082,"connected_time":475000000000,"state":"active","ping":69},{"user_id":746,"name":"Frontier Psychiatrist","steam_id":76561198038689088,"connected_time":434000000000,"state":"active","ping":82},{"user_id":732,"name":"Crazy","steam_id":76561198063922221,"connected_time":1055000000000,"state":"active","ping":52},{"user_id":734,"name":"Entar","steam_id":76561197968661166,"connected_time":912000000000,"state":"active","ping":48},{"user_id":728,"name":"iBMWRyS","steam_id":76561198041005664,"connected_time":1207000000000,"state":"active","ping":46},{"user_id":727,"name":"lego star wars on the psp","steam_id":76561198148014773,"connected_time":1250000000000,"state":"active","ping":81},{"user_id":736,"name":"Aznavour","steam_id":76561198260418417,"connected_time":659000000000,"state":"active","ping":75},{"user_id":696,"name":"guitarfreak","steam_id":76561198139851357,"connected_time":2360000000000,"state":"active","ping":103},{"user_id":742,"name":"Herman Bavinck","steam_id":76561197993190216,"connected_time":496000000000,"state":"active","ping":69}]},{"server_id":402,"name":"Uncletopia | Chicago | 3 | All Maps","name_short":"chi-3","host":"chi-1.us.uncletopia.com","port":27035,"enabled":true,"region":"us-central","cc":"us","latitude":41.881832,"longitude":-87.62318,"reserved":0,"last_update":"0001-01-01T00:00:00Z","name_a2s":"Uncletopia | Chicago | 3 | All Maps","protocol":17,"map":"pl_pier","folder":"tf","game":"Team Fortress","app_id":440,"player_count":24,"max_players":24,"Bots":0,"server_type":"Dedicated","server_os":"Linux","password":true,"vac":true,"version":"7961495","steam_id":85568392924515191,"keywords":["nocrits","nodmgspread","payload","uncletopia"],"game_id":440,"stv_port":27036,"stv_name":"Uncletopia | Chicago | 3 | All Maps | STV","players":[{"user_id":502,"name":"Nukem","steam_id":76561198166236574,"connected_time":2818000000000,"state":"active","ping":82},{"user_id":444,"name":"Piyono","steam_id":76561197962188504,"connected_time":6100000000000,"state":"active","ping":69},{"user_id":510,"name":"Wawa","steam_id":76561198077716836,"connected_time":2391000000000,"state":"active","ping":55},{"user_id":525,"name":"Wiener Hole Paper Cut","steam_id":76561198000808203,"connected_time":1250000000000,"state":"active","ping":69},{"user_id":536,"name":"PONTIFEX MAXIMUS","steam_id":76561198074758287,"connected_time":346000000000,"state":"active","ping":70},{"user_id":529,"name":"Jacky","steam_id":76561198097043127,"connected_time":1043000000000,"state":"active","ping":93},{"user_id":532,"name":"Glanderson booper","steam_id":76561198021223747,"connected_time":873000000000,"state":"active","ping":105},{"user_id":512,"name":"AlmightyLoaf","steam_id":76561197986466977,"connected_time":2364000000000,"state":"active","ping":60},{"user_id":531,"name":"Vava","steam_id":76561199061877557,"connected_time":920000000000,"state":"active","ping":70},{"user_id":513,"name":"Icicle","steam_id":76561199079140945,"connected_time":2351000000000,"state":"active","ping":106},{"user_id":489,"name":"Redvalein","steam_id":76561199510102560,"connected_time":3493000000000,"state":"active","ping":94},{"user_id":500,"name":"xFactr","steam_id":76561198129007422,"connected_time":2901000000000,"state":"active","ping":60},{"user_id":514,"name":"Silverguy","steam_id":76561198261509394,"connected_time":2323000000000,"state":"active","ping":60},{"user_id":487,"name":"Your Uncle Stann Ze' Pann Mann","steam_id":76561199003258068,"connected_time":3513000000000,"state":"active","ping":77},{"user_id":524,"name":"Bobbn","steam_id":76561198876124683,"connected_time":1320000000000,"state":"active","ping":75},{"user_id":533,"name":"Robo","steam_id":76561198045579138,"connected_time":872000000000,"state":"active","ping":63},{"user_id":492,"name":"smuffy","steam_id":76561198091459506,"connected_time":3425000000000,"state":"active","ping":69},{"user_id":538,"name":"Soda","steam_id":76561198219209367,"connected_time":225000000000,"state":"active","ping":71},{"user_id":535,"name":"Rudy","steam_id":76561198013456828,"connected_time":729000000000,"state":"active","ping":68},{"user_id":528,"name":"supcupman","steam_id":76561198051513866,"connected_time":1066000000000,"state":"active","ping":113},{"user_id":496,"name":"PandaStick","steam_id":76561198005613207,"connected_time":3338000000000,"state":"active","ping":72},{"user_id":497,"name":"Kthulu Mike","steam_id":76561198014026963,"connected_time":3332000000000,"state":"active","ping":76},{"user_id":498,"name":"ùïäùï†ùï¶ùï°ü•£GO·ó™","steam_id":76561198015230837,"connected_time":3315000000000,"state":"active","ping":79},{"user_id":519,"name":"Goomba gaming","steam_id":76561199470354045,"connected_time":2013000000000,"state":"active","ping":127}]},{"server_id":403,"name":"Uncletopia | Chicago | 4 | All Maps","name_short":"chi-4","host":"chi-1.us.uncletopia.com","port":27045,"enabled":true,"region":"us-central","cc":"us","latitude":41.881832,"longitude":-87.62318,"reserved":0,"last_update":"0001-01-01T00:00:00Z","name_a2s":"Uncletopia | Chicago | 4 | All Maps","protocol":17,"map":"cp_mountainlab","folder":"tf","game":"Team Fortress","app_id":440,"player_count":24,"max_players":24,"Bots":0,"server_type":"Dedicated","server_os":"Linux","password":true,"vac":true,"version":"7961495","steam_id":85568392924515193,"keywords":["cp","nocrits","nodmgspread","uncletopia"],"game_id":440,"stv_port":27046,"stv_name":"Uncletopia | Chicago | 4 | All Maps | STV","players":[{"user_id":511,"name":"A Duck Phone!?","steam_id":76561198044707749,"connected_time":2811000000000,"state":"active","ping":58},{"user_id":532,"name":"√úberBurst inVinci","steam_id":76561198044470684,"connected_time":1046000000000,"state":"active","ping":67},{"user_id":536,"name":"Glory","steam_id":76561198067875704,"connected_time":832000000000,"state":"active","ping":70},{"user_id":544,"name":"SafetyInstructor","steam_id":76561199195205705,"connected_time":292000000000,"state":"active","ping":72},{"user_id":545,"name":"garfield","steam_id":76561198114119308,"connected_time":142000000000,"state":"active","ping":69},{"user_id":533,"name":"DisDoodEatFood","steam_id":76561198360724348,"connected_time":950000000000,"state":"active","ping":107},{"user_id":538,"name":"RectalExam","steam_id":76561197970502312,"connected_time":823000000000,"state":"active","ping":93},{"user_id":512,"name":"Professor Kegstand PhD.","steam_id":76561198437703253,"connected_time":2811000000000,"state":"active","ping":59},{"user_id":539,"name":"wassamatter","steam_id":76561198169219561,"connected_time":802000000000,"state":"active","ping":90},{"user_id":540,"name":"Flashtasm","steam_id":76561198026635660,"connected_time":760000000000,"state":"active","ping":65},{"user_id":503,"name":"FutabaUchiha","steam_id":76561199436467630,"connected_time":3281000000000,"state":"active","ping":82},{"user_id":527,"name":"Yosh","steam_id":76561198027078899,"connected_time":1476000000000,"state":"active","ping":75},{"user_id":520,"name":"ApertureCity","steam_id":76561198004153607,"connected_time":1896000000000,"state":"active","ping":80},{"user_id":528,"name":"Sue√±o","steam_id":76561198866469952,"connected_time":1448000000000,"state":"active","ping":102},{"user_id":541,"name":"caption cool","steam_id":76561197990612056,"connected_time":755000000000,"state":"active","ping":46},{"user_id":458,"name":"CommodoreEvac","steam_id":76561198035694806,"connected_time":5471000000000,"state":"active","ping":73},{"user_id":525,"name":"Alex","steam_id":76561198116937513,"connected_time":1612000000000,"state":"active","ping":86},{"user_id":542,"name":"MajorZax","steam_id":76561198001094868,"connected_time":755000000000,"state":"active","ping":91},{"user_id":519,"name":"Chadmander","steam_id":76561197974136337,"connected_time":2015000000000,"state":"active","ping":43},{"user_id":514,"name":"robert","steam_id":76561198063313115,"connected_time":2801000000000,"state":"active","ping":59},{"user_id":530,"name":"fresco","steam_id":76561199101199477,"connected_time":1108000000000,"state":"active","ping":58},{"user_id":543,"name":"psychiclion","steam_id":76561198201974900,"connected_time":733000000000,"state":"active","ping":191},{"user_id":491,"name":"etai.dade","steam_id":76561198430211406,"connected_time":3997000000000,"state":"active","ping":73},{"user_id":518,"name":"PiRA","steam_id":76561197962440292,"connected_time":2387000000000,"state":"active","ping":60}]},{"server_id":36,"name":"Uncletopia | Chicago | 5 | All Maps","name_short":"chi-5","host":"chi-2.us.uncletopia.com","port":27015,"enabled":true,"region":"us-central","cc":"us","latitude":41.881832,"longitude":-87.62318,"reserved":0,"last_update":"0001-01-01T00:00:00Z","name_a2s":"Uncletopia | Chicago | 5 | All Maps","protocol":17,"map":"koth_highpass","folder":"tf","game":"Team Fortress","app_id":440,"player_count":17,"max_players":24,"Bots":0,"server_type":"Dedicated","server_os":"Linux","password":true,"vac":true,"version":"7961495","steam_id":85568392924866362,"keywords":["cp","nocrits","nodmgspread","uncletopia"],"game_id":440,"stv_port":27016,"stv_name":"Uncletopia | Chicago | 5 | All Maps | STV","players":[{"user_id":457,"name":"Weary","steam_id":76561198145767546,"connected_time":221000000000,"state":"active","ping":62},{"user_id":389,"name":"noahgil02","steam_id":76561198342889553,"connected_time":4948000000000,"state":"active","ping":142},{"user_id":458,"name":"·¥Ø·¥± Jarl Heegard","steam_id":76561198216100259,"connected_time":203000000000,"state":"active","ping":64},{"user_id":461,"name":"Epha","steam_id":76561198079379951,"connected_time":69000000000,"state":"active","ping":61},{"user_id":453,"name":"A Random Guy","steam_id":76561198282519457,"connected_time":657000000000,"state":"active","ping":106},{"user_id":459,"name":"desmond johnson","steam_id":76561199509428779,"connected_time":135000000000,"state":"active","ping":54},{"user_id":419,"name":"Wendy's Brand Trash","steam_id":76561198328346670,"connected_time":3121000000000,"state":"active","ping":42},{"user_id":462,"name":"A Rope, for big pits","steam_id":76561198068044782,"connected_time":54000000000,"state":"active","ping":72},{"user_id":449,"name":"Alpha","steam_id":76561199482290132,"connected_time":908000000000,"state":"active","ping":66},{"user_id":463,"name":"g0nk","steam_id":76561198838309024,"connected_time":43000000000,"state":"active","ping":76},{"user_id":464,"name":"barry steakfries","steam_id":76561199472218520,"connected_time":21000000000,"state":"active","ping":70},{"user_id":454,"name":"Nathontin","steam_id":76561198263545504,"connected_time":418000000000,"state":"active","ping":57},{"user_id":465,"name":"rynz500","steam_id":76561198043872361,"connected_time":11000000000,"state":"spawning","ping":74},{"user_id":455,"name":"jim bob","steam_id":76561197992464368,"connected_time":297000000000,"state":"active","ping":90},{"user_id":441,"name":"Prison Donkey","steam_id":76561198072652478,"connected_time":1769000000000,"state":"active","ping":42},{"user_id":448,"name":"slep.py","steam_id":76561197988287144,"connected_time":994000000000,"state":"active","ping":56},{"user_id":446,"name":"[DATS‚û°] Sugar Meowth","steam_id":76561197995251793,"connected_time":1091000000000,"state":"active","ping":87}]},{"server_id":37,"name":"Uncletopia | Chicago | 6 | All Maps","name_short":"chi-6","host":"chi-2.us.uncletopia.com","port":27025,"enabled":true,"region":"us-central","cc":"us","latitude":41.881832,"longitude":-87.62318,"reserved":0,"last_update":"0001-01-01T00:00:00Z","name_a2s":"Uncletopia | Chicago | 6 | All Maps","protocol":17,"map":"cp_dustbowl","folder":"tf","game":"Team Fortress","app_id":440,"player_count":24,"max_players":24,"Bots":0,"server_type":"Dedicated","server_os":"Linux","password":true,"vac":true,"version":"7961495","steam_id":85568392924866363,"keywords":["cp","nocrits","nodmgspread","uncletopia"],"game_id":440,"stv_port":27026,"stv_name":"Uncletopia | Chicago | 6 | All Maps | STV","players":[{"user_id":427,"name":"Marsk","steam_id":76561198417568196,"connected_time":282000000000,"state":"active","ping":88},{"user_id":404,"name":"notpanmanmemes","steam_id":76561199168536547,"connected_time":1691000000000,"state":"active","ping":54},{"user_id":380,"name":"Not Rook","steam_id":76561199232296380,"connected_time":3471000000000,"state":"active","ping":77},{"user_id":389,"name":"Saucy Boy","steam_id":76561198178332031,"connected_time":2875000000000,"state":"active","ping":68},{"user_id":428,"name":"StationRadio","steam_id":76561198205390440,"connected_time":253000000000,"state":"active","ping":133},{"user_id":397,"name":"Uncle Boobs","steam_id":76561198821297512,"connected_time":2658000000000,"state":"active","ping":103},{"user_id":402,"name":"Sharkwark","steam_id":76561199218566982,"connected_time":1850000000000,"state":"active","ping":69},{"user_id":433,"name":"Sweater-Fan","steam_id":76561199389567214,"connected_time":182000000000,"state":"active","ping":65},{"user_id":429,"name":"PK","steam_id":76561198368722500,"connected_time":253000000000,"state":"active","ping":71},{"user_id":367,"name":"MekkieManul","steam_id":76561198053165462,"connected_time":4031000000000,"state":"active","ping":61},{"user_id":400,"name":"Rornir","steam_id":76561198081829615,"connected_time":2081000000000,"state":"active","ping":31},{"user_id":403,"name":"megakronos479","steam_id":76561198867315071,"connected_time":1748000000000,"state":"active","ping":96},{"user_id":430,"name":"BoldlyGoingNowhere","steam_id":76561198092745312,"connected_time":212000000000,"state":"active","ping":113},{"user_id":408,"name":"Scuba Steve","steam_id":76561198313018251,"connected_time":1620000000000,"state":"active","ping":85},{"user_id":410,"name":"spud monkey","steam_id":76561198310369404,"connected_time":1488000000000,"state":"active","ping":75},{"user_id":414,"name":"Pickles","steam_id":76561198010609340,"connected_time":1350000000000,"state":"active","ping":75},{"user_id":431,"name":"lcy13vv","steam_id":76561197995997446,"connected_time":203000000000,"state":"active","ping":60},{"user_id":432,"name":"THE gabagool","steam_id":76561198066449282,"connected_time":198000000000,"state":"active","ping":62},{"user_id":412,"name":"NANOBITES","steam_id":76561198186944363,"connected_time":1458000000000,"state":"active","ping":50},{"user_id":436,"name":"Jack H.","steam_id":76561198945302993,"connected_time":136000000000,"state":"active","ping":92},{"user_id":425,"name":"neeko gaming","steam_id":76561198180174734,"connected_time":444000000000,"state":"active","ping":88},{"user_id":434,"name":"StupidFuckingDog","steam_id":76561199088111891,"connected_time":163000000000,"state":"active","ping":89},{"user_id":435,"name":"abbipso","steam_id":76561198868564212,"connected_time":157000000000,"state":"active","ping":84},{"user_id":437,"name":"calamity","steam_id":76561199090755824,"connected_time":131000000000,"state":"active","ping":85}]},{"server_id":38,"name":"Uncletopia | Chicago | 7 | Stopwatch","name_short":"chi-7","host":"chi-2.us.uncletopia.com","port":27035,"enabled":true,"region":"us-central","cc":"us","latitude":41.881832,"longitude":-87.62318,"reserved":0,"last_update":"0001-01-01T00:00:00Z","name_a2s":"Uncletopia | Chicago | 7 | Stopwatch","protocol":17,"map":"workshop/koth_product_final.ugc454272353","folder":"tf","game":"Team Fortress","app_id":440,"player_count":0,"max_players":24,"Bots":0,"server_type":"Dedicated","server_os":"Linux","password":true,"vac":true,"version":"7961495","steam_id":85568392924866364,"keywords":["cp","nocrits","nodmgspread","uncletopia"],"game_id":440,"stv_port":27036,"stv_name":"Uncletopia | Chicago | 7 | Stopwatch | STV","players":null},{"server_id":39,"name":"Uncletopia | Chicago | 8 | Community","name_short":"chi-8","host":"chi-2.us.uncletopia.com","port":27045,"enabled":true,"region":"us-central","cc":"us","latitude":41.881832,"longitude":-87.62318,"reserved":0,"last_update":"0001-01-01T00:00:00Z","name_a2s":"Uncletopia | Chicago | 8 | Community","protocol":17,"map":"workshop/cp_fulgur_rc2a.ugc2068252300","folder":"tf","game":"Team Fortress","app_id":440,"player_count":0,"max_players":24,"Bots":0,"server_type":"Dedicated","server_os":"Linux","password":true,"vac":true,"version":"7961495","steam_id":85568392924866365,"keywords":["cp","nocrits","nodmgspread","uncletopia"],"game_id":440,"stv_port":27046,"stv_name":"Uncletopia | Chicago | 8 | Community | STV","players":null},{"server_id":8,"name":"Uncletopia | Dallas | 1 | All Maps","name_short":"dal-1","host":"dal-1.us.uncletopia.com","port":27015,"enabled":true,"region":"us-central","cc":"us","latitude":32.779167,"longitude":-96.80889,"reserved":0,"last_update":"0001-01-01T00:00:00Z","name_a2s":"Uncletopia | Dallas | 1 | All Maps","protocol":17,"map":"pl_hoodoo_final","folder":"tf","game":"Team Fortress","app_id":440,"player_count":24,"max_players":24,"Bots":0,"server_type":"Dedicated","server_os":"Linux","password":true,"vac":true,"version":"7961495","steam_id":85568392924469986,"keywords":["nocrits","nodmgspread","payload","uncletopia"],"game_id":440,"stv_port":27016,"stv_name":"Uncletopia | Dallas | 1 | All Maps | STV","players":[{"user_id":595,"name":"Leonardo DiCaprio","steam_id":76561198121886765,"connected_time":2261000000000,"state":"active","ping":71},{"user_id":597,"name":"Wooden E","steam_id":76561198020308956,"connected_time":2243000000000,"state":"active","ping":65},{"user_id":564,"name":"RagunCagun","steam_id":76561198132848008,"connected_time":4526000000000,"state":"active","ping":78},{"user_id":553,"name":"freesia","steam_id":76561198127525888,"connected_time":5537000000000,"state":"active","ping":51},{"user_id":598,"name":"Greg Boberton 2012","steam_id":76561198983566026,"connected_time":1857000000000,"state":"active","ping":91},{"user_id":611,"name":"id","steam_id":76561198305201458,"connected_time":334000000000,"state":"active","ping":68},{"user_id":576,"name":"FanaticSalt","steam_id":76561199380123059,"connected_time":3317000000000,"state":"active","ping":44},{"user_id":610,"name":"Pot_Gaming","steam_id":76561199384180532,"connected_time":365000000000,"state":"active","ping":137},{"user_id":542,"name":"Insizhen","steam_id":76561198051352605,"connected_time":6037000000000,"state":"active","ping":59},{"user_id":584,"name":"Ballista","steam_id":76561197983182562,"connected_time":2557000000000,"state":"active","ping":59},{"user_id":605,"name":"Monky duh luppy","steam_id":76561198035410427,"connected_time":934000000000,"state":"active","ping":90},{"user_id":563,"name":"y0","steam_id":76561198143894333,"connected_time":4552000000000,"state":"active","ping":76},{"user_id":612,"name":"BakedAlaskan","steam_id":76561197993543230,"connected_time":318000000000,"state":"active","ping":86},{"user_id":567,"name":"Typh","steam_id":76561198315344079,"connected_time":3875000000000,"state":"active","ping":85},{"user_id":592,"name":"Jey","steam_id":76561198110957641,"connected_time":2352000000000,"state":"active","ping":105},{"user_id":614,"name":"Captain Underbelly","steam_id":76561198811270935,"connected_time":194000000000,"state":"active","ping":96},{"user_id":505,"name":"BrainlezBrainiac","steam_id":76561199193942805,"connected_time":8550000000000,"state":"active","ping":74},{"user_id":586,"name":"Dr Oshawott","steam_id":76561198042021629,"connected_time":2514000000000,"state":"active","ping":89},{"user_id":608,"name":"DlTTO","steam_id":76561199427026752,"connected_time":391000000000,"state":"active","ping":106},{"user_id":594,"name":"Do It Yua Serufu","steam_id":76561198078574114,"connected_time":2300000000000,"state":"active","ping":89},{"user_id":602,"name":"An Engineer","steam_id":76561198110381643,"connected_time":1248000000000,"state":"active","ping":49},{"user_id":613,"name":"newrosee","steam_id":76561199094931624,"connected_time":289000000000,"state":"active","ping":79},{"user_id":530,"name":"Postgame Boss of Sex","steam_id":76561198240919690,"connected_time":7032000000000,"state":"active","ping":68},{"user_id":591,"name":"Troyer","steam_id":76561198038005881,"connected_time":2419000000000,"state":"active","ping":63}]},{"server_id":108,"name":"Uncletopia | Dallas | 2 | All Maps","name_short":"dal-2","host":"dal-1.us.uncletopia.com","port":27025,"enabled":true,"region":"us-central","cc":"us","latitude":32.779167,"longitude":-96.80889,"reserved":0,"last_update":"0001-01-01T00:00:00Z","name_a2s":"Uncletopia | Dallas | 2 | All Maps","protocol":17,"map":"pl_badwater","folder":"tf","game":"Team Fortress","app_id":440,"player_count":24,"max_players":24,"Bots":0,"server_type":"Dedicated","server_os":"Linux","password":true,"vac":true,"version":"7961495","steam_id":85568392924469988,"keywords":["nocrits","nodmgspread","payload","uncletopia"],"game_id":440,"stv_port":27026,"stv_name":"Uncletopia | Dallas | 2 | All Maps | STV","players":[{"user_id":349,"name":"üê∫-Iwky-ü¶ä","steam_id":76561198185616311,"connected_time":3296000000000,"state":"active","ping":67},{"user_id":398,"name":"gunboats reliant subhuman","steam_id":76561198046526036,"connected_time":684000000000,"state":"active","ping":75},{"user_id":383,"name":"moo'j","steam_id":76561198105230045,"connected_time":1505000000000,"state":"active","ping":61},{"user_id":394,"name":"Novu","steam_id":76561198886997024,"connected_time":797000000000,"state":"active","ping":106},{"user_id":384,"name":"Triforce141","steam_id":76561198063896776,"connected_time":1490000000000,"state":"active","ping":44},{"user_id":401,"name":"Dan","steam_id":76561198205054883,"connected_time":346000000000,"state":"active","ping":105},{"user_id":313,"name":"PurpleApple","steam_id":76561198094860630,"connected_time":5880000000000,"state":"active","ping":63},{"user_id":391,"name":"Drinkable Milk","steam_id":76561199418706430,"connected_time":1005000000000,"state":"active","ping":53},{"user_id":388,"name":"the grunch","steam_id":76561199013160273,"connected_time":1267000000000,"state":"active","ping":68},{"user_id":357,"name":"punk cock","steam_id":76561198418182764,"connected_time":2500000000000,"state":"active","ping":75},{"user_id":372,"name":"Evil little man","steam_id":76561198311053471,"connected_time":1704000000000,"state":"active","ping":52},{"user_id":353,"name":"chiswola","steam_id":76561198046920142,"connected_time":3243000000000,"state":"active","ping":97},{"user_id":373,"name":"urine trouble","steam_id":76561199013266640,"connected_time":1697000000000,"state":"active","ping":72},{"user_id":375,"name":"matvey","steam_id":76561199404191412,"connected_time":1683000000000,"state":"active","ping":100},{"user_id":330,"name":"ihave80hp","steam_id":76561199251621911,"connected_time":5214000000000,"state":"active","ping":68},{"user_id":333,"name":"The_Skull_boy","steam_id":76561198227692664,"connected_time":5175000000000,"state":"active","ping":98},{"user_id":347,"name":"CheeseLikeSubstance","steam_id":76561197977170646,"connected_time":3417000000000,"state":"active","ping":76},{"user_id":381,"name":"hairydude02","steam_id":76561198076693017,"connected_time":1586000000000,"state":"active","ping":95},{"user_id":392,"name":"1000 Gigglebytes of clown girls","steam_id":76561198290719848,"connected_time":987000000000,"state":"active","ping":98},{"user_id":382,"name":"Mr Demon","steam_id":76561199231259229,"connected_time":1536000000000,"state":"active","ping":113},{"user_id":380,"name":"Vore is Love","steam_id":76561198980062131,"connected_time":1649000000000,"state":"active","ping":87},{"user_id":400,"name":"Cat doin laundry","steam_id":76561198063895852,"connected_time":373000000000,"state":"active","ping":48},{"user_id":393,"name":"Firedust19","steam_id":76561198153238631,"connected_time":836000000000,"state":"active","ping":152},{"user_id":404,"name":"uncletopia dallas 2 player","steam_id":76561198412786186,"connected_time":121000000000,"state":"active","ping":53}]},{"server_id":404,"name":"Uncletopia | Dallas | 3 | All Maps","name_short":"dal-3","host":"dal-1.us.uncletopia.com","port":27035,"enabled":true,"region":"us-central","cc":"us","latitude":32.779167,"longitude":-96.80889,"reserved":0,"last_update":"0001-01-01T00:00:00Z","name_a2s":"Uncletopia | Dallas | 3 | All Maps","protocol":17,"map":"pl_hoodoo_final","folder":"tf","game":"Team Fortress","app_id":440,"player_count":24,"max_players":24,"Bots":0,"server_type":"Dedicated","server_os":"Linux","password":true,"vac":true,"version":"7961495","steam_id":85568392924515219,"keywords":["nocrits","nodmgspread","payload","uncletopia"],"game_id":440,"stv_port":27036,"stv_name":"Uncletopia | Dallas | 3 | All Maps | STV","players":[{"user_id":489,"name":"Geomancer36","steam_id":76561198093370710,"connected_time":1211000000000,"state":"active","ping":96},{"user_id":432,"name":"Viennetta","steam_id":76561198044088335,"connected_time":5537000000000,"state":"active","ping":100},{"user_id":475,"name":"Junk","steam_id":76561198024382753,"connected_time":2154000000000,"state":"active","ping":61},{"user_id":503,"name":"Liminality","steam_id":76561198002601402,"connected_time":239000000000,"state":"active","ping":99},{"user_id":453,"name":"Angelo","steam_id":76561198319281487,"connected_time":4201000000000,"state":"active","ping":133},{"user_id":467,"name":"Rafl","steam_id":76561198055222756,"connected_time":3176000000000,"state":"active","ping":48},{"user_id":433,"name":"thai","steam_id":76561198052462287,"connected_time":5516000000000,"state":"active","ping":99},{"user_id":470,"name":"reed","steam_id":76561197992228948,"connected_time":2898000000000,"state":"active","ping":75},{"user_id":504,"name":"Engineer2650","steam_id":76561198121410799,"connected_time":95000000000,"state":"active","ping":55},{"user_id":477,"name":"Conkamonk","steam_id":76561198109878524,"connected_time":2141000000000,"state":"active","ping":81},{"user_id":404,"name":"[ibb‚Ñ¢]Shadow20X6-ENGI","steam_id":76561198019292755,"connected_time":8012000000000,"state":"active","ping":84},{"user_id":493,"name":"Timmy The Tyrant","steam_id":76561199156409732,"connected_time":1045000000000,"state":"active","ping":52},{"user_id":494,"name":"Wefflez","steam_id":76561198049110443,"connected_time":1015000000000,"state":"active","ping":84},{"user_id":505,"name":"salami baby","steam_id":76561198131946028,"connected_time":94000000000,"state":"active","ping":60},{"user_id":480,"name":"Thank you Mr. Sun","steam_id":76561197998434936,"connected_time":2066000000000,"state":"active","ping":75},{"user_id":464,"name":"Stiffy Magnum","steam_id":76561198000036722,"connected_time":3528000000000,"state":"active","ping":85},{"user_id":499,"name":"Kondha","steam_id":76561198084588336,"connected_time":846000000000,"state":"active","ping":52},{"user_id":454,"name":"Mall","steam_id":76561198436085386,"connected_time":4199000000000,"state":"active","ping":65},{"user_id":471,"name":"remedu","steam_id":76561198005152587,"connected_time":2879000000000,"state":"active","ping":45},{"user_id":481,"name":"Russell","steam_id":76561198024159373,"connected_time":2062000000000,"state":"active","ping":90},{"user_id":497,"name":"Justinbk","steam_id":76561198076047549,"connected_time":985000000000,"state":"active","ping":92},{"user_id":490,"name":"Jamrag","steam_id":76561199031241776,"connected_time":1181000000000,"state":"active","ping":58},{"user_id":498,"name":"Whoodie","steam_id":76561198027514565,"connected_time":977000000000,"state":"active","ping":104},{"user_id":506,"name":"Tuvok Shakur","steam_id":76561198018875334,"connected_time":82000000000,"state":"active","ping":61}]},{"server_id":405,"name":"Uncletopia | Dallas | 4 | Community","name_short":"dal-4","host":"dal-1.us.uncletopia.com","port":27045,"enabled":true,"region":"us-central","cc":"us","latitude":32.779167,"longitude":-96.80889,"reserved":0,"last_update":"0001-01-01T00:00:00Z","name_a2s":"Uncletopia | Dallas | 4 | Community","protocol":17,"map":"workshop/pl_badwater_pro_v12.ugc2142942074","folder":"tf","game":"Team Fortress","app_id":440,"player_count":10,"max_players":24,"Bots":0,"server_type":"Dedicated","server_os":"Linux","password":true,"vac":true,"version":"7961495","steam_id":85568392924515220,"keywords":["nocrits","nodmgspread","payload","uncletopia"],"game_id":440,"stv_port":27046,"stv_name":"Uncletopia | Dallas | 4 | Community | STV","players":[{"user_id":18,"name":"toolem","steam_id":76561198075312872,"connected_time":1835000000000,"state":"active","ping":67},{"user_id":19,"name":"moonlord706","steam_id":76561199075108166,"connected_time":1819000000000,"state":"active","ping":49},{"user_id":21,"name":"Nonplayableotaku","steam_id":76561199067358875,"connected_time":1748000000000,"state":"active","ping":45},{"user_id":22,"name":"TheSpudThing","steam_id":76561198327300008,"connected_time":1630000000000,"state":"active","ping":60},{"user_id":23,"name":"Stupidity","steam_id":76561199195880093,"connected_time":1479000000000,"state":"active","ping":88},{"user_id":24,"name":"Blondsasquatch","steam_id":76561198202229318,"connected_time":1099000000000,"state":"active","ping":53},{"user_id":36,"name":"i farted something fierce","steam_id":76561199016285746,"connected_time":47000000000,"state":"active","ping":56},{"user_id":32,"name":"Dr. Kokkinbahlz","steam_id":76561198166245239,"connected_time":438000000000,"state":"active","ping":56},{"user_id":28,"name":"HTheHat","steam_id":76561198865471450,"connected_time":591000000000,"state":"active","ping":57},{"user_id":31,"name":"GibbusGod","steam_id":76561199232436690,"connected_time":477000000000,"state":"active","ping":70}]},{"server_id":5,"name":"Uncletopia | Frankfurt | 1 | All Maps","name_short":"frk-1","host":"frk-1.de.uncletopia.com","port":27015,"enabled":true,"region":"eu","cc":"de","latitude":50.110924,"longitude":8.682127,"reserved":0,"last_update":"0001-01-01T00:00:00Z","name_a2s":"Uncletopia | Frankfurt | 1 | All Maps","protocol":17,"map":"cp_gorge","folder":"tf","game":"Team Fortress","app_id":440,"player_count":0,"max_players":24,"Bots":0,"server_type":"Dedicated","server_os":"Linux","password":true,"vac":true,"version":"7961495","steam_id":85568392924469989,"keywords":["cp","nocrits","nodmgspread","uncletopia"],"game_id":440,"stv_port":27016,"stv_name":"Uncletopia | Frankfurt | 1 | All Maps | STV","players":null},{"server_id":110,"name":"Uncletopia | Frankfurt | 2 | All Maps","name_short":"frk-2","host":"frk-1.de.uncletopia.com","port":27025,"enabled":true,"region":"eu","cc":"de","latitude":50.110924,"longitude":8.682127,"reserved":0,"last_update":"0001-01-01T00:00:00Z","name_a2s":"Uncletopia | Frankfurt | 2 | All Maps","protocol":17,"map":"koth_highpass","folder":"tf","game":"Team Fortress","app_id":440,"player_count":0,"max_players":24,"Bots":0,"server_type":"Dedicated","server_os":"Linux","password":true,"vac":true,"version":"7961495","steam_id":85568392924469990,"keywords":["cp","nocrits","nodmgspread","uncletopia"],"game_id":440,"stv_port":27026,"stv_name":"Uncletopia | Frankfurt | 2 | All Maps | STV","players":null},{"server_id":308,"name":"Uncletopia | Frankfurt | 3 | All Maps","name_short":"frk-3","host":"frk-1.de.uncletopia.com","port":27035,"enabled":true,"region":"eu","cc":"de","latitude":50.110924,"longitude":8.682127,"reserved":0,"last_update":"0001-01-01T00:00:00Z","name_a2s":"Uncletopia | Frankfurt | 3 | All Maps","protocol":17,"map":"koth_highpass","folder":"tf","game":"Team Fortress","app_id":440,"player_count":0,"max_players":24,"Bots":0,"server_type":"Dedicated","server_os":"Linux","password":true,"vac":true,"version":"7961495","steam_id":85568392924504274,"keywords":["cp","nocrits","nodmgspread","uncletopia"],"game_id":440,"stv_port":27036,"stv_name":"Uncletopia | Frankfurt | 3 | All Maps | STV","players":null},{"server_id":309,"name":"Uncletopia | Frankfurt | 4 | All Maps","name_short":"frk-4","host":"frk-1.de.uncletopia.com","port":27045,"enabled":true,"region":"eu","cc":"de","latitude":50.110924,"longitude":8.682127,"reserved":0,"last_update":"0001-01-01T00:00:00Z","name_a2s":"Uncletopia | Frankfurt | 4 | All Maps","protocol":17,"map":"koth_lakeside_final","folder":"tf","game":"Team Fortress","app_id":440,"player_count":0,"max_players":24,"Bots":0,"server_type":"Dedicated","server_os":"Linux","password":true,"vac":true,"version":"7961495","steam_id":85568392924504275,"keywords":["cp","nocrits","nodmgspread","uncletopia"],"game_id":440,"stv_port":27046,"stv_name":"Uncletopia | Frankfurt | 4 | All Maps | STV","players":null},{"server_id":310,"name":"Uncletopia | Frankfurt | 5 | All Maps","name_short":"frk-5","host":"frk-1.de.uncletopia.com","port":27055,"enabled":true,"region":"eu","cc":"de","latitude":50.110924,"longitude":8.682127,"reserved":0,"last_update":"0001-01-01T00:00:00Z","name_a2s":"Uncletopia | Frankfurt | 5 | All Maps","protocol":17,"map":"pl_snowycoast","folder":"tf","game":"Team Fortress","app_id":440,"player_count":0,"max_players":24,"Bots":0,"server_type":"Dedicated","server_os":"Linux","password":true,"vac":true,"version":"7961495","steam_id":85568392924504277,"keywords":["nocrits","nodmgspread","payload","uncletopia"],"game_id":440,"stv_port":27056,"stv_name":"Uncletopia | Frankfurt | 5 | All Maps | STV","players":null},{"server_id":311,"name":"Uncletopia | Frankfurt | 6 | All Maps","name_short":"frk-6","host":"frk-1.de.uncletopia.com","port":27065,"enabled":true,"region":"eu","cc":"de","latitude":50.110924,"longitude":8.682127,"reserved":0,"last_update":"0001-01-01T00:00:00Z","name_a2s":"Uncletopia | Frankfurt | 6 | All Maps","protocol":17,"map":"koth_lakeside_final","folder":"tf","game":"Team Fortress","app_id":440,"player_count":0,"max_players":24,"Bots":0,"server_type":"Dedicated","server_os":"Linux","password":true,"vac":true,"version":"7961495","steam_id":85568392924504278,"keywords":["cp","nocrits","nodmgspread","uncletopia"],"game_id":440,"stv_port":27066,"stv_name":"Uncletopia | Frankfurt | 6 | All Maps | STV","players":null},{"server_id":23,"name":"Uncletopia | Frankfurt | 7 | Stopwatch","name_short":"frk-7","host":"frk-1.de.uncletopia.com","port":27075,"enabled":true,"region":"eu","cc":"de","latitude":50.110924,"longitude":8.682127,"reserved":0,"last_update":"0001-01-01T00:00:00Z","name_a2s":"Uncletopia | Frankfurt | 7 | Stopwatch","protocol":17,"map":"workshop/koth_clearcut_b15.ugc2107050255","folder":"tf","game":"Team Fortress","app_id":440,"player_count":0,"max_players":24,"Bots":0,"server_type":"Dedicated","server_os":"Linux","password":true,"vac":true,"version":"7961495","steam_id":85568392924742827,"keywords":["cp","nocrits","nodmgspread","uncletopia"],"game_id":440,"stv_port":27076,"stv_name":"Uncletopia | Frankfurt | 7 | Stopwatch | STV","players":null},{"server_id":24,"name":"Uncletopia | Frankfurt | 8 | Community","name_short":"frk-8","host":"frk-1.de.uncletopia.com","port":27085,"enabled":true,"region":"eu","cc":"de","latitude":50.110924,"longitude":8.682127,"reserved":0,"last_update":"0001-01-01T00:00:00Z","name_a2s":"Uncletopia | Frankfurt | 8 | Community","protocol":17,"map":"workshop/pl_barnblitz_pro7.ugc582280235","folder":"tf","game":"Team Fortress","app_id":440,"player_count":0,"max_players":24,"Bots":0,"server_type":"Dedicated","server_os":"Linux","password":true,"vac":true,"version":"7961495","steam_id":85568392924742828,"keywords":["nocrits","nodmgspread","payload","uncletopia"],"game_id":440,"stv_port":27086,"stv_name":"Uncletopia | Frankfurt | 8 | Community | STV","players":null},{"server_id":202,"name":"Uncletopia | Hong Kong | 1 | All Maps","name_short":"hgk-1","host":"hgk-1.hk.uncletopia.com","port":27015,"enabled":true,"region":"asia","cc":"hk","latitude":22.302711,"longitude":114.177216,"reserved":0,"last_update":"0001-01-01T00:00:00Z","name_a2s":"Uncletopia | Hong Kong | 1 | All Maps","protocol":17,"map":"cp_snakewater_final1","folder":"tf","game":"Team Fortress","app_id":440,"player_count":0,"max_players":24,"Bots":0,"server_type":"Dedicated","server_os":"Linux","password":true,"vac":true,"version":"7961495","steam_id":85568392924494504,"keywords":["cp","nocrits","nodmgspread","uncletopia"],"game_id":440,"stv_port":27016,"stv_name":"Uncletopia | Hong Kong | 1 | All Maps | STV","players":null},{"server_id":1,"name":"Uncletopia | Los Angeles | 1 | All Maps","name_short":"lax-1","host":"lax-1.us.uncletopia.com","port":27015,"enabled":true,"region":"us-west","cc":"us","latitude":33.94279,"longitude":-118.41004,"reserved":0,"last_update":"0001-01-01T00:00:00Z","name_a2s":"Uncletopia | Los Angeles | 1 | All Maps","protocol":17,"map":"pl_badwater","folder":"tf","game":"Team Fortress","app_id":440,"player_count":22,"max_players":24,"Bots":0,"server_type":"Dedicated","server_os":"Linux","password":true,"vac":true,"version":"7961495","steam_id":85568392924469991,"keywords":["nocrits","nodmgspread","payload","uncletopia"],"game_id":440,"stv_port":27016,"stv_name":"Uncletopia | Los Angeles | 1 | All Maps | STV","players":[{"user_id":284,"name":"Eden","steam_id":76561198081284664,"connected_time":869000000000,"state":"spawning","ping":72},{"user_id":142,"name":"Why Me...","steam_id":76561199124019937,"connected_time":10910000000000,"state":"spawning","ping":62},{"user_id":308,"name":"zeplinnn","steam_id":76561198301300987,"connected_time":137000000000,"state":"spawning","ping":66},{"user_id":271,"name":"[Industrial] A_HUMBLEBUMBLED","steam_id":76561198064771878,"connected_time":1883000000000,"state":"spawning","ping":99},{"user_id":303,"name":"Ian","steam_id":76561198159334435,"connected_time":273000000000,"state":"spawning","ping":180},{"user_id":307,"name":"Puskinti","steam_id":76561198032120688,"connected_time":154000000000,"state":"spawning","ping":86},{"user_id":289,"name":"Two-Ton Heavy Thing","steam_id":76561198201724274,"connected_time":830000000000,"state":"spawning","ping":119},{"user_id":285,"name":"Veritox","steam_id":76561198075778026,"connected_time":865000000000,"state":"spawning","ping":63},{"user_id":278,"name":"Sawbez","steam_id":76561198394863729,"connected_time":1395000000000,"state":"spawning","ping":96},{"user_id":299,"name":"Seatea","steam_id":76561198087828435,"connected_time":479000000000,"state":"spawning","ping":141},{"user_id":291,"name":"squid","steam_id":76561198070236972,"connected_time":721000000000,"state":"spawning","ping":72},{"user_id":262,"name":"Pez","steam_id":76561199197778137,"connected_time":2750000000000,"state":"spawning","ping":53},{"user_id":300,"name":"Supersonic","steam_id":76561198042167127,"connected_time":454000000000,"state":"spawning","ping":108},{"user_id":302,"name":"glock41982","steam_id":76561198025107915,"connected_time":341000000000,"state":"spawning","ping":64},{"user_id":267,"name":"Fractured_Mango","steam_id":76561199013113268,"connected_time":2461000000000,"state":"spawning","ping":55},{"user_id":282,"name":"crazey","steam_id":76561198286510667,"connected_time":1233000000000,"state":"spawning","ping":59},{"user_id":310,"name":"Viktor Ludwig","steam_id":76561198973370004,"connected_time":39000000000,"state":"spawning","ping":86},{"user_id":295,"name":"NightmareOhm","steam_id":76561198338853664,"connected_time":629000000000,"state":"spawning","ping":90},{"user_id":296,"name":"Stick","steam_id":76561198001509374,"connected_time":624000000000,"state":"spawning","ping":82},{"user_id":264,"name":"Giorno Giovanna","steam_id":76561198044106874,"connected_time":2689000000000,"state":"spawning","ping":69},{"user_id":276,"name":"selvhat","steam_id":76561198114225509,"connected_time":1554000000000,"state":"spawning","ping":60},{"user_id":311,"name":"Konnor","steam_id":76561199136300254,"connected_time":39000000000,"state":"spawning","ping":57}]},{"server_id":112,"name":"Uncletopia | Los Angeles | 2 | All Maps","name_short":"lax-2","host":"lax-1.us.uncletopia.com","port":27025,"enabled":true,"region":"us-west","cc":"us","latitude":33.94279,"longitude":-118.41004,"reserved":0,"last_update":"0001-01-01T00:00:00Z","name_a2s":"Uncletopia | Los Angeles | 2 | All Maps","protocol":17,"map":"koth_lakeside_final","folder":"tf","game":"Team Fortress","app_id":440,"player_count":0,"max_players":24,"Bots":0,"server_type":"Dedicated","server_os":"Linux","password":true,"vac":true,"version":"7961495","steam_id":85568392924469992,"keywords":["cp","nocrits","nodmgspread","uncletopia"],"game_id":440,"stv_port":27026,"stv_name":"Uncletopia | Los Angeles | 2 | All Maps | STV","players":null},{"server_id":324,"name":"Uncletopia | Los Angeles | 3 | All Maps","name_short":"lax-3","host":"lax-1.us.uncletopia.com","port":27035,"enabled":true,"region":"us-west","cc":"us","latitude":33.94279,"longitude":-118.41004,"reserved":0,"last_update":"0001-01-01T00:00:00Z","name_a2s":"Uncletopia | Los Angeles | 3 | All Maps","protocol":17,"map":"cp_dustbowl","folder":"tf","game":"Team Fortress","app_id":440,"player_count":3,"max_players":24,"Bots":0,"server_type":"Dedicated","server_os":"Linux","password":true,"vac":true,"version":"7961495","steam_id":85568392924510198,"keywords":["cp","nocrits","nodmgspread","uncletopia"],"game_id":440,"stv_port":27036,"stv_name":"Uncletopia | Los Angeles | 3 | All Maps | STV","players":[{"user_id":443,"name":"Jetty","steam_id":76561198004885583,"connected_time":120000000000,"state":"active","ping":106},{"user_id":434,"name":"Sak","steam_id":76561198307655707,"connected_time":1957000000000,"state":"active","ping":47},{"user_id":442,"name":"Slowingbranch90","steam_id":76561199445875508,"connected_time":267000000000,"state":"active","ping":125}]},{"server_id":25,"name":"Uncletopia | Los Angeles | 4 | Stopwatch","name_short":"lax-4","host":"lax-1.us.uncletopia.com","port":27045,"enabled":true,"region":"us-west","cc":"us","latitude":33.94279,"longitude":-118.41004,"reserved":0,"last_update":"0001-01-01T00:00:00Z","name_a2s":"Uncletopia | Los Angeles | 4 | Stopwatch","protocol":17,"map":"workshop/koth_product_final.ugc454272353","folder":"tf","game":"Team Fortress","app_id":440,"player_count":0,"max_players":24,"Bots":0,"server_type":"Dedicated","server_os":"Linux","password":true,"vac":true,"version":"7961495","steam_id":85568392924510199,"keywords":["cp","nocrits","nodmgspread","uncletopia"],"game_id":440,"stv_port":27046,"stv_name":"Uncletopia | Los Angeles | 4 | Stopwatch | STV","players":null},{"server_id":11,"name":"Uncletopia | London | 1 | All Maps","name_short":"lon-1","host":"lon-1.uk.uncletopia.com","port":27015,"enabled":true,"region":"eu","cc":"gb","latitude":51.509865,"longitude":-0.118092,"reserved":0,"last_update":"0001-01-01T00:00:00Z","name_a2s":"Uncletopia | London | 1 | All Maps","protocol":17,"map":"pl_swiftwater_final1","folder":"tf","game":"Team Fortress","app_id":440,"player_count":19,"max_players":24,"Bots":0,"server_type":"Dedicated","server_os":"Linux","password":true,"vac":true,"version":"7961495","steam_id":85568392924367362,"keywords":["nocrits","nodmgspread","payload","uncletopia"],"game_id":440,"stv_port":27016,"stv_name":"Uncletopia | London | 1 | All Maps | STV","players":[{"user_id":879,"name":"gitlitwitit","steam_id":76561197980019054,"connected_time":870000000000,"state":"active","ping":64},{"user_id":880,"name":"Coac","steam_id":76561198085265740,"connected_time":810000000000,"state":"active","ping":73},{"user_id":861,"name":"UltimateSlayer","steam_id":76561198384109309,"connected_time":2383000000000,"state":"active","ping":56},{"user_id":888,"name":"Psyche","steam_id":76561198091662001,"connected_time":170000000000,"state":"active","ping":31},{"user_id":821,"name":"arcades","steam_id":76561198062075870,"connected_time":5744000000000,"state":"active","ping":68},{"user_id":889,"name":"Club Penguin Pro Gamer","steam_id":76561198009926628,"connected_time":144000000000,"state":"active","ping":42},{"user_id":885,"name":"Mr.Newt_","steam_id":76561198042906063,"connected_time":505000000000,"state":"active","ping":137},{"user_id":873,"name":"K","steam_id":76561198144604444,"connected_time":1460000000000,"state":"active","ping":59},{"user_id":890,"name":"PuMpInG","steam_id":76561199472091614,"connected_time":16000000000,"state":"active","ping":141},{"user_id":886,"name":"v0ddo","steam_id":76561198092745537,"connected_time":488000000000,"state":"active","ping":54},{"user_id":869,"name":"Chubbo","steam_id":76561198859439313,"connected_time":1887000000000,"state":"active","ping":93},{"user_id":807,"name":"katana on the trains","steam_id":76561198202464032,"connected_time":7545000000000,"state":"active","ping":68},{"user_id":770,"name":"Speed-Dial","steam_id":76561198012428315,"connected_time":10831000000000,"state":"active","ping":54},{"user_id":887,"name":"miishhaa","steam_id":76561198879857560,"connected_time":343000000000,"state":"active","ping":45},{"user_id":875,"name":"Bobirulez","steam_id":76561198009125458,"connected_time":1270000000000,"state":"active","ping":75},{"user_id":854,"name":"Local Moldovan Farmer","steam_id":76561198066109166,"connected_time":2971000000000,"state":"active","ping":86},{"user_id":855,"name":"MONEY","steam_id":76561198010924611,"connected_time":2962000000000,"state":"active","ping":120},{"user_id":870,"name":"BOT Jeremus","steam_id":76561198072981684,"connected_time":1871000000000,"state":"active","ping":44},{"user_id":877,"name":"Dr. Sus","steam_id":76561198344435644,"connected_time":965000000000,"state":"active","ping":62}]},{"server_id":114,"name":"Uncletopia | London | 2 | All Maps","name_short":"lon-2","host":"lon-1.uk.uncletopia.com","port":27025,"enabled":true,"region":"eu","cc":"gb","latitude":51.509865,"longitude":-0.118092,"reserved":0,"last_update":"0001-01-01T00:00:00Z","name_a2s":"Uncletopia | London | 2 | All Maps","protocol":17,"map":"koth_lakeside_final","folder":"tf","game":"Team Fortress","app_id":440,"player_count":0,"max_players":24,"Bots":0,"server_type":"Dedicated","server_os":"Linux","password":true,"vac":true,"version":"7961495","steam_id":85568392924470941,"keywords":["cp","nocrits","nodmgspread","uncletopia"],"game_id":440,"stv_port":27026,"stv_name":"Uncletopia | London | 2 | All Maps | STV","players":null},{"server_id":320,"name":"Uncletopia | London | 3 | All Maps","name_short":"lon-3","host":"lon-1.uk.uncletopia.com","port":27035,"enabled":true,"region":"eu","cc":"gb","latitude":51.509865,"longitude":-0.118092,"reserved":0,"last_update":"0001-01-01T00:00:00Z","name_a2s":"Uncletopia | London | 3 | All Maps","protocol":17,"map":"cp_mountainlab","folder":"tf","game":"Team Fortress","app_id":440,"player_count":0,"max_players":24,"Bots":0,"server_type":"Dedicated","server_os":"Linux","password":true,"vac":true,"version":"7961495","steam_id":85568392924510192,"keywords":["cp","nocrits","nodmgspread","uncletopia"],"game_id":440,"stv_port":27036,"stv_name":"Uncletopia | London | 3 | All Maps | STV","players":null},{"server_id":321,"name":"Uncletopia | London | 4 | All Maps","name_short":"lon-4","host":"lon-1.uk.uncletopia.com","port":27045,"enabled":true,"region":"eu","cc":"gb","latitude":51.509865,"longitude":-0.118092,"reserved":0,"last_update":"0001-01-01T00:00:00Z","name_a2s":"Uncletopia | London | 4 | All Maps","protocol":17,"map":"pl_barnblitz","folder":"tf","game":"Team Fortress","app_id":440,"player_count":0,"max_players":24,"Bots":0,"server_type":"Dedicated","server_os":"Linux","password":true,"vac":true,"version":"7961495","steam_id":85568392924510193,"keywords":["nocrits","nodmgspread","payload","uncletopia"],"game_id":440,"stv_port":27046,"stv_name":"Uncletopia | London | 4 | All Maps | STV","players":null},{"server_id":21,"name":"Uncletopia | London | 5 | All Maps","name_short":"lon-5","host":"lon-1.uk.uncletopia.com","port":27055,"enabled":true,"region":"eu","cc":"gb","latitude":51.509865,"longitude":-0.118092,"reserved":0,"last_update":"0001-01-01T00:00:00Z","name_a2s":"Uncletopia | London | 5 | All Maps","protocol":17,"map":"pl_upward","folder":"tf","game":"Team Fortress","app_id":440,"player_count":0,"max_players":24,"Bots":0,"server_type":"Dedicated","server_os":"Linux","password":true,"vac":true,"version":"7961495","steam_id":85568392924742829,"keywords":["nocrits","nodmgspread","payload","uncletopia"],"game_id":440,"stv_port":27056,"stv_name":"Uncletopia | London | 5 | All Maps | STV","players":null},{"server_id":22,"name":"Uncletopia | London | 6 | All Maps","name_short":"lon-6","host":"lon-1.uk.uncletopia.com","port":27065,"enabled":true,"region":"eu","cc":"gb","latitude":51.509865,"longitude":-0.118092,"reserved":0,"last_update":"0001-01-01T00:00:00Z","name_a2s":"Uncletopia | London | 6 | All Maps","protocol":17,"map":"pl_pier","folder":"tf","game":"Team Fortress","app_id":440,"player_count":0,"max_players":24,"Bots":0,"server_type":"Dedicated","server_os":"Linux","password":true,"vac":true,"version":"7961495","steam_id":85568392924742830,"keywords":["nocrits","nodmgspread","payload","uncletopia"],"game_id":440,"stv_port":27066,"stv_name":"Uncletopia | London | 6 | All Maps | STV","players":null},{"server_id":40,"name":"Uncletopia | London | 7 | Stopwatch","name_short":"lon-7","host":"lon-1.uk.uncletopia.com","port":27075,"enabled":true,"region":"eu","cc":"gb","latitude":51.509865,"longitude":-0.118092,"reserved":0,"last_update":"0001-01-01T00:00:00Z","name_a2s":"Uncletopia | London | 7 | Stopwatch","protocol":17,"map":"workshop/koth_clearcut_b15.ugc2107050255","folder":"tf","game":"Team Fortress","app_id":440,"player_count":0,"max_players":24,"Bots":0,"server_type":"Dedicated","server_os":"Linux","password":true,"vac":true,"version":"7961495","steam_id":85568392924964314,"keywords":["cp","nocrits","nodmgspread","uncletopia"],"game_id":440,"stv_port":27076,"stv_name":"Uncletopia | London | 7 | Stopwatch | STV","players":null},{"server_id":41,"name":"Uncletopia | London | 8 | Community","name_short":"lon-8","host":"lon-1.uk.uncletopia.com","port":27085,"enabled":true,"region":"eu","cc":"gb","latitude":51.509865,"longitude":-0.118092,"reserved":0,"last_update":"0001-01-01T00:00:00Z","name_a2s":"Uncletopia | London | 8 | Community","protocol":17,"map":"workshop/pl_shoreleave_rc2.ugc1238849347","folder":"tf","game":"Team Fortress","app_id":440,"player_count":0,"max_players":24,"Bots":0,"server_type":"Dedicated","server_os":"Linux","password":true,"vac":true,"version":"7961495","steam_id":85568392924964315,"keywords":["nocrits","nodmgspread","payload","uncletopia"],"game_id":440,"stv_port":27086,"stv_name":"Uncletopia | London | 8 | Community | STV","players":null},{"server_id":300,"name":"Uncletopia | Montr√©al | 1 | One Thousand Uncles","name_short":"mtl-1","host":"mtl-1.ca.uncletopia.com","port":27015,"enabled":true,"region":"us-east","cc":"ca","latitude":45.50889,"longitude":-73.56167,"reserved":0,"last_update":"0001-01-01T00:00:00Z","name_a2s":"Uncletopia | Montr√©al | 1 | One Thousand Uncles","protocol":17,"map":"cp_dustbowl","folder":"tf","game":"Team Fortress","app_id":440,"player_count":30,"max_players":32,"Bots":20,"server_type":"Dedicated","server_os":"Linux","password":true,"vac":true,"version":"7961495","steam_id":85568392924500087,"keywords":["alltalk","bots","cp","danepve","increased_maxplayers","norespawntime","uncletopia"],"game_id":440,"stv_port":0,"stv_name":"","players":[{"user_id":382,"name":"ZharMeny","steam_id":76561199086841610,"connected_time":1364000000000,"state":"active","ping":204},{"user_id":409,"name":"The Skyfoogle","steam_id":76561198797090812,"connected_time":212000000000,"state":"active","ping":91},{"user_id":345,"name":"Flappus","steam_id":76561198857949632,"connected_time":7890000000000,"state":"active","ping":73},{"user_id":386,"name":"Heartgold","steam_id":76561199062592062,"connected_time":877000000000,"state":"active","ping":75},{"user_id":410,"name":"Infinity","steam_id":76561199134919099,"connected_time":17000000000,"state":"spawning","ping":52},{"user_id":411,"name":"Craig the Brute","steam_id":76561198939958767,"connected_time":17000000000,"state":"spawning","ping":73},{"user_id":388,"name":"Hills","steam_id":76561198905885421,"connected_time":381000000000,"state":"active","ping":68},{"user_id":351,"name":"St. Arnold of Soissons","steam_id":76561197974133892,"connected_time":6763000000000,"state":"active","ping":65},{"user_id":356,"name":"Femboy Gaming","steam_id":76561199382783363,"connected_time":5114000000000,"state":"active","ping":101},{"user_id":309,"name":"Kiervce","steam_id":76561199175427371,"connected_time":11819000000000,"state":"active","ping":54}]},{"server_id":301,"name":"Uncletopia | Montr√©al | 2 | One Thousand Uncles","name_short":"mtl-2","host":"mtl-1.ca.uncletopia.com","port":27025,"enabled":true,"region":"us-east","cc":"ca","latitude":45.50889,"longitude":-73.56167,"reserved":0,"last_update":"0001-01-01T00:00:00Z","name_a2s":"Uncletopia | Montr√©al | 2 | One Thousand Uncles","protocol":17,"map":"cp_mossrock","folder":"tf","game":"Team Fortress","app_id":440,"player_count":0,"max_players":32,"Bots":0,"server_type":"Dedicated","server_os":"Linux","password":true,"vac":true,"version":"7961495","steam_id":85568392924500088,"keywords":["alltalk","cp","danepve","increased_maxplayers","norespawntime","uncletopia"],"game_id":440,"stv_port":0,"stv_name":"","players":null},{"server_id":302,"name":"Uncletopia | Montr√©al | 3 | One Thousand Uncles","name_short":"mtl-3","host":"mtl-1.ca.uncletopia.com","port":27035,"enabled":true,"region":"us-east","cc":"ca","latitude":45.50889,"longitude":-73.56167,"reserved":0,"last_update":"0001-01-01T00:00:00Z","name_a2s":"Uncletopia | Montr√©al | 3 | One Thousand Uncles","protocol":17,"map":"pl_upward","folder":"tf","game":"Team Fortress","app_id":440,"player_count":28,"max_players":32,"Bots":20,"server_type":"Dedicated","server_os":"Linux","password":true,"vac":true,"version":"7961495","steam_id":85568392924500089,"keywords":["alltalk","bots","danepve","increased_maxplayers","norespawntime","payload","uncletopia"],"game_id":440,"stv_port":0,"stv_name":"","players":[{"user_id":261,"name":"La()VaJ()86","steam_id":76561198247547042,"connected_time":1633000000000,"state":"active","ping":113},{"user_id":267,"name":"...","steam_id":76561198123380950,"connected_time":137000000000,"state":"active","ping":52},{"user_id":257,"name":"MagikarpEX","steam_id":76561198166172279,"connected_time":2908000000000,"state":"active","ping":61},{"user_id":258,"name":"Jrock","steam_id":76561198045715996,"connected_time":2798000000000,"state":"active","ping":99},{"user_id":262,"name":"1-800-GHOST-DANCE","steam_id":76561198835430429,"connected_time":1617000000000,"state":"active","ping":87},{"user_id":264,"name":"Kper","steam_id":76561198055433318,"connected_time":259000000000,"state":"active","ping":51},{"user_id":265,"name":"moneyman3412","steam_id":76561198115339497,"connected_time":178000000000,"state":"active","ping":80},{"user_id":266,"name":"Revy","steam_id":76561198095901612,"connected_time":152000000000,"state":"active","ping":75}]},{"server_id":13,"name":"Uncletopia | New York City | 1 | All Maps","name_short":"nyc-1","host":"nyc-1.us.uncletopia.com","port":27015,"enabled":true,"region":"us-east","cc":"us","latitude":40.73061,"longitude":-73.93524,"reserved":0,"last_update":"0001-01-01T00:00:00Z","name_a2s":"Uncletopia | New York City | 1 | All Maps","protocol":17,"map":"koth_lakeside_final","folder":"tf","game":"Team Fortress","app_id":440,"player_count":24,"max_players":24,"Bots":0,"server_type":"Dedicated","server_os":"Linux","password":true,"vac":true,"version":"7961495","steam_id":85568392924469993,"keywords":["cp","nocrits","nodmgspread","uncletopia"],"game_id":440,"stv_port":27016,"stv_name":"Uncletopia | New York City | 1 | All Maps | STV","players":[{"user_id":711,"name":"Cowabummer","steam_id":76561198272640432,"connected_time":1165000000000,"state":"active","ping":73},{"user_id":710,"name":"Flaccid Snake","steam_id":76561199028424036,"connected_time":1249000000000,"state":"active","ping":49},{"user_id":726,"name":"googa","steam_id":76561198133130452,"connected_time":122000000000,"state":"active","ping":42},{"user_id":727,"name":"Speedway","steam_id":76561198064359644,"connected_time":83000000000,"state":"active","ping":52},{"user_id":722,"name":"MILF Gaming","steam_id":76561198155378170,"connected_time":597000000000,"state":"active","ping":35},{"user_id":712,"name":"Bert.","steam_id":76561198140666346,"connected_time":1067000000000,"state":"active","ping":46},{"user_id":688,"name":"Nerrrd_","steam_id":76561198870129960,"connected_time":2553000000000,"state":"active","ping":34},{"user_id":677,"name":"Rex","steam_id":76561198138365053,"connected_time":3755000000000,"state":"active","ping":127},{"user_id":728,"name":"PurPle","steam_id":76561198050393396,"connected_time":42000000000,"state":"active","ping":58},{"user_id":674,"name":"Wilhelmktx","steam_id":76561198158102295,"connected_time":3886000000000,"state":"active","ping":83},{"user_id":706,"name":"Strange Diplomat","steam_id":76561198428191920,"connected_time":1668000000000,"state":"active","ping":52},{"user_id":683,"name":"Jeremiah Finch","steam_id":76561198046899113,"connected_time":3139000000000,"state":"active","ping":71},{"user_id":717,"name":"Fish Fisherman","steam_id":76561198018656022,"connected_time":684000000000,"state":"active","ping":46},{"user_id":716,"name":"Pomegranate88","steam_id":76561198056385456,"connected_time":827000000000,"state":"active","ping":61},{"user_id":698,"name":"ya ya breathe","steam_id":76561198075858067,"connected_time":1877000000000,"state":"active","ping":51},{"user_id":692,"name":"Alejandro","steam_id":76561197970051493,"connected_time":2103000000000,"state":"active","ping":123},{"user_id":652,"name":"Elias","steam_id":76561198106431732,"connected_time":5264000000000,"state":"active","ping":64},{"user_id":721,"name":"Level 1 Crook","steam_id":76561198441098132,"connected_time":640000000000,"state":"active","ping":59},{"user_id":725,"name":"Pootis ENGAGE","steam_id":76561198192752793,"connected_time":124000000000,"state":"active","ping":74},{"user_id":719,"name":"test","steam_id":76561198433889426,"connected_time":646000000000,"state":"active","ping":110},{"user_id":714,"name":"Mycelion","steam_id":76561198024999530,"connected_time":943000000000,"state":"active","ping":81},{"user_id":708,"name":"Tokyo_Timeshift_","steam_id":76561198048677523,"connected_time":1458000000000,"state":"active","ping":64},{"user_id":680,"name":"Fumohuxi Viriphyto","steam_id":76561198369395636,"connected_time":3561000000000,"state":"active","ping":91},{"user_id":724,"name":"Blueseer","steam_id":76561198060326533,"connected_time":265000000000,"state":"active","ping":73}]},{"server_id":14,"name":"Uncletopia | New York City | 2 | All Maps","name_short":"nyc-2","host":"nyc-1.us.uncletopia.com","port":27025,"enabled":true,"region":"us-east","cc":"us","latitude":40.73061,"longitude":-73.93524,"reserved":0,"last_update":"0001-01-01T00:00:00Z","name_a2s":"Uncletopia | New York City | 2 | All Maps","protocol":17,"map":"pl_swiftwater_final1","folder":"tf","game":"Team Fortress","app_id":440,"player_count":24,"max_players":24,"Bots":0,"server_type":"Dedicated","server_os":"Linux","password":true,"vac":true,"version":"7961495","steam_id":85568392924469994,"keywords":["nocrits","nodmgspread","payload","uncletopia"],"game_id":440,"stv_port":27026,"stv_name":"Uncletopia | New York City | 2 | All Maps | STV","players":[{"user_id":590,"name":"FUSION","steam_id":76561197972659738,"connected_time":3250000000000,"state":"active","ping":31},{"user_id":621,"name":"zzzz","steam_id":76561198310495200,"connected_time":1127000000000,"state":"active","ping":62},{"user_id":568,"name":"Kirkleon","steam_id":76561198041302343,"connected_time":5417000000000,"state":"active","ping":46},{"user_id":622,"name":"Cyrilthewonders","steam_id":76561198987020031,"connected_time":535000000000,"state":"active","ping":146},{"user_id":604,"name":"SweetieCandy","steam_id":76561198137756392,"connected_time":2551000000000,"state":"active","ping":67},{"user_id":615,"name":"Kohuh","steam_id":76561198861737544,"connected_time":1564000000000,"state":"active","ping":44},{"user_id":566,"name":"John Fortnite","steam_id":76561198076608253,"connected_time":5667000000000,"state":"active","ping":65},{"user_id":450,"name":"D(b) Hell","steam_id":76561198067869016,"connected_time":15353000000000,"state":"active","ping":74},{"user_id":616,"name":"Big Yoshi","steam_id":76561199160576376,"connected_time":1559000000000,"state":"active","ping":132},{"user_id":614,"name":"Max_Attack","steam_id":76561198944028607,"connected_time":1692000000000,"state":"active","ping":120},{"user_id":521,"name":"Robin","steam_id":76561198183812009,"connected_time":9123000000000,"state":"active","ping":44},{"user_id":569,"name":"well assflash, newshole","steam_id":76561198018898325,"connected_time":5403000000000,"state":"active","ping":74},{"user_id":573,"name":"MajorSatan","steam_id":76561198363814803,"connected_time":5351000000000,"state":"active","ping":84},{"user_id":617,"name":"Lemur2016","steam_id":76561198194372906,"connected_time":1535000000000,"state":"spawning","ping":68},{"user_id":578,"name":"CrustyCapybara","steam_id":76561199450398030,"connected_time":5137000000000,"state":"active","ping":57},{"user_id":602,"name":"Squope","steam_id":76561198983129293,"connected_time":2606000000000,"state":"active","ping":55},{"user_id":624,"name":"MilesFireStorm","steam_id":76561198078642820,"connected_time":25000000000,"state":"active","ping":65},{"user_id":606,"name":"[Errant] The Foilist","steam_id":76561198043987696,"connected_time":2503000000000,"state":"active","ping":64},{"user_id":597,"name":"Tabby","steam_id":76561199043429385,"connected_time":2811000000000,"state":"active","ping":75},{"user_id":610,"name":"Treeckogeek","steam_id":76561198453328078,"connected_time":2168000000000,"state":"active","ping":67},{"user_id":594,"name":"Car Door Video Tour","steam_id":76561198023119534,"connected_time":2893000000000,"state":"active","ping":48},{"user_id":603,"name":"TARP","steam_id":76561198981788304,"connected_time":2564000000000,"state":"active","ping":32},{"user_id":577,"name":"Pickle Chips","steam_id":76561198271951504,"connected_time":5291000000000,"state":"active","ping":45},{"user_id":588,"name":"ChimpusGaming","steam_id":76561198060954715,"connected_time":3621000000000,"state":"active","ping":73}]},{"server_id":15,"name":"Uncletopia | New York City | 3 | Stopwatch","name_short":"nyc-3","host":"nyc-1.us.uncletopia.com","port":27035,"enabled":true,"region":"us-east","cc":"us","latitude":40.73061,"longitude":-73.93524,"reserved":0,"last_update":"0001-01-01T00:00:00Z","name_a2s":"Uncletopia | New York City | 3 | Stopwatch","protocol":17,"map":"cp_process_final","folder":"tf","game":"Team Fortress","app_id":440,"player_count":18,"max_players":24,"Bots":0,"server_type":"Dedicated","server_os":"Linux","password":true,"vac":true,"version":"7961495","steam_id":85568392924742820,"keywords":["cp","nocrits","nodmgspread","uncletopia"],"game_id":440,"stv_port":27036,"stv_name":"Uncletopia | New York City | 3 | Stopwatch | STV","players":[{"user_id":87,"name":"All Tomorrow's Parties","steam_id":76561197995936212,"connected_time":171000000000,"state":"active","ping":69},{"user_id":89,"name":"tim-","steam_id":76561199119101315,"connected_time":109000000000,"state":"active","ping":56},{"user_id":90,"name":"carbuzz","steam_id":76561198129361580,"connected_time":75000000000,"state":"active","ping":158},{"user_id":86,"name":"TheTankerofCaptins","steam_id":76561198276150712,"connected_time":244000000000,"state":"active","ping":79},{"user_id":54,"name":"SCREAMS ECHO FROM THE DUNGEON","steam_id":76561198310811821,"connected_time":2038000000000,"state":"active","ping":98},{"user_id":55,"name":"ChickenFriar","steam_id":76561199119888114,"connected_time":1981000000000,"state":"active","ping":53},{"user_id":57,"name":"Eiss","steam_id":76561198343183806,"connected_time":1746000000000,"state":"active","ping":66},{"user_id":58,"name":"chrischrischris3018@yahoo.com","steam_id":76561198137316053,"connected_time":1708000000000,"state":"active","ping":60},{"user_id":59,"name":"Liver stealer","steam_id":76561199029954287,"connected_time":1572000000000,"state":"active","ping":133},{"user_id":60,"name":"Fernando Alonso","steam_id":76561198066822788,"connected_time":1467000000000,"state":"active","ping":61},{"user_id":71,"name":"toska","steam_id":76561198141184894,"connected_time":1053000000000,"state":"active","ping":105},{"user_id":62,"name":"Dystrophy","steam_id":76561198057530953,"connected_time":1371000000000,"state":"active","ping":60},{"user_id":63,"name":"Flutterr","steam_id":76561198014772471,"connected_time":1311000000000,"state":"active","ping":60},{"user_id":82,"name":"üü†„ÉÑ","steam_id":76561198018213050,"connected_time":610000000000,"state":"active","ping":60},{"user_id":67,"name":"slammin","steam_id":76561197965022076,"connected_time":1200000000000,"state":"active","ping":47},{"user_id":83,"name":"Moo Guy","steam_id":76561198114598079,"connected_time":574000000000,"state":"active","ping":79},{"user_id":73,"name":"C‚ÇÑH‚ÇàCl‚ÇÇSGamez","steam_id":76561198250471340,"connected_time":987000000000,"state":"active","ping":73},{"user_id":78,"name":"Ispent","steam_id":76561198098609624,"connected_time":909000000000,"state":"active","ping":55}]},{"server_id":16,"name":"Uncletopia | New York City | 4 | Community","name_short":"nyc-4","host":"nyc-1.us.uncletopia.com","port":27045,"enabled":true,"region":"us-east","cc":"us","latitude":40.73061,"longitude":-73.93524,"reserved":0,"last_update":"0001-01-01T00:00:00Z","name_a2s":"Uncletopia | New York City | 4 | Community","protocol":17,"map":"workshop/cp_propaganda_b18.ugc1603743849","folder":"tf","game":"Team Fortress","app_id":440,"player_count":0,"max_players":24,"Bots":0,"server_type":"Dedicated","server_os":"Linux","password":true,"vac":true,"version":"7961495","steam_id":85568392924742821,"keywords":["cp","nocrits","nodmgspread","uncletopia"],"game_id":440,"stv_port":27046,"stv_name":"Uncletopia | New York City | 4 | Community | STV","players":null},{"server_id":142,"name":"Uncletopia | S√£o Paulo | 1 | All Maps","name_short":"sao-1","host":"sao-1.br.uncletopia.com","port":27015,"enabled":true,"region":"sa","cc":"br","latitude":-23.533773,"longitude":-46.62529,"reserved":0,"last_update":"0001-01-01T00:00:00Z","name_a2s":"Uncletopia | S√£o Paulo | 1 | All Maps","protocol":17,"map":"pl_barnblitz","folder":"tf","game":"Team Fortress","app_id":440,"player_count":0,"max_players":24,"Bots":0,"server_type":"Dedicated","server_os":"Linux","password":true,"vac":true,"version":"7961495","steam_id":85568392924469996,"keywords":["nocrits","nodmgspread","payload","uncletopia"],"game_id":440,"stv_port":27016,"stv_name":"Uncletopia | S√£o Paulo | 1 | All Maps | STV","players":null},{"server_id":143,"name":"Uncletopia | S√£o Paulo | 2 | Community","name_short":"sao-2","host":"sao-2.br.uncletopia.com","port":27015,"enabled":true,"region":"sa","cc":"br","latitude":-23.533773,"longitude":-46.62529,"reserved":0,"last_update":"0001-01-01T00:00:00Z","name_a2s":"Uncletopia | S√£o Paulo | 2 | Community","protocol":17,"map":"workshop/pl_phoenix_b4a.ugc2969509359","folder":"tf","game":"Team Fortress","app_id":440,"player_count":0,"max_players":24,"Bots":0,"server_type":"Dedicated","server_os":"Linux","password":true,"vac":true,"version":"7961495","steam_id":85568392924485349,"keywords":["nocrits","nodmgspread","payload","uncletopia"],"game_id":440,"stv_port":27016,"stv_name":"Uncletopia | S√£o Paulo | 2 | Community | STV","players":null},{"server_id":7,"name":"Uncletopia | Seattle | 1 | All Maps","name_short":"sea-1","host":"sea-1.us.uncletopia.com","port":27015,"enabled":true,"region":"us-west","cc":"us","latitude":47.608013,"longitude":-122.33517,"reserved":0,"last_update":"0001-01-01T00:00:00Z","name_a2s":"Uncletopia | Seattle | 1 | All Maps","protocol":17,"map":"pl_badwater","folder":"tf","game":"Team Fortress","app_id":440,"player_count":24,"max_players":24,"Bots":0,"server_type":"Dedicated","server_os":"Linux","password":true,"vac":true,"version":"7961495","steam_id":85568392924469997,"keywords":["nocrits","nodmgspread","payload","uncletopia"],"game_id":440,"stv_port":27016,"stv_name":"Uncletopia | Seattle | 1 | All Maps | STV","players":[{"user_id":348,"name":"Œª T O M I C S P E E D","steam_id":76561198378581038,"connected_time":1548000000000,"state":"active","ping":150},{"user_id":357,"name":"Pigzilla","steam_id":76561198373968267,"connected_time":622000000000,"state":"active","ping":90},{"user_id":336,"name":"Sexy Kitten (toxic)","steam_id":76561197979056451,"connected_time":2422000000000,"state":"active","ping":56},{"user_id":353,"name":"the giant horse conch","steam_id":76561198028718812,"connected_time":1253000000000,"state":"active","ping":44},{"user_id":345,"name":"PiolaCat","steam_id":76561199100535345,"connected_time":1705000000000,"state":"active","ping":119},{"user_id":333,"name":"New_guy","steam_id":76561199379823082,"connected_time":2752000000000,"state":"active","ping":118},{"user_id":318,"name":"MCman","steam_id":76561198412110305,"connected_time":3528000000000,"state":"active","ping":85},{"user_id":290,"name":"HotHead","steam_id":76561198138468982,"connected_time":6332000000000,"state":"active","ping":58},{"user_id":355,"name":"Barack Obama Gaming","steam_id":76561198129242016,"connected_time":669000000000,"state":"active","ping":49},{"user_id":354,"name":"Turban Grease","steam_id":76561198072052434,"connected_time":735000000000,"state":"active","ping":50},{"user_id":340,"name":"AuraBraixen_4412","steam_id":76561198120668769,"connected_time":1757000000000,"state":"active","ping":100},{"user_id":342,"name":"MrYadaization","steam_id":76561198050770818,"connected_time":1723000000000,"state":"active","ping":59},{"user_id":182,"name":"Banana Man","steam_id":76561199012105803,"connected_time":17872000000000,"state":"active","ping":55},{"user_id":344,"name":"lavender","steam_id":76561199069518286,"connected_time":1711000000000,"state":"active","ping":68},{"user_id":359,"name":"Draider999","steam_id":76561199062780269,"connected_time":423000000000,"state":"active","ping":40},{"user_id":356,"name":"Retrace","steam_id":76561198080620966,"connected_time":660000000000,"state":"active","ping":76},{"user_id":341,"name":"William P. Ennis","steam_id":76561198073464877,"connected_time":1736000000000,"state":"active","ping":90},{"user_id":360,"name":"AkaDoggo","steam_id":76561198968291063,"connected_time":392000000000,"state":"active","ping":100},{"user_id":361,"name":"Rowdy","steam_id":76561198091758619,"connected_time":375000000000,"state":"active","ping":93},{"user_id":349,"name":"Weg","steam_id":76561198325033121,"connected_time":1546000000000,"state":"active","ping":83},{"user_id":316,"name":"A UsedNom","steam_id":76561198402832756,"connected_time":4241000000000,"state":"active","ping":55},{"user_id":350,"name":"Bappo","steam_id":76561199110482906,"connected_time":1546000000000,"state":"active","ping":71},{"user_id":364,"name":"PopcornBucketGames","steam_id":76561199089562026,"connected_time":156000000000,"state":"active","ping":51},{"user_id":363,"name":"Ether101","steam_id":76561198047764744,"connected_time":350000000000,"state":"active","ping":132}]},{"server_id":119,"name":"Uncletopia | Seattle | 2 | All Maps","name_short":"sea-2","host":"sea-1.us.uncletopia.com","port":27025,"enabled":true,"region":"us-west","cc":"us","latitude":47.608013,"longitude":-122.33517,"reserved":0,"last_update":"0001-01-01T00:00:00Z","name_a2s":"Uncletopia | Seattle | 2 | All Maps","protocol":17,"map":"pl_pier","folder":"tf","game":"Team Fortress","app_id":440,"player_count":19,"max_players":24,"Bots":0,"server_type":"Dedicated","server_os":"Linux","password":true,"vac":true,"version":"7961495","steam_id":85568392924469998,"keywords":["nocrits","nodmgspread","payload","uncletopia"],"game_id":440,"stv_port":27026,"stv_name":"Uncletopia | Seattle | 2 | All Maps | STV","players":[{"user_id":107,"name":"worker","steam_id":76561198039608940,"connected_time":7121000000000,"state":"spawning","ping":49},{"user_id":155,"name":"felon","steam_id":76561199100342013,"connected_time":4174000000000,"state":"spawning","ping":76},{"user_id":198,"name":"Snakesuna","steam_id":76561198063949642,"connected_time":23000000000,"state":"connecting","ping":35},{"user_id":199,"name":"Roomsky","steam_id":76561198012827494,"connected_time":3000000000,"state":"spawning","ping":43},{"user_id":184,"name":"challen","steam_id":76561197961277967,"connected_time":1286000000000,"state":"spawning","ping":69},{"user_id":167,"name":"‚úø PoutyBun ‚úø","steam_id":76561197965762847,"connected_time":2984000000000,"state":"spawning","ping":37},{"user_id":180,"name":"BlazedBunny","steam_id":76561198243610560,"connected_time":1633000000000,"state":"spawning","ping":49},{"user_id":189,"name":"ForAPessimistImPrettyOptimistic","steam_id":76561198170128009,"connected_time":734000000000,"state":"spawning","ping":76},{"user_id":113,"name":"pjrock101","steam_id":76561198070616561,"connected_time":6732000000000,"state":"spawning","ping":47},{"user_id":86,"name":"Glue Sniffer","steam_id":76561198289642788,"connected_time":9251000000000,"state":"spawning","ping":56},{"user_id":162,"name":"Keamy","steam_id":76561199471434875,"connected_time":3335000000000,"state":"spawning","ping":49},{"user_id":192,"name":"Lyn","steam_id":76561198009656676,"connected_time":447000000000,"state":"spawning","ping":52},{"user_id":163,"name":"Prowler","steam_id":76561198981106464,"connected_time":3292000000000,"state":"spawning","ping":80},{"user_id":186,"name":"udon","steam_id":76561198165872348,"connected_time":1094000000000,"state":"spawning","ping":47},{"user_id":191,"name":"Rude Dog","steam_id":76561197980385816,"connected_time":571000000000,"state":"spawning","ping":45},{"user_id":190,"name":"Kaczynski Mode","steam_id":76561198043251593,"connected_time":642000000000,"state":"spawning","ping":35},{"user_id":196,"name":"cielael","steam_id":76561198043971956,"connected_time":222000000000,"state":"spawning","ping":84},{"user_id":197,"name":"NASA PEEPO","steam_id":76561198024982267,"connected_time":131000000000,"state":"spawning","ping":47},{"user_id":195,"name":"Ghost_Rider_Wild_Warlord","steam_id":76561199477672188,"connected_time":286000000000,"state":"spawning","ping":44}]},{"server_id":406,"name":"Uncletopia | Seattle | 3 | Stopwatch","name_short":"sea-3","host":"sea-1.us.uncletopia.com","port":27035,"enabled":true,"region":"us-west","cc":"us","latitude":47.608013,"longitude":-122.33517,"reserved":0,"last_update":"0001-01-01T00:00:00Z","name_a2s":"Uncletopia | Seattle | 3 | Stopwatch","protocol":17,"map":"workshop/koth_ashville_final.ugc2130459942","folder":"tf","game":"Team Fortress","app_id":440,"player_count":0,"max_players":24,"Bots":0,"server_type":"Dedicated","server_os":"Linux","password":true,"vac":true,"version":"7961495","steam_id":85568392924515217,"keywords":["cp","nocrits","nodmgspread","uncletopia"],"game_id":440,"stv_port":27036,"stv_name":"Uncletopia | Seattle | 3 | Stopwatch | STV","players":null},{"server_id":17,"name":"Uncletopia | San Francisco | 1 | All Maps","name_short":"sfo-1","host":"sfo-1.us.uncletopia.com","port":27015,"enabled":true,"region":"us-west","cc":"us","latitude":37.77397,"longitude":-122.4313,"reserved":0,"last_update":"0001-01-01T00:00:00Z","name_a2s":"Uncletopia | San Francisco | 1 | All Maps","protocol":17,"map":"koth_viaduct","folder":"tf","game":"Team Fortress","app_id":440,"player_count":1,"max_players":24,"Bots":0,"server_type":"Dedicated","server_os":"Linux","password":true,"vac":true,"version":"7961495","steam_id":85568392924469999,"keywords":["cp","nocrits","nodmgspread","uncletopia"],"game_id":440,"stv_port":27016,"stv_name":"Uncletopia | San Francisco | 1 | All Maps | STV","players":[{"user_id":19,"name":"David Loy","steam_id":76561199507570717,"connected_time":2000000000,"state":"spawning","ping":31}]},{"server_id":18,"name":"Uncletopia | San Francisco | 2 | All Maps","name_short":"sfo-2","host":"sfo-1.us.uncletopia.com","port":27025,"enabled":true,"region":"us-west","cc":"us","latitude":37.77397,"longitude":-122.4313,"reserved":0,"last_update":"0001-01-01T00:00:00Z","name_a2s":"Uncletopia | San Francisco | 2 | All Maps","protocol":17,"map":"koth_lakeside_final","folder":"tf","game":"Team Fortress","app_id":440,"player_count":0,"max_players":24,"Bots":0,"server_type":"Dedicated","server_os":"Linux","password":true,"vac":true,"version":"7961495","steam_id":85568392924470000,"keywords":["cp","nocrits","nodmgspread","uncletopia"],"game_id":440,"stv_port":27026,"stv_name":"Uncletopia | San Francisco | 2 | All Maps | STV","players":null},{"server_id":19,"name":"Uncletopia | San Francisco | 3 | Stopwatch","name_short":"sfo-3","host":"sfo-1.us.uncletopia.com","port":27035,"enabled":true,"region":"us-west","cc":"us","latitude":37.77397,"longitude":-122.4313,"reserved":0,"last_update":"0001-01-01T00:00:00Z","name_a2s":"Uncletopia | San Francisco | 3 | Stopwatch","protocol":17,"map":"workshop/pl_vigil_rc10.ugc1266210012","folder":"tf","game":"Team Fortress","app_id":440,"player_count":0,"max_players":24,"Bots":0,"server_type":"Dedicated","server_os":"Linux","password":true,"vac":true,"version":"7961495","steam_id":85568392924742824,"keywords":["nocrits","nodmgspread","payload","uncletopia"],"game_id":440,"stv_port":27036,"stv_name":"Uncletopia | San Francisco | 3 | Stopwatch | STV","players":null},{"server_id":20,"name":"Uncletopia | San Francisco | 4 | Community","name_short":"sfo-4","host":"sfo-1.us.uncletopia.com","port":27045,"enabled":true,"region":"us-west","cc":"us","latitude":37.77397,"longitude":-122.4313,"reserved":0,"last_update":"0001-01-01T00:00:00Z","name_a2s":"Uncletopia | San Francisco | 4 | Community","protocol":17,"map":"workshop/pl_fifthcurve_rc1.ugc648227046","folder":"tf","game":"Team Fortress","app_id":440,"player_count":0,"max_players":24,"Bots":0,"server_type":"Dedicated","server_os":"Linux","password":true,"vac":true,"version":"7961495","steam_id":85568392924742826,"keywords":["nocrits","nodmgspread","payload","uncletopia"],"game_id":440,"stv_port":27046,"stv_name":"Uncletopia | San Francisco | 4 | Community | STV","players":null},{"server_id":141,"name":"Uncletopia | Sydney | 1 | All Maps","name_short":"syd-1","host":"syd-1.au.uncletopia.com","port":27015,"enabled":true,"region":"au","cc":"au","latitude":-33.865143,"longitude":151.2099,"reserved":0,"last_update":"0001-01-01T00:00:00Z","name_a2s":"Uncletopia | Sydney | 1 | All Maps","protocol":17,"map":"koth_highpass","folder":"tf","game":"Team Fortress","app_id":440,"player_count":1,"max_players":24,"Bots":0,"server_type":"Dedicated","server_os":"Linux","password":true,"vac":true,"version":"7961495","steam_id":85568392924470001,"keywords":["cp","nocrits","nodmgspread","uncletopia"],"game_id":440,"stv_port":27016,"stv_name":"Uncletopia | Sydney | 1 | All Maps | STV","players":[{"user_id":5,"name":"Explosivussy","steam_id":76561199499590614,"connected_time":187000000000,"state":"active","ping":94}]},{"server_id":123,"name":"Uncletopia | Sydney | 2 | All Maps","name_short":"syd-2","host":"syd-1.au.uncletopia.com","port":27025,"enabled":true,"region":"au","cc":"au","latitude":-33.865143,"longitude":151.2099,"reserved":0,"last_update":"0001-01-01T00:00:00Z","name_a2s":"Uncletopia | Sydney | 2 | All Maps","protocol":17,"map":"pl_frontier_final","folder":"tf","game":"Team Fortress","app_id":440,"player_count":0,"max_players":24,"Bots":0,"server_type":"Dedicated","server_os":"Linux","password":true,"vac":true,"version":"7961495","steam_id":85568392924470002,"keywords":["nocrits","nodmgspread","payload","uncletopia"],"game_id":440,"stv_port":27026,"stv_name":"Uncletopia | Sydney | 2 | All Maps | STV","players":null},{"server_id":395,"name":"Uncletopia | Sydney | 3 | All Maps","name_short":"syd-3","host":"syd-1.au.uncletopia.com","port":27035,"enabled":true,"region":"au","cc":"au","latitude":-33.865143,"longitude":151.2099,"reserved":0,"last_update":"0001-01-01T00:00:00Z","name_a2s":"Uncletopia | Sydney | 3 | All Maps","protocol":17,"map":"koth_brazil","folder":"tf","game":"Team Fortress","app_id":440,"player_count":0,"max_players":24,"Bots":0,"server_type":"Dedicated","server_os":"Linux","password":true,"vac":true,"version":"7961495","steam_id":85568392925194467,"keywords":["cp","nocrits","nodmgspread","uncletopia"],"game_id":440,"stv_port":27036,"stv_name":"Uncletopia | Sydney | 3 | All Maps | STV","players":null},{"server_id":396,"name":"Uncletopia | Sydney | 4 | All Maps","name_short":"syd-4","host":"syd-1.au.uncletopia.com","port":27045,"enabled":true,"region":"au","cc":"au","latitude":-33.865143,"longitude":151.2099,"reserved":0,"last_update":"0001-01-01T00:00:00Z","name_a2s":"Uncletopia | Sydney | 4 | All Maps","protocol":17,"map":"cp_standin_final","folder":"tf","game":"Team Fortress","app_id":440,"player_count":0,"max_players":24,"Bots":0,"server_type":"Dedicated","server_os":"Linux","password":true,"vac":true,"version":"7961495","steam_id":85568392925397958,"keywords":["cp","nocrits","nodmgspread","uncletopia"],"game_id":440,"stv_port":27046,"stv_name":"Uncletopia | Sydney | 4 | All Maps | STV","players":null},{"server_id":58,"name":"Uncletopia | Sydney | 5 | Stopwatch","name_short":"syd-5","host":"syd-1.au.uncletopia.com","port":27055,"enabled":true,"region":"au","cc":"au","latitude":-33.865143,"longitude":151.2099,"reserved":0,"last_update":"0001-01-01T00:00:00Z","name_a2s":"Uncletopia | Sydney | 5 | Stopwatch","protocol":17,"map":"koth_highpass","folder":"tf","game":"Team Fortress","app_id":440,"player_count":0,"max_players":24,"Bots":0,"server_type":"Dedicated","server_os":"Linux","password":true,"vac":true,"version":"7961495","steam_id":85568392925397959,"keywords":["cp","nocrits","nodmgspread","uncletopia"],"game_id":440,"stv_port":27056,"stv_name":"Uncletopia | Sydney | 5 | Stopwatch | STV","players":null},{"server_id":59,"name":"Uncletopia | Sydney | 6 | Community","name_short":"syd-6","host":"syd-1.au.uncletopia.com","port":27065,"enabled":true,"region":"au","cc":"au","latitude":-33.865143,"longitude":151.2099,"reserved":0,"last_update":"0001-01-01T00:00:00Z","name_a2s":"Uncletopia | Sydney | 6 | Community","protocol":17,"map":"workshop/koth_soot_final1.ugc2969540689","folder":"tf","game":"Team Fortress","app_id":440,"player_count":0,"max_players":24,"Bots":0,"server_type":"Dedicated","server_os":"Linux","password":true,"vac":true,"version":"7961495","steam_id":85568392925397960,"keywords":["cp","nocrits","nodmgspread","uncletopia"],"game_id":440,"stv_port":27066,"stv_name":"Uncletopia | Sydney | 6 | Community | STV","players":null},{"server_id":49,"name":"Uncletopia | Warsaw | 1 | One Thousand Uncles","name_short":"waw-1","host":"waw-1.pl.uncletopia.com","port":27015,"enabled":true,"region":"eu","cc":"pl","latitude":52.2297,"longitude":21.017532,"reserved":0,"last_update":"0001-01-01T00:00:00Z","name_a2s":"Uncletopia | Warsaw | 1 | One Thousand Uncles","protocol":17,"map":"cp_mercenarypark","folder":"tf","game":"Team Fortress","app_id":440,"player_count":0,"max_players":32,"Bots":0,"server_type":"Dedicated","server_os":"Linux","password":true,"vac":true,"version":"7961495","steam_id":85568392925397850,"keywords":["alltalk","cp","danepve","increased_maxplayers","norespawntime","uncletopia"],"game_id":440,"stv_port":0,"stv_name":"","players":null},{"server_id":50,"name":"Uncletopia | Warsaw | 2 | One Thousand Uncles","name_short":"waw-2","host":"waw-1.pl.uncletopia.com","port":27025,"enabled":true,"region":"eu","cc":"pl","latitude":52.2297,"longitude":21.017532,"reserved":0,"last_update":"0001-01-01T00:00:00Z","name_a2s":"Uncletopia | Warsaw | 2 | One Thousand Uncles","protocol":17,"map":"pl_barnblitz","folder":"tf","game":"Team Fortress","app_id":440,"player_count":22,"max_players":32,"Bots":20,"server_type":"Dedicated","server_os":"Linux","password":true,"vac":true,"version":"7961495","steam_id":85568392925397851,"keywords":["alltalk","bots","danepve","increased_maxplayers","norespawntime","payload","uncletopia"],"game_id":440,"stv_port":0,"stv_name":"","players":[{"user_id":761,"name":"Punishment","steam_id":76561199488819530,"connected_time":2864000000000,"state":"active","ping":157},{"user_id":762,"name":"ARRGGHH! FISH FEAR ME! (F2P)","steam_id":76561199484158732,"connected_time":1833000000000,"state":"active","ping":167}]},{"server_id":51,"name":"Uncletopia | Warsaw | 3 | All Maps","name_short":"waw-3","host":"waw-1.pl.uncletopia.com","port":27035,"enabled":true,"region":"eu","cc":"pl","latitude":52.2297,"longitude":21.017532,"reserved":0,"last_update":"0001-01-01T00:00:00Z","name_a2s":"Uncletopia | Warsaw | 3 | All Maps","protocol":17,"map":"koth_viaduct","folder":"tf","game":"Team Fortress","app_id":440,"player_count":0,"max_players":24,"Bots":0,"server_type":"Dedicated","server_os":"Linux","password":true,"vac":true,"version":"7961495","steam_id":85568392925397852,"keywords":["cp","nocrits","nodmgspread","uncletopia"],"game_id":440,"stv_port":27036,"stv_name":"Uncletopia | Warsaw | 3 | All Maps | STV","players":null},{"server_id":52,"name":"Uncletopia | Warsaw | 4 | All Maps","name_short":"waw-4","host":"waw-1.pl.uncletopia.com","port":27045,"enabled":true,"region":"eu","cc":"pl","latitude":52.2297,"longitude":21.017532,"reserved":0,"last_update":"0001-01-01T00:00:00Z","name_a2s":"Uncletopia | Warsaw | 4 | All Maps","protocol":17,"map":"pl_upward","folder":"tf","game":"Team Fortress","app_id":440,"player_count":0,"max_players":24,"Bots":0,"server_type":"Dedicated","server_os":"Linux","password":true,"vac":true,"version":"7961495","steam_id":85568392925397853,"keywords":["nocrits","nodmgspread","payload","uncletopia"],"game_id":440,"stv_port":27046,"stv_name":"Uncletopia | Warsaw | 4 | All Maps | STV","players":null},{"server_id":53,"name":"Uncletopia | Warsaw | 5 | Stopwatch","name_short":"waw-5","host":"waw-1.pl.uncletopia.com","port":27055,"enabled":true,"region":"eu","cc":"pl","latitude":52.2297,"longitude":21.017532,"reserved":0,"last_update":"0001-01-01T00:00:00Z","name_a2s":"Uncletopia | Warsaw | 5 | Stopwatch","protocol":17,"map":"workshop/koth_product_final.ugc454272353","folder":"tf","game":"Team Fortress","app_id":440,"player_count":0,"max_players":24,"Bots":0,"server_type":"Dedicated","server_os":"Linux","password":true,"vac":true,"version":"7961495","steam_id":85568392925397854,"keywords":["cp","nocrits","nodmgspread","uncletopia"],"game_id":440,"stv_port":27056,"stv_name":"Uncletopia | Warsaw | 5 | Stopwatch | STV","players":null},{"server_id":54,"name":"Uncletopia | Warsaw | 6 | Community","name_short":"waw-6","host":"waw-1.pl.uncletopia.com","port":27065,"enabled":true,"region":"eu","cc":"pl","latitude":52.2297,"longitude":21.017532,"reserved":0,"last_update":"0001-01-01T00:00:00Z","name_a2s":"Uncletopia | Warsaw | 6 | Community","protocol":17,"map":"workshop/cp_fulgur_rc2a.ugc2068252300","folder":"tf","game":"Team Fortress","app_id":440,"player_count":0,"max_players":24,"Bots":0,"server_type":"Dedicated","server_os":"Linux","password":true,"vac":true,"version":"7961495","steam_id":85568392925397856,"keywords":["cp","nocrits","nodmgspread","uncletopia"],"game_id":440,"stv_port":27066,"stv_name":"Uncletopia | Warsaw | 6 | Community | STV","players":null}]}