{"status":true,"message":"","result":[{"server_id":9,"name":"Uncletopia | Atlanta | 1 | All Maps","name_short":"atl-1","host":"atl-1.us.uncletopia.com","port":27015,"enabled":true,"region":"us-east","cc":"us","latitude":33.753746,"longitude":-84.38633,"reserved":0,"last_update":"0001-01-01T00:00:00Z","name_a2s":"Uncletopia | Atlanta | 1 | All Maps","protocol":17,"map":"pl_pier","folder":"tf","game":"Team Fortress","app_id":440,"player_count":24,"max_players":24,"Bots":0,"server_type":"Dedicated","server_os":"Linux","password":true,"vac":true,"version":"7961495","steam_id":85568392924469982,"keywords":["nocrits","nodmgspread","payload","uncletopia"],"game_id":440,"stv_port":27016,"stv_name":"Uncletopia | Atlanta | 1 | All Maps | STV","players":null},{"server_id":104,"name":"Uncletopia | Atlanta | 2 | All Maps","name_short":"atl-2","host":"atl-1.us.uncletopia.com","port":27025,"enabled":true,"region":"us-east","cc":"us","latitude":33.753746,"longitude":-84.38633,"reserved":0,"last_update":"0001-01-01T00:00:00Z","name_a2s":"Uncletopia | Atlanta | 2 | All Maps","protocol":17,"map":"cp_altitude","folder":"tf","game":"Team Fortress","app_id":440,"player_count":1,"max_players":24,"Bots":0,"server_type":"Dedicated","server_os":"Linux","password":true,"vac":true,"version":"7961495","steam_id":85568392924469983,"keywords":["cp","nocrits","nodmgspread","uncletopia"],"game_id":440,"stv_port":27026,"stv_name":"Uncletopia | Atlanta | 2 | All Maps | STV","players":null},{"server_id":400,"name":"Uncletopia | Atlanta | 3 | Stopwatch","name_short":"atl-3","host":"atl-1.us.uncletopia.com","port":27035,"enabled":true,"region":"us-east","cc":"us","latitude":33.753746,"longitude":-84.38633,"reserved":0,"last_update":"0001-01-01T00:00:00Z","name_a2s":"Uncletopia | Atlanta | 3 | Stopwatch","protocol":17,"map":"pl_vigil_rc10","folder":"tf","game":"Team Fortress","app_id":440,"player_count":0,"max_players":24,"Bots":0,"server_type":"Dedicated","server_os":"Linux","password":true,"vac":true,"version":"7961495","steam_id":85568392924515187,"keywords":["nocrits","nodmgspread","payload","uncletopia"],"game_id":440,"stv_port":27036,"stv_name":"Uncletopia | Atlanta | 3 | Stopwatch | STV","players":null},{"server_id":401,"name":"Uncletopia | Atlanta | 4 | Community","name_short":"atl-4","host":"atl-1.us.uncletopia.com","port":27045,"enabled":true,"region":"us-east","cc":"us","latitude":33.753746,"longitude":-84.38633,"reserved":0,"last_update":"0001-01-01T00:00:00Z","name_a2s":"Uncletopia | Atlanta | 4 | Community","protocol":17,"map":"koth_kemptown_rc1","folder":"tf","game":"Team Fortress","app_id":440,"player_count":0,"max_players":24,"Bots":0,"server_type":"Dedicated","server_os":"Linux","password":true,"vac":true,"version":"7961495","steam_id":85568392924515188,"keywords":["cp","nocrits","nodmgspread","uncletopia"],"game_id":440,"stv_port":27046,"stv_name":"Uncletopia | Atlanta | 4 | Community | STV","players":null},{"server_id":2,"name":"Uncletopia | Chicago | 1 | All Maps","name_short":"chi-1","host":"chi-1.us.uncletopia.com","port":27015,"enabled":true,"region":"us-central","cc":"us","latitude":41.881832,"longitude":-87.62318,"reserved":0,"last_update":"0001-01-01T00:00:00Z","name_a2s":"Uncletopia | Chicago | 1 | All Maps","protocol":17,"map":"pl_frontier_final","folder":"tf","game":"Team Fortress","app_id":440,"player_count":24,"max_players":24,"Bots":0,"server_type":"Dedicated","server_os":"Linux","password":true,"vac":true,"version":"7961495","steam_id":85568392924469984,"keywords":["nocrits","nodmgspread","payload","uncletopia"],"game_id":440,"stv_port":27016,"stv_name":"Uncletopia | Chicago | 1 | All Maps | STV","players":[{"user_id":528,"name":"Danmar33","steam_id":76561198056453091,"connected_time":3597000000000,"state":"active","ping":89},{"user_id":542,"name":"Undertime Slopper","steam_id":76561198396789061,"connected_time":2923000000000,"state":"active","ping":84},{"user_id":570,"name":"Silly individual","steam_id":76561198237489960,"connected_time":1230000000000,"state":"active","ping":186},{"user_id":575,"name":"blood-thirsty pitbull","steam_id":76561198106690989,"connected_time":909000000000,"state":"active","ping":62},{"user_id":552,"name":"Yam Jazzy Jim","steam_id":76561198000788950,"connected_time":2581000000000,"state":"active","ping":66},{"user_id":538,"name":"Skyblade64","steam_id":76561198042177790,"connected_time":3391000000000,"state":"active","ping":57},{"user_id":569,"name":"NUt","steam_id":76561198031007966,"connected_time":1467000000000,"state":"active","ping":79},{"user_id":543,"name":"subdromeda","steam_id":76561198884351860,"connected_time":2918000000000,"state":"active","ping":73},{"user_id":580,"name":"TheSecretNewbie","steam_id":76561198194671218,"connected_time":270000000000,"state":"active","ping":48},{"user_id":555,"name":"TallBit","steam_id":76561199059748976,"connected_time":2340000000000,"state":"active","ping":55},{"user_id":561,"name":"INFINITE","steam_id":76561197971285557,"connected_time":1991000000000,"state":"active","ping":61},{"user_id":566,"name":"Letters","steam_id":76561198035508148,"connected_time":1693000000000,"state":"active","ping":63},{"user_id":487,"name":"Crazy Insane Proboscis Monkey","steam_id":76561198061011176,"connected_time":8337000000000,"state":"active","ping":91},{"user_id":573,"name":"Rob Deerdick","steam_id":76561198138006907,"connected_time":916000000000,"state":"active","ping":82},{"user_id":574,"name":"Wathaniel P","steam_id":76561199495144295,"connected_time":913000000000,"state":"active","ping":51},{"user_id":571,"name":"NvAka","steam_id":76561199044781490,"connected_time":1072000000000,"state":"active","ping":60},{"user_id":548,"name":"Canadian Bacon","steam_id":76561198406317610,"connected_time":2883000000000,"state":"active","ping":98},{"user_id":518,"name":"HOTA","steam_id":76561199002778841,"connected_time":4434000000000,"state":"active","ping":73},{"user_id":531,"name":"Induce Salt","steam_id":76561198116645978,"connected_time":3515000000000,"state":"active","ping":82},{"user_id":567,"name":"Mephistopheles","steam_id":76561198253731826,"connected_time":1618000000000,"state":"active","ping":71},{"user_id":579,"name":"‚ô•Bunny‚ô•Slut‚ô•","steam_id":76561198206376851,"connected_time":412000000000,"state":"active","ping":118},{"user_id":564,"name":"rawrski","steam_id":76561197972464020,"connected_time":1981000000000,"state":"active","ping":75},{"user_id":577,"name":"The Depressed John","steam_id":76561198148193895,"connected_time":888000000000,"state":"active","ping":86},{"user_id":490,"name":"Ras","steam_id":76561198123546775,"connected_time":7912000000000,"state":"active","ping":93}]},{"server_id":106,"name":"Uncletopia | Chicago | 2 | All Maps","name_short":"chi-2","host":"chi-1.us.uncletopia.com","port":27025,"enabled":true,"region":"us-central","cc":"us","latitude":41.881832,"longitude":-87.62318,"reserved":0,"last_update":"0001-01-01T00:00:00Z","name_a2s":"Uncletopia | Chicago | 2 | All Maps","protocol":17,"map":"pl_barnblitz","folder":"tf","game":"Team Fortress","app_id":440,"player_count":24,"max_players":24,"Bots":0,"server_type":"Dedicated","server_os":"Linux","password":true,"vac":true,"version":"7961495","steam_id":85568392924469985,"keywords":["nocrits","nodmgspread","payload","uncletopia"],"game_id":440,"stv_port":27026,"stv_name":"Uncletopia | Chicago | 2 | All Maps | STV","players":[{"user_id":358,"name":"doomguy1993","steam_id":76561199470621148,"connected_time":1825000000000,"state":"active","ping":87},{"user_id":303,"name":"pump","steam_id":76561198071705442,"connected_time":4572000000000,"state":"active","ping":74},{"user_id":326,"name":"Nightman","steam_id":76561198089513762,"connected_time":3333000000000,"state":"active","ping":87},{"user_id":373,"name":"Ginnunga","steam_id":76561198000320083,"connected_time":339000000000,"state":"active","ping":101},{"user_id":371,"name":"KyCheesefries","steam_id":76561198025593214,"connected_time":639000000000,"state":"active","ping":78},{"user_id":366,"name":"Stonks","steam_id":76561199490085068,"connected_time":1051000000000,"state":"active","ping":83},{"user_id":344,"name":"Charlie","steam_id":76561198798127908,"connected_time":2077000000000,"state":"active","ping":68},{"user_id":342,"name":"tau307","steam_id":76561199040290279,"connected_time":2415000000000,"state":"active","ping":54},{"user_id":359,"name":"Mediocre Gaming","steam_id":76561199230467980,"connected_time":1721000000000,"state":"active","ping":93},{"user_id":331,"name":"chiswola","steam_id":76561198046920142,"connected_time":3155000000000,"state":"active","ping":72},{"user_id":355,"name":"Banned from Goodwill","steam_id":76561198408159536,"connected_time":2007000000000,"state":"active","ping":53},{"user_id":351,"name":"Pim","steam_id":76561198046050375,"connected_time":2070000000000,"state":"active","ping":147},{"user_id":367,"name":"Sunflower","steam_id":76561198081223793,"connected_time":1050000000000,"state":"active","ping":57},{"user_id":365,"name":"pungpung","steam_id":76561199186072324,"connected_time":1064000000000,"state":"active","ping":70},{"user_id":357,"name":"Da Undertaker","steam_id":76561199127423378,"connected_time":1890000000000,"state":"active","ping":117},{"user_id":294,"name":"John Darksoul","steam_id":76561198999712284,"connected_time":5370000000000,"state":"active","ping":75},{"user_id":314,"name":"Hindmost","steam_id":76561199081837220,"connected_time":3938000000000,"state":"active","ping":85},{"user_id":356,"name":"a singular cactus","steam_id":76561198162041422,"connected_time":2002000000000,"state":"active","ping":72},{"user_id":368,"name":"TheSnipersHat","steam_id":76561198057684066,"connected_time":1038000000000,"state":"active","ping":60},{"user_id":339,"name":"zeeette","steam_id":76561198325344637,"connected_time":2648000000000,"state":"active","ping":79},{"user_id":341,"name":"GreatTimBones","steam_id":76561198409145748,"connected_time":2498000000000,"state":"active","ping":83},{"user_id":360,"name":"Plant Enthusiast","steam_id":76561198045718960,"connected_time":1622000000000,"state":"active","ping":57},{"user_id":372,"name":"SIN K4RMA","steam_id":76561198869287223,"connected_time":509000000000,"state":"active","ping":79},{"user_id":189,"name":"JxyGREED","steam_id":76561198345026653,"connected_time":14206000000000,"state":"active","ping":71}]},{"server_id":402,"name":"Uncletopia | Chicago | 3 | All Maps","name_short":"chi-3","host":"chi-1.us.uncletopia.com","port":27035,"enabled":true,"region":"us-central","cc":"us","latitude":41.881832,"longitude":-87.62318,"reserved":0,"last_update":"0001-01-01T00:00:00Z","name_a2s":"Uncletopia | Chicago | 3 | All Maps","protocol":17,"map":"pl_upward","folder":"tf","game":"Team Fortress","app_id":440,"player_count":24,"max_players":24,"Bots":0,"server_type":"Dedicated","server_os":"Linux","password":true,"vac":true,"version":"7961495","steam_id":85568392924515191,"keywords":["nocrits","nodmgspread","payload","uncletopia"],"game_id":440,"stv_port":27036,"stv_name":"Uncletopia | Chicago | 3 | All Maps | STV","players":[{"user_id":235,"name":"pim","steam_id":76561198095163441,"connected_time":245000000000,"state":"active","ping":62},{"user_id":233,"name":"Let Œµ \u003e 0","steam_id":76561198111790388,"connected_time":397000000000,"state":"active","ping":92},{"user_id":226,"name":"ilickbuttons","steam_id":76561198331466058,"connected_time":937000000000,"state":"active","ping":141},{"user_id":237,"name":"storyboard","steam_id":76561199088496817,"connected_time":181000000000,"state":"active","ping":87},{"user_id":211,"name":"maS","steam_id":76561198033846407,"connected_time":1606000000000,"state":"active","ping":46},{"user_id":236,"name":"Santa","steam_id":76561198116497523,"connected_time":242000000000,"state":"active","ping":73},{"user_id":232,"name":"A Puppy","steam_id":76561198828184456,"connected_time":479000000000,"state":"active","ping":60},{"user_id":238,"name":"Quark","steam_id":76561198328155605,"connected_time":147000000000,"state":"active","ping":55},{"user_id":172,"name":"SlurpyTheDog","steam_id":76561198799733154,"connected_time":4277000000000,"state":"active","ping":60},{"user_id":221,"name":"‚ô• Pickle ‚ô•","steam_id":76561198096221632,"connected_time":1072000000000,"state":"active","ping":61},{"user_id":218,"name":"Aaron","steam_id":76561198091157802,"connected_time":1206000000000,"state":"active","ping":69},{"user_id":227,"name":"Hamz","steam_id":76561199287459211,"connected_time":912000000000,"state":"active","ping":72},{"user_id":128,"name":"OddSlaush","steam_id":76561198043898488,"connected_time":8048000000000,"state":"active","ping":110},{"user_id":175,"name":"An Unhappy Clown","steam_id":76561198175516514,"connected_time":4218000000000,"state":"active","ping":77},{"user_id":132,"name":"Ojen","steam_id":76561197998414482,"connected_time":7732000000000,"state":"active","ping":60},{"user_id":231,"name":"Khun Aguero Agnes","steam_id":76561198055542546,"connected_time":643000000000,"state":"active","ping":63},{"user_id":209,"name":"Iron","steam_id":76561198247918478,"connected_time":2300000000000,"state":"active","ping":93},{"user_id":198,"name":"thecal","steam_id":76561198307893384,"connected_time":3216000000000,"state":"active","ping":87},{"user_id":239,"name":"Paddy","steam_id":76561198037001457,"connected_time":127000000000,"state":"active","ping":74},{"user_id":207,"name":"banana cream pie","steam_id":76561199010542612,"connected_time":2388000000000,"state":"active","ping":47},{"user_id":199,"name":"Cliffigriff","steam_id":76561198121924499,"connected_time":3193000000000,"state":"active","ping":95},{"user_id":241,"name":"my name jeff","steam_id":76561198179816898,"connected_time":99000000000,"state":"active","ping":78},{"user_id":201,"name":"muffinm565","steam_id":76561199135226250,"connected_time":3166000000000,"state":"active","ping":99},{"user_id":229,"name":"African Warlord orders Mcdonald","steam_id":76561198366450186,"connected_time":900000000000,"state":"active","ping":62}]},{"server_id":403,"name":"Uncletopia | Chicago | 4 | All Maps","name_short":"chi-4","host":"chi-1.us.uncletopia.com","port":27045,"enabled":true,"region":"us-central","cc":"us","latitude":41.881832,"longitude":-87.62318,"reserved":0,"last_update":"0001-01-01T00:00:00Z","name_a2s":"Uncletopia | Chicago | 4 | All Maps","protocol":17,"map":"cp_sunshine","folder":"tf","game":"Team Fortress","app_id":440,"player_count":23,"max_players":24,"Bots":0,"server_type":"Dedicated","server_os":"Linux","password":true,"vac":true,"version":"7961495","steam_id":85568392924515193,"keywords":["cp","nocrits","nodmgspread","uncletopia"],"game_id":440,"stv_port":27046,"stv_name":"Uncletopia | Chicago | 4 | All Maps | STV","players":[{"user_id":18,"name":"Yayifications","steam_id":76561198066227208,"connected_time":1837000000000,"state":"active","ping":60},{"user_id":21,"name":"bleach65","steam_id":76561198115270571,"connected_time":1688000000000,"state":"active","ping":76},{"user_id":52,"name":"No Chance of Pearly Gates","steam_id":76561198042570322,"connected_time":205000000000,"state":"active","ping":85},{"user_id":24,"name":"tsbro40","steam_id":76561199455605580,"connected_time":1171000000000,"state":"active","ping":88},{"user_id":25,"name":"swan","steam_id":76561198012569200,"connected_time":1136000000000,"state":"active","ping":74},{"user_id":31,"name":"notpanmanmemes","steam_id":76561199168536547,"connected_time":857000000000,"state":"active","ping":57},{"user_id":28,"name":"Nexo Fighter","steam_id":76561199187418090,"connected_time":989000000000,"state":"active","ping":137},{"user_id":29,"name":"catus","steam_id":76561198167075606,"connected_time":968000000000,"state":"active","ping":76},{"user_id":30,"name":"YesMargaret","steam_id":76561198127971751,"connected_time":937000000000,"state":"active","ping":65},{"user_id":43,"name":"Provocator","steam_id":76561197961830410,"connected_time":547000000000,"state":"active","ping":71},{"user_id":34,"name":"Tom","steam_id":76561198139202942,"connected_time":784000000000,"state":"active","ping":79},{"user_id":36,"name":"Puke Skyfucker","steam_id":76561198012846213,"connected_time":714000000000,"state":"active","ping":73},{"user_id":37,"name":"B·µ¢g B‚Çí‚Çõ‚Çõ","steam_id":76561198090271815,"connected_time":670000000000,"state":"active","ping":123},{"user_id":53,"name":"juicebox","steam_id":76561198440352528,"connected_time":30000000000,"state":"active","ping":71},{"user_id":39,"name":"Wolbey","steam_id":76561198042148095,"connected_time":658000000000,"state":"active","ping":55},{"user_id":40,"name":"gayest MF DOOM fan","steam_id":76561198065801979,"connected_time":645000000000,"state":"active","ping":74},{"user_id":41,"name":"Ripheart","steam_id":76561198089661561,"connected_time":616000000000,"state":"active","ping":45},{"user_id":44,"name":"Cigtar","steam_id":76561198079842818,"connected_time":543000000000,"state":"active","ping":80},{"user_id":45,"name":"DjBallBag","steam_id":76561198118551080,"connected_time":540000000000,"state":"active","ping":88},{"user_id":47,"name":"Null","steam_id":76561198062791227,"connected_time":389000000000,"state":"active","ping":62},{"user_id":48,"name":"atmBomb","steam_id":76561198055557988,"connected_time":372000000000,"state":"active","ping":70},{"user_id":49,"name":"nhbiker","steam_id":76561198081277675,"connected_time":368000000000,"state":"active","ping":57},{"user_id":51,"name":"CeigeBirb (redemption arc)","steam_id":76561198068538473,"connected_time":251000000000,"state":"active","ping":75}]},{"server_id":36,"name":"Uncletopia | Chicago | 5 | All Maps","name_short":"chi-5","host":"chi-2.us.uncletopia.com","port":27015,"enabled":true,"region":"us-central","cc":"us","latitude":41.881832,"longitude":-87.62318,"reserved":0,"last_update":"0001-01-01T00:00:00Z","name_a2s":"Uncletopia | Chicago | 5 | All Maps","protocol":17,"map":"pl_badwater","folder":"tf","game":"Team Fortress","app_id":440,"player_count":24,"max_players":24,"Bots":0,"server_type":"Dedicated","server_os":"Linux","password":true,"vac":true,"version":"7961495","steam_id":85568392924866362,"keywords":["nocrits","nodmgspread","payload","uncletopia"],"game_id":440,"stv_port":27016,"stv_name":"Uncletopia | Chicago | 5 | All Maps | STV","players":[{"user_id":260,"name":"mio","steam_id":76561198239286750,"connected_time":253000000000,"state":"active","ping":71},{"user_id":213,"name":"L to the OG","steam_id":76561199215811448,"connected_time":2893000000000,"state":"active","ping":72},{"user_id":257,"name":"feliser","steam_id":76561198084336096,"connected_time":563000000000,"state":"active","ping":47},{"user_id":258,"name":"917-258-3609","steam_id":76561198174436329,"connected_time":561000000000,"state":"active","ping":69},{"user_id":246,"name":"leaving lunar orbit","steam_id":76561199085974120,"connected_time":1234000000000,"state":"active","ping":72},{"user_id":245,"name":"Bear","steam_id":76561198062949510,"connected_time":1246000000000,"state":"active","ping":58},{"user_id":240,"name":"c64guy","steam_id":76561198023022744,"connected_time":1922000000000,"state":"active","ping":61},{"user_id":242,"name":"Icaras","steam_id":76561198416724843,"connected_time":1757000000000,"state":"active","ping":125},{"user_id":250,"name":"Jelqing Table","steam_id":76561198051373750,"connected_time":1042000000000,"state":"active","ping":73},{"user_id":230,"name":"dullahan","steam_id":76561198278736434,"connected_time":2703000000000,"state":"active","ping":55},{"user_id":239,"name":"gIBBY","steam_id":76561198080099598,"connected_time":2013000000000,"state":"active","ping":61},{"user_id":255,"name":"A_Malebolgia","steam_id":76561198097722818,"connected_time":599000000000,"state":"active","ping":92},{"user_id":224,"name":"Smooth, Refreshing Bleach‚Ñ¢","steam_id":76561197981060504,"connected_time":2780000000000,"state":"active","ping":50},{"user_id":247,"name":"Papillon","steam_id":76561198049725849,"connected_time":1221000000000,"state":"active","ping":77},{"user_id":251,"name":"tsaide","steam_id":76561198384120999,"connected_time":842000000000,"state":"active","ping":64},{"user_id":225,"name":"ispongebobz11","steam_id":76561198862843572,"connected_time":2772000000000,"state":"active","ping":64},{"user_id":172,"name":"Aegis","steam_id":76561198272052750,"connected_time":5599000000000,"state":"active","ping":78},{"user_id":234,"name":"asbestos","steam_id":76561198079178866,"connected_time":2378000000000,"state":"active","ping":74},{"user_id":259,"name":"wakeupbdot","steam_id":76561198160786631,"connected_time":427000000000,"state":"active","ping":67},{"user_id":227,"name":"mr poop","steam_id":76561199195196632,"connected_time":2754000000000,"state":"active","ping":71},{"user_id":254,"name":"Aspxts","steam_id":76561199125254746,"connected_time":620000000000,"state":"active","ping":57},{"user_id":244,"name":"=Silver=","steam_id":76561198292307127,"connected_time":1710000000000,"state":"active","ping":101},{"user_id":229,"name":"creeber guy","steam_id":76561198392539722,"connected_time":2748000000000,"state":"active","ping":82},{"user_id":183,"name":"canofspaghettios","steam_id":76561198124204246,"connected_time":4883000000000,"state":"active","ping":59}]},{"server_id":37,"name":"Uncletopia | Chicago | 6 | All Maps","name_short":"chi-6","host":"chi-2.us.uncletopia.com","port":27025,"enabled":true,"region":"us-central","cc":"us","latitude":41.881832,"longitude":-87.62318,"reserved":0,"last_update":"0001-01-01T00:00:00Z","name_a2s":"Uncletopia | Chicago | 6 | All Maps","protocol":17,"map":"pl_hoodoo_final","folder":"tf","game":"Team Fortress","app_id":440,"player_count":24,"max_players":24,"Bots":0,"server_type":"Dedicated","server_os":"Linux","password":true,"vac":true,"version":"7961495","steam_id":85568392924866363,"keywords":["nocrits","nodmgspread","payload","uncletopia"],"game_id":440,"stv_port":27026,"stv_name":"Uncletopia | Chicago | 6 | All Maps | STV","players":[{"user_id":68,"name":"Torensz64(But weezer)","steam_id":76561198239036482,"connected_time":860000000000,"state":"active","ping":49},{"user_id":6,"name":"MARKED","steam_id":76561199086346913,"connected_time":5089000000000,"state":"active","ping":70},{"user_id":29,"name":"BugferBrains","steam_id":76561198963206238,"connected_time":2964000000000,"state":"active","ping":78},{"user_id":8,"name":"Dr.StrangeGlove","steam_id":76561198286114229,"connected_time":4706000000000,"state":"active","ping":60},{"user_id":9,"name":"HollyBlocky","steam_id":76561198030156100,"connected_time":4671000000000,"state":"active","ping":71},{"user_id":56,"name":"metal fingers","steam_id":76561198823526581,"connected_time":2227000000000,"state":"active","ping":78},{"user_id":73,"name":"Dr Smeggman","steam_id":76561197966614845,"connected_time":299000000000,"state":"active","ping":136},{"user_id":69,"name":"[NAME-REDACTED]","steam_id":76561198035682975,"connected_time":482000000000,"state":"active","ping":77},{"user_id":74,"name":"Workplace Daydreamer","steam_id":76561199230019748,"connected_time":61000000000,"state":"active","ping":83},{"user_id":75,"name":"Mr Drug Addict","steam_id":76561199062081467,"connected_time":49000000000,"state":"active","ping":89},{"user_id":76,"name":"conner","steam_id":76561198052911241,"connected_time":2000000000,"state":"spawning","ping":66},{"user_id":59,"name":"Spyincorporated","steam_id":76561198080956951,"connected_time":1886000000000,"state":"active","ping":59},{"user_id":63,"name":"A new Player(F2p)","steam_id":76561199388826335,"connected_time":1596000000000,"state":"active","ping":79},{"user_id":71,"name":"jeff","steam_id":76561198059450566,"connected_time":393000000000,"state":"active","ping":62},{"user_id":64,"name":"Gremlin","steam_id":76561198435061144,"connected_time":1383000000000,"state":"active","ping":69},{"user_id":65,"name":"pinger80","steam_id":76561198116455839,"connected_time":1375000000000,"state":"active","ping":164},{"user_id":72,"name":"Pan Wizard","steam_id":76561198031939694,"connected_time":331000000000,"state":"active","ping":85},{"user_id":66,"name":"Zygotimus","steam_id":76561198113745634,"connected_time":999000000000,"state":"active","ping":58},{"user_id":50,"name":"videogames","steam_id":76561198856066110,"connected_time":2378000000000,"state":"active","ping":87},{"user_id":43,"name":"Vengineer","steam_id":76561197993543682,"connected_time":2476000000000,"state":"active","ping":64},{"user_id":62,"name":"Crazy Cane","steam_id":76561198993941174,"connected_time":1735000000000,"state":"active","ping":68},{"user_id":51,"name":"Natsuki the Scunt","steam_id":76561199175922684,"connected_time":2377000000000,"state":"active","ping":98},{"user_id":53,"name":"A jpeg of Robert Downey Jr","steam_id":76561198993010853,"connected_time":2337000000000,"state":"active","ping":70},{"user_id":54,"name":"lexi","steam_id":76561198176299759,"connected_time":2325000000000,"state":"active","ping":90}]},{"server_id":38,"name":"Uncletopia | Chicago | 7 | Stopwatch","name_short":"chi-7","host":"chi-2.us.uncletopia.com","port":27035,"enabled":true,"region":"us-central","cc":"us","latitude":41.881832,"longitude":-87.62318,"reserved":0,"last_update":"0001-01-01T00:00:00Z","name_a2s":"Uncletopia | Chicago | 7 | Stopwatch","protocol":17,"map":"cp_process_final","folder":"tf","game":"Team Fortress","app_id":440,"player_count":24,"max_players":24,"Bots":0,"server_type":"Dedicated","server_os":"Linux","password":true,"vac":true,"version":"7961495","steam_id":85568392924866364,"keywords":["cp","nocrits","nodmgspread","uncletopia"],"game_id":440,"stv_port":27036,"stv_name":"Uncletopia | Chicago | 7 | Stopwatch | STV","players":[{"user_id":193,"name":"Matisguy","steam_id":76561199020903681,"connected_time":713000000000,"state":"active","ping":85},{"user_id":187,"name":"ùìàùëíùìÖùíΩùíæùìàùìà‚ô•","steam_id":76561198210778873,"connected_time":1393000000000,"state":"active","ping":81},{"user_id":197,"name":"Captian Wobbs","steam_id":76561198142884936,"connected_time":300000000000,"state":"active","ping":80},{"user_id":155,"name":"Easey","steam_id":76561198230316868,"connected_time":3072000000000,"state":"active","ping":83},{"user_id":184,"name":"nicolas the mercenary","steam_id":76561199077641644,"connected_time":1423000000000,"state":"active","ping":67},{"user_id":195,"name":"FUCKMONKE(theanimalnotppl)","steam_id":76561198796487556,"connected_time":611000000000,"state":"active","ping":58},{"user_id":168,"name":"Lee-Ch","steam_id":76561198164980622,"connected_time":2274000000000,"state":"active","ping":74},{"user_id":176,"name":"≈¶aye—î.4.‚ì§","steam_id":76561198044176988,"connected_time":1902000000000,"state":"active","ping":58},{"user_id":196,"name":"Piyono","steam_id":76561197962188504,"connected_time":555000000000,"state":"active","ping":85},{"user_id":161,"name":"sentry turret","steam_id":76561198327057433,"connected_time":2925000000000,"state":"active","ping":89},{"user_id":198,"name":"sunny","steam_id":76561198069380992,"connected_time":293000000000,"state":"active","ping":75},{"user_id":179,"name":"TG PrimisRulz","steam_id":76561198431465695,"connected_time":1640000000000,"state":"active","ping":62},{"user_id":199,"name":"spyro shark)Originallyscratchnr","steam_id":76561199171854707,"connected_time":264000000000,"state":"active","ping":74},{"user_id":200,"name":"400mg or more","steam_id":76561198083091076,"connected_time":244000000000,"state":"active","ping":92},{"user_id":201,"name":"antonu","steam_id":76561198281948574,"connected_time":201000000000,"state":"active","ping":69},{"user_id":202,"name":"rad killl raccoon","steam_id":76561198980975595,"connected_time":196000000000,"state":"active","ping":118},{"user_id":203,"name":"DJtrickshot2013","steam_id":76561199184622920,"connected_time":164000000000,"state":"active","ping":84},{"user_id":204,"name":"marmadukeGRYLLS","steam_id":76561197979350488,"connected_time":152000000000,"state":"active","ping":72},{"user_id":181,"name":"RipHunter77","steam_id":76561198272973014,"connected_time":1541000000000,"state":"active","ping":80},{"user_id":158,"name":"the munch","steam_id":76561199164347838,"connected_time":3035000000000,"state":"active","ping":66},{"user_id":189,"name":"Toxic Ron","steam_id":76561198089302972,"connected_time":1190000000000,"state":"active","ping":61},{"user_id":205,"name":"‡ºò ‚ãÜÀöüéßCaffeine‚òï*Àñ¬∞","steam_id":76561199259309294,"connected_time":132000000000,"state":"active","ping":93},{"user_id":206,"name":"oppenheimer style","steam_id":76561198026664629,"connected_time":122000000000,"state":"active","ping":58},{"user_id":207,"name":"moonage72","steam_id":76561199187008629,"connected_time":78000000000,"state":"active","ping":62}]},{"server_id":39,"name":"Uncletopia | Chicago | 8 | Community","name_short":"chi-8","host":"chi-2.us.uncletopia.com","port":27045,"enabled":true,"region":"us-central","cc":"us","latitude":41.881832,"longitude":-87.62318,"reserved":0,"last_update":"0001-01-01T00:00:00Z","name_a2s":"Uncletopia | Chicago | 8 | Community","protocol":17,"map":"workshop/koth_trenchfoot_b1a.ugc731436616","folder":"tf","game":"Team Fortress","app_id":440,"player_count":0,"max_players":24,"Bots":0,"server_type":"Dedicated","server_os":"Linux","password":true,"vac":true,"version":"7961495","steam_id":85568392924866365,"keywords":["cp","nocrits","nodmgspread","uncletopia"],"game_id":440,"stv_port":27046,"stv_name":"Uncletopia | Chicago | 8 | Community | STV","players":null},{"server_id":8,"name":"Uncletopia | Dallas | 1 | All Maps","name_short":"dal-1","host":"dal-1.us.uncletopia.com","port":27015,"enabled":true,"region":"us-central","cc":"us","latitude":32.779167,"longitude":-96.80889,"reserved":0,"last_update":"0001-01-01T00:00:00Z","name_a2s":"Uncletopia | Dallas | 1 | All Maps","protocol":17,"map":"cp_dustbowl","folder":"tf","game":"Team Fortress","app_id":440,"player_count":24,"max_players":24,"Bots":0,"server_type":"Dedicated","server_os":"Linux","password":true,"vac":true,"version":"7961495","steam_id":85568392924469986,"keywords":["cp","nocrits","nodmgspread","uncletopia"],"game_id":440,"stv_port":27016,"stv_name":"Uncletopia | Dallas | 1 | All Maps | STV","players":[{"user_id":277,"name":"LordKirby","steam_id":76561198006938286,"connected_time":16000000000,"state":"active","ping":100},{"user_id":229,"name":"Willham","steam_id":76561198065755781,"connected_time":2750000000000,"state":"active","ping":88},{"user_id":180,"name":"Grand Piano Tuna","steam_id":76561198135137213,"connected_time":6091000000000,"state":"active","ping":43},{"user_id":260,"name":"leesh","steam_id":76561198079603938,"connected_time":1311000000000,"state":"active","ping":61},{"user_id":255,"name":"daffygoodfeller","steam_id":76561199013084916,"connected_time":1562000000000,"state":"active","ping":68},{"user_id":232,"name":"_Lusty_","steam_id":76561198876948142,"connected_time":2729000000000,"state":"active","ping":62},{"user_id":262,"name":"solipsism","steam_id":76561198063457494,"connected_time":1283000000000,"state":"active","ping":126},{"user_id":257,"name":"TF2 Vending Machine","steam_id":76561199105777951,"connected_time":1484000000000,"state":"active","ping":127},{"user_id":268,"name":"Jonah Gaming","steam_id":76561198040969743,"connected_time":976000000000,"state":"active","ping":72},{"user_id":264,"name":"heck","steam_id":76561198308547958,"connected_time":1258000000000,"state":"active","ping":82},{"user_id":271,"name":"Jester","steam_id":76561198153102922,"connected_time":526000000000,"state":"active","ping":55},{"user_id":246,"name":"dog","steam_id":76561198263873491,"connected_time":2392000000000,"state":"active","ping":60},{"user_id":166,"name":"deathbringer22","steam_id":76561198318466600,"connected_time":7364000000000,"state":"active","ping":67},{"user_id":266,"name":"Smug","steam_id":76561198448205229,"connected_time":1158000000000,"state":"active","ping":75},{"user_id":261,"name":"GoldtoothFour","steam_id":76561198055529332,"connected_time":1303000000000,"state":"active","ping":70},{"user_id":252,"name":"Ryzema","steam_id":76561198165594229,"connected_time":1785000000000,"state":"active","ping":86},{"user_id":263,"name":"plink","steam_id":76561198057829889,"connected_time":1279000000000,"state":"active","ping":49},{"user_id":250,"name":"Not_Douglas","steam_id":76561199024184136,"connected_time":2272000000000,"state":"active","ping":88},{"user_id":265,"name":"Bacon","steam_id":76561199078407152,"connected_time":1254000000000,"state":"active","ping":101},{"user_id":276,"name":"Scrumpy Main","steam_id":76561198146302597,"connected_time":63000000000,"state":"active","ping":73},{"user_id":273,"name":"catfish from toontown","steam_id":76561198060070002,"connected_time":378000000000,"state":"active","ping":65},{"user_id":272,"name":"SPOOKY HOTDOG","steam_id":76561197964599698,"connected_time":524000000000,"state":"active","ping":50},{"user_id":274,"name":"ZILICON","steam_id":76561199044705592,"connected_time":150000000000,"state":"active","ping":112},{"user_id":275,"name":"Greg Boberton 2012","steam_id":76561198983566026,"connected_time":149000000000,"state":"active","ping":88}]},{"server_id":108,"name":"Uncletopia | Dallas | 2 | All Maps","name_short":"dal-2","host":"dal-1.us.uncletopia.com","port":27025,"enabled":true,"region":"us-central","cc":"us","latitude":32.779167,"longitude":-96.80889,"reserved":0,"last_update":"0001-01-01T00:00:00Z","name_a2s":"Uncletopia | Dallas | 2 | All Maps","protocol":17,"map":"koth_highpass","folder":"tf","game":"Team Fortress","app_id":440,"player_count":24,"max_players":24,"Bots":0,"server_type":"Dedicated","server_os":"Linux","password":true,"vac":true,"version":"7961495","steam_id":85568392924469988,"keywords":["cp","nocrits","nodmgspread","uncletopia"],"game_id":440,"stv_port":27026,"stv_name":"Uncletopia | Dallas | 2 | All Maps | STV","players":[{"user_id":486,"name":"imng","steam_id":76561198014988031,"connected_time":1705000000000,"state":"active","ping":72},{"user_id":464,"name":"Dreamy Snoozer","steam_id":76561198268184742,"connected_time":3609000000000,"state":"active","ping":160},{"user_id":499,"name":"neet","steam_id":76561197968115168,"connected_time":1024000000000,"state":"active","ping":69},{"user_id":490,"name":"doodoo2112","steam_id":76561199128447174,"connected_time":1484000000000,"state":"active","ping":90},{"user_id":502,"name":"TOKENLIZARD","steam_id":76561198218765205,"connected_time":718000000000,"state":"active","ping":64},{"user_id":468,"name":"BrainCell-Hazard","steam_id":76561199038566105,"connected_time":3529000000000,"state":"active","ping":116},{"user_id":472,"name":"Carbonated Milk","steam_id":76561199123130789,"connected_time":3319000000000,"state":"active","ping":76},{"user_id":506,"name":"elephant thumb","steam_id":76561198118859752,"connected_time":230000000000,"state":"active","ping":77},{"user_id":510,"name":"Lovedaddy","steam_id":76561198006569710,"connected_time":49000000000,"state":"active","ping":102},{"user_id":470,"name":"Aeris","steam_id":76561198287271028,"connected_time":3502000000000,"state":"active","ping":82},{"user_id":473,"name":"bobbybim","steam_id":76561198027483399,"connected_time":3312000000000,"state":"active","ping":72},{"user_id":508,"name":"nao","steam_id":76561198073982533,"connected_time":192000000000,"state":"active","ping":75},{"user_id":492,"name":"Jolyne","steam_id":76561198169960915,"connected_time":1356000000000,"state":"active","ping":50},{"user_id":459,"name":"–≤–Ω–∏–∑ –ø–æ–≥–∞–Ω–æ","steam_id":76561198142819600,"connected_time":4789000000000,"state":"active","ping":40},{"user_id":446,"name":"Dknight2","steam_id":76561199187382295,"connected_time":6053000000000,"state":"active","ping":71},{"user_id":475,"name":"Thehighwayman","steam_id":76561198042380629,"connected_time":3236000000000,"state":"active","ping":43},{"user_id":505,"name":"Long Wong Van Hugendong","steam_id":76561198074856827,"connected_time":391000000000,"state":"active","ping":99},{"user_id":498,"name":"Glaceon","steam_id":76561198177715869,"connected_time":1121000000000,"state":"active","ping":69},{"user_id":500,"name":"Blue‚õßMelon","steam_id":76561197970926435,"connected_time":1022000000000,"state":"active","ping":90},{"user_id":509,"name":"Mail Delivery","steam_id":76561198290046318,"connected_time":152000000000,"state":"active","ping":71},{"user_id":462,"name":"Ominous Ceiling Fan","steam_id":76561198071593523,"connected_time":3856000000000,"state":"active","ping":56},{"user_id":495,"name":"StarLy","steam_id":76561198174428289,"connected_time":1292000000000,"state":"active","ping":78},{"user_id":496,"name":"songcreator","steam_id":76561198076822464,"connected_time":1258000000000,"state":"active","ping":86},{"user_id":479,"name":"Lunaul","steam_id":76561198169208358,"connected_time":3224000000000,"state":"active","ping":81}]},{"server_id":404,"name":"Uncletopia | Dallas | 3 | All Maps","name_short":"dal-3","host":"dal-1.us.uncletopia.com","port":27035,"enabled":true,"region":"us-central","cc":"us","latitude":32.779167,"longitude":-96.80889,"reserved":0,"last_update":"0001-01-01T00:00:00Z","name_a2s":"Uncletopia | Dallas | 3 | All Maps","protocol":17,"map":"koth_highpass","folder":"tf","game":"Team Fortress","app_id":440,"player_count":0,"max_players":24,"Bots":0,"server_type":"Dedicated","server_os":"Linux","password":true,"vac":true,"version":"7961495","steam_id":85568392924515219,"keywords":["cp","nocrits","nodmgspread","uncletopia"],"game_id":440,"stv_port":27036,"stv_name":"Uncletopia | Dallas | 3 | All Maps | STV","players":null},{"server_id":405,"name":"Uncletopia | Dallas | 4 | Community","name_short":"dal-4","host":"dal-1.us.uncletopia.com","port":27045,"enabled":true,"region":"us-central","cc":"us","latitude":32.779167,"longitude":-96.80889,"reserved":0,"last_update":"0001-01-01T00:00:00Z","name_a2s":"Uncletopia | Dallas | 4 | Community","protocol":17,"map":"pl_pier","folder":"tf","game":"Team Fortress","app_id":440,"player_count":0,"max_players":24,"Bots":0,"server_type":"Dedicated","server_os":"Linux","password":true,"vac":true,"version":"7961495","steam_id":85568392924515220,"keywords":["nocrits","nodmgspread","payload","uncletopia"],"game_id":440,"stv_port":27046,"stv_name":"Uncletopia | Dallas | 4 | Community | STV","players":null},{"server_id":5,"name":"Uncletopia | Frankfurt | 1 | All Maps","name_short":"frk-1","host":"frk-1.de.uncletopia.com","port":27015,"enabled":true,"region":"eu","cc":"de","latitude":50.110924,"longitude":8.682127,"reserved":0,"last_update":"0001-01-01T00:00:00Z","name_a2s":"Uncletopia | Frankfurt | 1 | All Maps","protocol":17,"map":"koth_highpass","folder":"tf","game":"Team Fortress","app_id":440,"player_count":0,"max_players":24,"Bots":0,"server_type":"Dedicated","server_os":"Linux","password":true,"vac":true,"version":"7961495","steam_id":85568392924469989,"keywords":["cp","nocrits","nodmgspread","uncletopia"],"game_id":440,"stv_port":27016,"stv_name":"Uncletopia | Frankfurt | 1 | All Maps | STV","players":null},{"server_id":110,"name":"Uncletopia | Frankfurt | 2 | All Maps","name_short":"frk-2","host":"frk-1.de.uncletopia.com","port":27025,"enabled":true,"region":"eu","cc":"de","latitude":50.110924,"longitude":8.682127,"reserved":0,"last_update":"0001-01-01T00:00:00Z","name_a2s":"Uncletopia | Frankfurt | 2 | All Maps","protocol":17,"map":"koth_highpass","folder":"tf","game":"Team Fortress","app_id":440,"player_count":0,"max_players":24,"Bots":0,"server_type":"Dedicated","server_os":"Linux","password":true,"vac":true,"version":"7961495","steam_id":85568392924469990,"keywords":["cp","nocrits","nodmgspread","uncletopia"],"game_id":440,"stv_port":27026,"stv_name":"Uncletopia | Frankfurt | 2 | All Maps | STV","players":null},{"server_id":308,"name":"Uncletopia | Frankfurt | 3 | All Maps","name_short":"frk-3","host":"frk-1.de.uncletopia.com","port":27035,"enabled":true,"region":"eu","cc":"de","latitude":50.110924,"longitude":8.682127,"reserved":0,"last_update":"0001-01-01T00:00:00Z","name_a2s":"Uncletopia | Frankfurt | 3 | All Maps","protocol":17,"map":"cp_process_final","folder":"tf","game":"Team Fortress","app_id":440,"player_count":24,"max_players":24,"Bots":0,"server_type":"Dedicated","server_os":"Linux","password":true,"vac":true,"version":"7961495","steam_id":85568392924504274,"keywords":["cp","nocrits","nodmgspread","uncletopia"],"game_id":440,"stv_port":27036,"stv_name":"Uncletopia | Frankfurt | 3 | All Maps | STV","players":[{"user_id":534,"name":"Lyncurion","steam_id":76561199260022725,"connected_time":1791000000000,"state":"active","ping":75},{"user_id":517,"name":"Luxotrics","steam_id":76561198053455161,"connected_time":2829000000000,"state":"active","ping":74},{"user_id":549,"name":"GunGuy","steam_id":76561198124510978,"connected_time":1043000000000,"state":"active","ping":57},{"user_id":505,"name":"Jedi doggo","steam_id":76561198360026202,"connected_time":3069000000000,"state":"active","ping":82},{"user_id":521,"name":"emti","steam_id":76561198836233001,"connected_time":2565000000000,"state":"active","ping":61},{"user_id":506,"name":"Sirzen","steam_id":76561198170155434,"connected_time":3066000000000,"state":"active","ping":54},{"user_id":551,"name":"pardner","steam_id":76561198451471161,"connected_time":690000000000,"state":"active","ping":68},{"user_id":497,"name":"bees","steam_id":76561198176636729,"connected_time":3384000000000,"state":"active","ping":59},{"user_id":519,"name":"long crab","steam_id":76561198136239861,"connected_time":2588000000000,"state":"active","ping":45},{"user_id":536,"name":"Moebius","steam_id":76561198045069988,"connected_time":1355000000000,"state":"active","ping":51},{"user_id":538,"name":"Silver","steam_id":76561198175238807,"connected_time":1241000000000,"state":"active","ping":75},{"user_id":546,"name":"akela","steam_id":76561198122010232,"connected_time":1117000000000,"state":"active","ping":69},{"user_id":537,"name":"bantershrimp","steam_id":76561198236332982,"connected_time":1258000000000,"state":"active","ping":71},{"user_id":532,"name":"Klorophyte","steam_id":76561198885112655,"connected_time":2219000000000,"state":"active","ping":84},{"user_id":547,"name":"Eujekas","steam_id":76561198010527145,"connected_time":1117000000000,"state":"active","ping":92},{"user_id":462,"name":"Sir William Gaming","steam_id":76561198037676472,"connected_time":6922000000000,"state":"active","ping":83},{"user_id":545,"name":"FavBet ua","steam_id":76561198273199378,"connected_time":1121000000000,"state":"active","ping":69},{"user_id":548,"name":"Rook","steam_id":76561197995204779,"connected_time":1116000000000,"state":"active","ping":49},{"user_id":526,"name":"anders McFlanders","steam_id":76561198022811995,"connected_time":2440000000000,"state":"active","ping":61},{"user_id":529,"name":"Qwerty","steam_id":76561198023525894,"connected_time":2414000000000,"state":"active","ping":76},{"user_id":528,"name":"chgivan","steam_id":76561198060010064,"connected_time":2437000000000,"state":"active","ping":67},{"user_id":479,"name":"r0la","steam_id":76561198128315340,"connected_time":4835000000000,"state":"active","ping":85},{"user_id":553,"name":"cora","steam_id":76561199474154775,"connected_time":17000000000,"state":"active","ping":53},{"user_id":440,"name":"Dyld","steam_id":76561197979603871,"connected_time":9401000000000,"state":"active","ping":59}]},{"server_id":309,"name":"Uncletopia | Frankfurt | 4 | All Maps","name_short":"frk-4","host":"frk-1.de.uncletopia.com","port":27045,"enabled":true,"region":"eu","cc":"de","latitude":50.110924,"longitude":8.682127,"reserved":0,"last_update":"0001-01-01T00:00:00Z","name_a2s":"Uncletopia | Frankfurt | 4 | All Maps","protocol":17,"map":"cp_altitude","folder":"tf","game":"Team Fortress","app_id":440,"player_count":0,"max_players":24,"Bots":0,"server_type":"Dedicated","server_os":"Linux","password":true,"vac":true,"version":"7961495","steam_id":85568392924504275,"keywords":["cp","nocrits","nodmgspread","uncletopia"],"game_id":440,"stv_port":27046,"stv_name":"Uncletopia | Frankfurt | 4 | All Maps | STV","players":null},{"server_id":310,"name":"Uncletopia | Frankfurt | 5 | All Maps","name_short":"frk-5","host":"frk-1.de.uncletopia.com","port":27055,"enabled":true,"region":"eu","cc":"de","latitude":50.110924,"longitude":8.682127,"reserved":0,"last_update":"0001-01-01T00:00:00Z","name_a2s":"Uncletopia | Frankfurt | 5 | All Maps","protocol":17,"map":"cp_process_final","folder":"tf","game":"Team Fortress","app_id":440,"player_count":0,"max_players":24,"Bots":0,"server_type":"Dedicated","server_os":"Linux","password":true,"vac":true,"version":"7961495","steam_id":85568392924504277,"keywords":["cp","nocrits","nodmgspread","uncletopia"],"game_id":440,"stv_port":27056,"stv_name":"Uncletopia | Frankfurt | 5 | All Maps | STV","players":null},{"server_id":311,"name":"Uncletopia | Frankfurt | 6 | All Maps","name_short":"frk-6","host":"frk-1.de.uncletopia.com","port":27065,"enabled":true,"region":"eu","cc":"de","latitude":50.110924,"longitude":8.682127,"reserved":0,"last_update":"0001-01-01T00:00:00Z","name_a2s":"Uncletopia | Frankfurt | 6 | All Maps","protocol":17,"map":"pl_badwater","folder":"tf","game":"Team Fortress","app_id":440,"player_count":0,"max_players":24,"Bots":0,"server_type":"Dedicated","server_os":"Linux","password":true,"vac":true,"version":"7961495","steam_id":85568392924504278,"keywords":["nocrits","nodmgspread","payload","uncletopia"],"game_id":440,"stv_port":27066,"stv_name":"Uncletopia | Frankfurt | 6 | All Maps | STV","players":null},{"server_id":23,"name":"Uncletopia | Frankfurt | 7 | Stopwatch","name_short":"frk-7","host":"frk-1.de.uncletopia.com","port":27075,"enabled":true,"region":"eu","cc":"de","latitude":50.110924,"longitude":8.682127,"reserved":0,"last_update":"0001-01-01T00:00:00Z","name_a2s":"Uncletopia | Frankfurt | 7 | Stopwatch","protocol":17,"map":"workshop/koth_ashville_final.ugc2130459942","folder":"tf","game":"Team Fortress","app_id":440,"player_count":0,"max_players":24,"Bots":0,"server_type":"Dedicated","server_os":"Linux","password":true,"vac":true,"version":"7961495","steam_id":85568392924742827,"keywords":["cp","nocrits","nodmgspread","uncletopia"],"game_id":440,"stv_port":27076,"stv_name":"Uncletopia | Frankfurt | 7 | Stopwatch | STV","players":null},{"server_id":24,"name":"Uncletopia | Frankfurt | 8 | Community","name_short":"frk-8","host":"frk-1.de.uncletopia.com","port":27085,"enabled":true,"region":"eu","cc":"de","latitude":50.110924,"longitude":8.682127,"reserved":0,"last_update":"0001-01-01T00:00:00Z","name_a2s":"Uncletopia | Frankfurt | 8 | Community","protocol":17,"map":"workshop/pl_badwater_pro_v12.ugc2142942074","folder":"tf","game":"Team Fortress","app_id":440,"player_count":0,"max_players":24,"Bots":0,"server_type":"Dedicated","server_os":"Linux","password":true,"vac":true,"version":"7961495","steam_id":85568392924742828,"keywords":["nocrits","nodmgspread","payload","uncletopia"],"game_id":440,"stv_port":27086,"stv_name":"Uncletopia | Frankfurt | 8 | Community | STV","players":null},{"server_id":202,"name":"Uncletopia | Hong Kong | 1 | All Maps","name_short":"hgk-1","host":"hgk-1.hk.uncletopia.com","port":27015,"enabled":true,"region":"asia","cc":"hk","latitude":22.302711,"longitude":114.177216,"reserved":0,"last_update":"0001-01-01T00:00:00Z","name_a2s":"Uncletopia | Hong Kong | 1 | All Maps","protocol":17,"map":"pl_frontier_final","folder":"tf","game":"Team Fortress","app_id":440,"player_count":0,"max_players":24,"Bots":0,"server_type":"Dedicated","server_os":"Linux","password":true,"vac":true,"version":"7961495","steam_id":85568392924494504,"keywords":["nocrits","nodmgspread","payload","uncletopia"],"game_id":440,"stv_port":27016,"stv_name":"Uncletopia | Hong Kong | 1 | All Maps | STV","players":null},{"server_id":1,"name":"Uncletopia | Los Angeles | 1 | All Maps","name_short":"lax-1","host":"lax-1.us.uncletopia.com","port":27015,"enabled":true,"region":"us-west","cc":"us","latitude":33.94279,"longitude":-118.41004,"reserved":0,"last_update":"0001-01-01T00:00:00Z","name_a2s":"Uncletopia | Los Angeles | 1 | All Maps","protocol":17,"map":"pl_pier","folder":"tf","game":"Team Fortress","app_id":440,"player_count":24,"max_players":24,"Bots":0,"server_type":"Dedicated","server_os":"Linux","password":true,"vac":true,"version":"7961495","steam_id":85568392924469991,"keywords":["nocrits","nodmgspread","payload","uncletopia"],"game_id":440,"stv_port":27016,"stv_name":"Uncletopia | Los Angeles | 1 | All Maps | STV","players":[{"user_id":62,"name":"soapboxracer360","steam_id":76561198316394688,"connected_time":3134000000000,"state":"active","ping":56},{"user_id":102,"name":"Rainy Devil","steam_id":76561198252490200,"connected_time":24000000000,"state":"spawning","ping":46},{"user_id":86,"name":"camp3r","steam_id":76561197992870439,"connected_time":2263000000000,"state":"active","ping":61},{"user_id":77,"name":"Wouis","steam_id":76561198201272053,"connected_time":2893000000000,"state":"active","ping":110},{"user_id":71,"name":"evan","steam_id":76561198169023104,"connected_time":2992000000000,"state":"active","ping":49},{"user_id":66,"name":"Hoovy Co.","steam_id":76561198828006454,"connected_time":3045000000000,"state":"active","ping":111},{"user_id":16,"name":"andyiscolorless","steam_id":76561199239870921,"connected_time":7047000000000,"state":"active","ping":168},{"user_id":74,"name":"god's silliest puppygirl","steam_id":76561198128164970,"connected_time":2927000000000,"state":"active","ping":50},{"user_id":67,"name":"MoreRaptor360","steam_id":76561198318219638,"connected_time":3042000000000,"state":"active","ping":54},{"user_id":29,"name":"Chewei","steam_id":76561198065723797,"connected_time":5897000000000,"state":"active","ping":43},{"user_id":82,"name":"emit","steam_id":76561198868600487,"connected_time":2725000000000,"state":"active","ping":104},{"user_id":99,"name":"jayeskae","steam_id":76561198144220801,"connected_time":1040000000000,"state":"active","ping":75},{"user_id":68,"name":"toes","steam_id":76561198221151676,"connected_time":3036000000000,"state":"active","ping":88},{"user_id":69,"name":"SmallErection","steam_id":76561198071770147,"connected_time":3013000000000,"state":"active","ping":88},{"user_id":70,"name":"zefir","steam_id":76561198041348890,"connected_time":3002000000000,"state":"active","ping":113},{"user_id":95,"name":"ScoutBox","steam_id":76561198111539895,"connected_time":1679000000000,"state":"active","ping":48},{"user_id":96,"name":"Uthrix","steam_id":76561198031579717,"connected_time":1559000000000,"state":"active","ping":56},{"user_id":90,"name":"xplodingminion","steam_id":76561199112173549,"connected_time":2207000000000,"state":"active","ping":60},{"user_id":81,"name":"BaronFor","steam_id":76561198203006906,"connected_time":2813000000000,"state":"active","ping":107},{"user_id":94,"name":"chubbs from happy gilmore","steam_id":76561198143538672,"connected_time":1836000000000,"state":"active","ping":73},{"user_id":78,"name":"Bluedemon","steam_id":76561199212058684,"connected_time":2872000000000,"state":"active","ping":48},{"user_id":83,"name":"SameSince76","steam_id":76561198103651334,"connected_time":2316000000000,"state":"active","ping":123},{"user_id":101,"name":"Lylith","steam_id":76561198386687546,"connected_time":944000000000,"state":"active","ping":96},{"user_id":93,"name":"small meth pouch","steam_id":76561198130412963,"connected_time":2137000000000,"state":"active","ping":80}]},{"server_id":112,"name":"Uncletopia | Los Angeles | 2 | All Maps","name_short":"lax-2","host":"lax-1.us.uncletopia.com","port":27025,"enabled":true,"region":"us-west","cc":"us","latitude":33.94279,"longitude":-118.41004,"reserved":0,"last_update":"0001-01-01T00:00:00Z","name_a2s":"Uncletopia | Los Angeles | 2 | All Maps","protocol":17,"map":"koth_cascade","folder":"tf","game":"Team Fortress","app_id":440,"player_count":24,"max_players":24,"Bots":0,"server_type":"Dedicated","server_os":"Linux","password":true,"vac":true,"version":"7961495","steam_id":85568392924469992,"keywords":["cp","nocrits","nodmgspread","uncletopia"],"game_id":440,"stv_port":27026,"stv_name":"Uncletopia | Los Angeles | 2 | All Maps | STV","players":[{"user_id":295,"name":"Jabroni RIP DOOM","steam_id":76561198066385842,"connected_time":702000000000,"state":"active","ping":60},{"user_id":262,"name":"Silvermace","steam_id":76561198090696843,"connected_time":2750000000000,"state":"active","ping":44},{"user_id":303,"name":"JadedApprentice","steam_id":76561197985782769,"connected_time":243000000000,"state":"active","ping":87},{"user_id":265,"name":"Spare(8)Ball","steam_id":76561197982432995,"connected_time":2629000000000,"state":"active","ping":58},{"user_id":236,"name":"Mer","steam_id":76561198192171041,"connected_time":4462000000000,"state":"active","ping":178},{"user_id":290,"name":"gmele1","steam_id":76561199219013004,"connected_time":802000000000,"state":"active","ping":131},{"user_id":174,"name":"the fool","steam_id":76561198133933158,"connected_time":9640000000000,"state":"active","ping":44},{"user_id":309,"name":"nikk","steam_id":76561198353571924,"connected_time":134000000000,"state":"active","ping":60},{"user_id":298,"name":"cum lover","steam_id":76561199437545506,"connected_time":463000000000,"state":"active","ping":54},{"user_id":291,"name":"Zana","steam_id":76561198075908156,"connected_time":787000000000,"state":"active","ping":73},{"user_id":269,"name":"NightGhost1400","steam_id":76561198810730471,"connected_time":2489000000000,"state":"active","ping":75},{"user_id":308,"name":"Whyamidoingthisaaaa","steam_id":76561199168837342,"connected_time":179000000000,"state":"active","ping":106},{"user_id":301,"name":"Hobbes","steam_id":76561198087956236,"connected_time":351000000000,"state":"active","ping":50},{"user_id":215,"name":"Meekz","steam_id":76561198012562373,"connected_time":6111000000000,"state":"active","ping":55},{"user_id":280,"name":"pvmiller10","steam_id":76561199453729349,"connected_time":1541000000000,"state":"active","ping":116},{"user_id":304,"name":"Merekitten","steam_id":76561198066307477,"connected_time":233000000000,"state":"active","ping":65},{"user_id":277,"name":"BBQ Pig","steam_id":76561198102392020,"connected_time":1648000000000,"state":"active","ping":64},{"user_id":302,"name":"lilorphanterio","steam_id":76561198996539622,"connected_time":328000000000,"state":"active","ping":54},{"user_id":281,"name":"Pybro's Day Off","steam_id":76561197996353534,"connected_time":1519000000000,"state":"active","ping":56},{"user_id":192,"name":"mAKO","steam_id":76561198166022879,"connected_time":7863000000000,"state":"active","ping":45},{"user_id":306,"name":"eryn üó∫","steam_id":76561198004433070,"connected_time":197000000000,"state":"active","ping":116},{"user_id":228,"name":"Fami","steam_id":76561198193580105,"connected_time":5307000000000,"state":"active","ping":62},{"user_id":272,"name":"Wheaty","steam_id":76561198003553412,"connected_time":2446000000000,"state":"active","ping":73},{"user_id":274,"name":"Phoenix Wright Team Fortress 2","steam_id":76561198147871490,"connected_time":2387000000000,"state":"active","ping":46}]},{"server_id":324,"name":"Uncletopia | Los Angeles | 3 | All Maps","name_short":"lax-3","host":"lax-1.us.uncletopia.com","port":27035,"enabled":true,"region":"us-west","cc":"us","latitude":33.94279,"longitude":-118.41004,"reserved":0,"last_update":"0001-01-01T00:00:00Z","name_a2s":"Uncletopia | Los Angeles | 3 | All Maps","protocol":17,"map":"koth_viaduct","folder":"tf","game":"Team Fortress","app_id":440,"player_count":0,"max_players":24,"Bots":0,"server_type":"Dedicated","server_os":"Linux","password":true,"vac":true,"version":"7961495","steam_id":85568392924510198,"keywords":["cp","nocrits","nodmgspread","uncletopia"],"game_id":440,"stv_port":27036,"stv_name":"Uncletopia | Los Angeles | 3 | All Maps | STV","players":null},{"server_id":25,"name":"Uncletopia | Los Angeles | 4 | Stopwatch","name_short":"lax-4","host":"lax-1.us.uncletopia.com","port":27045,"enabled":true,"region":"us-west","cc":"us","latitude":33.94279,"longitude":-118.41004,"reserved":0,"last_update":"0001-01-01T00:00:00Z","name_a2s":"Uncletopia | Los Angeles | 4 | Stopwatch","protocol":17,"map":"workshop/pl_badwater_pro_v12.ugc2142942074","folder":"tf","game":"Team Fortress","app_id":440,"player_count":0,"max_players":24,"Bots":0,"server_type":"Dedicated","server_os":"Linux","password":true,"vac":true,"version":"7961495","steam_id":85568392924510199,"keywords":["nocrits","nodmgspread","payload","uncletopia"],"game_id":440,"stv_port":27046,"stv_name":"Uncletopia | Los Angeles | 4 | Stopwatch | STV","players":null},{"server_id":11,"name":"Uncletopia | London | 1 | All Maps","name_short":"lon-1","host":"lon-1.uk.uncletopia.com","port":27015,"enabled":true,"region":"eu","cc":"gb","latitude":51.509865,"longitude":-0.118092,"reserved":0,"last_update":"0001-01-01T00:00:00Z","name_a2s":"Uncletopia | London | 1 | All Maps","protocol":17,"map":"pl_snowycoast","folder":"tf","game":"Team Fortress","app_id":440,"player_count":24,"max_players":24,"Bots":0,"server_type":"Dedicated","server_os":"Linux","password":true,"vac":true,"version":"7961495","steam_id":85568392924367362,"keywords":["nocrits","nodmgspread","payload","uncletopia"],"game_id":440,"stv_port":27016,"stv_name":"Uncletopia | London | 1 | All Maps | STV","players":[{"user_id":602,"name":"Slifer the GiantEnemy SkyDragon","steam_id":76561198062255803,"connected_time":2901000000000,"state":"active","ping":75},{"user_id":561,"name":"Smiffy","steam_id":76561198094911581,"connected_time":6845000000000,"state":"active","ping":50},{"user_id":613,"name":"Yelowchy","steam_id":76561198199416121,"connected_time":1118000000000,"state":"active","ping":72},{"user_id":536,"name":"sora","steam_id":76561198096547662,"connected_time":9126000000000,"state":"active","ping":48},{"user_id":616,"name":"gibb (official)","steam_id":76561198074097655,"connected_time":549000000000,"state":"active","ping":42},{"user_id":600,"name":"tommy","steam_id":76561198195628823,"connected_time":3004000000000,"state":"active","ping":55},{"user_id":604,"name":"milo","steam_id":76561198119016918,"connected_time":2484000000000,"state":"active","ping":60},{"user_id":618,"name":"vug","steam_id":76561198042227249,"connected_time":245000000000,"state":"active","ping":45},{"user_id":605,"name":"SOPHIIEE","steam_id":76561198443798981,"connected_time":2182000000000,"state":"active","ping":58},{"user_id":463,"name":"Without warning","steam_id":76561199383437138,"connected_time":15462000000000,"state":"active","ping":125},{"user_id":564,"name":"Fwebbie","steam_id":76561199006875621,"connected_time":6593000000000,"state":"active","ping":61},{"user_id":578,"name":"Cabbch","steam_id":76561198045955679,"connected_time":4415000000000,"state":"active","ping":45},{"user_id":582,"name":"jonesy","steam_id":76561198073975078,"connected_time":4173000000000,"state":"active","ping":53},{"user_id":598,"name":"-d!cht.Pendanser-","steam_id":76561198025920135,"connected_time":3017000000000,"state":"active","ping":45},{"user_id":569,"name":"...","steam_id":76561199024512720,"connected_time":5908000000000,"state":"active","ping":50},{"user_id":599,"name":"Minimi","steam_id":76561198873850443,"connected_time":3017000000000,"state":"active","ping":45},{"user_id":557,"name":"Fat Pigeon","steam_id":76561198817940142,"connected_time":6922000000000,"state":"active","ping":45},{"user_id":380,"name":"Pantroglodytestherapy","steam_id":76561198236015392,"connected_time":22052000000000,"state":"active","ping":120},{"user_id":620,"name":"7Tales","steam_id":76561198121572869,"connected_time":190000000000,"state":"active","ping":47},{"user_id":591,"name":"BreadBubbles","steam_id":76561198174332826,"connected_time":3427000000000,"state":"active","ping":90},{"user_id":575,"name":"teddy","steam_id":76561198007436837,"connected_time":5096000000000,"state":"active","ping":30},{"user_id":615,"name":"beebo borfday gorl","steam_id":76561199120277007,"connected_time":821000000000,"state":"active","ping":40},{"user_id":606,"name":"Prome","steam_id":76561199050383942,"connected_time":1862000000000,"state":"active","ping":58},{"user_id":611,"name":"jimmy bob","steam_id":76561198319583692,"connected_time":1231000000000,"state":"active","ping":63}]},{"server_id":114,"name":"Uncletopia | London | 2 | All Maps","name_short":"lon-2","host":"lon-1.uk.uncletopia.com","port":27025,"enabled":true,"region":"eu","cc":"gb","latitude":51.509865,"longitude":-0.118092,"reserved":0,"last_update":"0001-01-01T00:00:00Z","name_a2s":"Uncletopia | London | 2 | All Maps","protocol":17,"map":"cp_snakewater_final1","folder":"tf","game":"Team Fortress","app_id":440,"player_count":24,"max_players":24,"Bots":0,"server_type":"Dedicated","server_os":"Linux","password":true,"vac":true,"version":"7961495","steam_id":85568392924470941,"keywords":["cp","nocrits","nodmgspread","uncletopia"],"game_id":440,"stv_port":27026,"stv_name":"Uncletopia | London | 2 | All Maps | STV","players":[{"user_id":297,"name":"Ë®ÄËëâ„Å´„Åß„Åç„Å™„ÅÑ","steam_id":76561199481504404,"connected_time":2969000000000,"state":"active","ping":49},{"user_id":317,"name":"Dr. Doofenshmirtz","steam_id":76561198056815239,"connected_time":1034000000000,"state":"active","ping":53},{"user_id":303,"name":"Dr Condom","steam_id":76561198378657692,"connected_time":2675000000000,"state":"active","ping":45},{"user_id":322,"name":"Chris Ageassia","steam_id":76561198017620597,"connected_time":822000000000,"state":"active","ping":59},{"user_id":278,"name":"üíñYoshiiüíñ","steam_id":76561198174049277,"connected_time":3627000000000,"state":"active","ping":65},{"user_id":268,"name":"Conker Bandicoot","steam_id":76561198040963055,"connected_time":4073000000000,"state":"active","ping":58},{"user_id":328,"name":"nemo","steam_id":76561199488507139,"connected_time":618000000000,"state":"active","ping":110},{"user_id":333,"name":"Mong","steam_id":76561198254497427,"connected_time":182000000000,"state":"active","ping":45},{"user_id":323,"name":"2BCD","steam_id":76561198178254946,"connected_time":797000000000,"state":"active","ping":71},{"user_id":315,"name":"rez777ka","steam_id":76561198107605938,"connected_time":1054000000000,"state":"active","ping":97},{"user_id":330,"name":"travis","steam_id":76561198138119811,"connected_time":317000000000,"state":"active","ping":45},{"user_id":304,"name":"iamSibby","steam_id":76561198127530844,"connected_time":2654000000000,"state":"active","ping":56},{"user_id":329,"name":"Portal2Player","steam_id":76561198062870114,"connected_time":614000000000,"state":"active","ping":138},{"user_id":313,"name":"Hank J Wimbleton","steam_id":76561198408623293,"connected_time":1653000000000,"state":"active","ping":60},{"user_id":282,"name":"grenade37","steam_id":76561198130622248,"connected_time":3554000000000,"state":"active","ping":129},{"user_id":325,"name":"dansal","steam_id":76561197997042510,"connected_time":689000000000,"state":"active","ping":164},{"user_id":306,"name":"playvol ambient/misc/flush1 1","steam_id":76561198336955997,"connected_time":2635000000000,"state":"active","ping":32},{"user_id":309,"name":"tm`","steam_id":76561197993580412,"connected_time":2363000000000,"state":"active","ping":68},{"user_id":308,"name":"L=Maestro","steam_id":76561198108066852,"connected_time":2596000000000,"state":"active","ping":59},{"user_id":287,"name":"Vic Boss","steam_id":76561198409324934,"connected_time":3428000000000,"state":"active","ping":72},{"user_id":314,"name":"Kallen","steam_id":76561198079693305,"connected_time":1069000000000,"state":"active","ping":59},{"user_id":326,"name":"B4R10N","steam_id":76561198047167954,"connected_time":675000000000,"state":"active","ping":38},{"user_id":327,"name":"car with air conditioning","steam_id":76561198368514674,"connected_time":671000000000,"state":"active","ping":60},{"user_id":331,"name":"top striker","steam_id":76561198151684599,"connected_time":315000000000,"state":"active","ping":43}]},{"server_id":320,"name":"Uncletopia | London | 3 | All Maps","name_short":"lon-3","host":"lon-1.uk.uncletopia.com","port":27035,"enabled":true,"region":"eu","cc":"gb","latitude":51.509865,"longitude":-0.118092,"reserved":0,"last_update":"0001-01-01T00:00:00Z","name_a2s":"Uncletopia | London | 3 | All Maps","protocol":17,"map":"cp_mountainlab","folder":"tf","game":"Team Fortress","app_id":440,"player_count":2,"max_players":24,"Bots":0,"server_type":"Dedicated","server_os":"Linux","password":true,"vac":true,"version":"7961495","steam_id":85568392924510192,"keywords":["cp","nocrits","nodmgspread","uncletopia"],"game_id":440,"stv_port":27036,"stv_name":"Uncletopia | London | 3 | All Maps | STV","players":[{"user_id":597,"name":"10SinkingSummer10","steam_id":76561199051749044,"connected_time":538000000000,"state":"active","ping":48},{"user_id":591,"name":"–î–∂–µ–∫–µ—Ç","steam_id":76561198327897125,"connected_time":1298000000000,"state":"active","ping":102}]},{"server_id":321,"name":"Uncletopia | London | 4 | All Maps","name_short":"lon-4","host":"lon-1.uk.uncletopia.com","port":27045,"enabled":true,"region":"eu","cc":"gb","latitude":51.509865,"longitude":-0.118092,"reserved":0,"last_update":"0001-01-01T00:00:00Z","name_a2s":"Uncletopia | London | 4 | All Maps","protocol":17,"map":"cp_sunshine","folder":"tf","game":"Team Fortress","app_id":440,"player_count":24,"max_players":24,"Bots":0,"server_type":"Dedicated","server_os":"Linux","password":true,"vac":true,"version":"7961495","steam_id":85568392924510193,"keywords":["cp","nocrits","nodmgspread","uncletopia"],"game_id":440,"stv_port":27046,"stv_name":"Uncletopia | London | 4 | All Maps | STV","players":[{"user_id":720,"name":"MarciDiMarcMarc","steam_id":76561199001920688,"connected_time":719000000000,"state":"active","ping":71},{"user_id":692,"name":"Lethal","steam_id":76561198452042648,"connected_time":1645000000000,"state":"active","ping":68},{"user_id":734,"name":"Martoro","steam_id":76561199022278314,"connected_time":54000000000,"state":"active","ping":67},{"user_id":727,"name":"Jnet","steam_id":76561198001282720,"connected_time":595000000000,"state":"active","ping":82},{"user_id":731,"name":"SnakeEater32","steam_id":76561198358497586,"connected_time":476000000000,"state":"active","ping":77},{"user_id":728,"name":"turtleant","steam_id":76561197998275550,"connected_time":585000000000,"state":"active","ping":129},{"user_id":713,"name":"dlk","steam_id":76561198086660302,"connected_time":1119000000000,"state":"active","ping":43},{"user_id":718,"name":"Mr.Abrek","steam_id":76561198124032815,"connected_time":729000000000,"state":"active","ping":97},{"user_id":721,"name":"skelly","steam_id":76561198052743847,"connected_time":699000000000,"state":"active","ping":74},{"user_id":719,"name":"NeiaBestGirl","steam_id":76561198251074536,"connected_time":726000000000,"state":"active","ping":128},{"user_id":623,"name":"Milca_11","steam_id":76561198848650365,"connected_time":6249000000000,"state":"active","ping":82},{"user_id":722,"name":"Zerwee","steam_id":76561198181368101,"connected_time":689000000000,"state":"active","ping":66},{"user_id":723,"name":"TheFlyingHussar","steam_id":76561199388276949,"connected_time":682000000000,"state":"active","ping":155},{"user_id":709,"name":"GAGE","steam_id":76561198158094852,"connected_time":1290000000000,"state":"active","ping":57},{"user_id":668,"name":"summer","steam_id":76561198170056395,"connected_time":3271000000000,"state":"active","ping":49},{"user_id":714,"name":"FNF","steam_id":76561199151422826,"connected_time":866000000000,"state":"active","ping":105},{"user_id":724,"name":"‚òÅ Lou1smeister ‚òÅ","steam_id":76561198004032968,"connected_time":637000000000,"state":"active","ping":60},{"user_id":725,"name":"matthe:-D","steam_id":76561198145465595,"connected_time":636000000000,"state":"active","ping":44},{"user_id":681,"name":"Thumnder","steam_id":76561198271944544,"connected_time":2967000000000,"state":"active","ping":152},{"user_id":726,"name":"shankz","steam_id":76561198128803260,"connected_time":633000000000,"state":"active","ping":47},{"user_id":729,"name":"small-brained bipedal primate","steam_id":76561198061220702,"connected_time":578000000000,"state":"active","ping":45},{"user_id":730,"name":"Khaleer","steam_id":76561198117439494,"connected_time":574000000000,"state":"active","ping":127},{"user_id":634,"name":"Wilderhammer","steam_id":76561198132133702,"connected_time":5968000000000,"state":"active","ping":59},{"user_id":700,"name":"Tichy‚òÜ","steam_id":76561198026218934,"connected_time":1438000000000,"state":"active","ping":65}]},{"server_id":21,"name":"Uncletopia | London | 5 | All Maps","name_short":"lon-5","host":"lon-1.uk.uncletopia.com","port":27055,"enabled":true,"region":"eu","cc":"gb","latitude":51.509865,"longitude":-0.118092,"reserved":0,"last_update":"0001-01-01T00:00:00Z","name_a2s":"Uncletopia | London | 5 | All Maps","protocol":17,"map":"pl_pier","folder":"tf","game":"Team Fortress","app_id":440,"player_count":12,"max_players":24,"Bots":0,"server_type":"Dedicated","server_os":"Linux","password":true,"vac":true,"version":"7961495","steam_id":85568392924742829,"keywords":["nocrits","nodmgspread","payload","uncletopia"],"game_id":440,"stv_port":27056,"stv_name":"Uncletopia | London | 5 | All Maps | STV","players":[{"user_id":570,"name":"Fnutek","steam_id":76561198082168552,"connected_time":3669000000000,"state":"active","ping":59},{"user_id":586,"name":"Vince","steam_id":76561199103000131,"connected_time":1896000000000,"state":"active","ping":34},{"user_id":617,"name":"REN","steam_id":76561198000596385,"connected_time":798000000000,"state":"active","ping":84},{"user_id":622,"name":"Kyrie Kurage","steam_id":76561198020030175,"connected_time":12000000000,"state":"spawning","ping":116},{"user_id":574,"name":"OTP ¬∞Roticher","steam_id":76561198194559879,"connected_time":3615000000000,"state":"active","ping":62},{"user_id":621,"name":"Bun","steam_id":76561197989239999,"connected_time":27000000000,"state":"active","ping":48},{"user_id":589,"name":"Doritoshredder","steam_id":76561198826710752,"connected_time":1877000000000,"state":"active","ping":111},{"user_id":609,"name":"AVOID EVERYONE","steam_id":76561198051852765,"connected_time":1116000000000,"state":"active","ping":72},{"user_id":618,"name":"Not a Sober Person","steam_id":76561198042593027,"connected_time":108000000000,"state":"active","ping":95},{"user_id":568,"name":"[\u003e\u003c] OTP Uncle Sam","steam_id":76561198186666399,"connected_time":3757000000000,"state":"active","ping":60},{"user_id":619,"name":"ay cabron","steam_id":76561198055552635,"connected_time":40000000000,"state":"active","ping":51},{"user_id":585,"name":"Caramel","steam_id":76561198021214844,"connected_time":2428000000000,"state":"active","ping":42}]},{"server_id":22,"name":"Uncletopia | London | 6 | All Maps","name_short":"lon-6","host":"lon-1.uk.uncletopia.com","port":27065,"enabled":true,"region":"eu","cc":"gb","latitude":51.509865,"longitude":-0.118092,"reserved":0,"last_update":"0001-01-01T00:00:00Z","name_a2s":"Uncletopia | London | 6 | All Maps","protocol":17,"map":"pl_borneo","folder":"tf","game":"Team Fortress","app_id":440,"player_count":0,"max_players":24,"Bots":0,"server_type":"Dedicated","server_os":"Linux","password":true,"vac":true,"version":"7961495","steam_id":85568392924742830,"keywords":["nocrits","nodmgspread","payload","uncletopia"],"game_id":440,"stv_port":27066,"stv_name":"Uncletopia | London | 6 | All Maps | STV","players":null},{"server_id":40,"name":"Uncletopia | London | 7 | Stopwatch","name_short":"lon-7","host":"lon-1.uk.uncletopia.com","port":27075,"enabled":true,"region":"eu","cc":"gb","latitude":51.509865,"longitude":-0.118092,"reserved":0,"last_update":"0001-01-01T00:00:00Z","name_a2s":"Uncletopia | London | 7 | Stopwatch","protocol":17,"map":"workshop/koth_ramjam_rc1.ugc459778887","folder":"tf","game":"Team Fortress","app_id":440,"player_count":0,"max_players":24,"Bots":0,"server_type":"Dedicated","server_os":"Linux","password":true,"vac":true,"version":"7961495","steam_id":85568392924964314,"keywords":["cp","nocrits","nodmgspread","uncletopia"],"game_id":440,"stv_port":27076,"stv_name":"Uncletopia | London | 7 | Stopwatch | STV","players":null},{"server_id":41,"name":"Uncletopia | London | 8 | Community","name_short":"lon-8","host":"lon-1.uk.uncletopia.com","port":27085,"enabled":true,"region":"eu","cc":"gb","latitude":51.509865,"longitude":-0.118092,"reserved":0,"last_update":"0001-01-01T00:00:00Z","name_a2s":"Uncletopia | London | 8 | Community","protocol":17,"map":"workshop/cp_caldera_rc2.ugc2834196889","folder":"tf","game":"Team Fortress","app_id":440,"player_count":0,"max_players":24,"Bots":0,"server_type":"Dedicated","server_os":"Linux","password":true,"vac":true,"version":"7961495","steam_id":85568392924964315,"keywords":["cp","nocrits","nodmgspread","uncletopia"],"game_id":440,"stv_port":27086,"stv_name":"Uncletopia | London | 8 | Community | STV","players":null},{"server_id":300,"name":"Uncletopia | Montr√©al | 1 | All Maps","name_short":"mtl-1","host":"mtl-1.ca.uncletopia.com","port":27015,"enabled":true,"region":"us-east","cc":"ca","latitude":45.50889,"longitude":-73.56167,"reserved":0,"last_update":"0001-01-01T00:00:00Z","name_a2s":"","protocol":0,"map":"","folder":"","game":"","app_id":0,"player_count":2,"max_players":0,"Bots":0,"server_type":"","server_os":"","password":false,"vac":false,"version":"","steam_id":0,"keywords":null,"game_id":0,"stv_port":0,"stv_name":"","players":[{"user_id":12,"name":"DrMisteryous2","steam_id":76561198336307012,"connected_time":631000000000,"state":"active","ping":170},{"user_id":13,"name":"Evaporated_373k","steam_id":76561199435266743,"connected_time":393000000000,"state":"active","ping":137}]},{"server_id":301,"name":"Uncletopia | Montr√©al | 2 | All Maps","name_short":"mtl-2","host":"mtl-1.ca.uncletopia.com","port":27025,"enabled":true,"region":"us-east","cc":"ca","latitude":45.50889,"longitude":-73.56167,"reserved":0,"last_update":"0001-01-01T00:00:00Z","name_a2s":"","protocol":0,"map":"","folder":"","game":"","app_id":0,"player_count":0,"max_players":0,"Bots":0,"server_type":"","server_os":"","password":false,"vac":false,"version":"","steam_id":0,"keywords":null,"game_id":0,"stv_port":0,"stv_name":"","players":null},{"server_id":302,"name":"Uncletopia | Montr√©al | 3 | All Maps","name_short":"mtl-3","host":"mtl-1.ca.uncletopia.com","port":27035,"enabled":true,"region":"us-east","cc":"ca","latitude":45.50889,"longitude":-73.56167,"reserved":0,"last_update":"0001-01-01T00:00:00Z","name_a2s":"","protocol":0,"map":"","folder":"","game":"","app_id":0,"player_count":0,"max_players":0,"Bots":0,"server_type":"","server_os":"","password":false,"vac":false,"version":"","steam_id":0,"keywords":null,"game_id":0,"stv_port":0,"stv_name":"","players":null},{"server_id":303,"name":"Uncletopia | Montr√©al | 4 | No Payload","name_short":"mtl-4","host":"mtl-1.ca.uncletopia.com","port":27045,"enabled":true,"region":"us-east","cc":"ca","latitude":45.50889,"longitude":-73.56167,"reserved":0,"last_update":"0001-01-01T00:00:00Z","name_a2s":"","protocol":0,"map":"","folder":"","game":"","app_id":0,"player_count":0,"max_players":0,"Bots":0,"server_type":"","server_os":"","password":false,"vac":false,"version":"","steam_id":0,"keywords":null,"game_id":0,"stv_port":0,"stv_name":"","players":null},{"server_id":13,"name":"Uncletopia | New York City | 1 | All Maps","name_short":"nyc-1","host":"nyc-1.us.uncletopia.com","port":27015,"enabled":true,"region":"us-east","cc":"us","latitude":40.73061,"longitude":-73.93524,"reserved":0,"last_update":"0001-01-01T00:00:00Z","name_a2s":"Uncletopia | New York City | 1 | All Maps","protocol":17,"map":"cp_dustbowl","folder":"tf","game":"Team Fortress","app_id":440,"player_count":24,"max_players":24,"Bots":0,"server_type":"Dedicated","server_os":"Linux","password":true,"vac":true,"version":"7961495","steam_id":85568392924469993,"keywords":["cp","nocrits","nodmgspread","uncletopia"],"game_id":440,"stv_port":27016,"stv_name":"Uncletopia | New York City | 1 | All Maps | STV","players":[{"user_id":329,"name":"Sorry","steam_id":76561198040722720,"connected_time":910000000000,"state":"active","ping":67},{"user_id":206,"name":"Slob and Sup","steam_id":76561198123441203,"connected_time":8935000000000,"state":"active","ping":74},{"user_id":317,"name":"De","steam_id":76561198206728044,"connected_time":1758000000000,"state":"active","ping":81},{"user_id":340,"name":"Hell's Reindeer","steam_id":76561198065310364,"connected_time":624000000000,"state":"active","ping":67},{"user_id":323,"name":"rockfantic","steam_id":76561199205066271,"connected_time":1380000000000,"state":"active","ping":82},{"user_id":346,"name":"randomperson2920","steam_id":76561199223865304,"connected_time":260000000000,"state":"active","ping":86},{"user_id":331,"name":"Rhutebeer","steam_id":76561198018302761,"connected_time":829000000000,"state":"active","ping":104},{"user_id":343,"name":"Froyo Ding Dong","steam_id":76561198379421700,"connected_time":470000000000,"state":"active","ping":53},{"user_id":298,"name":"Alfonso Molestro","steam_id":76561197998677099,"connected_time":2915000000000,"state":"active","ping":67},{"user_id":285,"name":"Invis","steam_id":76561198084260431,"connected_time":4343000000000,"state":"active","ping":85},{"user_id":332,"name":"I HATE A.I ART I HATE A.I ART I","steam_id":76561199101373436,"connected_time":786000000000,"state":"active","ping":72},{"user_id":333,"name":"feudalism (real)","steam_id":76561198057374871,"connected_time":764000000000,"state":"active","ping":79},{"user_id":348,"name":"MitcheyHD","steam_id":76561198066489645,"connected_time":90000000000,"state":"active","ping":68},{"user_id":341,"name":"acxeu","steam_id":76561198394435000,"connected_time":616000000000,"state":"active","ping":58},{"user_id":316,"name":"space creep","steam_id":76561198025668545,"connected_time":1789000000000,"state":"active","ping":45},{"user_id":307,"name":"Tripll-L","steam_id":76561197998077437,"connected_time":2188000000000,"state":"active","ping":96},{"user_id":342,"name":"stampdawg","steam_id":76561198050500060,"connected_time":598000000000,"state":"active","ping":80},{"user_id":334,"name":"dave","steam_id":76561198135961731,"connected_time":764000000000,"state":"active","ping":92},{"user_id":300,"name":"Lee?","steam_id":76561199060892634,"connected_time":2430000000000,"state":"active","ping":96},{"user_id":336,"name":"Michaelpc1","steam_id":76561198088365519,"connected_time":700000000000,"state":"active","ping":72},{"user_id":347,"name":"GregSlayer","steam_id":76561199044769924,"connected_time":163000000000,"state":"active","ping":70},{"user_id":335,"name":"Novu","steam_id":76561198886997024,"connected_time":732000000000,"state":"active","ping":81},{"user_id":313,"name":"googa","steam_id":76561198133130452,"connected_time":2057000000000,"state":"active","ping":46},{"user_id":328,"name":"froge","steam_id":76561198304959766,"connected_time":935000000000,"state":"active","ping":147}]},{"server_id":14,"name":"Uncletopia | New York City | 2 | All Maps","name_short":"nyc-2","host":"nyc-1.us.uncletopia.com","port":27025,"enabled":true,"region":"us-east","cc":"us","latitude":40.73061,"longitude":-73.93524,"reserved":0,"last_update":"0001-01-01T00:00:00Z","name_a2s":"Uncletopia | New York City | 2 | All Maps","protocol":17,"map":"plr_hightower","folder":"tf","game":"Team Fortress","app_id":440,"player_count":24,"max_players":24,"Bots":0,"server_type":"Dedicated","server_os":"Linux","password":true,"vac":true,"version":"7961495","steam_id":85568392924469994,"keywords":["nocrits","nodmgspread","payload","uncletopia"],"game_id":440,"stv_port":27026,"stv_name":"Uncletopia | New York City | 2 | All Maps | STV","players":[{"user_id":413,"name":"Nerrrd_","steam_id":76561198870129960,"connected_time":1446000000000,"state":"active","ping":36},{"user_id":428,"name":"Orange Triangle","steam_id":76561198320498182,"connected_time":561000000000,"state":"active","ping":85},{"user_id":429,"name":"Psychobells","steam_id":76561197995620232,"connected_time":523000000000,"state":"active","ping":33},{"user_id":430,"name":"IMM0RTAL","steam_id":76561198013747901,"connected_time":477000000000,"state":"active","ping":62},{"user_id":409,"name":"bobbymcbobington","steam_id":76561199089411172,"connected_time":1749000000000,"state":"active","ping":141},{"user_id":394,"name":"Eggnog","steam_id":76561199169634978,"connected_time":2948000000000,"state":"active","ping":99},{"user_id":361,"name":"Voids","steam_id":76561198128386726,"connected_time":4981000000000,"state":"active","ping":78},{"user_id":392,"name":"Sinno","steam_id":76561198144974589,"connected_time":2984000000000,"state":"active","ping":45},{"user_id":423,"name":"Mossed Ball","steam_id":76561199031256509,"connected_time":822000000000,"state":"active","ping":88},{"user_id":425,"name":"P6GN","steam_id":76561198829989043,"connected_time":683000000000,"state":"active","ping":116},{"user_id":357,"name":"0","steam_id":76561198077882008,"connected_time":5265000000000,"state":"active","ping":53},{"user_id":431,"name":"Sins","steam_id":76561198044425376,"connected_time":469000000000,"state":"active","ping":64},{"user_id":404,"name":"œÜCliff RacerœÜ","steam_id":76561198095908193,"connected_time":2292000000000,"state":"active","ping":45},{"user_id":435,"name":"Tf2isafungame","steam_id":76561199070031623,"connected_time":28000000000,"state":"active","ping":72},{"user_id":403,"name":"Gentoo Linux Gaming","steam_id":76561197999657118,"connected_time":2325000000000,"state":"active","ping":72},{"user_id":418,"name":"Pfc. BRUH [10th MD]","steam_id":76561198870051584,"connected_time":1353000000000,"state":"active","ping":89},{"user_id":364,"name":"Tony hawks pro skater 2 dlc","steam_id":76561198243387974,"connected_time":4824000000000,"state":"spawning","ping":196},{"user_id":419,"name":"Goomby","steam_id":76561198079416561,"connected_time":1338000000000,"state":"active","ping":104},{"user_id":340,"name":"Okpar","steam_id":76561199221067945,"connected_time":6613000000000,"state":"active","ping":89},{"user_id":436,"name":"J21","steam_id":76561198066590783,"connected_time":7000000000,"state":"active","ping":64},{"user_id":421,"name":"„Éì„Éº„Éä„Éº","steam_id":76561199196918355,"connected_time":1326000000000,"state":"active","ping":65},{"user_id":412,"name":"Chris P. Bacon","steam_id":76561198000851038,"connected_time":1638000000000,"state":"active","ping":52},{"user_id":432,"name":"UFsansse","steam_id":76561198975082276,"connected_time":456000000000,"state":"spawning","ping":109},{"user_id":422,"name":"Bobby Dazzler È≠îÈêò","steam_id":76561198007405067,"connected_time":1077000000000,"state":"active","ping":68}]},{"server_id":15,"name":"Uncletopia | New York City | 3 | Stopwatch","name_short":"nyc-3","host":"nyc-1.us.uncletopia.com","port":27035,"enabled":true,"region":"us-east","cc":"us","latitude":40.73061,"longitude":-73.93524,"reserved":0,"last_update":"0001-01-01T00:00:00Z","name_a2s":"Uncletopia | New York City | 3 | Stopwatch","protocol":17,"map":"workshop/koth_bagel_rc6.ugc2514036946","folder":"tf","game":"Team Fortress","app_id":440,"player_count":24,"max_players":24,"Bots":0,"server_type":"Dedicated","server_os":"Linux","password":true,"vac":true,"version":"7961495","steam_id":85568392924742820,"keywords":["cp","nocrits","nodmgspread","uncletopia"],"game_id":440,"stv_port":27036,"stv_name":"Uncletopia | New York City | 3 | Stopwatch | STV","players":[{"user_id":5,"name":"GossamerMoon{{SHE/HER}}","steam_id":76561198216909469,"connected_time":3199000000000,"state":"active","ping":81},{"user_id":30,"name":"yer_nerd","steam_id":76561199435454093,"connected_time":720000000000,"state":"active","ping":61},{"user_id":27,"name":"AronLite","steam_id":76561198200289686,"connected_time":933000000000,"state":"active","ping":170},{"user_id":17,"name":"stuwpid main pyo","steam_id":76561199246901712,"connected_time":1541000000000,"state":"active","ping":168},{"user_id":14,"name":"BackupYAHmax","steam_id":76561198309468681,"connected_time":2175000000000,"state":"active","ping":61},{"user_id":41,"name":"extremelygayclown","steam_id":76561199175874228,"connected_time":165000000000,"state":"active","ping":91},{"user_id":31,"name":"NoarBear","steam_id":76561198145929802,"connected_time":611000000000,"state":"active","ping":61},{"user_id":32,"name":"Just washed","steam_id":76561199030160932,"connected_time":591000000000,"state":"active","ping":82},{"user_id":20,"name":"Monkey D. Management","steam_id":76561198400603422,"connected_time":1256000000000,"state":"active","ping":79},{"user_id":46,"name":"Zhong Xina","steam_id":76561198048157121,"connected_time":1000000000,"state":"connecting","ping":0},{"user_id":22,"name":"Isaac Clarke","steam_id":76561198317662346,"connected_time":1176000000000,"state":"active","ping":93},{"user_id":34,"name":"Alizane","steam_id":76561198024695406,"connected_time":441000000000,"state":"active","ping":238},{"user_id":24,"name":"Not A Hoovy","steam_id":76561198201502681,"connected_time":1085000000000,"state":"active","ping":46},{"user_id":35,"name":"HeroMaster90","steam_id":76561198092279948,"connected_time":430000000000,"state":"active","ping":99},{"user_id":26,"name":"Don't Fuckle with Shuckle","steam_id":76561199020102367,"connected_time":1072000000000,"state":"active","ping":88},{"user_id":28,"name":"Mighty","steam_id":76561198096569755,"connected_time":926000000000,"state":"active","ping":128},{"user_id":29,"name":"Shaquille Oatmeal","steam_id":76561199183492031,"connected_time":912000000000,"state":"active","ping":97},{"user_id":36,"name":"Xrath","steam_id":76561198220741860,"connected_time":382000000000,"state":"active","ping":60},{"user_id":37,"name":"listerine","steam_id":76561198041104084,"connected_time":329000000000,"state":"active","ping":60},{"user_id":40,"name":"Ty?","steam_id":76561198132068284,"connected_time":209000000000,"state":"active","ping":60},{"user_id":42,"name":"Bug Slayer","steam_id":76561198795923860,"connected_time":163000000000,"state":"active","ping":49},{"user_id":43,"name":"drone X","steam_id":76561198054390505,"connected_time":162000000000,"state":"active","ping":77},{"user_id":44,"name":"Almonicus","steam_id":76561198044401351,"connected_time":156000000000,"state":"active","ping":83},{"user_id":45,"name":"user_glitched404","steam_id":76561199452655992,"connected_time":97000000000,"state":"active","ping":89}]},{"server_id":16,"name":"Uncletopia | New York City | 4 | Community","name_short":"nyc-4","host":"nyc-1.us.uncletopia.com","port":27045,"enabled":true,"region":"us-east","cc":"us","latitude":40.73061,"longitude":-73.93524,"reserved":0,"last_update":"0001-01-01T00:00:00Z","name_a2s":"Uncletopia | New York City | 4 | Community","protocol":17,"map":"workshop/cp_propaganda_b18.ugc1603743849","folder":"tf","game":"Team Fortress","app_id":440,"player_count":7,"max_players":24,"Bots":0,"server_type":"Dedicated","server_os":"Linux","password":true,"vac":true,"version":"7961495","steam_id":85568392924742821,"keywords":["cp","nocrits","nodmgspread","uncletopia"],"game_id":440,"stv_port":27046,"stv_name":"Uncletopia | New York City | 4 | Community | STV","players":[{"user_id":13,"name":"PinyaVI","steam_id":76561198813760694,"connected_time":1084000000000,"state":"active","ping":52},{"user_id":14,"name":"atomicbomb2708","steam_id":76561199105691887,"connected_time":1082000000000,"state":"active","ping":64},{"user_id":15,"name":"LILDUCDUCGOOSE125","steam_id":76561198332595285,"connected_time":1075000000000,"state":"active","ping":52},{"user_id":17,"name":"artemisjackson2","steam_id":76561199094686268,"connected_time":318000000000,"state":"active","ping":170},{"user_id":18,"name":"Unk","steam_id":76561198031717617,"connected_time":124000000000,"state":"active","ping":31},{"user_id":19,"name":"Limb Mutilator","steam_id":76561199078699161,"connected_time":96000000000,"state":"active","ping":90},{"user_id":20,"name":"Invis","steam_id":76561198054546884,"connected_time":81000000000,"state":"active","ping":43}]},{"server_id":142,"name":"Uncletopia | S√£o Paulo | 1 | All Maps","name_short":"sao-1","host":"sao-1.br.uncletopia.com","port":27015,"enabled":true,"region":"sa","cc":"br","latitude":-23.533773,"longitude":-46.62529,"reserved":0,"last_update":"0001-01-01T00:00:00Z","name_a2s":"Uncletopia | S√£o Paulo | 1 | All Maps","protocol":17,"map":"koth_cascade","folder":"tf","game":"Team Fortress","app_id":440,"player_count":0,"max_players":24,"Bots":0,"server_type":"Dedicated","server_os":"Linux","password":true,"vac":true,"version":"7961495","steam_id":85568392924469996,"keywords":["cp","nocrits","nodmgspread","uncletopia"],"game_id":440,"stv_port":27016,"stv_name":"Uncletopia | S√£o Paulo | 1 | All Maps | STV","players":null},{"server_id":143,"name":"Uncletopia | S√£o Paulo | 2 | Community","name_short":"sao-2","host":"sao-2.br.uncletopia.com","port":27015,"enabled":true,"region":"sa","cc":"br","latitude":-23.533773,"longitude":-46.62529,"reserved":0,"last_update":"0001-01-01T00:00:00Z","name_a2s":"Uncletopia | S√£o Paulo | 2 | Community","protocol":17,"map":"workshop/koth_ramjam_rc1.ugc459778887","folder":"tf","game":"Team Fortress","app_id":440,"player_count":0,"max_players":24,"Bots":0,"server_type":"Dedicated","server_os":"Linux","password":true,"vac":true,"version":"7961495","steam_id":85568392924485349,"keywords":["cp","nocrits","nodmgspread","uncletopia"],"game_id":440,"stv_port":27016,"stv_name":"Uncletopia | S√£o Paulo | 2 | Community | STV","players":null},{"server_id":7,"name":"Uncletopia | Seattle | 1 | All Maps","name_short":"sea-1","host":"sea-1.us.uncletopia.com","port":27015,"enabled":true,"region":"us-west","cc":"us","latitude":47.608013,"longitude":-122.33517,"reserved":0,"last_update":"0001-01-01T00:00:00Z","name_a2s":"Uncletopia | Seattle | 1 | All Maps","protocol":17,"map":"ctf_turbine","folder":"tf","game":"Team Fortress","app_id":440,"player_count":16,"max_players":24,"Bots":0,"server_type":"Dedicated","server_os":"Linux","password":true,"vac":true,"version":"7961495","steam_id":85568392924469997,"keywords":["ctf","nocrits","nodmgspread","uncletopia"],"game_id":440,"stv_port":27016,"stv_name":"Uncletopia | Seattle | 1 | All Maps | STV","players":[{"user_id":389,"name":"Spy (I Love spy)","steam_id":76561199138738952,"connected_time":172000000000,"state":"active","ping":121},{"user_id":381,"name":"Mint Widget","steam_id":76561198036875245,"connected_time":1021000000000,"state":"active","ping":60},{"user_id":390,"name":"Coffeemelon","steam_id":76561198285891257,"connected_time":76000000000,"state":"active","ping":85},{"user_id":385,"name":"Fallen","steam_id":76561198206490352,"connected_time":753000000000,"state":"active","ping":87},{"user_id":391,"name":"triplex_lAl_triplex","steam_id":76561198011675372,"connected_time":23000000000,"state":"active","ping":56},{"user_id":301,"name":"‚ô• President Shitfart ‚ô•","steam_id":76561198141819053,"connected_time":7151000000000,"state":"active","ping":69},{"user_id":266,"name":"oo","steam_id":76561198119626492,"connected_time":9781000000000,"state":"active","ping":103},{"user_id":379,"name":"Sollyz","steam_id":76561198081110786,"connected_time":1037000000000,"state":"active","ping":55},{"user_id":392,"name":"dingleflongle","steam_id":76561198183529802,"connected_time":9000000000,"state":"spawning","ping":41},{"user_id":360,"name":"c0ms1","steam_id":76561199494225807,"connected_time":2938000000000,"state":"active","ping":56},{"user_id":321,"name":"K2f","steam_id":76561198049600563,"connected_time":4981000000000,"state":"active","ping":67},{"user_id":388,"name":"‚ôÇ boss of this gym ‚ôÇ","steam_id":76561198027102212,"connected_time":269000000000,"state":"active","ping":61},{"user_id":383,"name":"Egrazil","steam_id":76561198437437146,"connected_time":999000000000,"state":"active","ping":76},{"user_id":376,"name":"Luca","steam_id":76561198125087140,"connected_time":2310000000000,"state":"active","ping":44},{"user_id":373,"name":"Synergy","steam_id":76561198098630198,"connected_time":2643000000000,"state":"active","ping":44},{"user_id":380,"name":"thunderous prophet","steam_id":76561198131166135,"connected_time":1037000000000,"state":"active","ping":41}]},{"server_id":119,"name":"Uncletopia | Seattle | 2 | All Maps","name_short":"sea-2","host":"sea-1.us.uncletopia.com","port":27025,"enabled":true,"region":"us-west","cc":"us","latitude":47.608013,"longitude":-122.33517,"reserved":0,"last_update":"0001-01-01T00:00:00Z","name_a2s":"Uncletopia | Seattle | 2 | All Maps","protocol":17,"map":"pl_frontier_final","folder":"tf","game":"Team Fortress","app_id":440,"player_count":24,"max_players":24,"Bots":0,"server_type":"Dedicated","server_os":"Linux","password":true,"vac":true,"version":"7961495","steam_id":85568392924469998,"keywords":["nocrits","nodmgspread","payload","uncletopia"],"game_id":440,"stv_port":27026,"stv_name":"Uncletopia | Seattle | 2 | All Maps | STV","players":[{"user_id":153,"name":"grey","steam_id":76561198050618142,"connected_time":1886000000000,"state":"active","ping":45},{"user_id":136,"name":"luc","steam_id":76561198093883448,"connected_time":2931000000000,"state":"active","ping":48},{"user_id":159,"name":"ouchie pain ow GOD AGHHG-","steam_id":76561198163022669,"connected_time":1422000000000,"state":"active","ping":112},{"user_id":117,"name":"Airror","steam_id":76561198350334442,"connected_time":4070000000000,"state":"active","ping":140},{"user_id":171,"name":"momus","steam_id":76561198966979196,"connected_time":261000000000,"state":"active","ping":69},{"user_id":156,"name":"Polar","steam_id":76561198271964253,"connected_time":1750000000000,"state":"active","ping":67},{"user_id":144,"name":"‚ô• Milo Stefferson ‚ô• (Soupca","steam_id":76561198056269538,"connected_time":2449000000000,"state":"active","ping":59},{"user_id":154,"name":"the archmage","steam_id":76561198380018244,"connected_time":1873000000000,"state":"active","ping":64},{"user_id":162,"name":"WaterTightFrogPussyLikeFlexSeal","steam_id":76561199116166706,"connected_time":1009000000000,"state":"active","ping":82},{"user_id":150,"name":"cat woman yuri","steam_id":76561198004916219,"connected_time":2110000000000,"state":"active","ping":86},{"user_id":88,"name":"greens beans","steam_id":76561198153611491,"connected_time":6482000000000,"state":"active","ping":40},{"user_id":143,"name":"my mom","steam_id":76561199225201569,"connected_time":2524000000000,"state":"active","ping":123},{"user_id":132,"name":"Cinnifox","steam_id":76561198068773971,"connected_time":3111000000000,"state":"active","ping":69},{"user_id":158,"name":"TV","steam_id":76561198352097354,"connected_time":1523000000000,"state":"active","ping":149},{"user_id":96,"name":"mine diam","steam_id":76561198119123981,"connected_time":6089000000000,"state":"active","ping":49},{"user_id":148,"name":"death snail","steam_id":76561198093053238,"connected_time":2290000000000,"state":"active","ping":53},{"user_id":170,"name":"LILGI4THAW","steam_id":76561198403803842,"connected_time":365000000000,"state":"active","ping":55},{"user_id":141,"name":"hyazZaza","steam_id":76561199100342013,"connected_time":2567000000000,"state":"active","ping":70},{"user_id":168,"name":"Greskrendtregk","steam_id":76561197969553142,"connected_time":650000000000,"state":"active","ping":72},{"user_id":138,"name":"chanoc","steam_id":76561198026734746,"connected_time":2837000000000,"state":"active","ping":68},{"user_id":147,"name":"InchMan","steam_id":76561198272658825,"connected_time":2333000000000,"state":"active","ping":142},{"user_id":161,"name":"Squids023","steam_id":76561199013031576,"connected_time":1123000000000,"state":"active","ping":85},{"user_id":164,"name":"Rango","steam_id":76561198104086771,"connected_time":819000000000,"state":"active","ping":76},{"user_id":165,"name":"CheeseCake488","steam_id":76561199407617942,"connected_time":779000000000,"state":"active","ping":136}]},{"server_id":406,"name":"Uncletopia | Seattle | 3 | Stopwatch","name_short":"sea-3","host":"sea-1.us.uncletopia.com","port":27035,"enabled":true,"region":"us-west","cc":"us","latitude":47.608013,"longitude":-122.33517,"reserved":0,"last_update":"0001-01-01T00:00:00Z","name_a2s":"Uncletopia | Seattle | 3 | Stopwatch","protocol":17,"map":"workshop/koth_ashville_final.ugc2130459942","folder":"tf","game":"Team Fortress","app_id":440,"player_count":0,"max_players":24,"Bots":0,"server_type":"Dedicated","server_os":"Linux","password":true,"vac":true,"version":"7961495","steam_id":85568392924515217,"keywords":["cp","nocrits","nodmgspread","uncletopia"],"game_id":440,"stv_port":27036,"stv_name":"Uncletopia | Seattle | 3 | Stopwatch | STV","players":null},{"server_id":17,"name":"Uncletopia | San Francisco | 1 | All Maps","name_short":"sfo-1","host":"sfo-1.us.uncletopia.com","port":27015,"enabled":true,"region":"us-west","cc":"us","latitude":37.77397,"longitude":-122.4313,"reserved":0,"last_update":"0001-01-01T00:00:00Z","name_a2s":"Uncletopia | San Francisco | 1 | All Maps","protocol":17,"map":"pl_pier","folder":"tf","game":"Team Fortress","app_id":440,"player_count":24,"max_players":24,"Bots":0,"server_type":"Dedicated","server_os":"Linux","password":true,"vac":true,"version":"7961495","steam_id":85568392924469999,"keywords":["nocrits","nodmgspread","payload","uncletopia"],"game_id":440,"stv_port":27016,"stv_name":"Uncletopia | San Francisco | 1 | All Maps | STV","players":[{"user_id":79,"name":"EatSomeBEES","steam_id":76561198047334307,"connected_time":2117000000000,"state":"active","ping":70},{"user_id":95,"name":"They could be ********","steam_id":76561198441020995,"connected_time":1135000000000,"state":"active","ping":33},{"user_id":14,"name":"Jax","steam_id":76561198251160282,"connected_time":8744000000000,"state":"active","ping":70},{"user_id":15,"name":"CCPodz","steam_id":76561199143506502,"connected_time":8188000000000,"state":"active","ping":106},{"user_id":96,"name":"fecalfunny.com","steam_id":76561198043595503,"connected_time":1024000000000,"state":"active","ping":69},{"user_id":103,"name":"Keamy","steam_id":76561199471434875,"connected_time":451000000000,"state":"active","ping":60},{"user_id":29,"name":"Blueghost555","steam_id":76561198379198065,"connected_time":5039000000000,"state":"active","ping":77},{"user_id":105,"name":"raduski","steam_id":76561198795699119,"connected_time":377000000000,"state":"active","ping":86},{"user_id":102,"name":"DroidixBacon","steam_id":76561198800392071,"connected_time":510000000000,"state":"active","ping":121},{"user_id":104,"name":"Lili W.","steam_id":76561199391478575,"connected_time":429000000000,"state":"active","ping":85},{"user_id":106,"name":"pure","steam_id":76561198196998007,"connected_time":373000000000,"state":"active","ping":57},{"user_id":34,"name":"ST‚õ•RZ","steam_id":76561198965593434,"connected_time":4640000000000,"state":"active","ping":96},{"user_id":36,"name":"Knifedge825","steam_id":76561198423967605,"connected_time":4548000000000,"state":"active","ping":112},{"user_id":37,"name":"Bobby Cigarette","steam_id":76561198059780866,"connected_time":4514000000000,"state":"active","ping":112},{"user_id":99,"name":"Igrium","steam_id":76561198119549811,"connected_time":744000000000,"state":"active","ping":60},{"user_id":107,"name":"ImagineExisting","steam_id":76561198860261731,"connected_time":348000000000,"state":"active","ping":84},{"user_id":94,"name":"Subject Delta","steam_id":76561199109118980,"connected_time":1172000000000,"state":"active","ping":61},{"user_id":108,"name":"Malevo","steam_id":76561198148606522,"connected_time":322000000000,"state":"active","ping":105},{"user_id":97,"name":"HanakoToast","steam_id":76561198045233131,"connected_time":1023000000000,"state":"active","ping":74},{"user_id":109,"name":"bengineer","steam_id":76561198171912174,"connected_time":294000000000,"state":"active","ping":73},{"user_id":110,"name":"Purple potato","steam_id":76561198932276149,"connected_time":285000000000,"state":"active","ping":76},{"user_id":74,"name":"Who","steam_id":76561198013049671,"connected_time":2849000000000,"state":"active","ping":67},{"user_id":111,"name":"SynSten","steam_id":76561199122281764,"connected_time":273000000000,"state":"active","ping":85},{"user_id":70,"name":"MithStyck","steam_id":76561198071538489,"connected_time":3087000000000,"state":"active","ping":97}]},{"server_id":18,"name":"Uncletopia | San Francisco | 2 | All Maps","name_short":"sfo-2","host":"sfo-1.us.uncletopia.com","port":27025,"enabled":true,"region":"us-west","cc":"us","latitude":37.77397,"longitude":-122.4313,"reserved":0,"last_update":"0001-01-01T00:00:00Z","name_a2s":"Uncletopia | San Francisco | 2 | All Maps","protocol":17,"map":"pl_pier","folder":"tf","game":"Team Fortress","app_id":440,"player_count":24,"max_players":24,"Bots":0,"server_type":"Dedicated","server_os":"Linux","password":true,"vac":true,"version":"7961495","steam_id":85568392924470000,"keywords":["nocrits","nodmgspread","payload","uncletopia"],"game_id":440,"stv_port":27026,"stv_name":"Uncletopia | San Francisco | 2 | All Maps | STV","players":[{"user_id":361,"name":"Sicko Mode (Chris Pratt Cover)","steam_id":76561198315786174,"connected_time":1003000000000,"state":"active","ping":115},{"user_id":356,"name":"noceof","steam_id":76561198043656816,"connected_time":1606000000000,"state":"active","ping":164},{"user_id":362,"name":"TruthHut","steam_id":76561198093452436,"connected_time":999000000000,"state":"active","ping":66},{"user_id":383,"name":"NaeNaeChungusBozo","steam_id":76561199446407203,"connected_time":92000000000,"state":"active","ping":137},{"user_id":372,"name":"Heartgold","steam_id":76561199062592062,"connected_time":845000000000,"state":"active","ping":137},{"user_id":363,"name":"Wolfman","steam_id":76561198095264646,"connected_time":989000000000,"state":"active","ping":95},{"user_id":335,"name":"53differentmen","steam_id":76561198982477860,"connected_time":2483000000000,"state":"active","ping":112},{"user_id":384,"name":"California State Real ID","steam_id":76561198111293523,"connected_time":36000000000,"state":"spawning","ping":58},{"user_id":373,"name":"zogs","steam_id":76561198323491654,"connected_time":763000000000,"state":"active","ping":76},{"user_id":340,"name":"Super_Sonic133","steam_id":76561198141384474,"connected_time":2385000000000,"state":"active","ping":48},{"user_id":375,"name":"FlowerPot","steam_id":76561198072122042,"connected_time":614000000000,"state":"active","ping":143},{"user_id":342,"name":"Yoyo-Wo","steam_id":76561198880520205,"connected_time":2365000000000,"state":"active","ping":85},{"user_id":366,"name":"blue duck the 2nd","steam_id":76561198263142765,"connected_time":943000000000,"state":"active","ping":108},{"user_id":353,"name":"ma≈Çiƒô","steam_id":76561198337705174,"connected_time":1857000000000,"state":"active","ping":76},{"user_id":367,"name":"Woodchip","steam_id":76561198042398615,"connected_time":926000000000,"state":"active","ping":104},{"user_id":380,"name":"knatspray","steam_id":76561198832507482,"connected_time":212000000000,"state":"active","ping":71},{"user_id":377,"name":"kain","steam_id":76561198155560670,"connected_time":445000000000,"state":"active","ping":63},{"user_id":368,"name":"Master Of Whales","steam_id":76561198349104889,"connected_time":922000000000,"state":"active","ping":64},{"user_id":378,"name":"bottom pride burger","steam_id":76561198322247602,"connected_time":403000000000,"state":"active","ping":60},{"user_id":379,"name":"Breetus","steam_id":76561198142421024,"connected_time":241000000000,"state":"active","ping":64},{"user_id":370,"name":"JellyParrot","steam_id":76561199190990163,"connected_time":871000000000,"state":"active","ping":105},{"user_id":381,"name":"too much peyote","steam_id":76561198161747964,"connected_time":178000000000,"state":"active","ping":93},{"user_id":376,"name":"Nine Inch –òipples","steam_id":76561198149413947,"connected_time":549000000000,"state":"active","ping":56},{"user_id":382,"name":"Riven","steam_id":76561198091701349,"connected_time":169000000000,"state":"active","ping":105}]},{"server_id":19,"name":"Uncletopia | San Francisco | 3 | Stopwatch","name_short":"sfo-3","host":"sfo-1.us.uncletopia.com","port":27035,"enabled":true,"region":"us-west","cc":"us","latitude":37.77397,"longitude":-122.4313,"reserved":0,"last_update":"0001-01-01T00:00:00Z","name_a2s":"Uncletopia | San Francisco | 3 | Stopwatch","protocol":17,"map":"workshop/cp_reckoner_rc6.ugc674719999","folder":"tf","game":"Team Fortress","app_id":440,"player_count":0,"max_players":24,"Bots":0,"server_type":"Dedicated","server_os":"Linux","password":true,"vac":true,"version":"7961495","steam_id":85568392924742824,"keywords":["cp","nocrits","nodmgspread","uncletopia"],"game_id":440,"stv_port":27036,"stv_name":"Uncletopia | San Francisco | 3 | Stopwatch | STV","players":null},{"server_id":20,"name":"Uncletopia | San Francisco | 4 | Community","name_short":"sfo-4","host":"sfo-1.us.uncletopia.com","port":27045,"enabled":true,"region":"us-west","cc":"us","latitude":37.77397,"longitude":-122.4313,"reserved":0,"last_update":"0001-01-01T00:00:00Z","name_a2s":"Uncletopia | San Francisco | 4 | Community","protocol":17,"map":"pl_pier","folder":"tf","game":"Team Fortress","app_id":440,"player_count":0,"max_players":24,"Bots":0,"server_type":"Dedicated","server_os":"Linux","password":true,"vac":true,"version":"7961495","steam_id":85568392924742826,"keywords":["nocrits","nodmgspread","payload","uncletopia"],"game_id":440,"stv_port":27046,"stv_name":"Uncletopia | San Francisco | 4 | Community | STV","players":null},{"server_id":141,"name":"Uncletopia | Sydney | 1 | All Maps","name_short":"syd-1","host":"syd-1.au.uncletopia.com","port":27015,"enabled":true,"region":"au","cc":"au","latitude":-33.865143,"longitude":151.2099,"reserved":0,"last_update":"0001-01-01T00:00:00Z","name_a2s":"Uncletopia | Sydney | 1 | All Maps","protocol":17,"map":"koth_viaduct","folder":"tf","game":"Team Fortress","app_id":440,"player_count":0,"max_players":24,"Bots":0,"server_type":"Dedicated","server_os":"Linux","password":true,"vac":true,"version":"7961495","steam_id":85568392924470001,"keywords":["cp","nocrits","nodmgspread","uncletopia"],"game_id":440,"stv_port":27016,"stv_name":"Uncletopia | Sydney | 1 | All Maps | STV","players":null},{"server_id":123,"name":"Uncletopia | Sydney | 2 | All Maps","name_short":"syd-2","host":"syd-1.au.uncletopia.com","port":27025,"enabled":true,"region":"au","cc":"au","latitude":-33.865143,"longitude":151.2099,"reserved":0,"last_update":"0001-01-01T00:00:00Z","name_a2s":"Uncletopia | Sydney | 2 | All Maps","protocol":17,"map":"koth_lakeside_final","folder":"tf","game":"Team Fortress","app_id":440,"player_count":0,"max_players":24,"Bots":0,"server_type":"Dedicated","server_os":"Linux","password":true,"vac":true,"version":"7961495","steam_id":85568392924470002,"keywords":["cp","nocrits","nodmgspread","uncletopia"],"game_id":440,"stv_port":27026,"stv_name":"Uncletopia | Sydney | 2 | All Maps | STV","players":null},{"server_id":395,"name":"Uncletopia | Sydney | 3 | All Maps","name_short":"syd-3","host":"syd-1.au.uncletopia.com","port":27035,"enabled":true,"region":"au","cc":"au","latitude":-33.865143,"longitude":151.2099,"reserved":0,"last_update":"0001-01-01T00:00:00Z","name_a2s":"Uncletopia | Sydney | 3 | All Maps","protocol":17,"map":"pl_frontier_final","folder":"tf","game":"Team Fortress","app_id":440,"player_count":0,"max_players":24,"Bots":0,"server_type":"Dedicated","server_os":"Linux","password":true,"vac":true,"version":"7961495","steam_id":85568392925194467,"keywords":["nocrits","nodmgspread","payload","uncletopia"],"game_id":440,"stv_port":27036,"stv_name":"Uncletopia | Sydney | 3 | All Maps | STV","players":null},{"server_id":396,"name":"Uncletopia | Sydney | 4 | All Maps","name_short":"syd-4","host":"syd-1.au.uncletopia.com","port":27045,"enabled":true,"region":"au","cc":"au","latitude":-33.865143,"longitude":151.2099,"reserved":0,"last_update":"0001-01-01T00:00:00Z","name_a2s":"Uncletopia | Sydney | 4 | All Maps","protocol":17,"map":"cp_process_final","folder":"tf","game":"Team Fortress","app_id":440,"player_count":0,"max_players":24,"Bots":0,"server_type":"Dedicated","server_os":"Linux","password":true,"vac":true,"version":"7961495","steam_id":85568392925397958,"keywords":["cp","nocrits","nodmgspread","uncletopia"],"game_id":440,"stv_port":27046,"stv_name":"Uncletopia | Sydney | 4 | All Maps | STV","players":null},{"server_id":58,"name":"Uncletopia | Sydney | 5 | Stopwatch","name_short":"syd-5","host":"syd-1.au.uncletopia.com","port":27055,"enabled":true,"region":"au","cc":"au","latitude":-33.865143,"longitude":151.2099,"reserved":0,"last_update":"0001-01-01T00:00:00Z","name_a2s":"Uncletopia | Sydney | 5 | Stopwatch","protocol":17,"map":"pl_frontier_final","folder":"tf","game":"Team Fortress","app_id":440,"player_count":0,"max_players":24,"Bots":0,"server_type":"Dedicated","server_os":"Linux","password":true,"vac":true,"version":"7961495","steam_id":85568392925397959,"keywords":["nocrits","nodmgspread","payload","uncletopia"],"game_id":440,"stv_port":27056,"stv_name":"Uncletopia | Sydney | 5 | Stopwatch | STV","players":null},{"server_id":59,"name":"Uncletopia | Sydney | 6 | Community","name_short":"syd-6","host":"syd-1.au.uncletopia.com","port":27065,"enabled":true,"region":"au","cc":"au","latitude":-33.865143,"longitude":151.2099,"reserved":0,"last_update":"0001-01-01T00:00:00Z","name_a2s":"Uncletopia | Sydney | 6 | Community","protocol":17,"map":"cp_sunshine","folder":"tf","game":"Team Fortress","app_id":440,"player_count":0,"max_players":24,"Bots":0,"server_type":"Dedicated","server_os":"Linux","password":true,"vac":true,"version":"7961495","steam_id":85568392925397960,"keywords":["cp","nocrits","nodmgspread","uncletopia"],"game_id":440,"stv_port":27066,"stv_name":"Uncletopia | Sydney | 6 | Community | STV","players":null},{"server_id":49,"name":"Uncletopia | Warsaw | 1 | All Maps","name_short":"waw-1","host":"waw-1.pl.uncletopia.com","port":27015,"enabled":true,"region":"eu","cc":"pl","latitude":52.2297,"longitude":21.017532,"reserved":0,"last_update":"0001-01-01T00:00:00Z","name_a2s":"Uncletopia | Warsaw | 1 | All Maps","protocol":17,"map":"koth_highpass","folder":"tf","game":"Team Fortress","app_id":440,"player_count":0,"max_players":24,"Bots":0,"server_type":"Dedicated","server_os":"Linux","password":true,"vac":true,"version":"7961495","steam_id":85568392925397850,"keywords":["cp","nocrits","nodmgspread","uncletopia"],"game_id":440,"stv_port":27016,"stv_name":"Uncletopia | Warsaw | 1 | All Maps | STV","players":null},{"server_id":50,"name":"Uncletopia | Warsaw | 2 | All Maps","name_short":"waw-2","host":"waw-1.pl.uncletopia.com","port":27025,"enabled":true,"region":"eu","cc":"pl","latitude":52.2297,"longitude":21.017532,"reserved":0,"last_update":"0001-01-01T00:00:00Z","name_a2s":"Uncletopia | Warsaw | 2 | All Maps","protocol":17,"map":"koth_highpass","folder":"tf","game":"Team Fortress","app_id":440,"player_count":0,"max_players":24,"Bots":0,"server_type":"Dedicated","server_os":"Linux","password":true,"vac":true,"version":"7961495","steam_id":85568392925397851,"keywords":["cp","nocrits","nodmgspread","uncletopia"],"game_id":440,"stv_port":27026,"stv_name":"Uncletopia | Warsaw | 2 | All Maps | STV","players":null},{"server_id":51,"name":"Uncletopia | Warsaw | 3 | All Maps","name_short":"waw-3","host":"waw-1.pl.uncletopia.com","port":27035,"enabled":true,"region":"eu","cc":"pl","latitude":52.2297,"longitude":21.017532,"reserved":0,"last_update":"0001-01-01T00:00:00Z","name_a2s":"Uncletopia | Warsaw | 3 | All Maps","protocol":17,"map":"koth_viaduct","folder":"tf","game":"Team Fortress","app_id":440,"player_count":0,"max_players":24,"Bots":0,"server_type":"Dedicated","server_os":"Linux","password":true,"vac":true,"version":"7961495","steam_id":85568392925397852,"keywords":["cp","nocrits","nodmgspread","uncletopia"],"game_id":440,"stv_port":27036,"stv_name":"Uncletopia | Warsaw | 3 | All Maps | STV","players":null},{"server_id":52,"name":"Uncletopia | Warsaw | 4 | All Maps","name_short":"waw-4","host":"waw-1.pl.uncletopia.com","port":27045,"enabled":true,"region":"eu","cc":"pl","latitude":52.2297,"longitude":21.017532,"reserved":0,"last_update":"0001-01-01T00:00:00Z","name_a2s":"Uncletopia | Warsaw | 4 | All Maps","protocol":17,"map":"cp_altitude","folder":"tf","game":"Team Fortress","app_id":440,"player_count":0,"max_players":24,"Bots":0,"server_type":"Dedicated","server_os":"Linux","password":true,"vac":true,"version":"7961495","steam_id":85568392925397853,"keywords":["cp","nocrits","nodmgspread","uncletopia"],"game_id":440,"stv_port":27046,"stv_name":"Uncletopia | Warsaw | 4 | All Maps | STV","players":null},{"server_id":53,"name":"Uncletopia | Warsaw | 5 | Stopwatch","name_short":"waw-5","host":"waw-1.pl.uncletopia.com","port":27055,"enabled":true,"region":"eu","cc":"pl","latitude":52.2297,"longitude":21.017532,"reserved":0,"last_update":"0001-01-01T00:00:00Z","name_a2s":"Uncletopia | Warsaw | 5 | Stopwatch","protocol":17,"map":"cp_granary","folder":"tf","game":"Team Fortress","app_id":440,"player_count":0,"max_players":24,"Bots":0,"server_type":"Dedicated","server_os":"Linux","password":true,"vac":true,"version":"7961495","steam_id":85568392925397854,"keywords":["cp","nocrits","nodmgspread","uncletopia"],"game_id":440,"stv_port":27056,"stv_name":"Uncletopia | Warsaw | 5 | Stopwatch | STV","players":null},{"server_id":54,"name":"Uncletopia | Warsaw | 6 | Community","name_short":"waw-6","host":"waw-1.pl.uncletopia.com","port":27065,"enabled":true,"region":"eu","cc":"pl","latitude":52.2297,"longitude":21.017532,"reserved":0,"last_update":"0001-01-01T00:00:00Z","name_a2s":"Uncletopia | Warsaw | 6 | Community","protocol":17,"map":"workshop/cp_hazyfort_rc6.ugc1365963729","folder":"tf","game":"Team Fortress","app_id":440,"player_count":0,"max_players":24,"Bots":0,"server_type":"Dedicated","server_os":"Linux","password":true,"vac":true,"version":"7961495","steam_id":85568392925397856,"keywords":["cp","nocrits","nodmgspread","uncletopia"],"game_id":440,"stv_port":27066,"stv_name":"Uncletopia | Warsaw | 6 | Community | STV","players":null}]}