{"status":true,"message":"","result":[{"server_id":9,"name":"Uncletopia | Atlanta | 1 | All Maps","name_short":"atl-1","host":"atl-1.us.uncletopia.com","port":27015,"enabled":true,"region":"us-east","cc":"us","latitude":33.753746,"longitude":-84.38633,"reserved":0,"last_update":"0001-01-01T00:00:00Z","name_a2s":"Uncletopia | Atlanta | 1 | All Maps","protocol":17,"map":"koth_cascade","folder":"tf","game":"Team Fortress","app_id":440,"player_count":3,"max_players":24,"Bots":0,"server_type":"Dedicated","server_os":"Linux","password":true,"vac":true,"version":"7757534","steam_id":85568392924469982,"keywords":["cp","nocrits","nodmgspread","uncletopia"],"game_id":440,"stv_port":27016,"stv_name":"Uncletopia | Atlanta | 1 | All Maps | STV","players":[{"user_id":9,"name":"Joh'Tar Kubo","steam_id":76561199075390591,"connected_time":266000000000,"state":"active","ping":77},{"user_id":10,"name":"Giadanadragon™","steam_id":76561198091373310,"connected_time":126000000000,"state":"active","ping":76},{"user_id":11,"name":"ATL1 | on my hunting trip","steam_id":76561198315341646,"connected_time":62000000000,"state":"active","ping":70}]},{"server_id":104,"name":"Uncletopia | Atlanta | 2 | All Maps","name_short":"atl-2","host":"atl-1.us.uncletopia.com","port":27025,"enabled":true,"region":"us-east","cc":"us","latitude":33.753746,"longitude":-84.38633,"reserved":0,"last_update":"0001-01-01T00:00:00Z","name_a2s":"Uncletopia | Atlanta | 2 | All Maps","protocol":17,"map":"pl_barnblitz","folder":"tf","game":"Team Fortress","app_id":440,"player_count":24,"max_players":24,"Bots":0,"server_type":"Dedicated","server_os":"Linux","password":true,"vac":true,"version":"7757534","steam_id":85568392924469983,"keywords":["nocrits","nodmgspread","payload","uncletopia"],"game_id":440,"stv_port":27026,"stv_name":"Uncletopia | Atlanta | 2 | All Maps | STV","players":[{"user_id":121,"name":"Sea raider","steam_id":76561198123982355,"connected_time":462000000000,"state":"active","ping":84},{"user_id":107,"name":"Red Physical","steam_id":76561198151864382,"connected_time":1728000000000,"state":"active","ping":119},{"user_id":30,"name":"Market.","steam_id":76561198196219378,"connected_time":7280000000000,"state":"active","ping":101},{"user_id":135,"name":"Trans lesbian with a hammer","steam_id":76561198319509387,"connected_time":70000000000,"state":"active","ping":60},{"user_id":101,"name":"Drunkard Bocchi","steam_id":76561198025668771,"connected_time":2460000000000,"state":"active","ping":116},{"user_id":86,"name":"Winkrill","steam_id":76561198108515561,"connected_time":3344000000000,"state":"active","ping":75},{"user_id":47,"name":"lynt","steam_id":76561198988333976,"connected_time":6416000000000,"state":"active","ping":42},{"user_id":103,"name":"Monster","steam_id":76561198189429665,"connected_time":2137000000000,"state":"active","ping":59},{"user_id":124,"name":"heimdall","steam_id":76561198069380992,"connected_time":345000000000,"state":"active","ping":74},{"user_id":122,"name":"MyamE","steam_id":76561198133278462,"connected_time":455000000000,"state":"active","ping":71},{"user_id":92,"name":"Anxious Bird Nerd","steam_id":76561198112178602,"connected_time":3150000000000,"state":"active","ping":114},{"user_id":111,"name":"D(b) Hell","steam_id":76561198067869016,"connected_time":1279000000000,"state":"active","ping":69},{"user_id":127,"name":"Gian","steam_id":76561198041434512,"connected_time":322000000000,"state":"active","ping":99},{"user_id":109,"name":"keffers","steam_id":76561198202338796,"connected_time":1505000000000,"state":"active","ping":100},{"user_id":96,"name":"subway fanpage","steam_id":76561199057369742,"connected_time":2976000000000,"state":"active","ping":103},{"user_id":126,"name":"sentry turret","steam_id":76561198327057433,"connected_time":329000000000,"state":"active","ping":99},{"user_id":137,"name":"floppy muppet","steam_id":76561198003076261,"connected_time":15000000000,"state":"active","ping":70},{"user_id":120,"name":"Jared In Target","steam_id":76561198372449718,"connected_time":487000000000,"state":"active","ping":60},{"user_id":128,"name":"avantime","steam_id":76561199203175541,"connected_time":260000000000,"state":"active","ping":103},{"user_id":79,"name":"shadow elite","steam_id":76561198165212575,"connected_time":3893000000000,"state":"active","ping":84},{"user_id":129,"name":"goooot","steam_id":76561198155591052,"connected_time":247000000000,"state":"active","ping":72},{"user_id":114,"name":"Jin Gulilo","steam_id":76561198065151242,"connected_time":1083000000000,"state":"active","ping":78},{"user_id":40,"name":"I can't heal","steam_id":76561198039763676,"connected_time":7091000000000,"state":"active","ping":48},{"user_id":130,"name":"Rex The Mouse","steam_id":76561197995569428,"connected_time":215000000000,"state":"active","ping":116}]},{"server_id":400,"name":"Uncletopia | Atlanta | 3 | Community","name_short":"atl-3","host":"atl-1.us.uncletopia.com","port":27035,"enabled":true,"region":"us-east","cc":"us","latitude":33.753746,"longitude":-84.38633,"reserved":0,"last_update":"0001-01-01T00:00:00Z","name_a2s":"Uncletopia | Atlanta | 3 | Community","protocol":17,"map":"cp_snakewater_final1","folder":"tf","game":"Team Fortress","app_id":440,"player_count":0,"max_players":24,"Bots":0,"server_type":"Dedicated","server_os":"Linux","password":true,"vac":true,"version":"7757534","steam_id":85568392924515187,"keywords":["cp","nocrits","nodmgspread","uncletopia"],"game_id":440,"stv_port":27036,"stv_name":"Uncletopia | Atlanta | 3 | Community | STV","players":null},{"server_id":401,"name":"Uncletopia | Atlanta | 4 | No Payload","name_short":"atl-4","host":"atl-1.us.uncletopia.com","port":27045,"enabled":true,"region":"us-east","cc":"us","latitude":33.753746,"longitude":-84.38633,"reserved":0,"last_update":"0001-01-01T00:00:00Z","name_a2s":"","protocol":0,"map":"","folder":"","game":"","app_id":0,"player_count":0,"max_players":0,"Bots":0,"server_type":"","server_os":"","password":false,"vac":false,"version":"","steam_id":0,"keywords":null,"game_id":0,"stv_port":0,"stv_name":"","players":null},{"server_id":2,"name":"Uncletopia | Chicago | 1 | All Maps","name_short":"chi-1","host":"chi-1.us.uncletopia.com","port":27015,"enabled":true,"region":"us-central","cc":"us","latitude":41.881832,"longitude":-87.62318,"reserved":0,"last_update":"0001-01-01T00:00:00Z","name_a2s":"Uncletopia | Chicago | 1 | All Maps","protocol":17,"map":"koth_viaduct","folder":"tf","game":"Team Fortress","app_id":440,"player_count":23,"max_players":24,"Bots":0,"server_type":"Dedicated","server_os":"Linux","password":true,"vac":true,"version":"7757534","steam_id":85568392924469984,"keywords":["cp","nocrits","nodmgspread","uncletopia"],"game_id":440,"stv_port":27016,"stv_name":"Uncletopia | Chicago | 1 | All Maps | STV","players":[{"user_id":334,"name":"PajamaPants","steam_id":76561198400306643,"connected_time":240000000000,"state":"active","ping":67},{"user_id":299,"name":"Chinese \"Weather\" Balloon","steam_id":76561198031675881,"connected_time":1774000000000,"state":"active","ping":65},{"user_id":261,"name":"rat","steam_id":76561198271946754,"connected_time":4813000000000,"state":"active","ping":75},{"user_id":310,"name":"DocLucky","steam_id":76561199093899249,"connected_time":1142000000000,"state":"active","ping":160},{"user_id":332,"name":"Claw Finger","steam_id":76561198116408865,"connected_time":460000000000,"state":"active","ping":66},{"user_id":314,"name":"Mimic","steam_id":76561198060164147,"connected_time":1117000000000,"state":"active","ping":57},{"user_id":312,"name":"stupid ape","steam_id":76561198350027075,"connected_time":1127000000000,"state":"active","ping":59},{"user_id":302,"name":"Big Tiddy Serperior","steam_id":76561198114808144,"connected_time":1741000000000,"state":"active","ping":127},{"user_id":309,"name":"Unaware Meat","steam_id":76561198930833101,"connected_time":1364000000000,"state":"active","ping":55},{"user_id":322,"name":"Nassu","steam_id":76561198147367577,"connected_time":771000000000,"state":"active","ping":69},{"user_id":324,"name":"Scorpie Doodle","steam_id":76561198021845763,"connected_time":676000000000,"state":"active","ping":47},{"user_id":305,"name":"GokuBenDragon10","steam_id":76561198219035947,"connected_time":1690000000000,"state":"active","ping":49},{"user_id":269,"name":"poe","steam_id":76561198155720118,"connected_time":4599000000000,"state":"active","ping":53},{"user_id":325,"name":"Vaeltaja","steam_id":76561198058601878,"connected_time":639000000000,"state":"active","ping":193},{"user_id":318,"name":"UWBW","steam_id":76561198007524241,"connected_time":983000000000,"state":"active","ping":64},{"user_id":337,"name":"BurnN8or101","steam_id":76561198132668224,"connected_time":78000000000,"state":"active","ping":54},{"user_id":227,"name":"Brokayo","steam_id":76561198053802723,"connected_time":7648000000000,"state":"active","ping":90},{"user_id":336,"name":"Loops","steam_id":76561198869085259,"connected_time":173000000000,"state":"active","ping":60},{"user_id":293,"name":"PowderLinux","steam_id":76561198876653083,"connected_time":2238000000000,"state":"active","ping":68},{"user_id":327,"name":"jyu","steam_id":76561198077902438,"connected_time":625000000000,"state":"active","ping":75},{"user_id":331,"name":"bear1boss fan","steam_id":76561198047850813,"connected_time":500000000000,"state":"active","ping":90},{"user_id":333,"name":"Monstar","steam_id":76561199050174626,"connected_time":414000000000,"state":"active","ping":60},{"user_id":280,"name":"Veirū Viseris","steam_id":76561197989857176,"connected_time":3260000000000,"state":"active","ping":167}]},{"server_id":106,"name":"Uncletopia | Chicago | 2 | All Maps","name_short":"chi-2","host":"chi-1.us.uncletopia.com","port":27025,"enabled":true,"region":"us-central","cc":"us","latitude":41.881832,"longitude":-87.62318,"reserved":0,"last_update":"0001-01-01T00:00:00Z","name_a2s":"Uncletopia | Chicago | 2 | All Maps","protocol":17,"map":"cp_altitude","folder":"tf","game":"Team Fortress","app_id":440,"player_count":0,"max_players":24,"Bots":0,"server_type":"Dedicated","server_os":"Linux","password":true,"vac":true,"version":"7757534","steam_id":85568392924469985,"keywords":["cp","nocrits","nodmgspread","uncletopia"],"game_id":440,"stv_port":27026,"stv_name":"Uncletopia | Chicago | 2 | All Maps | STV","players":null},{"server_id":402,"name":"Uncletopia | Chicago | 3 | All Maps","name_short":"chi-3","host":"chi-1.us.uncletopia.com","port":27035,"enabled":true,"region":"us-central","cc":"us","latitude":41.881832,"longitude":-87.62318,"reserved":0,"last_update":"0001-01-01T00:00:00Z","name_a2s":"Uncletopia | Chicago | 3 | All Maps","protocol":17,"map":"cp_sunshine","folder":"tf","game":"Team Fortress","app_id":440,"player_count":23,"max_players":24,"Bots":0,"server_type":"Dedicated","server_os":"Linux","password":true,"vac":true,"version":"7757534","steam_id":85568392924515191,"keywords":["cp","nocrits","nodmgspread","uncletopia"],"game_id":440,"stv_port":27036,"stv_name":"Uncletopia | Chicago | 3 | All Maps | STV","players":[{"user_id":162,"name":"Generator","steam_id":76561198011762257,"connected_time":3393000000000,"state":"active","ping":112},{"user_id":208,"name":"SuperFresh","steam_id":76561198200723198,"connected_time":451000000000,"state":"active","ping":43},{"user_id":189,"name":"WatchWill","steam_id":76561198157237945,"connected_time":1774000000000,"state":"active","ping":74},{"user_id":199,"name":"dansci","steam_id":76561198269530717,"connected_time":854000000000,"state":"active","ping":76},{"user_id":188,"name":"banana man","steam_id":76561199385170644,"connected_time":1977000000000,"state":"active","ping":51},{"user_id":211,"name":"RoyDJツ","steam_id":76561198184851991,"connected_time":386000000000,"state":"active","ping":77},{"user_id":192,"name":"[Sc.B.V.G] Eagley Beagley Eagle","steam_id":76561198166730618,"connected_time":1506000000000,"state":"active","ping":87},{"user_id":212,"name":"OneTrueCorvid","steam_id":76561199012953221,"connected_time":312000000000,"state":"active","ping":77},{"user_id":126,"name":"Training Arc","steam_id":76561198038832034,"connected_time":4781000000000,"state":"active","ping":104},{"user_id":207,"name":"The Drunk Clown","steam_id":76561197986850426,"connected_time":540000000000,"state":"active","ping":75},{"user_id":159,"name":"ShadowRose","steam_id":76561199013020408,"connected_time":3450000000000,"state":"active","ping":81},{"user_id":194,"name":"Rat","steam_id":76561199102985277,"connected_time":1449000000000,"state":"active","ping":93},{"user_id":128,"name":"Evolution","steam_id":76561198144767370,"connected_time":4761000000000,"state":"active","ping":45},{"user_id":213,"name":"Sora the Sorcerer","steam_id":76561198162077961,"connected_time":174000000000,"state":"active","ping":72},{"user_id":214,"name":"Sylvia","steam_id":76561198122552711,"connected_time":157000000000,"state":"active","ping":75},{"user_id":215,"name":"Mr. Klauk","steam_id":76561199085666301,"connected_time":137000000000,"state":"active","ping":70},{"user_id":202,"name":"Sir Iasis","steam_id":76561198035666760,"connected_time":716000000000,"state":"active","ping":58},{"user_id":181,"name":"Koffy","steam_id":76561198184386039,"connected_time":2540000000000,"state":"active","ping":106},{"user_id":206,"name":"redwater skooma","steam_id":76561198058013470,"connected_time":557000000000,"state":"active","ping":60},{"user_id":216,"name":"Oxferd Crow","steam_id":76561198096916018,"connected_time":20000000000,"state":"spawning","ping":84},{"user_id":210,"name":"Indicative","steam_id":76561199076612537,"connected_time":414000000000,"state":"active","ping":57},{"user_id":75,"name":"the headphones you lost","steam_id":76561199201098634,"connected_time":8743000000000,"state":"active","ping":60},{"user_id":182,"name":"Fudgely","steam_id":76561198039425862,"connected_time":2540000000000,"state":"active","ping":68}]},{"server_id":403,"name":"Uncletopia | Chicago | 4 | All Maps","name_short":"chi-4","host":"chi-1.us.uncletopia.com","port":27045,"enabled":true,"region":"us-central","cc":"us","latitude":41.881832,"longitude":-87.62318,"reserved":0,"last_update":"0001-01-01T00:00:00Z","name_a2s":"Uncletopia | Chicago | 4 | All Maps","protocol":17,"map":"koth_lakeside_final","folder":"tf","game":"Team Fortress","app_id":440,"player_count":23,"max_players":24,"Bots":0,"server_type":"Dedicated","server_os":"Linux","password":true,"vac":true,"version":"7757534","steam_id":85568392924515193,"keywords":["cp","nocrits","nodmgspread","uncletopia"],"game_id":440,"stv_port":27046,"stv_name":"Uncletopia | Chicago | 4 | All Maps | STV","players":[{"user_id":25,"name":"Soil","steam_id":76561198943879122,"connected_time":1830000000000,"state":"active","ping":62},{"user_id":26,"name":"SEXHATER329","steam_id":76561198101093446,"connected_time":1827000000000,"state":"active","ping":60},{"user_id":27,"name":"Jee","steam_id":76561198237639548,"connected_time":1651000000000,"state":"active","ping":71},{"user_id":28,"name":"Stan","steam_id":76561198209150708,"connected_time":1621000000000,"state":"active","ping":71},{"user_id":29,"name":"Lone Rider","steam_id":76561198091978968,"connected_time":1106000000000,"state":"active","ping":85},{"user_id":30,"name":"Crotonga","steam_id":76561198077178900,"connected_time":1102000000000,"state":"active","ping":53},{"user_id":37,"name":"Franky","steam_id":76561198195091799,"connected_time":952000000000,"state":"active","ping":68},{"user_id":44,"name":"ShadBad","steam_id":76561198248287390,"connected_time":738000000000,"state":"active","ping":101},{"user_id":55,"name":"Tommy Pickles (Very Cool)","steam_id":76561198391261463,"connected_time":34000000000,"state":"active","ping":59},{"user_id":35,"name":"JustCoffee","steam_id":76561199389473180,"connected_time":977000000000,"state":"active","ping":64},{"user_id":36,"name":"dave strider","steam_id":76561198065112186,"connected_time":956000000000,"state":"active","ping":73},{"user_id":38,"name":"QueenPinharam","steam_id":76561199015626409,"connected_time":943000000000,"state":"active","ping":74},{"user_id":39,"name":"Effie","steam_id":76561198261842068,"connected_time":939000000000,"state":"active","ping":89},{"user_id":40,"name":"ṽ⧉ cookie","steam_id":76561197998884823,"connected_time":933000000000,"state":"active","ping":57},{"user_id":41,"name":"ShadowBolt","steam_id":76561198061610985,"connected_time":903000000000,"state":"active","ping":95},{"user_id":42,"name":"Krellah","steam_id":76561198287045069,"connected_time":879000000000,"state":"active","ping":50},{"user_id":48,"name":"GreekGoat_Coffee","steam_id":76561198129331088,"connected_time":577000000000,"state":"active","ping":42},{"user_id":46,"name":"Joe Sloppy","steam_id":76561198130329863,"connected_time":669000000000,"state":"active","ping":56},{"user_id":49,"name":"IanTheAwsm","steam_id":76561198093031738,"connected_time":455000000000,"state":"active","ping":60},{"user_id":51,"name":"angry blimp","steam_id":76561198072592880,"connected_time":201000000000,"state":"active","ping":41},{"user_id":52,"name":"denim repair service","steam_id":76561198075666613,"connected_time":134000000000,"state":"active","ping":90},{"user_id":53,"name":"JazzyParadox","steam_id":76561198919333929,"connected_time":94000000000,"state":"active","ping":175},{"user_id":54,"name":"Magik","steam_id":76561198115443354,"connected_time":44000000000,"state":"active","ping":52}]},{"server_id":36,"name":"Uncletopia | Chicago | 5 | All Maps","name_short":"chi-5","host":"chi-2.us.uncletopia.com","port":27015,"enabled":true,"region":"us-central","cc":"us","latitude":41.881832,"longitude":-87.62318,"reserved":0,"last_update":"0001-01-01T00:00:00Z","name_a2s":"Uncletopia | Chicago | 5 | All Maps","protocol":17,"map":"koth_cascade","folder":"tf","game":"Team Fortress","app_id":440,"player_count":4,"max_players":24,"Bots":0,"server_type":"Dedicated","server_os":"Linux","password":true,"vac":true,"version":"7757534","steam_id":85568392924866362,"keywords":["cp","nocrits","nodmgspread","uncletopia"],"game_id":440,"stv_port":27016,"stv_name":"Uncletopia | Chicago | 5 | All Maps | STV","players":[{"user_id":4,"name":"Nedrog the Lost","steam_id":76561198272270244,"connected_time":202000000000,"state":"active","ping":85},{"user_id":5,"name":"HappyHitchhiker","steam_id":76561198080228697,"connected_time":182000000000,"state":"active","ping":65},{"user_id":6,"name":"TypicalGiftig","steam_id":76561198170372495,"connected_time":174000000000,"state":"active","ping":63},{"user_id":7,"name":"Jeb \"The Captain\" Bush","steam_id":76561198095134205,"connected_time":90000000000,"state":"active","ping":92}]},{"server_id":37,"name":"Uncletopia | Chicago | 6 | All Maps","name_short":"chi-6","host":"chi-2.us.uncletopia.com","port":27025,"enabled":true,"region":"us-central","cc":"us","latitude":41.881832,"longitude":-87.62318,"reserved":0,"last_update":"0001-01-01T00:00:00Z","name_a2s":"Uncletopia | Chicago | 6 | All Maps","protocol":17,"map":"pl_borneo","folder":"tf","game":"Team Fortress","app_id":440,"player_count":0,"max_players":24,"Bots":0,"server_type":"Dedicated","server_os":"Linux","password":true,"vac":true,"version":"7757534","steam_id":85568392924866363,"keywords":["nocrits","nodmgspread","payload","uncletopia"],"game_id":440,"stv_port":27026,"stv_name":"Uncletopia | Chicago | 6 | All Maps | STV","players":null},{"server_id":38,"name":"Uncletopia | Chicago | 7 | Stopwatch Beta","name_short":"chi-7","host":"chi-2.us.uncletopia.com","port":27035,"enabled":true,"region":"us-central","cc":"us","latitude":41.881832,"longitude":-87.62318,"reserved":0,"last_update":"0001-01-01T00:00:00Z","name_a2s":"Uncletopia | Chicago | 7 | Stopwatch Beta","protocol":17,"map":"pl_barnblitz","folder":"tf","game":"Team Fortress","app_id":440,"player_count":0,"max_players":24,"Bots":0,"server_type":"Dedicated","server_os":"Linux","password":true,"vac":true,"version":"7757534","steam_id":85568392924866364,"keywords":["nocrits","nodmgspread","payload","uncletopia"],"game_id":440,"stv_port":27036,"stv_name":"Uncletopia | Chicago | 7 | Stopwatch Beta | STV","players":null},{"server_id":39,"name":"Uncletopia | Chicago | 8 | Community","name_short":"chi-8","host":"chi-2.us.uncletopia.com","port":27045,"enabled":true,"region":"us-central","cc":"us","latitude":41.881832,"longitude":-87.62318,"reserved":0,"last_update":"0001-01-01T00:00:00Z","name_a2s":"Uncletopia | Chicago | 8 | Community","protocol":17,"map":"workshop/pl_cactuscanyon_redux_final1.ugc2579644293","folder":"tf","game":"Team Fortress","app_id":440,"player_count":24,"max_players":24,"Bots":0,"server_type":"Dedicated","server_os":"Linux","password":true,"vac":true,"version":"7757534","steam_id":85568392924866365,"keywords":["nocrits","nodmgspread","payload","uncletopia"],"game_id":440,"stv_port":27046,"stv_name":"Uncletopia | Chicago | 8 | Community | STV","players":[{"user_id":3,"name":"Goofy Goober","steam_id":76561198065361279,"connected_time":3760000000000,"state":"active","ping":82},{"user_id":15,"name":"Aeris","steam_id":76561198287271028,"connected_time":2182000000000,"state":"active","ping":60},{"user_id":5,"name":"ShadowWasUhOh","steam_id":76561198400361935,"connected_time":3232000000000,"state":"active","ping":85},{"user_id":13,"name":"Wizowd","steam_id":76561198167702261,"connected_time":2347000000000,"state":"active","ping":105},{"user_id":14,"name":"Gonotic gnelf","steam_id":76561199135847219,"connected_time":2331000000000,"state":"active","ping":126},{"user_id":16,"name":"nfseskimo","steam_id":76561198078745666,"connected_time":2172000000000,"state":"active","ping":83},{"user_id":40,"name":"Si1entSn1pa","steam_id":76561198170095479,"connected_time":1198000000000,"state":"active","ping":90},{"user_id":50,"name":"Doomagedden","steam_id":76561198272589475,"connected_time":681000000000,"state":"active","ping":78},{"user_id":52,"name":"The Bombinomicon","steam_id":76561198209881263,"connected_time":409000000000,"state":"active","ping":98},{"user_id":34,"name":"PinguEnjoyer6","steam_id":76561199186723516,"connected_time":1444000000000,"state":"active","ping":105},{"user_id":30,"name":"your local forecast","steam_id":76561198042243083,"connected_time":1607000000000,"state":"active","ping":63},{"user_id":23,"name":"Cousin Corn on the Cob","steam_id":76561198049837377,"connected_time":1819000000000,"state":"active","ping":47},{"user_id":24,"name":"BigDogCoach","steam_id":76561198281471331,"connected_time":1805000000000,"state":"active","ping":88},{"user_id":32,"name":"*Gage*","steam_id":76561197975233869,"connected_time":1586000000000,"state":"active","ping":89},{"user_id":41,"name":"Orca?","steam_id":76561198164341099,"connected_time":1193000000000,"state":"active","ping":82},{"user_id":27,"name":"smash2tec","steam_id":76561199171564052,"connected_time":1786000000000,"state":"active","ping":101},{"user_id":53,"name":"☼Barracuda☼","steam_id":76561198013022083,"connected_time":180000000000,"state":"active","ping":58},{"user_id":35,"name":"Guwop","steam_id":76561197970425737,"connected_time":1434000000000,"state":"active","ping":68},{"user_id":51,"name":"bloomerrr","steam_id":76561199468075285,"connected_time":504000000000,"state":"active","ping":84},{"user_id":54,"name":"Gino Fratelli","steam_id":76561198166409300,"connected_time":55000000000,"state":"active","ping":63},{"user_id":42,"name":"I Am Alpharius","steam_id":76561198799197135,"connected_time":1174000000000,"state":"active","ping":63},{"user_id":46,"name":"AnonymouzR011","steam_id":76561198262685906,"connected_time":1146000000000,"state":"active","ping":109},{"user_id":44,"name":"KnockBoots69","steam_id":76561198057528868,"connected_time":1169000000000,"state":"active","ping":97},{"user_id":55,"name":"Big_Based","steam_id":76561198163460226,"connected_time":25000000000,"state":"active","ping":217}]},{"server_id":8,"name":"Uncletopia | Dallas | 1 | All Maps","name_short":"dal-1","host":"dal-1.us.uncletopia.com","port":27015,"enabled":true,"region":"us-central","cc":"us","latitude":32.779167,"longitude":-96.80889,"reserved":0,"last_update":"0001-01-01T00:00:00Z","name_a2s":"Uncletopia | Dallas | 1 | All Maps","protocol":17,"map":"koth_cascade","folder":"tf","game":"Team Fortress","app_id":440,"player_count":0,"max_players":24,"Bots":0,"server_type":"Dedicated","server_os":"Linux","password":true,"vac":true,"version":"7757534","steam_id":85568392924469986,"keywords":["cp","nocrits","nodmgspread","uncletopia"],"game_id":440,"stv_port":27016,"stv_name":"Uncletopia | Dallas | 1 | All Maps | STV","players":null},{"server_id":108,"name":"Uncletopia | Dallas | 2 | All Maps","name_short":"dal-2","host":"dal-1.us.uncletopia.com","port":27025,"enabled":true,"region":"us-central","cc":"us","latitude":32.779167,"longitude":-96.80889,"reserved":0,"last_update":"0001-01-01T00:00:00Z","name_a2s":"Uncletopia | Dallas | 2 | All Maps","protocol":17,"map":"pl_barnblitz","folder":"tf","game":"Team Fortress","app_id":440,"player_count":24,"max_players":24,"Bots":0,"server_type":"Dedicated","server_os":"Linux","password":true,"vac":true,"version":"7757534","steam_id":85568392924469988,"keywords":["nocrits","nodmgspread","payload","uncletopia"],"game_id":440,"stv_port":27026,"stv_name":"Uncletopia | Dallas | 2 | All Maps | STV","players":[{"user_id":265,"name":"chanoc","steam_id":76561198026734746,"connected_time":1386000000000,"state":"active","ping":85},{"user_id":266,"name":"Leapinglionz11","steam_id":76561199216740065,"connected_time":1314000000000,"state":"active","ping":105},{"user_id":185,"name":"wire-guided","steam_id":76561198055407168,"connected_time":10598000000000,"state":"active","ping":75},{"user_id":254,"name":"A Shiny Meat Bicycle","steam_id":76561198358757709,"connected_time":2404000000000,"state":"active","ping":93},{"user_id":252,"name":"Yosh","steam_id":76561198027078899,"connected_time":2598000000000,"state":"active","ping":74},{"user_id":251,"name":"chuckleberry","steam_id":76561197987025017,"connected_time":2619000000000,"state":"active","ping":66},{"user_id":261,"name":"Blue Necromancer","steam_id":76561198275755146,"connected_time":1493000000000,"state":"active","ping":88},{"user_id":262,"name":"ZimuxNowChock","steam_id":76561198799942265,"connected_time":1464000000000,"state":"active","ping":105},{"user_id":274,"name":"the lazy gamer","steam_id":76561199070127039,"connected_time":100000000000,"state":"active","ping":123},{"user_id":270,"name":"Funboringness","steam_id":76561198115648071,"connected_time":482000000000,"state":"active","ping":43},{"user_id":271,"name":"PLak-PlaK","steam_id":76561198115688122,"connected_time":302000000000,"state":"active","ping":94},{"user_id":129,"name":"endo","steam_id":76561197995204381,"connected_time":16533000000000,"state":"active","ping":77},{"user_id":249,"name":"Dreamy \u003c3","steam_id":76561198129908521,"connected_time":3109000000000,"state":"active","ping":75},{"user_id":241,"name":"【 caden / karma 】","steam_id":76561198072276429,"connected_time":4201000000000,"state":"active","ping":84},{"user_id":141,"name":"smugdoug","steam_id":76561198021381678,"connected_time":15570000000000,"state":"active","ping":77},{"user_id":236,"name":"Raizen","steam_id":76561199092445367,"connected_time":5196000000000,"state":"active","ping":73},{"user_id":257,"name":"CORONA™ and friends","steam_id":76561198342011115,"connected_time":1674000000000,"state":"active","ping":65},{"user_id":211,"name":"Voraxic","steam_id":76561198148266239,"connected_time":7709000000000,"state":"active","ping":72},{"user_id":263,"name":"porz","steam_id":76561198195711453,"connected_time":1453000000000,"state":"active","ping":48},{"user_id":253,"name":"Parker","steam_id":76561198046044893,"connected_time":2595000000000,"state":"active","ping":76},{"user_id":268,"name":"hud_saytext_time 0","steam_id":76561198010327228,"connected_time":1029000000000,"state":"active","ping":185},{"user_id":264,"name":"Peeky","steam_id":76561198049656090,"connected_time":1452000000000,"state":"active","ping":55},{"user_id":250,"name":"Literally a Trans Woman","steam_id":76561198054639925,"connected_time":3105000000000,"state":"active","ping":87},{"user_id":124,"name":"Joe Swanson","steam_id":76561199089907740,"connected_time":17472000000000,"state":"active","ping":65}]},{"server_id":5,"name":"Uncletopia | Frankfurt | 1 | All Maps","name_short":"frk-1","host":"frk-1.de.uncletopia.com","port":27015,"enabled":true,"region":"eu","cc":"de","latitude":50.110924,"longitude":8.682127,"reserved":0,"last_update":"0001-01-01T00:00:00Z","name_a2s":"Uncletopia | Frankfurt | 1 | All Maps","protocol":17,"map":"pl_upward","folder":"tf","game":"Team Fortress","app_id":440,"player_count":4,"max_players":24,"Bots":0,"server_type":"Dedicated","server_os":"Linux","password":true,"vac":true,"version":"7757534","steam_id":85568392924469989,"keywords":["nocrits","nodmgspread","payload","uncletopia"],"game_id":440,"stv_port":27016,"stv_name":"Uncletopia | Frankfurt | 1 | All Maps | STV","players":[{"user_id":20,"name":"Torttu","steam_id":76561198013980029,"connected_time":358000000000,"state":"active","ping":58},{"user_id":22,"name":"Kuntmeister","steam_id":76561198016076012,"connected_time":275000000000,"state":"active","ping":122},{"user_id":24,"name":"nibs","steam_id":76561198040099538,"connected_time":192000000000,"state":"active","ping":75},{"user_id":26,"name":"THE MICROWAVER","steam_id":76561198327068020,"connected_time":48000000000,"state":"active","ping":70}]},{"server_id":110,"name":"Uncletopia | Frankfurt | 2 | All Maps","name_short":"frk-2","host":"frk-1.de.uncletopia.com","port":27025,"enabled":true,"region":"eu","cc":"de","latitude":50.110924,"longitude":8.682127,"reserved":0,"last_update":"0001-01-01T00:00:00Z","name_a2s":"Uncletopia | Frankfurt | 2 | All Maps","protocol":17,"map":"koth_lakeside_final","folder":"tf","game":"Team Fortress","app_id":440,"player_count":1,"max_players":24,"Bots":0,"server_type":"Dedicated","server_os":"Linux","password":true,"vac":true,"version":"7757534","steam_id":85568392924469990,"keywords":["cp","nocrits","nodmgspread","uncletopia"],"game_id":440,"stv_port":27026,"stv_name":"Uncletopia | Frankfurt | 2 | All Maps | STV","players":[{"user_id":21,"name":"Animatic","steam_id":76561198186421601,"connected_time":5000000000,"state":"spawning","ping":177}]},{"server_id":308,"name":"Uncletopia | Frankfurt | 3 | All Maps","name_short":"frk-3","host":"frk-1.de.uncletopia.com","port":27035,"enabled":true,"region":"eu","cc":"de","latitude":50.110924,"longitude":8.682127,"reserved":0,"last_update":"0001-01-01T00:00:00Z","name_a2s":"Uncletopia | Frankfurt | 3 | All Maps","protocol":17,"map":"cp_process_final","folder":"tf","game":"Team Fortress","app_id":440,"player_count":14,"max_players":24,"Bots":0,"server_type":"Dedicated","server_os":"Linux","password":true,"vac":true,"version":"7757534","steam_id":85568392924504274,"keywords":["cp","nocrits","nodmgspread","uncletopia"],"game_id":440,"stv_port":27036,"stv_name":"Uncletopia | Frankfurt | 3 | All Maps | STV","players":[{"user_id":516,"name":"Josh","steam_id":76561198274546904,"connected_time":78000000000,"state":"active","ping":133},{"user_id":517,"name":"chrisOnFire","steam_id":76561199093219473,"connected_time":61000000000,"state":"active","ping":70},{"user_id":498,"name":"Mr.Schnittlauch","steam_id":76561198295868113,"connected_time":1858000000000,"state":"active","ping":54},{"user_id":510,"name":"happeanes","steam_id":76561198044293799,"connected_time":515000000000,"state":"active","ping":60},{"user_id":508,"name":"Joe","steam_id":76561198061717026,"connected_time":1124000000000,"state":"active","ping":52},{"user_id":489,"name":"Shaddow","steam_id":76561198105348049,"connected_time":2614000000000,"state":"active","ping":60},{"user_id":515,"name":"adamΔ","steam_id":76561199007826093,"connected_time":84000000000,"state":"active","ping":83},{"user_id":518,"name":"monky","steam_id":76561199380595946,"connected_time":10000000000,"state":"spawning","ping":57},{"user_id":509,"name":"cat","steam_id":76561198037237664,"connected_time":722000000000,"state":"active","ping":63},{"user_id":492,"name":"giclure :;","steam_id":76561197986362828,"connected_time":2307000000000,"state":"active","ping":54},{"user_id":512,"name":"Caliban","steam_id":76561197999696839,"connected_time":414000000000,"state":"active","ping":101},{"user_id":483,"name":"finbar","steam_id":76561198056812396,"connected_time":2897000000000,"state":"active","ping":79},{"user_id":488,"name":"Chez","steam_id":76561198150315584,"connected_time":2689000000000,"state":"active","ping":60},{"user_id":502,"name":"Piox","steam_id":76561198125689157,"connected_time":1285000000000,"state":"active","ping":87}]},{"server_id":309,"name":"Uncletopia | Frankfurt | 4 | All Maps","name_short":"frk-4","host":"frk-1.de.uncletopia.com","port":27045,"enabled":true,"region":"eu","cc":"de","latitude":50.110924,"longitude":8.682127,"reserved":0,"last_update":"0001-01-01T00:00:00Z","name_a2s":"Uncletopia | Frankfurt | 4 | All Maps","protocol":17,"map":"koth_cascade","folder":"tf","game":"Team Fortress","app_id":440,"player_count":0,"max_players":24,"Bots":0,"server_type":"Dedicated","server_os":"Linux","password":true,"vac":true,"version":"7757534","steam_id":85568392924504275,"keywords":["cp","nocrits","nodmgspread","uncletopia"],"game_id":440,"stv_port":27046,"stv_name":"Uncletopia | Frankfurt | 4 | All Maps | STV","players":null},{"server_id":310,"name":"Uncletopia | Frankfurt | 5 | All Maps","name_short":"frk-5","host":"frk-1.de.uncletopia.com","port":27055,"enabled":true,"region":"eu","cc":"de","latitude":50.110924,"longitude":8.682127,"reserved":0,"last_update":"0001-01-01T00:00:00Z","name_a2s":"Uncletopia | Frankfurt | 5 | All Maps","protocol":17,"map":"cp_dustbowl","folder":"tf","game":"Team Fortress","app_id":440,"player_count":23,"max_players":24,"Bots":0,"server_type":"Dedicated","server_os":"Linux","password":true,"vac":true,"version":"7757534","steam_id":85568392924504277,"keywords":["cp","nocrits","nodmgspread","uncletopia"],"game_id":440,"stv_port":27056,"stv_name":"Uncletopia | Frankfurt | 5 | All Maps | STV","players":[{"user_id":379,"name":"rob","steam_id":76561198122211848,"connected_time":3367000000000,"state":"active","ping":105},{"user_id":414,"name":"AwterSix","steam_id":76561198042561678,"connected_time":2074000000000,"state":"active","ping":55},{"user_id":361,"name":"Falamp™","steam_id":76561198300127856,"connected_time":4600000000000,"state":"active","ping":82},{"user_id":401,"name":"SaSSolino","steam_id":76561198011308018,"connected_time":2451000000000,"state":"active","ping":55},{"user_id":345,"name":"Milca_11 [Original Onslaught]","steam_id":76561198848650365,"connected_time":5507000000000,"state":"active","ping":91},{"user_id":484,"name":"Huscper","steam_id":76561198106229481,"connected_time":29000000000,"state":"active","ping":81},{"user_id":398,"name":"Spritiy(GER)","steam_id":76561198187178819,"connected_time":2688000000000,"state":"active","ping":59},{"user_id":433,"name":"Senator Armstrong","steam_id":76561198984346408,"connected_time":1538000000000,"state":"active","ping":81},{"user_id":369,"name":"MoistMomMauler","steam_id":76561198069359049,"connected_time":3450000000000,"state":"active","ping":81},{"user_id":454,"name":".apo","steam_id":76561198003042239,"connected_time":1048000000000,"state":"active","ping":56},{"user_id":459,"name":"Manslayer","steam_id":76561198063956707,"connected_time":815000000000,"state":"active","ping":56},{"user_id":382,"name":"Meth","steam_id":76561199300394949,"connected_time":3307000000000,"state":"active","ping":55},{"user_id":434,"name":"Hegyi tahó F2P","steam_id":76561199219150356,"connected_time":1493000000000,"state":"active","ping":80},{"user_id":464,"name":"Yoinky Sploinky","steam_id":76561198984090881,"connected_time":659000000000,"state":"active","ping":93},{"user_id":437,"name":":)","steam_id":76561198039964082,"connected_time":1403000000000,"state":"active","ping":62},{"user_id":391,"name":"DeCypher [She/Her]","steam_id":76561198171992619,"connected_time":3016000000000,"state":"active","ping":66},{"user_id":443,"name":"Cypher","steam_id":76561197996967254,"connected_time":1238000000000,"state":"active","ping":56},{"user_id":436,"name":"Tyra","steam_id":76561198043739064,"connected_time":1470000000000,"state":"active","ping":74},{"user_id":471,"name":"onion knight","steam_id":76561198328543549,"connected_time":444000000000,"state":"active","ping":91},{"user_id":417,"name":"a straight white male","steam_id":76561198381120660,"connected_time":1972000000000,"state":"active","ping":89},{"user_id":439,"name":"Erates","steam_id":76561197968707211,"connected_time":1390000000000,"state":"active","ping":59},{"user_id":431,"name":"Lux","steam_id":76561198060417740,"connected_time":1608000000000,"state":"active","ping":48},{"user_id":453,"name":"Kron Krian","steam_id":76561198122541754,"connected_time":1060000000000,"state":"active","ping":76}]},{"server_id":311,"name":"Uncletopia | Frankfurt | 6 | All Maps","name_short":"frk-6","host":"frk-1.de.uncletopia.com","port":27065,"enabled":true,"region":"eu","cc":"de","latitude":50.110924,"longitude":8.682127,"reserved":0,"last_update":"0001-01-01T00:00:00Z","name_a2s":"Uncletopia | Frankfurt | 6 | All Maps","protocol":17,"map":"pl_frontier_final","folder":"tf","game":"Team Fortress","app_id":440,"player_count":24,"max_players":24,"Bots":0,"server_type":"Dedicated","server_os":"Linux","password":true,"vac":true,"version":"7757534","steam_id":85568392924504278,"keywords":["nocrits","nodmgspread","payload","uncletopia"],"game_id":440,"stv_port":27066,"stv_name":"Uncletopia | Frankfurt | 6 | All Maps | STV","players":[{"user_id":191,"name":"(wm) Das Fleisch","steam_id":76561198001250715,"connected_time":2700000000000,"state":"active","ping":58},{"user_id":214,"name":"BeefHammer","steam_id":76561198078426223,"connected_time":1065000000000,"state":"active","ping":105},{"user_id":161,"name":"bigwish | bmod.tf","steam_id":76561197997859723,"connected_time":4928000000000,"state":"active","ping":75},{"user_id":176,"name":"Steve Jobless","steam_id":76561198183949987,"connected_time":4020000000000,"state":"active","ping":68},{"user_id":213,"name":"Spetse","steam_id":76561197990649972,"connected_time":1098000000000,"state":"active","ping":95},{"user_id":223,"name":"Doriian","steam_id":76561198071438810,"connected_time":684000000000,"state":"active","ping":75},{"user_id":170,"name":"medicinal man","steam_id":76561198202668788,"connected_time":4074000000000,"state":"active","ping":54},{"user_id":205,"name":"e36 1.8","steam_id":76561198134203031,"connected_time":2001000000000,"state":"active","ping":60},{"user_id":201,"name":"Nag","steam_id":76561197970488206,"connected_time":2267000000000,"state":"active","ping":84},{"user_id":207,"name":"Clitorina","steam_id":76561198077570815,"connected_time":1430000000000,"state":"active","ping":58},{"user_id":194,"name":"bogan","steam_id":76561198121336735,"connected_time":2665000000000,"state":"active","ping":56},{"user_id":221,"name":"Ampior","steam_id":76561198808630323,"connected_time":847000000000,"state":"active","ping":91},{"user_id":216,"name":"Acanda","steam_id":76561198123246537,"connected_time":1060000000000,"state":"active","ping":58},{"user_id":224,"name":"w0rm","steam_id":76561197981402363,"connected_time":240000000000,"state":"active","ping":60},{"user_id":208,"name":"After8","steam_id":76561198090750865,"connected_time":1386000000000,"state":"active","ping":70},{"user_id":182,"name":"decommandpro","steam_id":76561198971647041,"connected_time":3341000000000,"state":"active","ping":116},{"user_id":226,"name":"Perci","steam_id":76561198097789669,"connected_time":187000000000,"state":"active","ping":61},{"user_id":157,"name":"Penis Contortionist","steam_id":76561198073663784,"connected_time":5182000000000,"state":"active","ping":51},{"user_id":219,"name":"Valoxi","steam_id":76561197995042938,"connected_time":1021000000000,"state":"active","ping":66},{"user_id":189,"name":"Trebox78","steam_id":76561198071963357,"connected_time":2871000000000,"state":"active","ping":84},{"user_id":220,"name":"AwLp","steam_id":76561197973959824,"connected_time":908000000000,"state":"active","ping":134},{"user_id":177,"name":"benifis163","steam_id":76561198420973492,"connected_time":4018000000000,"state":"active","ping":104},{"user_id":227,"name":"Cheers Mate!","steam_id":76561198265192382,"connected_time":127000000000,"state":"active","ping":63},{"user_id":210,"name":"RadialMount","steam_id":76561198063002562,"connected_time":1352000000000,"state":"active","ping":66}]},{"server_id":23,"name":"Uncletopia | Frankfurt | 7 | Stopwatch Beta","name_short":"frk-7","host":"frk-1.de.uncletopia.com","port":27075,"enabled":true,"region":"eu","cc":"de","latitude":50.110924,"longitude":8.682127,"reserved":0,"last_update":"0001-01-01T00:00:00Z","name_a2s":"Uncletopia | Frankfurt | 7 | Stopwatch Beta","protocol":17,"map":"workshop/koth_ramjam_rc1.ugc459778887","folder":"tf","game":"Team Fortress","app_id":440,"player_count":4,"max_players":24,"Bots":0,"server_type":"Dedicated","server_os":"Linux","password":true,"vac":true,"version":"7757534","steam_id":85568392924742827,"keywords":["cp","nocrits","nodmgspread","uncletopia"],"game_id":440,"stv_port":27076,"stv_name":"Uncletopia | Frankfurt | 7 | Stopwatch Beta | STV","players":[{"user_id":7,"name":"Truegr","steam_id":76561198811912339,"connected_time":985000000000,"state":"active","ping":72},{"user_id":8,"name":"fried","steam_id":76561198307522022,"connected_time":974000000000,"state":"active","ping":45},{"user_id":9,"name":"cast iron skillet","steam_id":76561199105861570,"connected_time":683000000000,"state":"active","ping":64},{"user_id":10,"name":"☆MiNTERRRRR☆","steam_id":76561198799866156,"connected_time":589000000000,"state":"active","ping":113}]},{"server_id":24,"name":"Uncletopia | Frankfurt | 8 | Community","name_short":"frk-8","host":"frk-1.de.uncletopia.com","port":27085,"enabled":true,"region":"eu","cc":"de","latitude":50.110924,"longitude":8.682127,"reserved":0,"last_update":"0001-01-01T00:00:00Z","name_a2s":"Uncletopia | Frankfurt | 8 | Community","protocol":17,"map":"workshop/koth_ashville_final.ugc2130459942","folder":"tf","game":"Team Fortress","app_id":440,"player_count":0,"max_players":24,"Bots":0,"server_type":"Dedicated","server_os":"Linux","password":true,"vac":true,"version":"7757534","steam_id":85568392924742828,"keywords":["cp","nocrits","nodmgspread","uncletopia"],"game_id":440,"stv_port":27086,"stv_name":"Uncletopia | Frankfurt | 8 | Community | STV","players":null},{"server_id":202,"name":"Uncletopia | Hong Kong | 1 | All Maps","name_short":"hgk-1","host":"hgk-1.hk.uncletopia.com","port":27015,"enabled":true,"region":"asia","cc":"hk","latitude":22.302711,"longitude":114.177216,"reserved":0,"last_update":"0001-01-01T00:00:00Z","name_a2s":"Uncletopia | Hong Kong | 1 | All Maps","protocol":17,"map":"koth_cascade","folder":"tf","game":"Team Fortress","app_id":440,"player_count":0,"max_players":24,"Bots":0,"server_type":"Dedicated","server_os":"Linux","password":true,"vac":true,"version":"7757534","steam_id":85568392924494504,"keywords":["cp","nocrits","nodmgspread","uncletopia"],"game_id":440,"stv_port":27016,"stv_name":"Uncletopia | Hong Kong | 1 | All Maps | STV","players":null},{"server_id":1,"name":"Uncletopia | Los Angeles | 1 | All Maps","name_short":"lax-1","host":"lax-1.us.uncletopia.com","port":27015,"enabled":true,"region":"us-west","cc":"us","latitude":33.94279,"longitude":-118.41004,"reserved":0,"last_update":"0001-01-01T00:00:00Z","name_a2s":"Uncletopia | Los Angeles | 1 | All Maps","protocol":17,"map":"koth_lakeside_final","folder":"tf","game":"Team Fortress","app_id":440,"player_count":0,"max_players":24,"Bots":0,"server_type":"Dedicated","server_os":"Linux","password":true,"vac":true,"version":"7757534","steam_id":85568392924469991,"keywords":["cp","nocrits","nodmgspread","uncletopia"],"game_id":440,"stv_port":27016,"stv_name":"Uncletopia | Los Angeles | 1 | All Maps | STV","players":null},{"server_id":112,"name":"Uncletopia | Los Angeles | 2 | All Maps","name_short":"lax-2","host":"lax-1.us.uncletopia.com","port":27025,"enabled":true,"region":"us-west","cc":"us","latitude":33.94279,"longitude":-118.41004,"reserved":0,"last_update":"0001-01-01T00:00:00Z","name_a2s":"Uncletopia | Los Angeles | 2 | All Maps","protocol":17,"map":"pl_badwater","folder":"tf","game":"Team Fortress","app_id":440,"player_count":0,"max_players":24,"Bots":0,"server_type":"Dedicated","server_os":"Linux","password":true,"vac":true,"version":"7757534","steam_id":85568392924469992,"keywords":["nocrits","nodmgspread","payload","uncletopia"],"game_id":440,"stv_port":27026,"stv_name":"Uncletopia | Los Angeles | 2 | All Maps | STV","players":null},{"server_id":324,"name":"Uncletopia | Los Angeles | 3 | All Maps","name_short":"lax-3","host":"lax-1.us.uncletopia.com","port":27035,"enabled":true,"region":"us-west","cc":"us","latitude":33.94279,"longitude":-118.41004,"reserved":0,"last_update":"0001-01-01T00:00:00Z","name_a2s":"Uncletopia | Los Angeles | 3 | All Maps","protocol":17,"map":"pl_barnblitz","folder":"tf","game":"Team Fortress","app_id":440,"player_count":0,"max_players":24,"Bots":0,"server_type":"Dedicated","server_os":"Linux","password":true,"vac":true,"version":"7757534","steam_id":85568392924510198,"keywords":["nocrits","nodmgspread","payload","uncletopia"],"game_id":440,"stv_port":27036,"stv_name":"Uncletopia | Los Angeles | 3 | All Maps | STV","players":null},{"server_id":25,"name":"Uncletopia | Los Angeles | 4 | Stopwatch Beta","name_short":"lax-4","host":"lax-1.us.uncletopia.com","port":27045,"enabled":true,"region":"us-west","cc":"us","latitude":33.94279,"longitude":-118.41004,"reserved":0,"last_update":"0001-01-01T00:00:00Z","name_a2s":"Uncletopia | Los Angeles | 4 | Stopwatch Beta","protocol":17,"map":"pl_swiftwater_final1","folder":"tf","game":"Team Fortress","app_id":440,"player_count":0,"max_players":24,"Bots":0,"server_type":"Dedicated","server_os":"Linux","password":true,"vac":true,"version":"7757534","steam_id":85568392924510199,"keywords":["nocrits","nodmgspread","payload","uncletopia"],"game_id":440,"stv_port":27046,"stv_name":"Uncletopia | Los Angeles | 4 | Stopwatch Beta | STV","players":null},{"server_id":11,"name":"Uncletopia | London | 1 | All Maps","name_short":"lon-1","host":"lon-1.uk.uncletopia.com","port":27015,"enabled":true,"region":"eu","cc":"gb","latitude":51.509865,"longitude":-0.118092,"reserved":0,"last_update":"0001-01-01T00:00:00Z","name_a2s":"Uncletopia | London | 1 | All Maps","protocol":17,"map":"pl_badwater","folder":"tf","game":"Team Fortress","app_id":440,"player_count":23,"max_players":24,"Bots":0,"server_type":"Dedicated","server_os":"Linux","password":true,"vac":true,"version":"7757534","steam_id":85568392924367362,"keywords":["nocrits","nodmgspread","payload","uncletopia"],"game_id":440,"stv_port":27016,"stv_name":"Uncletopia | London | 1 | All Maps | STV","players":[{"user_id":480,"name":"on1on (roughly chopped)","steam_id":76561197995304137,"connected_time":2208000000000,"state":"active","ping":71},{"user_id":508,"name":"mike erhmentraut","steam_id":76561199025378498,"connected_time":74000000000,"state":"active","ping":44},{"user_id":448,"name":"Bobirulez","steam_id":76561198009125458,"connected_time":3990000000000,"state":"active","ping":68},{"user_id":487,"name":"Hey, I´m Andy!","steam_id":76561198060337777,"connected_time":1130000000000,"state":"active","ping":85},{"user_id":476,"name":"[O\u0026O]YaboiDucki","steam_id":76561198195976589,"connected_time":2580000000000,"state":"active","ping":72},{"user_id":509,"name":"yaldabaoth","steam_id":76561198084606869,"connected_time":72000000000,"state":"active","ping":127},{"user_id":510,"name":"=PB=","steam_id":76561197999146612,"connected_time":47000000000,"state":"active","ping":44},{"user_id":488,"name":"AfricanCommie lft","steam_id":76561198798803845,"connected_time":1129000000000,"state":"active","ping":45},{"user_id":498,"name":"TheBeardedM1G","steam_id":76561198040208946,"connected_time":686000000000,"state":"active","ping":53},{"user_id":439,"name":"iattwink","steam_id":76561198963378933,"connected_time":4957000000000,"state":"active","ping":42},{"user_id":497,"name":"phos","steam_id":76561198173383621,"connected_time":772000000000,"state":"active","ping":75},{"user_id":475,"name":"cheriberry","steam_id":76561198093577036,"connected_time":2624000000000,"state":"active","ping":61},{"user_id":444,"name":"jge","steam_id":76561198123186387,"connected_time":4732000000000,"state":"active","ping":57},{"user_id":500,"name":"trite","steam_id":76561197983765323,"connected_time":655000000000,"state":"active","ping":51},{"user_id":506,"name":"i5","steam_id":76561198212702751,"connected_time":333000000000,"state":"active","ping":90},{"user_id":495,"name":"Luk3","steam_id":76561198340519063,"connected_time":840000000000,"state":"active","ping":56},{"user_id":452,"name":"Ged","steam_id":76561198079288943,"connected_time":3738000000000,"state":"active","ping":107},{"user_id":503,"name":"Riel","steam_id":76561198066017633,"connected_time":407000000000,"state":"active","ping":74},{"user_id":473,"name":"Carl","steam_id":76561198045638738,"connected_time":2643000000000,"state":"active","ping":84},{"user_id":499,"name":"Tomo -ƒ$-","steam_id":76561199015097595,"connected_time":683000000000,"state":"active","ping":45},{"user_id":443,"name":"™⁧⁧乃ȽOOD PRINCΞ","steam_id":76561198137835796,"connected_time":4806000000000,"state":"active","ping":61},{"user_id":485,"name":"Procrastination","steam_id":76561198060012688,"connected_time":1280000000000,"state":"active","ping":62},{"user_id":455,"name":"Alexandre","steam_id":76561198121784446,"connected_time":3672000000000,"state":"active","ping":36}]},{"server_id":114,"name":"Uncletopia | London | 2 | All Maps","name_short":"lon-2","host":"lon-1.uk.uncletopia.com","port":27025,"enabled":true,"region":"eu","cc":"gb","latitude":51.509865,"longitude":-0.118092,"reserved":0,"last_update":"0001-01-01T00:00:00Z","name_a2s":"Uncletopia | London | 2 | All Maps","protocol":17,"map":"koth_cascade","folder":"tf","game":"Team Fortress","app_id":440,"player_count":23,"max_players":24,"Bots":0,"server_type":"Dedicated","server_os":"Linux","password":true,"vac":true,"version":"7757534","steam_id":85568392924470941,"keywords":["cp","nocrits","nodmgspread","uncletopia"],"game_id":440,"stv_port":27026,"stv_name":"Uncletopia | London | 2 | All Maps | STV","players":[{"user_id":287,"name":"tam","steam_id":76561199472600621,"connected_time":27000000000,"state":"active","ping":130},{"user_id":269,"name":"Trench_Hands","steam_id":76561198063348835,"connected_time":1284000000000,"state":"active","ping":66},{"user_id":285,"name":"-gunripp0r^be / Obelix^","steam_id":76561197999306879,"connected_time":191000000000,"state":"active","ping":82},{"user_id":283,"name":"iq drops","steam_id":76561198035795130,"connected_time":489000000000,"state":"active","ping":66},{"user_id":255,"name":"Soup Dog","steam_id":76561198237878322,"connected_time":1601000000000,"state":"active","ping":67},{"user_id":243,"name":"KillerQueen (he/they/she)","steam_id":76561199019399725,"connected_time":1930000000000,"state":"active","ping":50},{"user_id":278,"name":"kotamine","steam_id":76561198068907991,"connected_time":697000000000,"state":"active","ping":69},{"user_id":248,"name":"dfhfhjd #savetf2","steam_id":76561198170036665,"connected_time":1814000000000,"state":"active","ping":92},{"user_id":264,"name":"DocTwoEight","steam_id":76561198153488940,"connected_time":1399000000000,"state":"active","ping":76},{"user_id":279,"name":"madman hesus","steam_id":76561198159702599,"connected_time":654000000000,"state":"active","ping":88},{"user_id":244,"name":"psilo","steam_id":76561198148059714,"connected_time":1921000000000,"state":"active","ping":111},{"user_id":245,"name":"Anonymous47007","steam_id":76561199005211417,"connected_time":1877000000000,"state":"active","ping":83},{"user_id":265,"name":"Carrot Arc","steam_id":76561198164957006,"connected_time":1397000000000,"state":"active","ping":84},{"user_id":286,"name":"Dwevy","steam_id":76561198090379437,"connected_time":63000000000,"state":"active","ping":45},{"user_id":236,"name":"washed up","steam_id":76561198275742101,"connected_time":2373000000000,"state":"active","ping":70},{"user_id":277,"name":"★","steam_id":76561198080168182,"connected_time":875000000000,"state":"active","ping":104},{"user_id":284,"name":"Stabbyratbag","steam_id":76561198119531916,"connected_time":260000000000,"state":"active","ping":44},{"user_id":222,"name":"Taez","steam_id":76561198261820803,"connected_time":3371000000000,"state":"active","ping":61},{"user_id":267,"name":"Egtu","steam_id":76561198013757235,"connected_time":1377000000000,"state":"active","ping":75},{"user_id":276,"name":"Edison Trent","steam_id":76561198067133145,"connected_time":888000000000,"state":"active","ping":64},{"user_id":281,"name":"Weenie Hut Jr's","steam_id":76561198050515739,"connected_time":546000000000,"state":"active","ping":46},{"user_id":262,"name":"soupcanneet","steam_id":76561199477038885,"connected_time":1487000000000,"state":"active","ping":73},{"user_id":232,"name":"Gnarville","steam_id":76561198006373329,"connected_time":2851000000000,"state":"active","ping":51}]},{"server_id":320,"name":"Uncletopia | London | 3 | All Maps","name_short":"lon-3","host":"lon-1.uk.uncletopia.com","port":27035,"enabled":true,"region":"eu","cc":"gb","latitude":51.509865,"longitude":-0.118092,"reserved":0,"last_update":"0001-01-01T00:00:00Z","name_a2s":"Uncletopia | London | 3 | All Maps","protocol":17,"map":"pl_badwater","folder":"tf","game":"Team Fortress","app_id":440,"player_count":24,"max_players":24,"Bots":0,"server_type":"Dedicated","server_os":"Linux","password":true,"vac":true,"version":"7757534","steam_id":85568392924510192,"keywords":["nocrits","nodmgspread","payload","uncletopia"],"game_id":440,"stv_port":27036,"stv_name":"Uncletopia | London | 3 | All Maps | STV","players":[{"user_id":377,"name":"The Mechanic","steam_id":76561198198340977,"connected_time":1030000000000,"state":"active","ping":66},{"user_id":247,"name":"Peat","steam_id":76561197992168067,"connected_time":8438000000000,"state":"active","ping":67},{"user_id":395,"name":"Egor Pomidor","steam_id":76561199175688390,"connected_time":19000000000,"state":"active","ping":89},{"user_id":371,"name":"KLAMA  ❤","steam_id":76561198351549661,"connected_time":1244000000000,"state":"active","ping":75},{"user_id":340,"name":"Semblance","steam_id":76561198154463052,"connected_time":2927000000000,"state":"active","ping":60},{"user_id":387,"name":"Topia","steam_id":76561198163571788,"connected_time":363000000000,"state":"active","ping":86},{"user_id":379,"name":"Butt taste tester","steam_id":76561198274105878,"connected_time":682000000000,"state":"active","ping":96},{"user_id":305,"name":"ran is running","steam_id":76561199443185667,"connected_time":5618000000000,"state":"active","ping":126},{"user_id":355,"name":"garry","steam_id":76561198019078145,"connected_time":1727000000000,"state":"active","ping":90},{"user_id":372,"name":"Kestrel","steam_id":76561198144033005,"connected_time":1213000000000,"state":"active","ping":49},{"user_id":381,"name":"justin_ (f2p) (real)","steam_id":76561198839843428,"connected_time":619000000000,"state":"active","ping":116},{"user_id":382,"name":"テイルス","steam_id":76561198022403271,"connected_time":594000000000,"state":"active","ping":46},{"user_id":383,"name":"relic_","steam_id":76561199053114167,"connected_time":586000000000,"state":"active","ping":80},{"user_id":373,"name":"ArikMor","steam_id":76561199124472513,"connected_time":1194000000000,"state":"active","ping":133},{"user_id":344,"name":"Healslut Manwhore","steam_id":76561198114164702,"connected_time":2672000000000,"state":"active","ping":75},{"user_id":323,"name":"Estamie","steam_id":76561198058527691,"connected_time":3953000000000,"state":"active","ping":75},{"user_id":390,"name":"☞LaZe☜","steam_id":76561198202191400,"connected_time":199000000000,"state":"active","ping":49},{"user_id":384,"name":"Meta","steam_id":76561198413073432,"connected_time":586000000000,"state":"active","ping":69},{"user_id":343,"name":"Luuk","steam_id":76561198088266026,"connected_time":2766000000000,"state":"active","ping":45},{"user_id":393,"name":"Spenji","steam_id":76561198126634202,"connected_time":64000000000,"state":"active","ping":60},{"user_id":360,"name":"Link","steam_id":76561198337311015,"connected_time":1495000000000,"state":"active","ping":88},{"user_id":389,"name":"cyanic","steam_id":76561198047828651,"connected_time":242000000000,"state":"active","ping":48},{"user_id":394,"name":"Opti'","steam_id":76561197992158662,"connected_time":50000000000,"state":"active","ping":33},{"user_id":392,"name":"Bumblebee","steam_id":76561198033551105,"connected_time":85000000000,"state":"active","ping":76}]},{"server_id":321,"name":"Uncletopia | London | 4 | All Maps","name_short":"lon-4","host":"lon-1.uk.uncletopia.com","port":27045,"enabled":true,"region":"eu","cc":"gb","latitude":51.509865,"longitude":-0.118092,"reserved":0,"last_update":"0001-01-01T00:00:00Z","name_a2s":"Uncletopia | London | 4 | All Maps","protocol":17,"map":"koth_viaduct","folder":"tf","game":"Team Fortress","app_id":440,"player_count":2,"max_players":24,"Bots":0,"server_type":"Dedicated","server_os":"Linux","password":true,"vac":true,"version":"7757534","steam_id":85568392924510193,"keywords":["cp","nocrits","nodmgspread","uncletopia"],"game_id":440,"stv_port":27046,"stv_name":"Uncletopia | London | 4 | All Maps | STV","players":[{"user_id":14,"name":"Delab","steam_id":76561198846356572,"connected_time":1387000000000,"state":"active","ping":157},{"user_id":15,"name":"abdelmajeedmowafaq","steam_id":76561199470606396,"connected_time":1360000000000,"state":"active","ping":121}]},{"server_id":21,"name":"Uncletopia | London | 5 | All Maps","name_short":"lon-5","host":"lon-1.uk.uncletopia.com","port":27055,"enabled":true,"region":"eu","cc":"gb","latitude":51.509865,"longitude":-0.118092,"reserved":0,"last_update":"0001-01-01T00:00:00Z","name_a2s":"Uncletopia | London | 5 | All Maps","protocol":17,"map":"cp_sunshine","folder":"tf","game":"Team Fortress","app_id":440,"player_count":12,"max_players":24,"Bots":0,"server_type":"Dedicated","server_os":"Linux","password":true,"vac":true,"version":"7757534","steam_id":85568392924742829,"keywords":["cp","nocrits","nodmgspread","uncletopia"],"game_id":440,"stv_port":27056,"stv_name":"Uncletopia | London | 5 | All Maps | STV","players":[{"user_id":35,"name":"Technic","steam_id":76561198128096130,"connected_time":825000000000,"state":"active","ping":45},{"user_id":52,"name":"rabbitface26","steam_id":76561198327540113,"connected_time":46000000000,"state":"active","ping":43},{"user_id":39,"name":"ZestyFire","steam_id":76561199068749591,"connected_time":527000000000,"state":"active","ping":57},{"user_id":53,"name":"a freakin' knight","steam_id":76561198371341044,"connected_time":38000000000,"state":"spawning","ping":179},{"user_id":31,"name":"Badass gangnam style minion","steam_id":76561198297602677,"connected_time":1565000000000,"state":"active","ping":88},{"user_id":50,"name":"***** ***","steam_id":76561198048037379,"connected_time":184000000000,"state":"active","ping":99},{"user_id":29,"name":"MGE Bro","steam_id":76561198796600155,"connected_time":1679000000000,"state":"active","ping":85},{"user_id":51,"name":"ZE DISPENSER GOES HEEYA!!","steam_id":76561198951441673,"connected_time":175000000000,"state":"active","ping":40},{"user_id":43,"name":"Valentine","steam_id":76561198121343565,"connected_time":340000000000,"state":"active","ping":59},{"user_id":45,"name":"donal rump","steam_id":76561198136239861,"connected_time":273000000000,"state":"active","ping":45},{"user_id":46,"name":"Grancsa #Rustclash","steam_id":76561199072824282,"connected_time":262000000000,"state":"active","ping":88},{"user_id":48,"name":"r0nja_","steam_id":76561197963298322,"connected_time":241000000000,"state":"active","ping":74}]},{"server_id":22,"name":"Uncletopia | London | 6 | All Maps","name_short":"lon-6","host":"lon-1.uk.uncletopia.com","port":27065,"enabled":true,"region":"eu","cc":"gb","latitude":51.509865,"longitude":-0.118092,"reserved":0,"last_update":"0001-01-01T00:00:00Z","name_a2s":"Uncletopia | London | 6 | All Maps","protocol":17,"map":"cp_dustbowl","folder":"tf","game":"Team Fortress","app_id":440,"player_count":0,"max_players":24,"Bots":0,"server_type":"Dedicated","server_os":"Linux","password":true,"vac":true,"version":"7757534","steam_id":85568392924742830,"keywords":["cp","nocrits","nodmgspread","uncletopia"],"game_id":440,"stv_port":27066,"stv_name":"Uncletopia | London | 6 | All Maps | STV","players":null},{"server_id":40,"name":"Uncletopia | London | 7 | No Payload","name_short":"lon-7","host":"lon-1.uk.uncletopia.com","port":27075,"enabled":true,"region":"eu","cc":"gb","latitude":51.509865,"longitude":-0.118092,"reserved":0,"last_update":"0001-01-01T00:00:00Z","name_a2s":"Uncletopia | London | 7 | No Payload","protocol":17,"map":"cp_mercenarypark","folder":"tf","game":"Team Fortress","app_id":440,"player_count":23,"max_players":24,"Bots":0,"server_type":"Dedicated","server_os":"Linux","password":true,"vac":true,"version":"7757534","steam_id":85568392924964314,"keywords":["cp","nocrits","nodmgspread","uncletopia"],"game_id":440,"stv_port":27076,"stv_name":"Uncletopia | London | 7 | No Payload | STV","players":[{"user_id":73,"name":"Minimi","steam_id":76561198873850443,"connected_time":262000000000,"state":"active","ping":40},{"user_id":67,"name":"TheFox.tf","steam_id":76561197996851702,"connected_time":684000000000,"state":"active","ping":77},{"user_id":74,"name":"oh my god he's LOADED","steam_id":76561198263236403,"connected_time":153000000000,"state":"active","ping":55},{"user_id":8,"name":"Hugh J. Nus","steam_id":76561198170609049,"connected_time":3619000000000,"state":"active","ping":60},{"user_id":10,"name":"its me hi im the problem","steam_id":76561198097507847,"connected_time":3574000000000,"state":"active","ping":82},{"user_id":32,"name":"Gardvord","steam_id":76561198120715753,"connected_time":2863000000000,"state":"active","ping":75},{"user_id":12,"name":"Talkkari","steam_id":76561198025327723,"connected_time":3386000000000,"state":"active","ping":75},{"user_id":72,"name":"w presser","steam_id":76561197994600818,"connected_time":420000000000,"state":"active","ping":36},{"user_id":14,"name":"TSx* Osa__PL","steam_id":76561198027016799,"connected_time":3325000000000,"state":"active","ping":74},{"user_id":15,"name":"TSx* Naxer","steam_id":76561198011986779,"connected_time":3286000000000,"state":"active","ping":73},{"user_id":62,"name":"WolfmanCZ","steam_id":76561199157141414,"connected_time":1157000000000,"state":"active","ping":77},{"user_id":64,"name":"killer black","steam_id":76561198261795972,"connected_time":780000000000,"state":"active","ping":56},{"user_id":55,"name":"Qwaden","steam_id":76561198881784698,"connected_time":1771000000000,"state":"active","ping":76},{"user_id":56,"name":"Chocofrolik","steam_id":76561198454779847,"connected_time":1548000000000,"state":"active","ping":68},{"user_id":45,"name":"K.V. #RemoveRandomCrits","steam_id":76561197994832993,"connected_time":2490000000000,"state":"active","ping":77},{"user_id":53,"name":"Kotlet schabowy","steam_id":76561198048983509,"connected_time":1928000000000,"state":"active","ping":82},{"user_id":70,"name":"Mr.Cobretti","steam_id":76561198089905715,"connected_time":617000000000,"state":"active","ping":79},{"user_id":71,"name":"Pinkchup","steam_id":76561198106802803,"connected_time":605000000000,"state":"active","ping":76},{"user_id":58,"name":"nick murphy","steam_id":76561198086592534,"connected_time":1396000000000,"state":"active","ping":48},{"user_id":49,"name":"Bilbo Ballbaggins","steam_id":76561198070593514,"connected_time":2256000000000,"state":"active","ping":57},{"user_id":69,"name":"XavierSweet","steam_id":76561198091781913,"connected_time":667000000000,"state":"active","ping":54},{"user_id":75,"name":"SaltyCupcakes","steam_id":76561198256386417,"connected_time":64000000000,"state":"active","ping":43},{"user_id":40,"name":"CosminSL","steam_id":76561198055827684,"connected_time":2724000000000,"state":"active","ping":83}]},{"server_id":41,"name":"Uncletopia | London | 8 | Community","name_short":"lon-8","host":"lon-1.uk.uncletopia.com","port":27085,"enabled":true,"region":"eu","cc":"gb","latitude":51.509865,"longitude":-0.118092,"reserved":0,"last_update":"0001-01-01T00:00:00Z","name_a2s":"Uncletopia | London | 8 | Community","protocol":17,"map":"workshop/koth_bagel_rc6.ugc2514036946","folder":"tf","game":"Team Fortress","app_id":440,"player_count":24,"max_players":24,"Bots":0,"server_type":"Dedicated","server_os":"Linux","password":true,"vac":true,"version":"7757534","steam_id":85568392924964315,"keywords":["cp","nocrits","nodmgspread","uncletopia"],"game_id":440,"stv_port":27086,"stv_name":"Uncletopia | London | 8 | Community | STV","players":[{"user_id":225,"name":"Er Pomata","steam_id":76561198133085347,"connected_time":753000000000,"state":"active","ping":66},{"user_id":193,"name":"just turned my brain off","steam_id":76561198083615367,"connected_time":2973000000000,"state":"active","ping":35},{"user_id":165,"name":"PizzaPete123","steam_id":76561198089478290,"connected_time":6040000000000,"state":"active","ping":45},{"user_id":208,"name":"zdrdan","steam_id":76561198107905551,"connected_time":1599000000000,"state":"active","ping":68},{"user_id":218,"name":"Jeeper","steam_id":76561198155583692,"connected_time":1258000000000,"state":"active","ping":157},{"user_id":209,"name":"NC","steam_id":76561198130595332,"connected_time":1577000000000,"state":"active","ping":70},{"user_id":230,"name":"wouris","steam_id":76561198876188003,"connected_time":159000000000,"state":"active","ping":61},{"user_id":219,"name":"Fran","steam_id":76561199070516960,"connected_time":1245000000000,"state":"active","ping":73},{"user_id":216,"name":"The Punch","steam_id":76561198212488780,"connected_time":1337000000000,"state":"active","ping":73},{"user_id":196,"name":"ilgazemre78","steam_id":76561199221451383,"connected_time":2431000000000,"state":"active","ping":120},{"user_id":228,"name":"Fat Pigeon","steam_id":76561198817940142,"connected_time":399000000000,"state":"active","ping":44},{"user_id":103,"name":"Sarah Obama Michella","steam_id":76561198078996559,"connected_time":11378000000000,"state":"active","ping":82},{"user_id":226,"name":"Adrenaline","steam_id":76561197970852048,"connected_time":596000000000,"state":"active","ping":74},{"user_id":215,"name":"James ;)","steam_id":76561198123159605,"connected_time":1407000000000,"state":"active","ping":53},{"user_id":231,"name":"madacid","steam_id":76561198212315885,"connected_time":127000000000,"state":"active","ping":44},{"user_id":176,"name":"Topme","steam_id":76561198091734693,"connected_time":4755000000000,"state":"active","ping":60},{"user_id":217,"name":"Notori","steam_id":76561199140520927,"connected_time":1300000000000,"state":"active","ping":134},{"user_id":232,"name":"ALARM","steam_id":76561198120686521,"connected_time":93000000000,"state":"active","ping":61},{"user_id":187,"name":"oma","steam_id":76561198155132535,"connected_time":3600000000000,"state":"active","ping":91},{"user_id":205,"name":"me when im walking into class","steam_id":76561198048250715,"connected_time":2011000000000,"state":"active","ping":60},{"user_id":220,"name":"Aregularhuman","steam_id":76561198343319848,"connected_time":1215000000000,"state":"active","ping":52},{"user_id":189,"name":"godmodule","steam_id":76561198165995444,"connected_time":3566000000000,"state":"active","ping":79},{"user_id":227,"name":"benibachi","steam_id":76561198190816499,"connected_time":579000000000,"state":"active","ping":84},{"user_id":221,"name":"I AM DOT","steam_id":76561198354118090,"connected_time":1182000000000,"state":"active","ping":81}]},{"server_id":300,"name":"Uncletopia | Montréal | 1 | All Maps","name_short":"mtl-1","host":"mtl-1.ca.uncletopia.com","port":27015,"enabled":true,"region":"us-east","cc":"ca","latitude":45.50889,"longitude":-73.56167,"reserved":0,"last_update":"0001-01-01T00:00:00Z","name_a2s":"Uncletopia | Montréal | 1 | All Maps","protocol":17,"map":"koth_viaduct","folder":"tf","game":"Team Fortress","app_id":440,"player_count":0,"max_players":24,"Bots":0,"server_type":"Dedicated","server_os":"Linux","password":true,"vac":true,"version":"7757534","steam_id":85568392924500087,"keywords":["cp","nocrits","nodmgspread","uncletopia"],"game_id":440,"stv_port":27016,"stv_name":"Uncletopia | Montréal | 1 | All Maps | STV","players":null},{"server_id":301,"name":"Uncletopia | Montréal | 2 | All Maps","name_short":"mtl-2","host":"mtl-1.ca.uncletopia.com","port":27025,"enabled":true,"region":"us-east","cc":"ca","latitude":45.50889,"longitude":-73.56167,"reserved":0,"last_update":"0001-01-01T00:00:00Z","name_a2s":"Uncletopia | Montréal | 2 | All Maps","protocol":17,"map":"pl_snowycoast","folder":"tf","game":"Team Fortress","app_id":440,"player_count":0,"max_players":24,"Bots":0,"server_type":"Dedicated","server_os":"Linux","password":true,"vac":true,"version":"7757534","steam_id":85568392924500088,"keywords":["nocrits","nodmgspread","payload","uncletopia"],"game_id":440,"stv_port":27026,"stv_name":"Uncletopia | Montréal | 2 | All Maps | STV","players":null},{"server_id":302,"name":"Uncletopia | Montréal | 3 | All Maps","name_short":"mtl-3","host":"mtl-1.ca.uncletopia.com","port":27035,"enabled":true,"region":"us-east","cc":"ca","latitude":45.50889,"longitude":-73.56167,"reserved":0,"last_update":"0001-01-01T00:00:00Z","name_a2s":"Uncletopia | Montréal | 3 | All Maps","protocol":17,"map":"pl_swiftwater_final1","folder":"tf","game":"Team Fortress","app_id":440,"player_count":0,"max_players":24,"Bots":0,"server_type":"Dedicated","server_os":"Linux","password":true,"vac":true,"version":"7757534","steam_id":85568392924500089,"keywords":["nocrits","nodmgspread","payload","uncletopia"],"game_id":440,"stv_port":27036,"stv_name":"Uncletopia | Montréal | 3 | All Maps | STV","players":null},{"server_id":303,"name":"Uncletopia | Montréal | 4 | No Payload","name_short":"mtl-4","host":"mtl-1.ca.uncletopia.com","port":27045,"enabled":true,"region":"us-east","cc":"ca","latitude":45.50889,"longitude":-73.56167,"reserved":0,"last_update":"0001-01-01T00:00:00Z","name_a2s":"Uncletopia | Montréal | 4 | No Payload","protocol":17,"map":"cp_gravelpit","folder":"tf","game":"Team Fortress","app_id":440,"player_count":0,"max_players":24,"Bots":0,"server_type":"Dedicated","server_os":"Linux","password":true,"vac":true,"version":"7757534","steam_id":85568392924500090,"keywords":["cp","nocrits","nodmgspread","uncletopia"],"game_id":440,"stv_port":27046,"stv_name":"Uncletopia | Montréal | 4 | No Payload | STV","players":null},{"server_id":13,"name":"Uncletopia | New York City | 1 | All Maps","name_short":"nyc-1","host":"nyc-1.us.uncletopia.com","port":27015,"enabled":true,"region":"us-east","cc":"us","latitude":40.73061,"longitude":-73.93524,"reserved":0,"last_update":"0001-01-01T00:00:00Z","name_a2s":"Uncletopia | New York City | 1 | All Maps","protocol":17,"map":"cp_process_final","folder":"tf","game":"Team Fortress","app_id":440,"player_count":4,"max_players":24,"Bots":0,"server_type":"Dedicated","server_os":"Linux","password":true,"vac":true,"version":"7757534","steam_id":85568392924469993,"keywords":["cp","nocrits","nodmgspread","uncletopia"],"game_id":440,"stv_port":27016,"stv_name":"Uncletopia | New York City | 1 | All Maps | STV","players":[{"user_id":18,"name":"de Blob 2 on Nintendo DS","steam_id":76561198038864014,"connected_time":494000000000,"state":"active","ping":67},{"user_id":19,"name":"Goblin","steam_id":76561198044854389,"connected_time":484000000000,"state":"active","ping":102},{"user_id":11,"name":"Zoro from Wano Country","steam_id":76561198221619936,"connected_time":2416000000000,"state":"active","ping":83},{"user_id":14,"name":"Conrad Murray","steam_id":76561198141682876,"connected_time":1852000000000,"state":"active","ping":49}]},{"server_id":14,"name":"Uncletopia | New York City | 2 | All Maps","name_short":"nyc-2","host":"nyc-1.us.uncletopia.com","port":27025,"enabled":true,"region":"us-east","cc":"us","latitude":40.73061,"longitude":-73.93524,"reserved":0,"last_update":"0001-01-01T00:00:00Z","name_a2s":"Uncletopia | New York City | 2 | All Maps","protocol":17,"map":"pl_enclosure_final","folder":"tf","game":"Team Fortress","app_id":440,"player_count":20,"max_players":24,"Bots":0,"server_type":"Dedicated","server_os":"Linux","password":true,"vac":true,"version":"7757534","steam_id":85568392924469994,"keywords":["nocrits","nodmgspread","payload","uncletopia"],"game_id":440,"stv_port":27026,"stv_name":"Uncletopia | New York City | 2 | All Maps | STV","players":[{"user_id":205,"name":"Older Spyce","steam_id":76561198042538902,"connected_time":965000000000,"state":"active","ping":86},{"user_id":218,"name":"TheFirstGlueBender","steam_id":76561199387319886,"connected_time":97000000000,"state":"active","ping":109},{"user_id":194,"name":"The Land Admiral","steam_id":76561198159356609,"connected_time":1776000000000,"state":"active","ping":53},{"user_id":206,"name":"ROGUE-PLANET","steam_id":76561198116023052,"connected_time":770000000000,"state":"active","ping":79},{"user_id":196,"name":"Quizzical","steam_id":76561199171667230,"connected_time":1504000000000,"state":"active","ping":69},{"user_id":213,"name":"Coughdrop Addict [F2P]","steam_id":76561199254281550,"connected_time":397000000000,"state":"active","ping":52},{"user_id":204,"name":"PinkLemonade","steam_id":76561198799286228,"connected_time":979000000000,"state":"active","ping":49},{"user_id":199,"name":"neet","steam_id":76561197968115168,"connected_time":1422000000000,"state":"active","ping":34},{"user_id":212,"name":"Resident Thrussy Lender","steam_id":76561198071790583,"connected_time":402000000000,"state":"active","ping":59},{"user_id":200,"name":"Spaces","steam_id":76561198853826710,"connected_time":1412000000000,"state":"active","ping":70},{"user_id":187,"name":"▲▼▲ Paul Atreideeznuts","steam_id":76561198015714075,"connected_time":2326000000000,"state":"active","ping":61},{"user_id":210,"name":"Dave The Sloth","steam_id":76561199135831355,"connected_time":530000000000,"state":"active","ping":116},{"user_id":189,"name":"aiden","steam_id":76561198449527009,"connected_time":2209000000000,"state":"active","ping":66},{"user_id":149,"name":"Gandalf Gaming","steam_id":76561198368151490,"connected_time":5192000000000,"state":"active","ping":45},{"user_id":207,"name":"NOAH FROM SUPER 3D NOAH'S ARK!","steam_id":76561198042011714,"connected_time":696000000000,"state":"active","ping":65},{"user_id":214,"name":"acaz","steam_id":76561199051869925,"connected_time":367000000000,"state":"active","ping":134},{"user_id":201,"name":"turntechCathead","steam_id":76561198351249088,"connected_time":1310000000000,"state":"active","ping":135},{"user_id":208,"name":"ros","steam_id":76561198859332989,"connected_time":639000000000,"state":"active","ping":66},{"user_id":215,"name":"ChaoticAngel","steam_id":76561198293528217,"connected_time":364000000000,"state":"active","ping":52},{"user_id":220,"name":"Dragonsofdra","steam_id":76561198253369292,"connected_time":36000000000,"state":"active","ping":131}]},{"server_id":15,"name":"Uncletopia | New York City | 3 | Stopwatch Beta","name_short":"nyc-3","host":"nyc-1.us.uncletopia.com","port":27035,"enabled":true,"region":"us-east","cc":"us","latitude":40.73061,"longitude":-73.93524,"reserved":0,"last_update":"0001-01-01T00:00:00Z","name_a2s":"Uncletopia | New York City | 3 | Stopwatch Beta","protocol":17,"map":"koth_lakeside_final","folder":"tf","game":"Team Fortress","app_id":440,"player_count":0,"max_players":24,"Bots":0,"server_type":"Dedicated","server_os":"Linux","password":true,"vac":true,"version":"7757534","steam_id":85568392924742820,"keywords":["cp","nocrits","nodmgspread","uncletopia"],"game_id":440,"stv_port":27036,"stv_name":"Uncletopia | New York City | 3 | Stopwatch Beta | STV","players":null},{"server_id":16,"name":"Uncletopia | New York City | 4 | Community","name_short":"nyc-4","host":"nyc-1.us.uncletopia.com","port":27045,"enabled":true,"region":"us-east","cc":"us","latitude":40.73061,"longitude":-73.93524,"reserved":0,"last_update":"0001-01-01T00:00:00Z","name_a2s":"Uncletopia | New York City | 4 | Community","protocol":17,"map":"pl_swiftwater_final1","folder":"tf","game":"Team Fortress","app_id":440,"player_count":0,"max_players":24,"Bots":0,"server_type":"Dedicated","server_os":"Linux","password":true,"vac":true,"version":"7757534","steam_id":85568392924742821,"keywords":["nocrits","nodmgspread","payload","uncletopia"],"game_id":440,"stv_port":27046,"stv_name":"Uncletopia | New York City | 4 | Community | STV","players":null},{"server_id":142,"name":"Uncletopia | São Paulo | 1 | All Maps","name_short":"sao-1","host":"sao-1.br.uncletopia.com","port":27015,"enabled":true,"region":"sa","cc":"br","latitude":-23.533773,"longitude":-46.62529,"reserved":0,"last_update":"0001-01-01T00:00:00Z","name_a2s":"Uncletopia | São Paulo | 1 | All Maps","protocol":17,"map":"koth_lakeside_final","folder":"tf","game":"Team Fortress","app_id":440,"player_count":0,"max_players":24,"Bots":0,"server_type":"Dedicated","server_os":"Linux","password":true,"vac":true,"version":"7757534","steam_id":85568392924469996,"keywords":["cp","nocrits","nodmgspread","uncletopia"],"game_id":440,"stv_port":27016,"stv_name":"Uncletopia | São Paulo | 1 | All Maps | STV","players":null},{"server_id":143,"name":"Uncletopia | São Paulo | 2 | All Maps","name_short":"sao-2","host":"sao-2.br.uncletopia.com","port":27015,"enabled":true,"region":"sa","cc":"br","latitude":-23.533773,"longitude":-46.62529,"reserved":0,"last_update":"0001-01-01T00:00:00Z","name_a2s":"Uncletopia | São Paulo | 2 | All Maps","protocol":17,"map":"koth_cascade","folder":"tf","game":"Team Fortress","app_id":440,"player_count":0,"max_players":24,"Bots":0,"server_type":"Dedicated","server_os":"Linux","password":true,"vac":true,"version":"7757534","steam_id":85568392924485349,"keywords":["cp","nocrits","nodmgspread","uncletopia"],"game_id":440,"stv_port":27016,"stv_name":"Uncletopia | São Paulo | 2 | All Maps | STV","players":null},{"server_id":7,"name":"Uncletopia | Seattle | 1 | All Maps","name_short":"sea-1","host":"sea-1.us.uncletopia.com","port":27015,"enabled":true,"region":"us-west","cc":"us","latitude":47.608013,"longitude":-122.33517,"reserved":0,"last_update":"0001-01-01T00:00:00Z","name_a2s":"Uncletopia | Seattle | 1 | All Maps","protocol":17,"map":"pl_pier","folder":"tf","game":"Team Fortress","app_id":440,"player_count":24,"max_players":24,"Bots":0,"server_type":"Dedicated","server_os":"Linux","password":true,"vac":true,"version":"7757534","steam_id":85568392924469997,"keywords":["nocrits","nodmgspread","payload","uncletopia"],"game_id":440,"stv_port":27016,"stv_name":"Uncletopia | Seattle | 1 | All Maps | STV","players":[{"user_id":206,"name":"[TrC] Dackstrus","steam_id":76561197973518509,"connected_time":1011000000000,"state":"active","ping":52},{"user_id":172,"name":"azureglxy","steam_id":76561198861388315,"connected_time":3930000000000,"state":"active","ping":81},{"user_id":164,"name":"Lazy","steam_id":76561198802747832,"connected_time":4272000000000,"state":"active","ping":50},{"user_id":202,"name":"XxDragon4321xX","steam_id":76561198046705735,"connected_time":1415000000000,"state":"active","ping":96},{"user_id":43,"name":"fancyfreak","steam_id":76561198326466375,"connected_time":12146000000000,"state":"active","ping":75},{"user_id":113,"name":"autumn","steam_id":76561199000378486,"connected_time":7483000000000,"state":"active","ping":74},{"user_id":217,"name":"Pubby","steam_id":76561198164984732,"connected_time":58000000000,"state":"active","ping":147},{"user_id":214,"name":"Prof. Eggnog","steam_id":76561198193389166,"connected_time":82000000000,"state":"active","ping":138},{"user_id":180,"name":"Prime Rizziler","steam_id":76561199100612353,"connected_time":3617000000000,"state":"active","ping":103},{"user_id":208,"name":"Tyler\u0026Fingers","steam_id":76561198085154485,"connected_time":841000000000,"state":"active","ping":132},{"user_id":200,"name":"JayJayMed320 (She/Her)","steam_id":76561198286568264,"connected_time":1566000000000,"state":"active","ping":55},{"user_id":207,"name":"I am in key debt","steam_id":76561198206922028,"connected_time":1010000000000,"state":"active","ping":79},{"user_id":199,"name":"Keamy","steam_id":76561199471434875,"connected_time":1714000000000,"state":"active","ping":42},{"user_id":215,"name":"toes","steam_id":76561198221151676,"connected_time":73000000000,"state":"active","ping":52},{"user_id":181,"name":"1dk","steam_id":76561198135104742,"connected_time":3616000000000,"state":"active","ping":48},{"user_id":218,"name":"mobe","steam_id":76561198121633820,"connected_time":39000000000,"state":"active","ping":74},{"user_id":216,"name":"iMxmories","steam_id":76561198163295584,"connected_time":68000000000,"state":"active","ping":75},{"user_id":170,"name":"Shine On You","steam_id":76561198282764599,"connected_time":4022000000000,"state":"active","ping":94},{"user_id":185,"name":"DanielDaSavage9","steam_id":76561198401532367,"connected_time":3527000000000,"state":"active","ping":66},{"user_id":219,"name":"slleeeep's","steam_id":76561199029954324,"connected_time":27000000000,"state":"spawning","ping":76},{"user_id":187,"name":"Pofeh","steam_id":76561198083282185,"connected_time":2988000000000,"state":"active","ping":144},{"user_id":163,"name":"my monitor is off","steam_id":76561198074499537,"connected_time":4317000000000,"state":"active","ping":89},{"user_id":176,"name":"Lapis","steam_id":76561198095034966,"connected_time":3810000000000,"state":"active","ping":114},{"user_id":213,"name":"moerty","steam_id":76561198010055085,"connected_time":96000000000,"state":"active","ping":45}]},{"server_id":119,"name":"Uncletopia | Seattle | 2 | All Maps","name_short":"sea-2","host":"sea-1.us.uncletopia.com","port":27025,"enabled":true,"region":"us-west","cc":"us","latitude":47.608013,"longitude":-122.33517,"reserved":0,"last_update":"0001-01-01T00:00:00Z","name_a2s":"Uncletopia | Seattle | 2 | All Maps","protocol":17,"map":"pl_upward","folder":"tf","game":"Team Fortress","app_id":440,"player_count":0,"max_players":24,"Bots":0,"server_type":"Dedicated","server_os":"Linux","password":true,"vac":true,"version":"7757534","steam_id":85568392924469998,"keywords":["nocrits","nodmgspread","payload","uncletopia"],"game_id":440,"stv_port":27026,"stv_name":"Uncletopia | Seattle | 2 | All Maps | STV","players":null},{"server_id":406,"name":"Uncletopia | Seattle | 3 | Stopwatch Beta","name_short":"sea-3","host":"sea-1.us.uncletopia.com","port":27035,"enabled":true,"region":"us-west","cc":"us","latitude":47.608013,"longitude":-122.33517,"reserved":0,"last_update":"0001-01-01T00:00:00Z","name_a2s":"Uncletopia | Seattle | 3 | Stopwatch Beta","protocol":17,"map":"cp_dustbowl","folder":"tf","game":"Team Fortress","app_id":440,"player_count":0,"max_players":24,"Bots":0,"server_type":"Dedicated","server_os":"Linux","password":true,"vac":true,"version":"7757534","steam_id":85568392924515217,"keywords":["cp","nocrits","nodmgspread","uncletopia"],"game_id":440,"stv_port":27036,"stv_name":"Uncletopia | Seattle | 3 | Stopwatch Beta | STV","players":null},{"server_id":17,"name":"Uncletopia | San Francisco | 1 | All Maps","name_short":"sfo-1","host":"sfo-1.us.uncletopia.com","port":27015,"enabled":true,"region":"us-west","cc":"us","latitude":37.77397,"longitude":-122.4313,"reserved":0,"last_update":"0001-01-01T00:00:00Z","name_a2s":"Uncletopia | San Francisco | 1 | All Maps","protocol":17,"map":"cp_process_final","folder":"tf","game":"Team Fortress","app_id":440,"player_count":0,"max_players":24,"Bots":0,"server_type":"Dedicated","server_os":"Linux","password":true,"vac":true,"version":"7757534","steam_id":85568392924469999,"keywords":["cp","nocrits","nodmgspread","uncletopia"],"game_id":440,"stv_port":27016,"stv_name":"Uncletopia | San Francisco | 1 | All Maps | STV","players":null},{"server_id":18,"name":"Uncletopia | San Francisco | 2 | All Maps","name_short":"sfo-2","host":"sfo-1.us.uncletopia.com","port":27025,"enabled":true,"region":"us-west","cc":"us","latitude":37.77397,"longitude":-122.4313,"reserved":0,"last_update":"0001-01-01T00:00:00Z","name_a2s":"Uncletopia | San Francisco | 2 | All Maps","protocol":17,"map":"koth_highpass","folder":"tf","game":"Team Fortress","app_id":440,"player_count":0,"max_players":24,"Bots":0,"server_type":"Dedicated","server_os":"Linux","password":true,"vac":true,"version":"7757534","steam_id":85568392924470000,"keywords":["cp","nocrits","nodmgspread","uncletopia"],"game_id":440,"stv_port":27026,"stv_name":"Uncletopia | San Francisco | 2 | All Maps | STV","players":null},{"server_id":19,"name":"Uncletopia | San Francisco | 3 | Stopwatch Beta","name_short":"sfo-3","host":"sfo-1.us.uncletopia.com","port":27035,"enabled":true,"region":"us-west","cc":"us","latitude":37.77397,"longitude":-122.4313,"reserved":0,"last_update":"0001-01-01T00:00:00Z","name_a2s":"Uncletopia | San Francisco | 3 | Stopwatch Beta","protocol":17,"map":"koth_lakeside_final","folder":"tf","game":"Team Fortress","app_id":440,"player_count":0,"max_players":24,"Bots":0,"server_type":"Dedicated","server_os":"Linux","password":true,"vac":true,"version":"7757534","steam_id":85568392924742824,"keywords":["cp","nocrits","nodmgspread","uncletopia"],"game_id":440,"stv_port":27036,"stv_name":"Uncletopia | San Francisco | 3 | Stopwatch Beta | STV","players":null},{"server_id":20,"name":"Uncletopia | San Francisco | 4 | Community","name_short":"sfo-4","host":"sfo-1.us.uncletopia.com","port":27045,"enabled":true,"region":"us-west","cc":"us","latitude":37.77397,"longitude":-122.4313,"reserved":0,"last_update":"0001-01-01T00:00:00Z","name_a2s":"Uncletopia | San Francisco | 4 | Community","protocol":17,"map":"cp_altitude","folder":"tf","game":"Team Fortress","app_id":440,"player_count":0,"max_players":24,"Bots":0,"server_type":"Dedicated","server_os":"Linux","password":true,"vac":true,"version":"7757534","steam_id":85568392924742826,"keywords":["cp","nocrits","nodmgspread","uncletopia"],"game_id":440,"stv_port":27046,"stv_name":"Uncletopia | San Francisco | 4 | Community | STV","players":null},{"server_id":141,"name":"Uncletopia | Sydney | 1 | All Maps","name_short":"syd-1","host":"syd-1.au.uncletopia.com","port":27015,"enabled":true,"region":"au","cc":"au","latitude":-33.865143,"longitude":151.2099,"reserved":0,"last_update":"0001-01-01T00:00:00Z","name_a2s":"Uncletopia | Sydney | 1 | All Maps","protocol":17,"map":"pl_barnblitz","folder":"tf","game":"Team Fortress","app_id":440,"player_count":0,"max_players":24,"Bots":0,"server_type":"Dedicated","server_os":"Linux","password":true,"vac":true,"version":"7757534","steam_id":85568392924470001,"keywords":["nocrits","nodmgspread","payload","uncletopia"],"game_id":440,"stv_port":27016,"stv_name":"Uncletopia | Sydney | 1 | All Maps | STV","players":null},{"server_id":123,"name":"Uncletopia | Sydney | 2 | All Maps","name_short":"syd-2","host":"syd-1.au.uncletopia.com","port":27025,"enabled":true,"region":"au","cc":"au","latitude":-33.865143,"longitude":151.2099,"reserved":0,"last_update":"0001-01-01T00:00:00Z","name_a2s":"Uncletopia | Sydney | 2 | All Maps","protocol":17,"map":"koth_viaduct","folder":"tf","game":"Team Fortress","app_id":440,"player_count":0,"max_players":24,"Bots":0,"server_type":"Dedicated","server_os":"Linux","password":true,"vac":true,"version":"7757534","steam_id":85568392924470002,"keywords":["cp","nocrits","nodmgspread","uncletopia"],"game_id":440,"stv_port":27026,"stv_name":"Uncletopia | Sydney | 2 | All Maps | STV","players":null},{"server_id":395,"name":"Uncletopia | Sydney | 3 | All Maps","name_short":"syd-3","host":"syd-1.au.uncletopia.com","port":27035,"enabled":true,"region":"au","cc":"au","latitude":-33.865143,"longitude":151.2099,"reserved":0,"last_update":"0001-01-01T00:00:00Z","name_a2s":"Uncletopia | Sydney | 3 | All Maps","protocol":17,"map":"cp_sunshine","folder":"tf","game":"Team Fortress","app_id":440,"player_count":0,"max_players":24,"Bots":0,"server_type":"Dedicated","server_os":"Linux","password":true,"vac":true,"version":"7757534","steam_id":85568392925194467,"keywords":["cp","nocrits","nodmgspread","uncletopia"],"game_id":440,"stv_port":27036,"stv_name":"Uncletopia | Sydney | 3 | All Maps | STV","players":null},{"server_id":396,"name":"Uncletopia | Sydney | 4 | All Maps","name_short":"syd-4","host":"syd-1.au.uncletopia.com","port":27045,"enabled":true,"region":"au","cc":"au","latitude":-33.865143,"longitude":151.2099,"reserved":0,"last_update":"0001-01-01T00:00:00Z","name_a2s":"Uncletopia | Sydney | 4 | All Maps","protocol":17,"map":"koth_highpass","folder":"tf","game":"Team Fortress","app_id":440,"player_count":0,"max_players":24,"Bots":0,"server_type":"Dedicated","server_os":"Linux","password":true,"vac":true,"version":"7757534","steam_id":85568392925397958,"keywords":["cp","nocrits","nodmgspread","uncletopia"],"game_id":440,"stv_port":27046,"stv_name":"Uncletopia | Sydney | 4 | All Maps | STV","players":null},{"server_id":58,"name":"Uncletopia | Sydney | 5 | Stopwatch Beta","name_short":"syd-5","host":"syd-1.au.uncletopia.com","port":27055,"enabled":true,"region":"au","cc":"au","latitude":-33.865143,"longitude":151.2099,"reserved":0,"last_update":"0001-01-01T00:00:00Z","name_a2s":"Uncletopia | Sydney | 5 | Stopwatch Beta","protocol":17,"map":"workshop/koth_bagel_rc6.ugc2514036946","folder":"tf","game":"Team Fortress","app_id":440,"player_count":2,"max_players":24,"Bots":0,"server_type":"Dedicated","server_os":"Linux","password":true,"vac":true,"version":"7757534","steam_id":85568392925397959,"keywords":["cp","nocrits","nodmgspread","uncletopia"],"game_id":440,"stv_port":27056,"stv_name":"Uncletopia | Sydney | 5 | Stopwatch Beta | STV","players":[{"user_id":8,"name":"Roasted Potatoes","steam_id":76561199244819489,"connected_time":1049000000000,"state":"active","ping":361},{"user_id":9,"name":"The man under the road","steam_id":76561199276035454,"connected_time":1047000000000,"state":"active","ping":303}]},{"server_id":59,"name":"Uncletopia | Sydney | 6 | Community","name_short":"syd-6","host":"syd-1.au.uncletopia.com","port":27065,"enabled":true,"region":"au","cc":"au","latitude":-33.865143,"longitude":151.2099,"reserved":0,"last_update":"0001-01-01T00:00:00Z","name_a2s":"Uncletopia | Sydney | 6 | Community","protocol":17,"map":"workshop/koth_trenchfoot_b1a.ugc731436616","folder":"tf","game":"Team Fortress","app_id":440,"player_count":0,"max_players":24,"Bots":0,"server_type":"Dedicated","server_os":"Linux","password":true,"vac":true,"version":"7757534","steam_id":85568392925397960,"keywords":["cp","nocrits","nodmgspread","uncletopia"],"game_id":440,"stv_port":27066,"stv_name":"Uncletopia | Sydney | 6 | Community | STV","players":null},{"server_id":49,"name":"Uncletopia | Warsaw | 1 | All Maps","name_short":"waw-1","host":"waw-1.pl.uncletopia.com","port":27015,"enabled":true,"region":"eu","cc":"pl","latitude":52.2297,"longitude":21.017532,"reserved":0,"last_update":"0001-01-01T00:00:00Z","name_a2s":"","protocol":0,"map":"","folder":"","game":"","app_id":0,"player_count":0,"max_players":0,"Bots":0,"server_type":"","server_os":"","password":false,"vac":false,"version":"","steam_id":0,"keywords":null,"game_id":0,"stv_port":0,"stv_name":"","players":null},{"server_id":50,"name":"Uncletopia | Warsaw | 2 | All Maps","name_short":"waw-2","host":"waw-1.pl.uncletopia.com","port":27025,"enabled":true,"region":"eu","cc":"pl","latitude":52.2297,"longitude":21.017532,"reserved":0,"last_update":"0001-01-01T00:00:00Z","name_a2s":"Uncletopia | Warsaw | 2 | All Maps","protocol":17,"map":"koth_viaduct","folder":"tf","game":"Team Fortress","app_id":440,"player_count":0,"max_players":24,"Bots":0,"server_type":"Dedicated","server_os":"Linux","password":true,"vac":true,"version":"7757534","steam_id":85568392925397851,"keywords":["cp","nocrits","nodmgspread","uncletopia"],"game_id":440,"stv_port":27026,"stv_name":"Uncletopia | Warsaw | 2 | All Maps | STV","players":null},{"server_id":51,"name":"Uncletopia | Warsaw | 3 | All Maps","name_short":"waw-3","host":"waw-1.pl.uncletopia.com","port":27035,"enabled":true,"region":"eu","cc":"pl","latitude":52.2297,"longitude":21.017532,"reserved":0,"last_update":"0001-01-01T00:00:00Z","name_a2s":"Uncletopia | Warsaw | 3 | All Maps","protocol":17,"map":"pl_badwater","folder":"tf","game":"Team Fortress","app_id":440,"player_count":0,"max_players":24,"Bots":0,"server_type":"Dedicated","server_os":"Linux","password":true,"vac":true,"version":"7757534","steam_id":85568392925397852,"keywords":["nocrits","nodmgspread","payload","uncletopia"],"game_id":440,"stv_port":27036,"stv_name":"Uncletopia | Warsaw | 3 | All Maps | STV","players":null},{"server_id":52,"name":"Uncletopia | Warsaw | 4 | All Maps","name_short":"waw-4","host":"waw-1.pl.uncletopia.com","port":27045,"enabled":true,"region":"eu","cc":"pl","latitude":52.2297,"longitude":21.017532,"reserved":0,"last_update":"0001-01-01T00:00:00Z","name_a2s":"Uncletopia | Warsaw | 4 | All Maps","protocol":17,"map":"koth_lakeside_final","folder":"tf","game":"Team Fortress","app_id":440,"player_count":0,"max_players":24,"Bots":0,"server_type":"Dedicated","server_os":"Linux","password":true,"vac":true,"version":"7757534","steam_id":85568392925397853,"keywords":["cp","nocrits","nodmgspread","uncletopia"],"game_id":440,"stv_port":27046,"stv_name":"Uncletopia | Warsaw | 4 | All Maps | STV","players":null},{"server_id":53,"name":"Uncletopia | Warsaw | 5 | Stopwatch Beta","name_short":"waw-5","host":"waw-1.pl.uncletopia.com","port":27055,"enabled":true,"region":"eu","cc":"pl","latitude":52.2297,"longitude":21.017532,"reserved":0,"last_update":"0001-01-01T00:00:00Z","name_a2s":"Uncletopia | Warsaw | 5 | Stopwatch Beta","protocol":17,"map":"pl_borneo","folder":"tf","game":"Team Fortress","app_id":440,"player_count":0,"max_players":24,"Bots":0,"server_type":"Dedicated","server_os":"Linux","password":true,"vac":true,"version":"7757534","steam_id":85568392925397854,"keywords":["nocrits","nodmgspread","payload","uncletopia"],"game_id":440,"stv_port":27056,"stv_name":"Uncletopia | Warsaw | 5 | Stopwatch Beta | STV","players":null},{"server_id":54,"name":"Uncletopia | Warsaw | 6 | Community","name_short":"waw-6","host":"waw-1.pl.uncletopia.com","port":27065,"enabled":true,"region":"eu","cc":"pl","latitude":52.2297,"longitude":21.017532,"reserved":0,"last_update":"0001-01-01T00:00:00Z","name_a2s":"Uncletopia | Warsaw | 6 | Community","protocol":17,"map":"koth_lakeside_final","folder":"tf","game":"Team Fortress","app_id":440,"player_count":0,"max_players":24,"Bots":0,"server_type":"Dedicated","server_os":"Linux","password":true,"vac":true,"version":"7757534","steam_id":85568392925397856,"keywords":["cp","nocrits","nodmgspread","uncletopia"],"game_id":440,"stv_port":27066,"stv_name":"Uncletopia | Warsaw | 6 | Community | STV","players":null}]}