{"status":true,"message":"","result":[{"server_id":9,"name":"Uncletopia | Atlanta | 1 | All Maps","name_short":"atl-1","host":"atl-1.us.uncletopia.com","port":27015,"enabled":true,"region":"us-east","cc":"us","latitude":33.753746,"longitude":-84.38633,"reserved":0,"last_update":"0001-01-01T00:00:00Z","name_a2s":"Uncletopia | Atlanta | 1 | All Maps","protocol":17,"map":"cp_altitude","folder":"tf","game":"Team Fortress","app_id":440,"player_count":0,"max_players":24,"Bots":0,"server_type":"Dedicated","server_os":"Linux","password":true,"vac":true,"version":"7961495","steam_id":85568392924469982,"keywords":["cp","nocrits","nodmgspread","uncletopia"],"game_id":440,"stv_port":27016,"stv_name":"Uncletopia | Atlanta | 1 | All Maps | STV","players":null},{"server_id":104,"name":"Uncletopia | Atlanta | 2 | All Maps","name_short":"atl-2","host":"atl-1.us.uncletopia.com","port":27025,"enabled":true,"region":"us-east","cc":"us","latitude":33.753746,"longitude":-84.38633,"reserved":0,"last_update":"0001-01-01T00:00:00Z","name_a2s":"Uncletopia | Atlanta | 2 | All Maps","protocol":17,"map":"koth_cascade","folder":"tf","game":"Team Fortress","app_id":440,"player_count":0,"max_players":24,"Bots":0,"server_type":"Dedicated","server_os":"Linux","password":true,"vac":true,"version":"7961495","steam_id":85568392924469983,"keywords":["cp","nocrits","nodmgspread","uncletopia"],"game_id":440,"stv_port":27026,"stv_name":"Uncletopia | Atlanta | 2 | All Maps | STV","players":null},{"server_id":400,"name":"Uncletopia | Atlanta | 3 | Stopwatch","name_short":"atl-3","host":"atl-1.us.uncletopia.com","port":27035,"enabled":true,"region":"us-east","cc":"us","latitude":33.753746,"longitude":-84.38633,"reserved":0,"last_update":"0001-01-01T00:00:00Z","name_a2s":"Uncletopia | Atlanta | 3 | Stopwatch","protocol":17,"map":"pl_badwater","folder":"tf","game":"Team Fortress","app_id":440,"player_count":0,"max_players":24,"Bots":0,"server_type":"Dedicated","server_os":"Linux","password":true,"vac":true,"version":"7961495","steam_id":85568392924515187,"keywords":["nocrits","nodmgspread","payload","uncletopia"],"game_id":440,"stv_port":27036,"stv_name":"Uncletopia | Atlanta | 3 | Stopwatch | STV","players":null},{"server_id":401,"name":"Uncletopia | Atlanta | 4 | Community","name_short":"atl-4","host":"atl-1.us.uncletopia.com","port":27045,"enabled":true,"region":"us-east","cc":"us","latitude":33.753746,"longitude":-84.38633,"reserved":0,"last_update":"0001-01-01T00:00:00Z","name_a2s":"Uncletopia | Atlanta | 4 | Community","protocol":17,"map":"cp_kalinka_rc6a","folder":"tf","game":"Team Fortress","app_id":440,"player_count":0,"max_players":24,"Bots":0,"server_type":"Dedicated","server_os":"Linux","password":true,"vac":true,"version":"7961495","steam_id":85568392924515188,"keywords":["cp","nocrits","nodmgspread","uncletopia"],"game_id":440,"stv_port":27046,"stv_name":"Uncletopia | Atlanta | 4 | Community | STV","players":null},{"server_id":2,"name":"Uncletopia | Chicago | 1 | All Maps","name_short":"chi-1","host":"chi-1.us.uncletopia.com","port":27015,"enabled":true,"region":"us-central","cc":"us","latitude":41.881832,"longitude":-87.62318,"reserved":0,"last_update":"0001-01-01T00:00:00Z","name_a2s":"Uncletopia | Chicago | 1 | All Maps","protocol":17,"map":"pl_barnblitz","folder":"tf","game":"Team Fortress","app_id":440,"player_count":24,"max_players":24,"Bots":0,"server_type":"Dedicated","server_os":"Linux","password":true,"vac":true,"version":"7961495","steam_id":85568392924469984,"keywords":["nocrits","nodmgspread","payload","uncletopia"],"game_id":440,"stv_port":27016,"stv_name":"Uncletopia | Chicago | 1 | All Maps | STV","players":[{"user_id":146,"name":"rock raiders enjoyer","steam_id":76561198139718219,"connected_time":580000000000,"state":"active","ping":84},{"user_id":148,"name":"Dwarfo","steam_id":76561198119220289,"connected_time":3000000000,"state":"spawning","ping":348},{"user_id":122,"name":"lynt","steam_id":76561198988333976,"connected_time":2473000000000,"state":"active","ping":64},{"user_id":123,"name":"burger bill","steam_id":76561198116829392,"connected_time":2459000000000,"state":"active","ping":105},{"user_id":144,"name":"wu","steam_id":76561198074700528,"connected_time":1196000000000,"state":"active","ping":32},{"user_id":139,"name":"Rein | Comms  Open","steam_id":76561198300340427,"connected_time":1513000000000,"state":"active","ping":61},{"user_id":118,"name":"Gobl1n","steam_id":76561198808610991,"connected_time":2496000000000,"state":"active","ping":74},{"user_id":121,"name":"Comfy!","steam_id":76561198008818346,"connected_time":2487000000000,"state":"active","ping":69},{"user_id":111,"name":"The Great Eagle Scourge of 1822","steam_id":76561198325086209,"connected_time":3232000000000,"state":"active","ping":113},{"user_id":131,"name":"Moss","steam_id":76561199122200727,"connected_time":1819000000000,"state":"active","ping":73},{"user_id":136,"name":"Discourse","steam_id":76561198984286678,"connected_time":1784000000000,"state":"active","ping":60},{"user_id":87,"name":"james may","steam_id":76561198043857339,"connected_time":4290000000000,"state":"active","ping":108},{"user_id":72,"name":"subdromeda","steam_id":76561198884351860,"connected_time":6752000000000,"state":"active","ping":66},{"user_id":112,"name":"Tater Thot","steam_id":76561198156437343,"connected_time":3225000000000,"state":"active","ping":72},{"user_id":138,"name":"Evolution","steam_id":76561198144767370,"connected_time":1633000000000,"state":"active","ping":58},{"user_id":101,"name":"banana bay enthusiast","steam_id":76561198124791670,"connected_time":3546000000000,"state":"active","ping":54},{"user_id":133,"name":"Ashes!","steam_id":76561197998475441,"connected_time":1802000000000,"state":"active","ping":89},{"user_id":143,"name":"üçÉSmellyPineappleüçÉ","steam_id":76561198043248645,"connected_time":1226000000000,"state":"active","ping":114},{"user_id":147,"name":"ATL1 | luxin","steam_id":76561198399383047,"connected_time":445000000000,"state":"active","ping":69},{"user_id":104,"name":"TheGirthquake","steam_id":76561198238895056,"connected_time":3529000000000,"state":"active","ping":68},{"user_id":137,"name":"small meth pouch","steam_id":76561198130412963,"connected_time":1766000000000,"state":"active","ping":66},{"user_id":145,"name":"Archimedes!","steam_id":76561199446023933,"connected_time":1183000000000,"state":"active","ping":97},{"user_id":142,"name":"‚òÇ","steam_id":76561198001263590,"connected_time":1228000000000,"state":"active","ping":87},{"user_id":140,"name":"Jimjonjoe","steam_id":76561199195695913,"connected_time":1501000000000,"state":"active","ping":71}]},{"server_id":106,"name":"Uncletopia | Chicago | 2 | All Maps","name_short":"chi-2","host":"chi-1.us.uncletopia.com","port":27025,"enabled":true,"region":"us-central","cc":"us","latitude":41.881832,"longitude":-87.62318,"reserved":0,"last_update":"0001-01-01T00:00:00Z","name_a2s":"Uncletopia | Chicago | 2 | All Maps","protocol":17,"map":"pl_upward","folder":"tf","game":"Team Fortress","app_id":440,"player_count":21,"max_players":24,"Bots":0,"server_type":"Dedicated","server_os":"Linux","password":true,"vac":true,"version":"7961495","steam_id":85568392924469985,"keywords":["nocrits","nodmgspread","payload","uncletopia"],"game_id":440,"stv_port":27026,"stv_name":"Uncletopia | Chicago | 2 | All Maps | STV","players":[{"user_id":212,"name":"Jezzus","steam_id":76561199289676387,"connected_time":1512000000000,"state":"active","ping":88},{"user_id":228,"name":"SmokeyOne73","steam_id":76561198254981028,"connected_time":266000000000,"state":"active","ping":70},{"user_id":214,"name":"Boot Mcstink","steam_id":76561199226873917,"connected_time":1407000000000,"state":"active","ping":90},{"user_id":195,"name":"Toottoot","steam_id":76561197992404836,"connected_time":2453000000000,"state":"active","ping":45},{"user_id":222,"name":"Satori Komeiji","steam_id":76561198158211423,"connected_time":1040000000000,"state":"active","ping":103},{"user_id":178,"name":"Blitzy","steam_id":76561198149472890,"connected_time":3054000000000,"state":"active","ping":71},{"user_id":226,"name":"Nephi","steam_id":76561198031525122,"connected_time":574000000000,"state":"active","ping":73},{"user_id":205,"name":"Drachma","steam_id":76561198007310514,"connected_time":1887000000000,"state":"active","ping":50},{"user_id":193,"name":"Yoshimelon","steam_id":76561198253054325,"connected_time":2636000000000,"state":"active","ping":59},{"user_id":218,"name":"Acro","steam_id":76561198092451804,"connected_time":1284000000000,"state":"active","ping":68},{"user_id":197,"name":"BigBattleToaster","steam_id":76561199087551431,"connected_time":2232000000000,"state":"active","ping":74},{"user_id":134,"name":"I came (up)","steam_id":76561198057745131,"connected_time":6267000000000,"state":"active","ping":54},{"user_id":216,"name":"ash","steam_id":76561198127890645,"connected_time":1331000000000,"state":"active","ping":79},{"user_id":229,"name":"jerrdeh","steam_id":76561198106967427,"connected_time":259000000000,"state":"active","ping":83},{"user_id":224,"name":"Trader Yohan","steam_id":76561198048956010,"connected_time":673000000000,"state":"active","ping":111},{"user_id":223,"name":"Nut Commander","steam_id":76561198065989058,"connected_time":750000000000,"state":"active","ping":54},{"user_id":190,"name":"BurgerPizza","steam_id":76561198151256410,"connected_time":2946000000000,"state":"active","ping":126},{"user_id":63,"name":"Bussy Bandit","steam_id":76561198034028769,"connected_time":12574000000000,"state":"active","ping":62},{"user_id":221,"name":"FIJI","steam_id":76561198126087725,"connected_time":1177000000000,"state":"active","ping":70},{"user_id":209,"name":"Pyroshark","steam_id":76561198133599422,"connected_time":1585000000000,"state":"active","ping":73},{"user_id":230,"name":"Pistol Freeman","steam_id":76561198026818915,"connected_time":48000000000,"state":"active","ping":41}]},{"server_id":402,"name":"Uncletopia | Chicago | 3 | All Maps","name_short":"chi-3","host":"chi-1.us.uncletopia.com","port":27035,"enabled":true,"region":"us-central","cc":"us","latitude":41.881832,"longitude":-87.62318,"reserved":0,"last_update":"0001-01-01T00:00:00Z","name_a2s":"Uncletopia | Chicago | 3 | All Maps","protocol":17,"map":"cp_snakewater_final1","folder":"tf","game":"Team Fortress","app_id":440,"player_count":0,"max_players":24,"Bots":0,"server_type":"Dedicated","server_os":"Linux","password":true,"vac":true,"version":"7961495","steam_id":85568392924515191,"keywords":["cp","nocrits","nodmgspread","uncletopia"],"game_id":440,"stv_port":27036,"stv_name":"Uncletopia | Chicago | 3 | All Maps | STV","players":null},{"server_id":403,"name":"Uncletopia | Chicago | 4 | All Maps","name_short":"chi-4","host":"chi-1.us.uncletopia.com","port":27045,"enabled":true,"region":"us-central","cc":"us","latitude":41.881832,"longitude":-87.62318,"reserved":0,"last_update":"0001-01-01T00:00:00Z","name_a2s":"Uncletopia | Chicago | 4 | All Maps","protocol":17,"map":"pl_pier","folder":"tf","game":"Team Fortress","app_id":440,"player_count":24,"max_players":24,"Bots":0,"server_type":"Dedicated","server_os":"Linux","password":true,"vac":true,"version":"7961495","steam_id":85568392924515193,"keywords":["nocrits","nodmgspread","payload","uncletopia"],"game_id":440,"stv_port":27046,"stv_name":"Uncletopia | Chicago | 4 | All Maps | STV","players":[{"user_id":26,"name":"Sneerful","steam_id":76561198032663494,"connected_time":855000000000,"state":"active","ping":72},{"user_id":28,"name":"6t26j","steam_id":76561198278282836,"connected_time":775000000000,"state":"active","ping":47},{"user_id":29,"name":"Natsuki the Scunt","steam_id":76561199175922684,"connected_time":679000000000,"state":"active","ping":103},{"user_id":58,"name":"Moonman327","steam_id":76561197992616059,"connected_time":182000000000,"state":"active","ping":76},{"user_id":31,"name":"ADRIEN BRODY","steam_id":76561198009299473,"connected_time":650000000000,"state":"active","ping":57},{"user_id":32,"name":"Menachem","steam_id":76561198041226420,"connected_time":612000000000,"state":"active","ping":50},{"user_id":33,"name":"Sporp","steam_id":76561197987957133,"connected_time":607000000000,"state":"active","ping":83},{"user_id":41,"name":"Cooldog","steam_id":76561198080548713,"connected_time":419000000000,"state":"active","ping":73},{"user_id":56,"name":"Blue Sea","steam_id":76561198156077339,"connected_time":277000000000,"state":"active","ping":96},{"user_id":37,"name":"i wish you obelisk","steam_id":76561198032482394,"connected_time":508000000000,"state":"active","ping":75},{"user_id":43,"name":"sunny","steam_id":76561198069380992,"connected_time":412000000000,"state":"active","ping":76},{"user_id":39,"name":"captainskullet","steam_id":76561198314597170,"connected_time":477000000000,"state":"active","ping":74},{"user_id":57,"name":"mild mannered mystery man","steam_id":76561198072095399,"connected_time":233000000000,"state":"active","ping":54},{"user_id":42,"name":"ZBaldTop","steam_id":76561199396318132,"connected_time":414000000000,"state":"active","ping":55},{"user_id":49,"name":"TTV Hunter","steam_id":76561198115812405,"connected_time":392000000000,"state":"active","ping":73},{"user_id":45,"name":"Meh","steam_id":76561198078187920,"connected_time":400000000000,"state":"active","ping":81},{"user_id":48,"name":"Gompose","steam_id":76561198106140891,"connected_time":395000000000,"state":"active","ping":74},{"user_id":47,"name":"Zombie Rehabilitation","steam_id":76561197962848916,"connected_time":396000000000,"state":"active","ping":89},{"user_id":50,"name":"gods hungriest pitbull","steam_id":76561198111669774,"connected_time":391000000000,"state":"active","ping":52},{"user_id":51,"name":"chikin.sauce","steam_id":76561198042464635,"connected_time":390000000000,"state":"active","ping":81},{"user_id":52,"name":"t.tv/FamilyGuyFunnyMoments277","steam_id":76561198416047580,"connected_time":386000000000,"state":"active","ping":69},{"user_id":53,"name":"Magician Wen-li","steam_id":76561198189688217,"connected_time":358000000000,"state":"active","ping":69},{"user_id":54,"name":"Willem Dafoe","steam_id":76561198037453253,"connected_time":319000000000,"state":"active","ping":69},{"user_id":55,"name":"Psychobells","steam_id":76561197995620232,"connected_time":316000000000,"state":"active","ping":57}]},{"server_id":36,"name":"Uncletopia | Chicago | 5 | All Maps","name_short":"chi-5","host":"chi-2.us.uncletopia.com","port":27015,"enabled":true,"region":"us-central","cc":"us","latitude":41.881832,"longitude":-87.62318,"reserved":0,"last_update":"0001-01-01T00:00:00Z","name_a2s":"Uncletopia | Chicago | 5 | All Maps","protocol":17,"map":"koth_viaduct","folder":"tf","game":"Team Fortress","app_id":440,"player_count":0,"max_players":24,"Bots":0,"server_type":"Dedicated","server_os":"Linux","password":true,"vac":true,"version":"7961495","steam_id":85568392924866362,"keywords":["cp","nocrits","nodmgspread","uncletopia"],"game_id":440,"stv_port":27016,"stv_name":"Uncletopia | Chicago | 5 | All Maps | STV","players":null},{"server_id":37,"name":"Uncletopia | Chicago | 6 | All Maps","name_short":"chi-6","host":"chi-2.us.uncletopia.com","port":27025,"enabled":true,"region":"us-central","cc":"us","latitude":41.881832,"longitude":-87.62318,"reserved":0,"last_update":"0001-01-01T00:00:00Z","name_a2s":"Uncletopia | Chicago | 6 | All Maps","protocol":17,"map":"cp_sunshine","folder":"tf","game":"Team Fortress","app_id":440,"player_count":0,"max_players":24,"Bots":0,"server_type":"Dedicated","server_os":"Linux","password":true,"vac":true,"version":"7961495","steam_id":85568392924866363,"keywords":["cp","nocrits","nodmgspread","uncletopia"],"game_id":440,"stv_port":27026,"stv_name":"Uncletopia | Chicago | 6 | All Maps | STV","players":null},{"server_id":38,"name":"Uncletopia | Chicago | 7 | Stopwatch","name_short":"chi-7","host":"chi-2.us.uncletopia.com","port":27035,"enabled":true,"region":"us-central","cc":"us","latitude":41.881832,"longitude":-87.62318,"reserved":0,"last_update":"0001-01-01T00:00:00Z","name_a2s":"Uncletopia | Chicago | 7 | Stopwatch","protocol":17,"map":"workshop/koth_product_final.ugc454272353","folder":"tf","game":"Team Fortress","app_id":440,"player_count":0,"max_players":24,"Bots":0,"server_type":"Dedicated","server_os":"Linux","password":true,"vac":true,"version":"7961495","steam_id":85568392924866364,"keywords":["cp","nocrits","nodmgspread","uncletopia"],"game_id":440,"stv_port":27036,"stv_name":"Uncletopia | Chicago | 7 | Stopwatch | STV","players":null},{"server_id":39,"name":"Uncletopia | Chicago | 8 | Community","name_short":"chi-8","host":"chi-2.us.uncletopia.com","port":27045,"enabled":true,"region":"us-central","cc":"us","latitude":41.881832,"longitude":-87.62318,"reserved":0,"last_update":"0001-01-01T00:00:00Z","name_a2s":"Uncletopia | Chicago | 8 | Community","protocol":17,"map":"workshop/pl_eruption_b9a.ugc2807898013","folder":"tf","game":"Team Fortress","app_id":440,"player_count":0,"max_players":24,"Bots":0,"server_type":"Dedicated","server_os":"Linux","password":true,"vac":true,"version":"7961495","steam_id":85568392924866365,"keywords":["nocrits","nodmgspread","payload","uncletopia"],"game_id":440,"stv_port":27046,"stv_name":"Uncletopia | Chicago | 8 | Community | STV","players":null},{"server_id":8,"name":"Uncletopia | Dallas | 1 | All Maps","name_short":"dal-1","host":"dal-1.us.uncletopia.com","port":27015,"enabled":true,"region":"us-central","cc":"us","latitude":32.779167,"longitude":-96.80889,"reserved":0,"last_update":"0001-01-01T00:00:00Z","name_a2s":"Uncletopia | Dallas | 1 | All Maps","protocol":17,"map":"pl_badwater","folder":"tf","game":"Team Fortress","app_id":440,"player_count":24,"max_players":24,"Bots":0,"server_type":"Dedicated","server_os":"Linux","password":true,"vac":true,"version":"7961495","steam_id":85568392924469986,"keywords":["nocrits","nodmgspread","payload","uncletopia"],"game_id":440,"stv_port":27016,"stv_name":"Uncletopia | Dallas | 1 | All Maps | STV","players":[{"user_id":81,"name":"cactail","steam_id":76561198238898732,"connected_time":1685000000000,"state":"active","ping":98},{"user_id":43,"name":"NavyDinosaur","steam_id":76561198088459962,"connected_time":4416000000000,"state":"active","ping":98},{"user_id":85,"name":"J.C. Leyendenton","steam_id":76561198096306325,"connected_time":1346000000000,"state":"active","ping":92},{"user_id":95,"name":"Prophet","steam_id":76561198134948582,"connected_time":432000000000,"state":"active","ping":110},{"user_id":82,"name":"JesterSig","steam_id":76561198015604649,"connected_time":1375000000000,"state":"active","ping":98},{"user_id":93,"name":"Sage","steam_id":76561198143101697,"connected_time":668000000000,"state":"active","ping":124},{"user_id":84,"name":"Thrasher","steam_id":76561197977801547,"connected_time":1357000000000,"state":"active","ping":95},{"user_id":57,"name":"Carrol","steam_id":76561198316384960,"connected_time":3828000000000,"state":"active","ping":104},{"user_id":75,"name":"Roberto Del Fuego","steam_id":76561198043458554,"connected_time":2562000000000,"state":"active","ping":75},{"user_id":88,"name":"Herr M√ºller","steam_id":76561198064876829,"connected_time":1299000000000,"state":"active","ping":90},{"user_id":16,"name":"Niko","steam_id":76561198185806553,"connected_time":6110000000000,"state":"active","ping":54},{"user_id":96,"name":"gretchling","steam_id":76561198046111695,"connected_time":365000000000,"state":"active","ping":46},{"user_id":91,"name":"firefly","steam_id":76561198151308698,"connected_time":1049000000000,"state":"active","ping":45},{"user_id":70,"name":"allahsdroptop","steam_id":76561198133195238,"connected_time":3050000000000,"state":"active","ping":97},{"user_id":53,"name":"Shooter of Walls","steam_id":76561197988105207,"connected_time":4192000000000,"state":"active","ping":85},{"user_id":97,"name":"Serene Salamander","steam_id":76561198001094770,"connected_time":362000000000,"state":"active","ping":95},{"user_id":60,"name":"Wheat","steam_id":76561198106270789,"connected_time":3717000000000,"state":"active","ping":78},{"user_id":54,"name":"BatMatt","steam_id":76561198045910433,"connected_time":4159000000000,"state":"active","ping":55},{"user_id":89,"name":"fish","steam_id":76561198878380917,"connected_time":1276000000000,"state":"active","ping":66},{"user_id":90,"name":"Magik","steam_id":76561198099726660,"connected_time":1112000000000,"state":"active","ping":76},{"user_id":28,"name":"HAT-WEARING‚Ñ¢ Maggot Gamer Cat","steam_id":76561197973992705,"connected_time":5789000000000,"state":"active","ping":103},{"user_id":83,"name":"GangstaPuddin","steam_id":76561198045414782,"connected_time":1372000000000,"state":"active","ping":75},{"user_id":73,"name":"b-dot","steam_id":76561198160786631,"connected_time":3038000000000,"state":"active","ping":71},{"user_id":79,"name":"smogun","steam_id":76561198361158518,"connected_time":2170000000000,"state":"active","ping":83}]},{"server_id":108,"name":"Uncletopia | Dallas | 2 | All Maps","name_short":"dal-2","host":"dal-1.us.uncletopia.com","port":27025,"enabled":true,"region":"us-central","cc":"us","latitude":32.779167,"longitude":-96.80889,"reserved":0,"last_update":"0001-01-01T00:00:00Z","name_a2s":"Uncletopia | Dallas | 2 | All Maps","protocol":17,"map":"pl_snowycoast","folder":"tf","game":"Team Fortress","app_id":440,"player_count":5,"max_players":24,"Bots":0,"server_type":"Dedicated","server_os":"Linux","password":true,"vac":true,"version":"7961495","steam_id":85568392924469988,"keywords":["nocrits","nodmgspread","payload","uncletopia"],"game_id":440,"stv_port":27026,"stv_name":"Uncletopia | Dallas | 2 | All Maps | STV","players":[{"user_id":5,"name":"Spinch","steam_id":76561198296224166,"connected_time":1085000000000,"state":"active","ping":66},{"user_id":6,"name":"Publo","steam_id":76561198161777140,"connected_time":1070000000000,"state":"active","ping":47},{"user_id":11,"name":"Megaxonic","steam_id":76561198996548641,"connected_time":437000000000,"state":"active","ping":39},{"user_id":8,"name":"Goblin","steam_id":76561199384665653,"connected_time":909000000000,"state":"active","ping":68},{"user_id":12,"name":"Fast","steam_id":76561198063457987,"connected_time":169000000000,"state":"active","ping":64}]},{"server_id":404,"name":"Uncletopia | Dallas | 3 | All Maps","name_short":"dal-3","host":"dal-1.us.uncletopia.com","port":27035,"enabled":true,"region":"us-central","cc":"us","latitude":32.779167,"longitude":-96.80889,"reserved":0,"last_update":"0001-01-01T00:00:00Z","name_a2s":"Uncletopia | Dallas | 3 | All Maps","protocol":17,"map":"koth_viaduct","folder":"tf","game":"Team Fortress","app_id":440,"player_count":0,"max_players":24,"Bots":0,"server_type":"Dedicated","server_os":"Linux","password":true,"vac":true,"version":"7961495","steam_id":85568392924515219,"keywords":["cp","nocrits","nodmgspread","uncletopia"],"game_id":440,"stv_port":27036,"stv_name":"Uncletopia | Dallas | 3 | All Maps | STV","players":null},{"server_id":405,"name":"Uncletopia | Dallas | 4 | Community","name_short":"dal-4","host":"dal-1.us.uncletopia.com","port":27045,"enabled":true,"region":"us-central","cc":"us","latitude":32.779167,"longitude":-96.80889,"reserved":0,"last_update":"0001-01-01T00:00:00Z","name_a2s":"Uncletopia | Dallas | 4 | Community","protocol":17,"map":"pl_pier","folder":"tf","game":"Team Fortress","app_id":440,"player_count":0,"max_players":24,"Bots":0,"server_type":"Dedicated","server_os":"Linux","password":true,"vac":true,"version":"7961495","steam_id":85568392924515220,"keywords":["nocrits","nodmgspread","payload","uncletopia"],"game_id":440,"stv_port":27046,"stv_name":"Uncletopia | Dallas | 4 | Community | STV","players":null},{"server_id":5,"name":"Uncletopia | Frankfurt | 1 | All Maps","name_short":"frk-1","host":"frk-1.de.uncletopia.com","port":27015,"enabled":true,"region":"eu","cc":"de","latitude":50.110924,"longitude":8.682127,"reserved":0,"last_update":"0001-01-01T00:00:00Z","name_a2s":"Uncletopia | Frankfurt | 1 | All Maps","protocol":17,"map":"pl_borneo","folder":"tf","game":"Team Fortress","app_id":440,"player_count":20,"max_players":24,"Bots":0,"server_type":"Dedicated","server_os":"Linux","password":true,"vac":true,"version":"7961495","steam_id":85568392924469989,"keywords":["nocrits","nodmgspread","payload","uncletopia"],"game_id":440,"stv_port":27016,"stv_name":"Uncletopia | Frankfurt | 1 | All Maps | STV","players":[{"user_id":367,"name":"KGiorgios_Bully","steam_id":76561198825392728,"connected_time":1729000000000,"state":"active","ping":105},{"user_id":387,"name":"Accident","steam_id":76561198115160396,"connected_time":573000000000,"state":"active","ping":69},{"user_id":391,"name":"Floris","steam_id":76561198001717422,"connected_time":527000000000,"state":"active","ping":55},{"user_id":398,"name":"hej","steam_id":76561198110530761,"connected_time":183000000000,"state":"active","ping":62},{"user_id":375,"name":"nevim","steam_id":76561199120843402,"connected_time":912000000000,"state":"active","ping":57},{"user_id":362,"name":"Kahvi","steam_id":76561198723244199,"connected_time":2330000000000,"state":"active","ping":84},{"user_id":355,"name":"MargoulGetron","steam_id":76561198020551698,"connected_time":2740000000000,"state":"active","ping":60},{"user_id":397,"name":"def","steam_id":76561198857396812,"connected_time":246000000000,"state":"active","ping":46},{"user_id":393,"name":"bob","steam_id":76561198309295580,"connected_time":424000000000,"state":"active","ping":53},{"user_id":399,"name":"Driller gaming","steam_id":76561198208064564,"connected_time":67000000000,"state":"active","ping":128},{"user_id":280,"name":"Mini","steam_id":76561197968634073,"connected_time":8879000000000,"state":"active","ping":105},{"user_id":381,"name":"Knuckles","steam_id":76561198000704259,"connected_time":652000000000,"state":"active","ping":123},{"user_id":351,"name":"AleXandriX","steam_id":76561198035203950,"connected_time":2816000000000,"state":"active","ping":55},{"user_id":383,"name":"R!not","steam_id":76561197986328786,"connected_time":620000000000,"state":"active","ping":45},{"user_id":340,"name":"ÍßÅ‡ºíXenon‡ºíÍßÇ","steam_id":76561198120502313,"connected_time":3394000000000,"state":"active","ping":88},{"user_id":341,"name":"tallen","steam_id":76561198061708595,"connected_time":3282000000000,"state":"active","ping":84},{"user_id":396,"name":"Drazmax","steam_id":76561198116750395,"connected_time":285000000000,"state":"active","ping":71},{"user_id":390,"name":"Schmack","steam_id":76561198026535437,"connected_time":560000000000,"state":"active","ping":59},{"user_id":371,"name":"Kepucz","steam_id":76561197977634244,"connected_time":1354000000000,"state":"active","ping":60},{"user_id":378,"name":"litho","steam_id":76561199012941780,"connected_time":827000000000,"state":"active","ping":67}]},{"server_id":110,"name":"Uncletopia | Frankfurt | 2 | All Maps","name_short":"frk-2","host":"frk-1.de.uncletopia.com","port":27025,"enabled":true,"region":"eu","cc":"de","latitude":50.110924,"longitude":8.682127,"reserved":0,"last_update":"0001-01-01T00:00:00Z","name_a2s":"Uncletopia | Frankfurt | 2 | All Maps","protocol":17,"map":"pl_swiftwater_final1","folder":"tf","game":"Team Fortress","app_id":440,"player_count":0,"max_players":24,"Bots":0,"server_type":"Dedicated","server_os":"Linux","password":true,"vac":true,"version":"7961495","steam_id":85568392924469990,"keywords":["nocrits","nodmgspread","payload","uncletopia"],"game_id":440,"stv_port":27026,"stv_name":"Uncletopia | Frankfurt | 2 | All Maps | STV","players":null},{"server_id":308,"name":"Uncletopia | Frankfurt | 3 | All Maps","name_short":"frk-3","host":"frk-1.de.uncletopia.com","port":27035,"enabled":true,"region":"eu","cc":"de","latitude":50.110924,"longitude":8.682127,"reserved":0,"last_update":"0001-01-01T00:00:00Z","name_a2s":"Uncletopia | Frankfurt | 3 | All Maps","protocol":17,"map":"pl_badwater","folder":"tf","game":"Team Fortress","app_id":440,"player_count":24,"max_players":24,"Bots":0,"server_type":"Dedicated","server_os":"Linux","password":true,"vac":true,"version":"7961495","steam_id":85568392924504274,"keywords":["nocrits","nodmgspread","payload","uncletopia"],"game_id":440,"stv_port":27036,"stv_name":"Uncletopia | Frankfurt | 3 | All Maps | STV","players":[{"user_id":253,"name":"madrassen","steam_id":76561198279855271,"connected_time":148000000000,"state":"active","ping":67},{"user_id":240,"name":"ImNotSimon","steam_id":76561197997921083,"connected_time":1169000000000,"state":"active","ping":93},{"user_id":237,"name":"Heura","steam_id":76561198328304087,"connected_time":1514000000000,"state":"active","ping":68},{"user_id":202,"name":"Gabe Howard","steam_id":76561198331677788,"connected_time":4260000000000,"state":"active","ping":68},{"user_id":250,"name":"Garoseth","steam_id":76561197961387454,"connected_time":175000000000,"state":"active","ping":60},{"user_id":258,"name":"Testicular torsion","steam_id":76561198119547399,"connected_time":4000000000,"state":"spawning","ping":49},{"user_id":249,"name":"Der Geist des Hans Rosling","steam_id":76561198049231109,"connected_time":185000000000,"state":"active","ping":58},{"user_id":245,"name":"Real (Real)","steam_id":76561198323425034,"connected_time":786000000000,"state":"active","ping":76},{"user_id":227,"name":"Gaattori","steam_id":76561198065624683,"connected_time":2141000000000,"state":"active","ping":88},{"user_id":241,"name":"kronik","steam_id":76561199160703098,"connected_time":1096000000000,"state":"active","ping":55},{"user_id":238,"name":"Marabosha","steam_id":76561198137599173,"connected_time":1450000000000,"state":"active","ping":101},{"user_id":252,"name":"please do not the cat","steam_id":76561198089003514,"connected_time":159000000000,"state":"active","ping":42},{"user_id":254,"name":"NovaByte","steam_id":76561199024222387,"connected_time":130000000000,"state":"active","ping":68},{"user_id":255,"name":"pain enjoyer","steam_id":76561198235814492,"connected_time":122000000000,"state":"spawning","ping":92},{"user_id":247,"name":"emiliapp46","steam_id":76561199257634422,"connected_time":386000000000,"state":"active","ping":91},{"user_id":226,"name":"iiiiiii","steam_id":76561199082156030,"connected_time":2581000000000,"state":"active","ping":72},{"user_id":234,"name":"lyudmilakh","steam_id":76561198362779878,"connected_time":1966000000000,"state":"active","ping":79},{"user_id":242,"name":"‚ù§G a n K","steam_id":76561199125995565,"connected_time":1027000000000,"state":"active","ping":61},{"user_id":256,"name":"Kretes","steam_id":76561198982786431,"connected_time":112000000000,"state":"active","ping":61},{"user_id":211,"name":"race car driver jerry","steam_id":76561198054047446,"connected_time":3530000000000,"state":"active","ping":60},{"user_id":223,"name":"breaT","steam_id":76561198091462641,"connected_time":2865000000000,"state":"active","ping":74},{"user_id":218,"name":"ŸÖŸÖÿßÿ±ÿ≥ ÿßŸÑÿπŸÜŸÅ","steam_id":76561198093073758,"connected_time":3160000000000,"state":"active","ping":69},{"user_id":209,"name":"DaiDaiMu :3","steam_id":76561198052794823,"connected_time":3767000000000,"state":"active","ping":61},{"user_id":243,"name":"Sakari","steam_id":76561197997811299,"connected_time":950000000000,"state":"active","ping":59}]},{"server_id":309,"name":"Uncletopia | Frankfurt | 4 | All Maps","name_short":"frk-4","host":"frk-1.de.uncletopia.com","port":27045,"enabled":true,"region":"eu","cc":"de","latitude":50.110924,"longitude":8.682127,"reserved":0,"last_update":"0001-01-01T00:00:00Z","name_a2s":"Uncletopia | Frankfurt | 4 | All Maps","protocol":17,"map":"koth_highpass","folder":"tf","game":"Team Fortress","app_id":440,"player_count":0,"max_players":24,"Bots":0,"server_type":"Dedicated","server_os":"Linux","password":true,"vac":true,"version":"7961495","steam_id":85568392924504275,"keywords":["cp","nocrits","nodmgspread","uncletopia"],"game_id":440,"stv_port":27046,"stv_name":"Uncletopia | Frankfurt | 4 | All Maps | STV","players":null},{"server_id":310,"name":"Uncletopia | Frankfurt | 5 | All Maps","name_short":"frk-5","host":"frk-1.de.uncletopia.com","port":27055,"enabled":true,"region":"eu","cc":"de","latitude":50.110924,"longitude":8.682127,"reserved":0,"last_update":"0001-01-01T00:00:00Z","name_a2s":"Uncletopia | Frankfurt | 5 | All Maps","protocol":17,"map":"cp_sunshine","folder":"tf","game":"Team Fortress","app_id":440,"player_count":24,"max_players":24,"Bots":0,"server_type":"Dedicated","server_os":"Linux","password":true,"vac":true,"version":"7961495","steam_id":85568392924504277,"keywords":["cp","nocrits","nodmgspread","uncletopia"],"game_id":440,"stv_port":27056,"stv_name":"Uncletopia | Frankfurt | 5 | All Maps | STV","players":[{"user_id":270,"name":"Ixsus\u003c3","steam_id":76561198094756869,"connected_time":1052000000000,"state":"active","ping":51},{"user_id":240,"name":"calul12345678","steam_id":76561199216219947,"connected_time":2312000000000,"state":"active","ping":73},{"user_id":264,"name":"PashaVerti","steam_id":76561199013963024,"connected_time":1201000000000,"state":"active","ping":77},{"user_id":282,"name":"Spyder","steam_id":76561198201008839,"connected_time":145000000000,"state":"active","ping":61},{"user_id":250,"name":"Nugget","steam_id":76561198338916407,"connected_time":1648000000000,"state":"active","ping":75},{"user_id":262,"name":"Solymr ibn Wali Barad","steam_id":76561198044008976,"connected_time":1220000000000,"state":"active","ping":67},{"user_id":265,"name":"Lukullu","steam_id":76561198269414258,"connected_time":1146000000000,"state":"active","ping":74},{"user_id":275,"name":"CNTRL","steam_id":76561199125803827,"connected_time":845000000000,"state":"active","ping":74},{"user_id":281,"name":"Infantile Pillock","steam_id":76561198283851362,"connected_time":276000000000,"state":"active","ping":57},{"user_id":278,"name":"Lieutenant Porky","steam_id":76561198076939947,"connected_time":378000000000,"state":"active","ping":71},{"user_id":274,"name":"ü•∂RV14üî•","steam_id":76561199168204989,"connected_time":888000000000,"state":"active","ping":178},{"user_id":283,"name":"dansal","steam_id":76561197997042510,"connected_time":83000000000,"state":"active","ping":167},{"user_id":272,"name":"the keebler","steam_id":76561199486326945,"connected_time":1038000000000,"state":"active","ping":162},{"user_id":284,"name":"ghenios","steam_id":76561198030011207,"connected_time":73000000000,"state":"active","ping":80},{"user_id":231,"name":"Yrj√∂ Koskinen Yrj√∂-Koskinen","steam_id":76561198368181145,"connected_time":2755000000000,"state":"active","ping":75},{"user_id":241,"name":"BajoBongo","steam_id":76561198037096711,"connected_time":2232000000000,"state":"active","ping":64},{"user_id":269,"name":"BIG Dave Gaming","steam_id":76561199170843929,"connected_time":1083000000000,"state":"active","ping":51},{"user_id":234,"name":"random guy (real)","steam_id":76561199199499453,"connected_time":2687000000000,"state":"active","ping":82},{"user_id":280,"name":"‚òûLaZe‚òú","steam_id":76561198202191400,"connected_time":369000000000,"state":"active","ping":73},{"user_id":235,"name":"Michal Jordan (real)","steam_id":76561199106262610,"connected_time":2684000000000,"state":"active","ping":45},{"user_id":215,"name":"mamma mia","steam_id":76561198111134021,"connected_time":4134000000000,"state":"active","ping":79},{"user_id":257,"name":"Soundz__","steam_id":76561198348337717,"connected_time":1495000000000,"state":"active","ping":52},{"user_id":255,"name":"Mafew","steam_id":76561198119993886,"connected_time":1557000000000,"state":"active","ping":68},{"user_id":260,"name":"Avenge Me!!!","steam_id":76561198008108279,"connected_time":1273000000000,"state":"active","ping":134}]},{"server_id":311,"name":"Uncletopia | Frankfurt | 6 | All Maps","name_short":"frk-6","host":"frk-1.de.uncletopia.com","port":27065,"enabled":true,"region":"eu","cc":"de","latitude":50.110924,"longitude":8.682127,"reserved":0,"last_update":"0001-01-01T00:00:00Z","name_a2s":"Uncletopia | Frankfurt | 6 | All Maps","protocol":17,"map":"pl_swiftwater_final1","folder":"tf","game":"Team Fortress","app_id":440,"player_count":24,"max_players":24,"Bots":0,"server_type":"Dedicated","server_os":"Linux","password":true,"vac":true,"version":"7961495","steam_id":85568392924504278,"keywords":["nocrits","nodmgspread","payload","uncletopia"],"game_id":440,"stv_port":27066,"stv_name":"Uncletopia | Frankfurt | 6 | All Maps | STV","players":[{"user_id":112,"name":"The One (and only)","steam_id":76561198827193499,"connected_time":2483000000000,"state":"active","ping":66},{"user_id":87,"name":"else1","steam_id":76561197996558319,"connected_time":5064000000000,"state":"active","ping":75},{"user_id":132,"name":"Boki","steam_id":76561198044553351,"connected_time":652000000000,"state":"active","ping":74},{"user_id":116,"name":"TheDeath","steam_id":76561198265038954,"connected_time":2218000000000,"state":"active","ping":69},{"user_id":117,"name":"WHUSSKEY","steam_id":76561198137827441,"connected_time":2213000000000,"state":"active","ping":69},{"user_id":102,"name":"ÔΩÑÔΩÖÔΩìÔΩãÔΩíÔΩÅÔΩô","steam_id":76561198805536170,"connected_time":3383000000000,"state":"active","ping":75},{"user_id":94,"name":"ANGELFISH","steam_id":76561198027536466,"connected_time":4266000000000,"state":"active","ping":101},{"user_id":121,"name":"Kali","steam_id":76561198796327257,"connected_time":1950000000000,"state":"active","ping":58},{"user_id":141,"name":"FunFile","steam_id":76561198013694721,"connected_time":68000000000,"state":"active","ping":87},{"user_id":135,"name":"wG auto","steam_id":76561198062247888,"connected_time":402000000000,"state":"active","ping":68},{"user_id":130,"name":"‚òÅ Lou1smeister ‚òÅ","steam_id":76561198004032968,"connected_time":746000000000,"state":"active","ping":69},{"user_id":125,"name":"Gryoss","steam_id":76561197999837111,"connected_time":1621000000000,"state":"active","ping":101},{"user_id":88,"name":"kurage","steam_id":76561198021221288,"connected_time":5030000000000,"state":"active","ping":60},{"user_id":128,"name":"Storm","steam_id":76561198055432676,"connected_time":1052000000000,"state":"active","ping":150},{"user_id":138,"name":"angy kitty (LFT)","steam_id":76561198201665723,"connected_time":381000000000,"state":"active","ping":61},{"user_id":127,"name":"4","steam_id":76561197964945192,"connected_time":1143000000000,"state":"active","ping":53},{"user_id":137,"name":"Thors","steam_id":76561197968739075,"connected_time":390000000000,"state":"active","ping":47},{"user_id":140,"name":"Ozzak","steam_id":76561198353664262,"connected_time":231000000000,"state":"active","ping":58},{"user_id":123,"name":"terminator_polska#","steam_id":76561198952087445,"connected_time":1907000000000,"state":"active","ping":60},{"user_id":133,"name":"The Bugs Under Your Skin","steam_id":76561198064795519,"connected_time":645000000000,"state":"active","ping":78},{"user_id":111,"name":"Doriian","steam_id":76561198071438810,"connected_time":2844000000000,"state":"active","ping":76},{"user_id":108,"name":"JGV","steam_id":76561198094654971,"connected_time":3070000000000,"state":"active","ping":70},{"user_id":129,"name":"swallowed 10 pennies please hel","steam_id":76561198055816412,"connected_time":800000000000,"state":"active","ping":61},{"user_id":139,"name":"speedyboy","steam_id":76561199222795521,"connected_time":377000000000,"state":"active","ping":85}]},{"server_id":23,"name":"Uncletopia | Frankfurt | 7 | Stopwatch","name_short":"frk-7","host":"frk-1.de.uncletopia.com","port":27075,"enabled":true,"region":"eu","cc":"de","latitude":50.110924,"longitude":8.682127,"reserved":0,"last_update":"0001-01-01T00:00:00Z","name_a2s":"Uncletopia | Frankfurt | 7 | Stopwatch","protocol":17,"map":"pl_borneo","folder":"tf","game":"Team Fortress","app_id":440,"player_count":0,"max_players":24,"Bots":0,"server_type":"Dedicated","server_os":"Linux","password":true,"vac":true,"version":"7961495","steam_id":85568392924742827,"keywords":["nocrits","nodmgspread","payload","uncletopia"],"game_id":440,"stv_port":27076,"stv_name":"Uncletopia | Frankfurt | 7 | Stopwatch | STV","players":null},{"server_id":24,"name":"Uncletopia | Frankfurt | 8 | Community","name_short":"frk-8","host":"frk-1.de.uncletopia.com","port":27085,"enabled":true,"region":"eu","cc":"de","latitude":50.110924,"longitude":8.682127,"reserved":0,"last_update":"0001-01-01T00:00:00Z","name_a2s":"Uncletopia | Frankfurt | 8 | Community","protocol":17,"map":"workshop/koth_trenchfoot_b1a.ugc731436616","folder":"tf","game":"Team Fortress","app_id":440,"player_count":0,"max_players":24,"Bots":0,"server_type":"Dedicated","server_os":"Linux","password":true,"vac":true,"version":"7961495","steam_id":85568392924742828,"keywords":["cp","nocrits","nodmgspread","uncletopia"],"game_id":440,"stv_port":27086,"stv_name":"Uncletopia | Frankfurt | 8 | Community | STV","players":null},{"server_id":202,"name":"Uncletopia | Hong Kong | 1 | All Maps","name_short":"hgk-1","host":"hgk-1.hk.uncletopia.com","port":27015,"enabled":true,"region":"asia","cc":"hk","latitude":22.302711,"longitude":114.177216,"reserved":0,"last_update":"0001-01-01T00:00:00Z","name_a2s":"Uncletopia | Hong Kong | 1 | All Maps","protocol":17,"map":"pl_frontier_final","folder":"tf","game":"Team Fortress","app_id":440,"player_count":3,"max_players":24,"Bots":0,"server_type":"Dedicated","server_os":"Linux","password":true,"vac":true,"version":"7961495","steam_id":85568392924494504,"keywords":["nocrits","nodmgspread","payload","uncletopia"],"game_id":440,"stv_port":27016,"stv_name":"Uncletopia | Hong Kong | 1 | All Maps | STV","players":[{"user_id":380,"name":"NotKomori","steam_id":76561198845165975,"connected_time":500000000000,"state":"active","ping":117},{"user_id":381,"name":"Raiden00","steam_id":76561197994078111,"connected_time":495000000000,"state":"active","ping":74},{"user_id":382,"name":"Kasoudo","steam_id":76561199103915521,"connected_time":153000000000,"state":"active","ping":167}]},{"server_id":1,"name":"Uncletopia | Los Angeles | 1 | All Maps","name_short":"lax-1","host":"lax-1.us.uncletopia.com","port":27015,"enabled":true,"region":"us-west","cc":"us","latitude":33.94279,"longitude":-118.41004,"reserved":0,"last_update":"0001-01-01T00:00:00Z","name_a2s":"Uncletopia | Los Angeles | 1 | All Maps","protocol":17,"map":"koth_highpass","folder":"tf","game":"Team Fortress","app_id":440,"player_count":0,"max_players":24,"Bots":0,"server_type":"Dedicated","server_os":"Linux","password":true,"vac":true,"version":"7961495","steam_id":85568392924469991,"keywords":["cp","nocrits","nodmgspread","uncletopia"],"game_id":440,"stv_port":27016,"stv_name":"Uncletopia | Los Angeles | 1 | All Maps | STV","players":null},{"server_id":112,"name":"Uncletopia | Los Angeles | 2 | All Maps","name_short":"lax-2","host":"lax-1.us.uncletopia.com","port":27025,"enabled":true,"region":"us-west","cc":"us","latitude":33.94279,"longitude":-118.41004,"reserved":0,"last_update":"0001-01-01T00:00:00Z","name_a2s":"Uncletopia | Los Angeles | 2 | All Maps","protocol":17,"map":"pl_snowycoast","folder":"tf","game":"Team Fortress","app_id":440,"player_count":0,"max_players":24,"Bots":0,"server_type":"Dedicated","server_os":"Linux","password":true,"vac":true,"version":"7961495","steam_id":85568392924469992,"keywords":["nocrits","nodmgspread","payload","uncletopia"],"game_id":440,"stv_port":27026,"stv_name":"Uncletopia | Los Angeles | 2 | All Maps | STV","players":null},{"server_id":324,"name":"Uncletopia | Los Angeles | 3 | All Maps","name_short":"lax-3","host":"lax-1.us.uncletopia.com","port":27035,"enabled":true,"region":"us-west","cc":"us","latitude":33.94279,"longitude":-118.41004,"reserved":0,"last_update":"0001-01-01T00:00:00Z","name_a2s":"Uncletopia | Los Angeles | 3 | All Maps","protocol":17,"map":"pl_frontier_final","folder":"tf","game":"Team Fortress","app_id":440,"player_count":0,"max_players":24,"Bots":0,"server_type":"Dedicated","server_os":"Linux","password":true,"vac":true,"version":"7961495","steam_id":85568392924510198,"keywords":["nocrits","nodmgspread","payload","uncletopia"],"game_id":440,"stv_port":27036,"stv_name":"Uncletopia | Los Angeles | 3 | All Maps | STV","players":null},{"server_id":25,"name":"Uncletopia | Los Angeles | 4 | Stopwatch","name_short":"lax-4","host":"lax-1.us.uncletopia.com","port":27045,"enabled":true,"region":"us-west","cc":"us","latitude":33.94279,"longitude":-118.41004,"reserved":0,"last_update":"0001-01-01T00:00:00Z","name_a2s":"Uncletopia | Los Angeles | 4 | Stopwatch","protocol":17,"map":"cp_process_final","folder":"tf","game":"Team Fortress","app_id":440,"player_count":0,"max_players":24,"Bots":0,"server_type":"Dedicated","server_os":"Linux","password":true,"vac":true,"version":"7961495","steam_id":85568392924510199,"keywords":["cp","nocrits","nodmgspread","uncletopia"],"game_id":440,"stv_port":27046,"stv_name":"Uncletopia | Los Angeles | 4 | Stopwatch | STV","players":null},{"server_id":11,"name":"Uncletopia | London | 1 | All Maps","name_short":"lon-1","host":"lon-1.uk.uncletopia.com","port":27015,"enabled":true,"region":"eu","cc":"gb","latitude":51.509865,"longitude":-0.118092,"reserved":0,"last_update":"0001-01-01T00:00:00Z","name_a2s":"Uncletopia | London | 1 | All Maps","protocol":17,"map":"pl_badwater","folder":"tf","game":"Team Fortress","app_id":440,"player_count":24,"max_players":24,"Bots":0,"server_type":"Dedicated","server_os":"Linux","password":true,"vac":true,"version":"7961495","steam_id":85568392924367362,"keywords":["nocrits","nodmgspread","payload","uncletopia"],"game_id":440,"stv_port":27016,"stv_name":"Uncletopia | London | 1 | All Maps | STV","players":[{"user_id":437,"name":"Tommy Toughknuckles","steam_id":76561198180438386,"connected_time":137000000000,"state":"active","ping":45},{"user_id":431,"name":"YARrICk.¬´+¬ª","steam_id":76561197990126485,"connected_time":685000000000,"state":"active","ping":58},{"user_id":395,"name":"call me extream78711","steam_id":76561198080912087,"connected_time":3440000000000,"state":"active","ping":73},{"user_id":438,"name":"fence_","steam_id":76561198150386379,"connected_time":124000000000,"state":"active","ping":44},{"user_id":352,"name":"rigel_","steam_id":76561198148640847,"connected_time":8519000000000,"state":"active","ping":89},{"user_id":425,"name":"jermany","steam_id":76561198126599355,"connected_time":947000000000,"state":"active","ping":60},{"user_id":414,"name":"breakfast burrito","steam_id":76561198148606969,"connected_time":1696000000000,"state":"active","ping":80},{"user_id":432,"name":"UwU IMPOSTOL","steam_id":76561198356586169,"connected_time":582000000000,"state":"active","ping":84},{"user_id":401,"name":"coom (2016)","steam_id":76561198890193313,"connected_time":2958000000000,"state":"active","ping":59},{"user_id":426,"name":"C√∂ffee","steam_id":76561198115131952,"connected_time":786000000000,"state":"active","ping":96},{"user_id":434,"name":"KnugenIV","steam_id":76561198127091993,"connected_time":430000000000,"state":"active","ping":61},{"user_id":384,"name":"lyra","steam_id":76561198043601838,"connected_time":5122000000000,"state":"active","ping":60},{"user_id":391,"name":"british broadcasting corporatio","steam_id":76561198190583242,"connected_time":3946000000000,"state":"active","ping":79},{"user_id":397,"name":"Guess That's It","steam_id":76561198168207306,"connected_time":3409000000000,"state":"active","ping":99},{"user_id":340,"name":"halow","steam_id":76561198061505163,"connected_time":9475000000000,"state":"active","ping":95},{"user_id":365,"name":"yup that extream78711","steam_id":76561198106049954,"connected_time":7437000000000,"state":"active","ping":145},{"user_id":430,"name":"Sucharik","steam_id":76561199050400928,"connected_time":718000000000,"state":"active","ping":89},{"user_id":424,"name":"Houlles","steam_id":76561198095277383,"connected_time":1191000000000,"state":"active","ping":53},{"user_id":348,"name":"shooer!","steam_id":76561198110531281,"connected_time":9106000000000,"state":"active","ping":72},{"user_id":422,"name":"MrRoAndrei","steam_id":76561198205282000,"connected_time":1242000000000,"state":"active","ping":72},{"user_id":421,"name":"Heavy TF2 in irl?!","steam_id":76561198082502910,"connected_time":1247000000000,"state":"active","ping":67},{"user_id":418,"name":"Kai","steam_id":76561198800004578,"connected_time":1328000000000,"state":"active","ping":48},{"user_id":436,"name":"Stunner John Mode! „ÉÑ","steam_id":76561199085822219,"connected_time":283000000000,"state":"active","ping":89},{"user_id":402,"name":"My honest reaction","steam_id":76561198079277466,"connected_time":2958000000000,"state":"active","ping":66}]},{"server_id":114,"name":"Uncletopia | London | 2 | All Maps","name_short":"lon-2","host":"lon-1.uk.uncletopia.com","port":27025,"enabled":true,"region":"eu","cc":"gb","latitude":51.509865,"longitude":-0.118092,"reserved":0,"last_update":"0001-01-01T00:00:00Z","name_a2s":"Uncletopia | London | 2 | All Maps","protocol":17,"map":"pl_badwater","folder":"tf","game":"Team Fortress","app_id":440,"player_count":24,"max_players":24,"Bots":0,"server_type":"Dedicated","server_os":"Linux","password":true,"vac":true,"version":"7961495","steam_id":85568392924470941,"keywords":["nocrits","nodmgspread","payload","uncletopia"],"game_id":440,"stv_port":27026,"stv_name":"Uncletopia | London | 2 | All Maps | STV","players":[{"user_id":353,"name":"Krabs","steam_id":76561198161679477,"connected_time":54000000000,"state":"active","ping":40},{"user_id":355,"name":"chickenoidi","steam_id":76561198449498382,"connected_time":20000000000,"state":"spawning","ping":136},{"user_id":341,"name":"Level 60 holy priest","steam_id":76561198031573426,"connected_time":286000000000,"state":"active","ping":70},{"user_id":345,"name":"Pixella","steam_id":76561198036554247,"connected_time":238000000000,"state":"active","ping":58},{"user_id":316,"name":"Cypher","steam_id":76561197996967254,"connected_time":2042000000000,"state":"active","ping":61},{"user_id":319,"name":"EEEEEH","steam_id":76561198126717413,"connected_time":1695000000000,"state":"active","ping":85},{"user_id":326,"name":"Dacia Sandero","steam_id":76561199052062415,"connected_time":1356000000000,"state":"active","ping":88},{"user_id":339,"name":"Filip","steam_id":76561198852826447,"connected_time":712000000000,"state":"active","ping":72},{"user_id":300,"name":"RedPyro2009","steam_id":76561198935824363,"connected_time":2443000000000,"state":"active","ping":76},{"user_id":356,"name":"Daemon","steam_id":76561198007015109,"connected_time":13000000000,"state":"spawning","ping":31},{"user_id":331,"name":"ArtuDitu303","steam_id":76561199093639498,"connected_time":1231000000000,"state":"active","ping":75},{"user_id":342,"name":"femboy enjoyer","steam_id":76561198058461401,"connected_time":271000000000,"state":"active","ping":59},{"user_id":347,"name":"Kaek","steam_id":76561197960283484,"connected_time":215000000000,"state":"active","ping":68},{"user_id":335,"name":"Deadlycow","steam_id":76561197980761347,"connected_time":936000000000,"state":"active","ping":64},{"user_id":338,"name":"Vitamin Weee","steam_id":76561199183937747,"connected_time":787000000000,"state":"active","ping":99},{"user_id":346,"name":"rocksarecool86","steam_id":76561199445662628,"connected_time":235000000000,"state":"active","ping":70},{"user_id":349,"name":"Micha≈Ç","steam_id":76561198320346362,"connected_time":210000000000,"state":"active","ping":67},{"user_id":329,"name":"LOBZIK","steam_id":76561198114830120,"connected_time":1279000000000,"state":"active","ping":86},{"user_id":350,"name":"Pighead_08","steam_id":76561199060466647,"connected_time":206000000000,"state":"active","ping":108},{"user_id":281,"name":"Symbols","steam_id":76561198057259825,"connected_time":3243000000000,"state":"active","ping":35},{"user_id":334,"name":"‚ò∏Koala99‚ò∏","steam_id":76561198375591154,"connected_time":1214000000000,"state":"active","ping":55},{"user_id":314,"name":"t.tv/Montreetor","steam_id":76561198088729562,"connected_time":2090000000000,"state":"active","ping":67},{"user_id":351,"name":"sHIFTINGvORTEX","steam_id":76561198231648332,"connected_time":204000000000,"state":"active","ping":62},{"user_id":327,"name":"Umbro","steam_id":76561198087930438,"connected_time":1354000000000,"state":"active","ping":84}]},{"server_id":320,"name":"Uncletopia | London | 3 | All Maps","name_short":"lon-3","host":"lon-1.uk.uncletopia.com","port":27035,"enabled":true,"region":"eu","cc":"gb","latitude":51.509865,"longitude":-0.118092,"reserved":0,"last_update":"0001-01-01T00:00:00Z","name_a2s":"Uncletopia | London | 3 | All Maps","protocol":17,"map":"pl_upward","folder":"tf","game":"Team Fortress","app_id":440,"player_count":0,"max_players":24,"Bots":0,"server_type":"Dedicated","server_os":"Linux","password":true,"vac":true,"version":"7961495","steam_id":85568392924510192,"keywords":["nocrits","nodmgspread","payload","uncletopia"],"game_id":440,"stv_port":27036,"stv_name":"Uncletopia | London | 3 | All Maps | STV","players":null},{"server_id":321,"name":"Uncletopia | London | 4 | All Maps","name_short":"lon-4","host":"lon-1.uk.uncletopia.com","port":27045,"enabled":true,"region":"eu","cc":"gb","latitude":51.509865,"longitude":-0.118092,"reserved":0,"last_update":"0001-01-01T00:00:00Z","name_a2s":"Uncletopia | London | 4 | All Maps","protocol":17,"map":"pl_hoodoo_final","folder":"tf","game":"Team Fortress","app_id":440,"player_count":24,"max_players":24,"Bots":0,"server_type":"Dedicated","server_os":"Linux","password":true,"vac":true,"version":"7961495","steam_id":85568392924510193,"keywords":["nocrits","nodmgspread","payload","uncletopia"],"game_id":440,"stv_port":27046,"stv_name":"Uncletopia | London | 4 | All Maps | STV","players":[{"user_id":70,"name":"That Bussy Can Squirt","steam_id":76561199185615752,"connected_time":3639000000000,"state":"active","ping":54},{"user_id":78,"name":"heisenberg","steam_id":76561198988867951,"connected_time":2799000000000,"state":"active","ping":55},{"user_id":80,"name":"kbourbery","steam_id":76561198109943492,"connected_time":2545000000000,"state":"active","ping":49},{"user_id":63,"name":"Norkkom","steam_id":76561198027073521,"connected_time":3988000000000,"state":"active","ping":119},{"user_id":87,"name":"gagalak","steam_id":76561198089979108,"connected_time":2279000000000,"state":"active","ping":105},{"user_id":58,"name":"idk111train, The Irritable","steam_id":76561198856402608,"connected_time":4312000000000,"state":"active","ping":53},{"user_id":112,"name":"Splendorous","steam_id":76561198880320499,"connected_time":380000000000,"state":"active","ping":48},{"user_id":76,"name":"just a cat","steam_id":76561198328023740,"connected_time":3240000000000,"state":"active","ping":50},{"user_id":109,"name":"tenta brella-wielding octopus","steam_id":76561198837919828,"connected_time":492000000000,"state":"active","ping":110},{"user_id":65,"name":"crazycalumrock","steam_id":76561198049890080,"connected_time":3868000000000,"state":"active","ping":36},{"user_id":30,"name":"Circular","steam_id":76561198001536710,"connected_time":5465000000000,"state":"active","ping":51},{"user_id":110,"name":"Wyzis","steam_id":76561198972794977,"connected_time":428000000000,"state":"active","ping":81},{"user_id":107,"name":"aless","steam_id":76561198941165698,"connected_time":679000000000,"state":"active","ping":47},{"user_id":73,"name":"The Manager of Sex Inc.","steam_id":76561198385989487,"connected_time":3461000000000,"state":"active","ping":99},{"user_id":104,"name":"Burgoo_King","steam_id":76561198133572225,"connected_time":1076000000000,"state":"active","ping":81},{"user_id":50,"name":"FNF","steam_id":76561199151422826,"connected_time":4882000000000,"state":"active","ping":130},{"user_id":52,"name":"Littleyoshifan","steam_id":76561198445491045,"connected_time":4839000000000,"state":"active","ping":43},{"user_id":105,"name":"klizeƒái","steam_id":76561198073320621,"connected_time":965000000000,"state":"active","ping":108},{"user_id":92,"name":"Spich","steam_id":76561199017245962,"connected_time":1747000000000,"state":"active","ping":117},{"user_id":102,"name":"wasto-/-‚Ñ¢","steam_id":76561198102888038,"connected_time":1299000000000,"state":"active","ping":62},{"user_id":114,"name":"[GANGSTER] Hakyoma","steam_id":76561198041279766,"connected_time":205000000000,"state":"active","ping":78},{"user_id":113,"name":"Cocsam","steam_id":76561198050827179,"connected_time":326000000000,"state":"active","ping":72},{"user_id":111,"name":"AmadStatistician","steam_id":76561198163654770,"connected_time":419000000000,"state":"active","ping":68},{"user_id":96,"name":"Max Power","steam_id":76561198019269089,"connected_time":1619000000000,"state":"active","ping":60}]},{"server_id":21,"name":"Uncletopia | London | 5 | All Maps","name_short":"lon-5","host":"lon-1.uk.uncletopia.com","port":27055,"enabled":true,"region":"eu","cc":"gb","latitude":51.509865,"longitude":-0.118092,"reserved":0,"last_update":"0001-01-01T00:00:00Z","name_a2s":"Uncletopia | London | 5 | All Maps","protocol":17,"map":"koth_lakeside_final","folder":"tf","game":"Team Fortress","app_id":440,"player_count":0,"max_players":24,"Bots":0,"server_type":"Dedicated","server_os":"Linux","password":true,"vac":true,"version":"7961495","steam_id":85568392924742829,"keywords":["cp","nocrits","nodmgspread","uncletopia"],"game_id":440,"stv_port":27056,"stv_name":"Uncletopia | London | 5 | All Maps | STV","players":null},{"server_id":22,"name":"Uncletopia | London | 6 | All Maps","name_short":"lon-6","host":"lon-1.uk.uncletopia.com","port":27065,"enabled":true,"region":"eu","cc":"gb","latitude":51.509865,"longitude":-0.118092,"reserved":0,"last_update":"0001-01-01T00:00:00Z","name_a2s":"Uncletopia | London | 6 | All Maps","protocol":17,"map":"koth_harvest_final","folder":"tf","game":"Team Fortress","app_id":440,"player_count":24,"max_players":24,"Bots":0,"server_type":"Dedicated","server_os":"Linux","password":true,"vac":true,"version":"7961495","steam_id":85568392924742830,"keywords":["cp","nocrits","nodmgspread","uncletopia"],"game_id":440,"stv_port":27066,"stv_name":"Uncletopia | London | 6 | All Maps | STV","players":[{"user_id":358,"name":"yuck","steam_id":76561197987249568,"connected_time":3233000000000,"state":"active","ping":104},{"user_id":363,"name":"T√° pr√°ta√≠ go maith","steam_id":76561198372536459,"connected_time":2180000000000,"state":"active","ping":49},{"user_id":335,"name":"finjar","steam_id":76561198350473059,"connected_time":3958000000000,"state":"active","ping":87},{"user_id":380,"name":"Someone","steam_id":76561199030195879,"connected_time":1182000000000,"state":"active","ping":49},{"user_id":374,"name":"W.","steam_id":76561198097420050,"connected_time":1267000000000,"state":"active","ping":47},{"user_id":395,"name":"BlueBlaster","steam_id":76561197995684708,"connected_time":343000000000,"state":"active","ping":66},{"user_id":350,"name":"Roman","steam_id":76561197967683724,"connected_time":3514000000000,"state":"active","ping":40},{"user_id":342,"name":"jerf (iuh)(e)","steam_id":76561199213901239,"connected_time":3717000000000,"state":"active","ping":45},{"user_id":343,"name":"void","steam_id":76561199496179862,"connected_time":3688000000000,"state":"active","ping":49},{"user_id":376,"name":"chtibilouttes","steam_id":76561199084788915,"connected_time":1251000000000,"state":"active","ping":50},{"user_id":392,"name":"Drip-O-bama","steam_id":76561199135631057,"connected_time":433000000000,"state":"active","ping":88},{"user_id":394,"name":"Grand Master Bilbosaurus Rex","steam_id":76561198115244861,"connected_time":403000000000,"state":"active","ping":75},{"user_id":390,"name":"sgtpokey","steam_id":76561198007472160,"connected_time":633000000000,"state":"active","ping":52},{"user_id":372,"name":"Eric Catman","steam_id":76561198802117294,"connected_time":1485000000000,"state":"active","ping":69},{"user_id":384,"name":"Ferrariracer5f1","steam_id":76561199229815098,"connected_time":1087000000000,"state":"active","ping":54},{"user_id":340,"name":"HilldogGaming‚ôõ","steam_id":76561198082209322,"connected_time":3782000000000,"state":"active","ping":77},{"user_id":362,"name":"MovingIsOverRated","steam_id":76561198385633292,"connected_time":2270000000000,"state":"active","ping":194},{"user_id":347,"name":"lillunya ‚ô°","steam_id":76561198330418866,"connected_time":3585000000000,"state":"active","ping":66},{"user_id":385,"name":"Night Rider","steam_id":76561199394462709,"connected_time":1035000000000,"state":"active","ping":90},{"user_id":398,"name":"Genesis","steam_id":76561198999652040,"connected_time":26000000000,"state":"spawning","ping":52},{"user_id":397,"name":"cuzimlatin2704","steam_id":76561199094752899,"connected_time":56000000000,"state":"active","ping":140},{"user_id":369,"name":"The Engineer","steam_id":76561199437330739,"connected_time":2107000000000,"state":"active","ping":62},{"user_id":371,"name":"Pantroglodytestherapy","steam_id":76561198236015392,"connected_time":1704000000000,"state":"active","ping":120},{"user_id":370,"name":"Babushka's Rug","steam_id":76561198074952008,"connected_time":1734000000000,"state":"active","ping":60}]},{"server_id":40,"name":"Uncletopia | London | 7 | Stopwatch","name_short":"lon-7","host":"lon-1.uk.uncletopia.com","port":27075,"enabled":true,"region":"eu","cc":"gb","latitude":51.509865,"longitude":-0.118092,"reserved":0,"last_update":"0001-01-01T00:00:00Z","name_a2s":"Uncletopia | London | 7 | Stopwatch","protocol":17,"map":"workshop/pl_vigil_rc10.ugc1266210012","folder":"tf","game":"Team Fortress","app_id":440,"player_count":22,"max_players":24,"Bots":0,"server_type":"Dedicated","server_os":"Linux","password":true,"vac":true,"version":"7961495","steam_id":85568392924964314,"keywords":["nocrits","nodmgspread","payload","uncletopia"],"game_id":440,"stv_port":27076,"stv_name":"Uncletopia | London | 7 | Stopwatch | STV","players":[{"user_id":291,"name":"Quantum","steam_id":76561198401018345,"connected_time":347000000000,"state":"active","ping":88},{"user_id":252,"name":"God's Goofiest Goober","steam_id":76561198103175187,"connected_time":2976000000000,"state":"active","ping":72},{"user_id":283,"name":"flr","steam_id":76561198249327786,"connected_time":872000000000,"state":"active","ping":72},{"user_id":290,"name":"Pomson 6000","steam_id":76561198344588858,"connected_time":451000000000,"state":"active","ping":52},{"user_id":282,"name":"NeonPixel","steam_id":76561198165901066,"connected_time":1043000000000,"state":"active","ping":80},{"user_id":222,"name":"Bruschetta","steam_id":76561198251927162,"connected_time":5977000000000,"state":"active","ping":74},{"user_id":265,"name":"Schloompa","steam_id":76561198286725629,"connected_time":1988000000000,"state":"active","ping":56},{"user_id":235,"name":"Slavdrew20","steam_id":76561198874638395,"connected_time":4353000000000,"state":"active","ping":75},{"user_id":236,"name":"Angela ‚òò","steam_id":76561198105207050,"connected_time":4347000000000,"state":"active","ping":54},{"user_id":241,"name":"Theleomaster","steam_id":76561198342580499,"connected_time":3932000000000,"state":"active","ping":92},{"user_id":258,"name":"Skittles","steam_id":76561198024077569,"connected_time":2763000000000,"state":"active","ping":68},{"user_id":198,"name":"‚ô•Stephanie‚ô•","steam_id":76561199042560808,"connected_time":7646000000000,"state":"active","ping":89},{"user_id":278,"name":"smallGIGACHAD","steam_id":76561198047359132,"connected_time":1212000000000,"state":"active","ping":74},{"user_id":253,"name":"GabGame","steam_id":76561198105631808,"connected_time":2933000000000,"state":"active","ping":65},{"user_id":205,"name":"M2rtRa","steam_id":76561198111036466,"connected_time":7530000000000,"state":"active","ping":83},{"user_id":286,"name":"minecraft","steam_id":76561199218227502,"connected_time":846000000000,"state":"active","ping":129},{"user_id":280,"name":"Uzi","steam_id":76561198436817109,"connected_time":1138000000000,"state":"active","ping":58},{"user_id":274,"name":"rets_","steam_id":76561198061551392,"connected_time":1800000000000,"state":"active","ping":52},{"user_id":254,"name":"bowchika wowa #SlavaUkraine","steam_id":76561198159564550,"connected_time":2918000000000,"state":"active","ping":72},{"user_id":289,"name":"bart","steam_id":76561198025395216,"connected_time":480000000000,"state":"active","ping":55},{"user_id":276,"name":"murderwow","steam_id":76561198024566944,"connected_time":1408000000000,"state":"active","ping":113}]},{"server_id":41,"name":"Uncletopia | London | 8 | Community","name_short":"lon-8","host":"lon-1.uk.uncletopia.com","port":27085,"enabled":true,"region":"eu","cc":"gb","latitude":51.509865,"longitude":-0.118092,"reserved":0,"last_update":"0001-01-01T00:00:00Z","name_a2s":"Uncletopia | London | 8 | Community","protocol":17,"map":"workshop/koth_trenchfoot_b1a.ugc731436616","folder":"tf","game":"Team Fortress","app_id":440,"player_count":0,"max_players":24,"Bots":0,"server_type":"Dedicated","server_os":"Linux","password":true,"vac":true,"version":"7961495","steam_id":85568392924964315,"keywords":["cp","nocrits","nodmgspread","uncletopia"],"game_id":440,"stv_port":27086,"stv_name":"Uncletopia | London | 8 | Community | STV","players":null},{"server_id":300,"name":"Uncletopia | Montr√©al | 1 | All Maps","name_short":"mtl-1","host":"mtl-1.ca.uncletopia.com","port":27015,"enabled":true,"region":"us-east","cc":"ca","latitude":45.50889,"longitude":-73.56167,"reserved":0,"last_update":"0001-01-01T00:00:00Z","name_a2s":"","protocol":0,"map":"","folder":"","game":"","app_id":0,"player_count":0,"max_players":0,"Bots":0,"server_type":"","server_os":"","password":false,"vac":false,"version":"","steam_id":0,"keywords":null,"game_id":0,"stv_port":0,"stv_name":"","players":null},{"server_id":301,"name":"Uncletopia | Montr√©al | 2 | One Thousand Uncles","name_short":"mtl-2","host":"mtl-1.ca.uncletopia.com","port":27025,"enabled":true,"region":"us-east","cc":"ca","latitude":45.50889,"longitude":-73.56167,"reserved":0,"last_update":"0001-01-01T00:00:00Z","name_a2s":"","protocol":0,"map":"","folder":"","game":"","app_id":0,"player_count":1,"max_players":0,"Bots":0,"server_type":"","server_os":"","password":false,"vac":false,"version":"","steam_id":0,"keywords":null,"game_id":0,"stv_port":0,"stv_name":"","players":[{"user_id":37,"name":"Quigi","steam_id":76561198144645874,"connected_time":122000000000,"state":"active","ping":108}]},{"server_id":13,"name":"Uncletopia | New York City | 1 | All Maps","name_short":"nyc-1","host":"nyc-1.us.uncletopia.com","port":27015,"enabled":true,"region":"us-east","cc":"us","latitude":40.73061,"longitude":-73.93524,"reserved":0,"last_update":"0001-01-01T00:00:00Z","name_a2s":"Uncletopia | New York City | 1 | All Maps","protocol":17,"map":"pl_barnblitz","folder":"tf","game":"Team Fortress","app_id":440,"player_count":0,"max_players":24,"Bots":0,"server_type":"Dedicated","server_os":"Linux","password":true,"vac":true,"version":"7961495","steam_id":85568392924469993,"keywords":["nocrits","nodmgspread","payload","uncletopia"],"game_id":440,"stv_port":27016,"stv_name":"Uncletopia | New York City | 1 | All Maps | STV","players":null},{"server_id":14,"name":"Uncletopia | New York City | 2 | All Maps","name_short":"nyc-2","host":"nyc-1.us.uncletopia.com","port":27025,"enabled":true,"region":"us-east","cc":"us","latitude":40.73061,"longitude":-73.93524,"reserved":0,"last_update":"0001-01-01T00:00:00Z","name_a2s":"Uncletopia | New York City | 2 | All Maps","protocol":17,"map":"pl_badwater","folder":"tf","game":"Team Fortress","app_id":440,"player_count":16,"max_players":24,"Bots":0,"server_type":"Dedicated","server_os":"Linux","password":true,"vac":true,"version":"7961495","steam_id":85568392924469994,"keywords":["nocrits","nodmgspread","payload","uncletopia"],"game_id":440,"stv_port":27026,"stv_name":"Uncletopia | New York City | 2 | All Maps | STV","players":[{"user_id":244,"name":"I am based","steam_id":76561198011675372,"connected_time":17000000000,"state":"spawning","ping":110},{"user_id":226,"name":"Operation_SeaLion","steam_id":76561198048726691,"connected_time":1376000000000,"state":"active","ping":34},{"user_id":220,"name":"canid","steam_id":76561198103496593,"connected_time":1940000000000,"state":"active","ping":60},{"user_id":219,"name":"sqerkbo","steam_id":76561198080012700,"connected_time":2094000000000,"state":"active","ping":45},{"user_id":243,"name":"guy","steam_id":76561198079925551,"connected_time":58000000000,"state":"active","ping":45},{"user_id":239,"name":"punk cock","steam_id":76561198418182764,"connected_time":386000000000,"state":"active","ping":45},{"user_id":225,"name":"j.","steam_id":76561198334047096,"connected_time":1454000000000,"state":"active","ping":53},{"user_id":222,"name":"space man","steam_id":76561198066333670,"connected_time":1870000000000,"state":"active","ping":71},{"user_id":241,"name":"Brown_Dream","steam_id":76561198975766145,"connected_time":275000000000,"state":"active","ping":72},{"user_id":228,"name":"josh","steam_id":76561198110063909,"connected_time":1355000000000,"state":"active","ping":75},{"user_id":229,"name":"Primal","steam_id":76561197983118203,"connected_time":1338000000000,"state":"active","ping":77},{"user_id":221,"name":"Isilawuli","steam_id":76561198084150503,"connected_time":1886000000000,"state":"active","ping":33},{"user_id":216,"name":"uruzihC","steam_id":76561198196021825,"connected_time":2623000000000,"state":"active","ping":53},{"user_id":135,"name":"Chris","steam_id":76561198044278802,"connected_time":7535000000000,"state":"active","ping":47},{"user_id":224,"name":"Voracious Puma","steam_id":76561197963621649,"connected_time":1540000000000,"state":"active","ping":80},{"user_id":238,"name":"epsilene","steam_id":76561198027468624,"connected_time":662000000000,"state":"active","ping":32}]},{"server_id":15,"name":"Uncletopia | New York City | 3 | Stopwatch","name_short":"nyc-3","host":"nyc-1.us.uncletopia.com","port":27035,"enabled":true,"region":"us-east","cc":"us","latitude":40.73061,"longitude":-73.93524,"reserved":0,"last_update":"0001-01-01T00:00:00Z","name_a2s":"Uncletopia | New York City | 3 | Stopwatch","protocol":17,"map":"pl_snowycoast","folder":"tf","game":"Team Fortress","app_id":440,"player_count":0,"max_players":24,"Bots":0,"server_type":"Dedicated","server_os":"Linux","password":true,"vac":true,"version":"7961495","steam_id":85568392924742820,"keywords":["nocrits","nodmgspread","payload","uncletopia"],"game_id":440,"stv_port":27036,"stv_name":"Uncletopia | New York City | 3 | Stopwatch | STV","players":null},{"server_id":16,"name":"Uncletopia | New York City | 4 | Community","name_short":"nyc-4","host":"nyc-1.us.uncletopia.com","port":27045,"enabled":true,"region":"us-east","cc":"us","latitude":40.73061,"longitude":-73.93524,"reserved":0,"last_update":"0001-01-01T00:00:00Z","name_a2s":"Uncletopia | New York City | 4 | Community","protocol":17,"map":"workshop/pl_cactuscanyon_redux_final2.ugc2579644293","folder":"tf","game":"Team Fortress","app_id":440,"player_count":0,"max_players":24,"Bots":0,"server_type":"Dedicated","server_os":"Linux","password":true,"vac":true,"version":"7961495","steam_id":85568392924742821,"keywords":["nocrits","nodmgspread","payload","uncletopia"],"game_id":440,"stv_port":27046,"stv_name":"Uncletopia | New York City | 4 | Community | STV","players":null},{"server_id":142,"name":"Uncletopia | S√£o Paulo | 1 | All Maps","name_short":"sao-1","host":"sao-1.br.uncletopia.com","port":27015,"enabled":true,"region":"sa","cc":"br","latitude":-23.533773,"longitude":-46.62529,"reserved":0,"last_update":"0001-01-01T00:00:00Z","name_a2s":"Uncletopia | S√£o Paulo | 1 | All Maps","protocol":17,"map":"cp_mountainlab","folder":"tf","game":"Team Fortress","app_id":440,"player_count":0,"max_players":24,"Bots":0,"server_type":"Dedicated","server_os":"Linux","password":true,"vac":true,"version":"7961495","steam_id":85568392924469996,"keywords":["cp","nocrits","nodmgspread","uncletopia"],"game_id":440,"stv_port":27016,"stv_name":"Uncletopia | S√£o Paulo | 1 | All Maps | STV","players":null},{"server_id":143,"name":"Uncletopia | S√£o Paulo | 2 | Community","name_short":"sao-2","host":"sao-2.br.uncletopia.com","port":27015,"enabled":true,"region":"sa","cc":"br","latitude":-23.533773,"longitude":-46.62529,"reserved":0,"last_update":"0001-01-01T00:00:00Z","name_a2s":"Uncletopia | S√£o Paulo | 2 | Community","protocol":17,"map":"pl_badwater","folder":"tf","game":"Team Fortress","app_id":440,"player_count":0,"max_players":24,"Bots":0,"server_type":"Dedicated","server_os":"Linux","password":true,"vac":true,"version":"7961495","steam_id":85568392924485349,"keywords":["nocrits","nodmgspread","payload","uncletopia"],"game_id":440,"stv_port":27016,"stv_name":"Uncletopia | S√£o Paulo | 2 | Community | STV","players":null},{"server_id":7,"name":"Uncletopia | Seattle | 1 | All Maps","name_short":"sea-1","host":"sea-1.us.uncletopia.com","port":27015,"enabled":true,"region":"us-west","cc":"us","latitude":47.608013,"longitude":-122.33517,"reserved":0,"last_update":"0001-01-01T00:00:00Z","name_a2s":"Uncletopia | Seattle | 1 | All Maps","protocol":17,"map":"pl_borneo","folder":"tf","game":"Team Fortress","app_id":440,"player_count":3,"max_players":24,"Bots":0,"server_type":"Dedicated","server_os":"Linux","password":true,"vac":true,"version":"7961495","steam_id":85568392924469997,"keywords":["nocrits","nodmgspread","payload","uncletopia"],"game_id":440,"stv_port":27016,"stv_name":"Uncletopia | Seattle | 1 | All Maps | STV","players":[{"user_id":169,"name":"Disco","steam_id":76561198081177415,"connected_time":786000000000,"state":"active","ping":59},{"user_id":171,"name":"BlazedBunny","steam_id":76561198243610560,"connected_time":682000000000,"state":"active","ping":47},{"user_id":172,"name":"louise sneeze","steam_id":76561198062451648,"connected_time":632000000000,"state":"active","ping":82}]},{"server_id":119,"name":"Uncletopia | Seattle | 2 | All Maps","name_short":"sea-2","host":"sea-1.us.uncletopia.com","port":27025,"enabled":true,"region":"us-west","cc":"us","latitude":47.608013,"longitude":-122.33517,"reserved":0,"last_update":"0001-01-01T00:00:00Z","name_a2s":"Uncletopia | Seattle | 2 | All Maps","protocol":17,"map":"cp_dustbowl","folder":"tf","game":"Team Fortress","app_id":440,"player_count":0,"max_players":24,"Bots":0,"server_type":"Dedicated","server_os":"Linux","password":true,"vac":true,"version":"7961495","steam_id":85568392924469998,"keywords":["cp","nocrits","nodmgspread","uncletopia"],"game_id":440,"stv_port":27026,"stv_name":"Uncletopia | Seattle | 2 | All Maps | STV","players":null},{"server_id":406,"name":"Uncletopia | Seattle | 3 | Stopwatch","name_short":"sea-3","host":"sea-1.us.uncletopia.com","port":27035,"enabled":true,"region":"us-west","cc":"us","latitude":47.608013,"longitude":-122.33517,"reserved":0,"last_update":"0001-01-01T00:00:00Z","name_a2s":"Uncletopia | Seattle | 3 | Stopwatch","protocol":17,"map":"cp_process_final","folder":"tf","game":"Team Fortress","app_id":440,"player_count":0,"max_players":24,"Bots":0,"server_type":"Dedicated","server_os":"Linux","password":true,"vac":true,"version":"7961495","steam_id":85568392924515217,"keywords":["cp","nocrits","nodmgspread","uncletopia"],"game_id":440,"stv_port":27036,"stv_name":"Uncletopia | Seattle | 3 | Stopwatch | STV","players":null},{"server_id":17,"name":"Uncletopia | San Francisco | 1 | All Maps","name_short":"sfo-1","host":"sfo-1.us.uncletopia.com","port":27015,"enabled":true,"region":"us-west","cc":"us","latitude":37.77397,"longitude":-122.4313,"reserved":0,"last_update":"0001-01-01T00:00:00Z","name_a2s":"Uncletopia | San Francisco | 1 | All Maps","protocol":17,"map":"koth_cascade","folder":"tf","game":"Team Fortress","app_id":440,"player_count":0,"max_players":24,"Bots":0,"server_type":"Dedicated","server_os":"Linux","password":true,"vac":true,"version":"7961495","steam_id":85568392924469999,"keywords":["cp","nocrits","nodmgspread","uncletopia"],"game_id":440,"stv_port":27016,"stv_name":"Uncletopia | San Francisco | 1 | All Maps | STV","players":null},{"server_id":18,"name":"Uncletopia | San Francisco | 2 | All Maps","name_short":"sfo-2","host":"sfo-1.us.uncletopia.com","port":27025,"enabled":true,"region":"us-west","cc":"us","latitude":37.77397,"longitude":-122.4313,"reserved":0,"last_update":"0001-01-01T00:00:00Z","name_a2s":"Uncletopia | San Francisco | 2 | All Maps","protocol":17,"map":"pl_frontier_final","folder":"tf","game":"Team Fortress","app_id":440,"player_count":0,"max_players":24,"Bots":0,"server_type":"Dedicated","server_os":"Linux","password":true,"vac":true,"version":"7961495","steam_id":85568392924470000,"keywords":["nocrits","nodmgspread","payload","uncletopia"],"game_id":440,"stv_port":27026,"stv_name":"Uncletopia | San Francisco | 2 | All Maps | STV","players":null},{"server_id":19,"name":"Uncletopia | San Francisco | 3 | Stopwatch","name_short":"sfo-3","host":"sfo-1.us.uncletopia.com","port":27035,"enabled":true,"region":"us-west","cc":"us","latitude":37.77397,"longitude":-122.4313,"reserved":0,"last_update":"0001-01-01T00:00:00Z","name_a2s":"Uncletopia | San Francisco | 3 | Stopwatch","protocol":17,"map":"pl_pier","folder":"tf","game":"Team Fortress","app_id":440,"player_count":0,"max_players":24,"Bots":0,"server_type":"Dedicated","server_os":"Linux","password":true,"vac":true,"version":"7961495","steam_id":85568392924742824,"keywords":["nocrits","nodmgspread","payload","uncletopia"],"game_id":440,"stv_port":27036,"stv_name":"Uncletopia | San Francisco | 3 | Stopwatch | STV","players":null},{"server_id":20,"name":"Uncletopia | San Francisco | 4 | Community","name_short":"sfo-4","host":"sfo-1.us.uncletopia.com","port":27045,"enabled":true,"region":"us-west","cc":"us","latitude":37.77397,"longitude":-122.4313,"reserved":0,"last_update":"0001-01-01T00:00:00Z","name_a2s":"Uncletopia | San Francisco | 4 | Community","protocol":17,"map":"pl_pier","folder":"tf","game":"Team Fortress","app_id":440,"player_count":0,"max_players":24,"Bots":0,"server_type":"Dedicated","server_os":"Linux","password":true,"vac":true,"version":"7961495","steam_id":85568392924742826,"keywords":["nocrits","nodmgspread","payload","uncletopia"],"game_id":440,"stv_port":27046,"stv_name":"Uncletopia | San Francisco | 4 | Community | STV","players":null},{"server_id":141,"name":"Uncletopia | Sydney | 1 | All Maps","name_short":"syd-1","host":"syd-1.au.uncletopia.com","port":27015,"enabled":true,"region":"au","cc":"au","latitude":-33.865143,"longitude":151.2099,"reserved":0,"last_update":"0001-01-01T00:00:00Z","name_a2s":"Uncletopia | Sydney | 1 | All Maps","protocol":17,"map":"koth_lakeside_final","folder":"tf","game":"Team Fortress","app_id":440,"player_count":0,"max_players":24,"Bots":0,"server_type":"Dedicated","server_os":"Linux","password":true,"vac":true,"version":"7961495","steam_id":85568392924470001,"keywords":["cp","nocrits","nodmgspread","uncletopia"],"game_id":440,"stv_port":27016,"stv_name":"Uncletopia | Sydney | 1 | All Maps | STV","players":null},{"server_id":123,"name":"Uncletopia | Sydney | 2 | All Maps","name_short":"syd-2","host":"syd-1.au.uncletopia.com","port":27025,"enabled":true,"region":"au","cc":"au","latitude":-33.865143,"longitude":151.2099,"reserved":0,"last_update":"0001-01-01T00:00:00Z","name_a2s":"Uncletopia | Sydney | 2 | All Maps","protocol":17,"map":"cp_5gorge","folder":"tf","game":"Team Fortress","app_id":440,"player_count":0,"max_players":24,"Bots":0,"server_type":"Dedicated","server_os":"Linux","password":true,"vac":true,"version":"7961495","steam_id":85568392924470002,"keywords":["cp","nocrits","nodmgspread","uncletopia"],"game_id":440,"stv_port":27026,"stv_name":"Uncletopia | Sydney | 2 | All Maps | STV","players":null},{"server_id":395,"name":"Uncletopia | Sydney | 3 | All Maps","name_short":"syd-3","host":"syd-1.au.uncletopia.com","port":27035,"enabled":true,"region":"au","cc":"au","latitude":-33.865143,"longitude":151.2099,"reserved":0,"last_update":"0001-01-01T00:00:00Z","name_a2s":"Uncletopia | Sydney | 3 | All Maps","protocol":17,"map":"cp_altitude","folder":"tf","game":"Team Fortress","app_id":440,"player_count":0,"max_players":24,"Bots":0,"server_type":"Dedicated","server_os":"Linux","password":true,"vac":true,"version":"7961495","steam_id":85568392925194467,"keywords":["cp","nocrits","nodmgspread","uncletopia"],"game_id":440,"stv_port":27036,"stv_name":"Uncletopia | Sydney | 3 | All Maps | STV","players":null},{"server_id":396,"name":"Uncletopia | Sydney | 4 | All Maps","name_short":"syd-4","host":"syd-1.au.uncletopia.com","port":27045,"enabled":true,"region":"au","cc":"au","latitude":-33.865143,"longitude":151.2099,"reserved":0,"last_update":"0001-01-01T00:00:00Z","name_a2s":"Uncletopia | Sydney | 4 | All Maps","protocol":17,"map":"koth_highpass","folder":"tf","game":"Team Fortress","app_id":440,"player_count":0,"max_players":24,"Bots":0,"server_type":"Dedicated","server_os":"Linux","password":true,"vac":true,"version":"7961495","steam_id":85568392925397958,"keywords":["cp","nocrits","nodmgspread","uncletopia"],"game_id":440,"stv_port":27046,"stv_name":"Uncletopia | Sydney | 4 | All Maps | STV","players":null},{"server_id":58,"name":"Uncletopia | Sydney | 5 | Stopwatch","name_short":"syd-5","host":"syd-1.au.uncletopia.com","port":27055,"enabled":true,"region":"au","cc":"au","latitude":-33.865143,"longitude":151.2099,"reserved":0,"last_update":"0001-01-01T00:00:00Z","name_a2s":"Uncletopia | Sydney | 5 | Stopwatch","protocol":17,"map":"workshop/koth_clearcut_b15.ugc2107050255","folder":"tf","game":"Team Fortress","app_id":440,"player_count":0,"max_players":24,"Bots":0,"server_type":"Dedicated","server_os":"Linux","password":true,"vac":true,"version":"7961495","steam_id":85568392925397959,"keywords":["cp","nocrits","nodmgspread","uncletopia"],"game_id":440,"stv_port":27056,"stv_name":"Uncletopia | Sydney | 5 | Stopwatch | STV","players":null},{"server_id":59,"name":"Uncletopia | Sydney | 6 | Community","name_short":"syd-6","host":"syd-1.au.uncletopia.com","port":27065,"enabled":true,"region":"au","cc":"au","latitude":-33.865143,"longitude":151.2099,"reserved":0,"last_update":"0001-01-01T00:00:00Z","name_a2s":"Uncletopia | Sydney | 6 | Community","protocol":17,"map":"cp_sunshine","folder":"tf","game":"Team Fortress","app_id":440,"player_count":0,"max_players":24,"Bots":0,"server_type":"Dedicated","server_os":"Linux","password":true,"vac":true,"version":"7961495","steam_id":85568392925397960,"keywords":["cp","nocrits","nodmgspread","uncletopia"],"game_id":440,"stv_port":27066,"stv_name":"Uncletopia | Sydney | 6 | Community | STV","players":null},{"server_id":49,"name":"Uncletopia | Warsaw | 1 | All Maps","name_short":"waw-1","host":"waw-1.pl.uncletopia.com","port":27015,"enabled":true,"region":"eu","cc":"pl","latitude":52.2297,"longitude":21.017532,"reserved":0,"last_update":"0001-01-01T00:00:00Z","name_a2s":"Uncletopia | Warsaw | 1 | All Maps","protocol":17,"map":"koth_lakeside_final","folder":"tf","game":"Team Fortress","app_id":440,"player_count":0,"max_players":24,"Bots":0,"server_type":"Dedicated","server_os":"Linux","password":true,"vac":true,"version":"7961495","steam_id":85568392925397850,"keywords":["cp","nocrits","nodmgspread","uncletopia"],"game_id":440,"stv_port":27016,"stv_name":"Uncletopia | Warsaw | 1 | All Maps | STV","players":null},{"server_id":50,"name":"Uncletopia | Warsaw | 2 | All Maps","name_short":"waw-2","host":"waw-1.pl.uncletopia.com","port":27025,"enabled":true,"region":"eu","cc":"pl","latitude":52.2297,"longitude":21.017532,"reserved":0,"last_update":"0001-01-01T00:00:00Z","name_a2s":"Uncletopia | Warsaw | 2 | All Maps","protocol":17,"map":"cp_dustbowl","folder":"tf","game":"Team Fortress","app_id":440,"player_count":17,"max_players":24,"Bots":0,"server_type":"Dedicated","server_os":"Linux","password":true,"vac":true,"version":"7961495","steam_id":85568392925397851,"keywords":["cp","nocrits","nodmgspread","uncletopia"],"game_id":440,"stv_port":27026,"stv_name":"Uncletopia | Warsaw | 2 | All Maps | STV","players":[{"user_id":22,"name":"Artgrendadier","steam_id":76561198063305359,"connected_time":1442000000000,"state":"active","ping":155},{"user_id":47,"name":"Adam","steam_id":76561198259467867,"connected_time":33000000000,"state":"active","ping":93},{"user_id":16,"name":"blurst of times","steam_id":76561197972325640,"connected_time":1760000000000,"state":"active","ping":61},{"user_id":35,"name":"shitreg","steam_id":76561198263260743,"connected_time":589000000000,"state":"active","ping":105},{"user_id":18,"name":"owenxm","steam_id":76561198123081750,"connected_time":1574000000000,"state":"active","ping":157},{"user_id":12,"name":"orneps489","steam_id":76561199124755916,"connected_time":2516000000000,"state":"active","ping":157},{"user_id":41,"name":"fryingpan","steam_id":76561197985655573,"connected_time":369000000000,"state":"active","ping":73},{"user_id":25,"name":"Flying skyhigh","steam_id":76561198372971096,"connected_time":834000000000,"state":"active","ping":103},{"user_id":42,"name":"skeletonizermal","steam_id":76561199122586095,"connected_time":358000000000,"state":"active","ping":92},{"user_id":43,"name":"hawkson","steam_id":76561198328814390,"connected_time":327000000000,"state":"active","ping":135},{"user_id":28,"name":"roblan11","steam_id":76561198066839258,"connected_time":775000000000,"state":"active","ping":60},{"user_id":37,"name":"Parasitfuntag","steam_id":76561198018174967,"connected_time":506000000000,"state":"active","ping":83},{"user_id":39,"name":"nemelex","steam_id":76561198958005865,"connected_time":464000000000,"state":"active","ping":91},{"user_id":44,"name":"Daan77","steam_id":76561198129940468,"connected_time":317000000000,"state":"active","ping":76},{"user_id":40,"name":"q47tx","steam_id":76561199181333933,"connected_time":447000000000,"state":"active","ping":95},{"user_id":45,"name":"Yobopan","steam_id":76561198088064860,"connected_time":302000000000,"state":"active","ping":80},{"user_id":46,"name":"Dimond 21","steam_id":76561198365477621,"connected_time":292000000000,"state":"active","ping":184}]},{"server_id":51,"name":"Uncletopia | Warsaw | 3 | All Maps","name_short":"waw-3","host":"waw-1.pl.uncletopia.com","port":27035,"enabled":true,"region":"eu","cc":"pl","latitude":52.2297,"longitude":21.017532,"reserved":0,"last_update":"0001-01-01T00:00:00Z","name_a2s":"Uncletopia | Warsaw | 3 | All Maps","protocol":17,"map":"pl_snowycoast","folder":"tf","game":"Team Fortress","app_id":440,"player_count":22,"max_players":24,"Bots":0,"server_type":"Dedicated","server_os":"Linux","password":true,"vac":true,"version":"7961495","steam_id":85568392925397852,"keywords":["nocrits","nodmgspread","payload","uncletopia"],"game_id":440,"stv_port":27036,"stv_name":"Uncletopia | Warsaw | 3 | All Maps | STV","players":[{"user_id":286,"name":"kingcays","steam_id":76561198006963055,"connected_time":235000000000,"state":"active","ping":84},{"user_id":269,"name":"BATTLE_FORK","steam_id":76561198085753101,"connected_time":1227000000000,"state":"active","ping":96},{"user_id":262,"name":"I.AM.THE.BOOP.WHICH.IS.APROACHI","steam_id":76561198049342507,"connected_time":1681000000000,"state":"active","ping":55},{"user_id":283,"name":"bryophyta","steam_id":76561197968945306,"connected_time":726000000000,"state":"active","ping":91},{"user_id":284,"name":"1h4tep1zz42","steam_id":76561198021574695,"connected_time":470000000000,"state":"active","ping":76},{"user_id":280,"name":"Skyminer1372","steam_id":76561198161924388,"connected_time":918000000000,"state":"active","ping":73},{"user_id":182,"name":"Eki","steam_id":76561199056176547,"connected_time":6594000000000,"state":"active","ping":94},{"user_id":263,"name":"Zigfox","steam_id":76561199396848926,"connected_time":1662000000000,"state":"active","ping":113},{"user_id":270,"name":"how about you get a job","steam_id":76561199061646193,"connected_time":1200000000000,"state":"active","ping":65},{"user_id":183,"name":"He","steam_id":76561198091055713,"connected_time":6591000000000,"state":"active","ping":79},{"user_id":277,"name":"Bullet magnet (FIN)","steam_id":76561197975715220,"connected_time":982000000000,"state":"active","ping":95},{"user_id":244,"name":"Sniff","steam_id":76561198090841018,"connected_time":2910000000000,"state":"active","ping":44},{"user_id":221,"name":"taste Fanta through your balls","steam_id":76561198823497252,"connected_time":4659000000000,"state":"active","ping":63},{"user_id":267,"name":"ThellanM","steam_id":76561199014222387,"connected_time":1406000000000,"state":"active","ping":85},{"user_id":266,"name":"Dewisor","steam_id":76561198230971472,"connected_time":1531000000000,"state":"active","ping":53},{"user_id":273,"name":"TylowStar","steam_id":76561198357107806,"connected_time":1097000000000,"state":"active","ping":83},{"user_id":282,"name":"Kamanie","steam_id":76561198135448255,"connected_time":852000000000,"state":"active","ping":68},{"user_id":285,"name":"a","steam_id":76561198159073505,"connected_time":436000000000,"state":"active","ping":109},{"user_id":243,"name":"MUWEQ","steam_id":76561198107615727,"connected_time":2935000000000,"state":"active","ping":53},{"user_id":278,"name":"Axter","steam_id":76561198118747192,"connected_time":966000000000,"state":"active","ping":92},{"user_id":287,"name":"Nipa5000","steam_id":76561199027332005,"connected_time":148000000000,"state":"active","ping":96},{"user_id":250,"name":"jesbul","steam_id":76561198281833520,"connected_time":2223000000000,"state":"active","ping":93}]},{"server_id":52,"name":"Uncletopia | Warsaw | 4 | All Maps","name_short":"waw-4","host":"waw-1.pl.uncletopia.com","port":27045,"enabled":true,"region":"eu","cc":"pl","latitude":52.2297,"longitude":21.017532,"reserved":0,"last_update":"0001-01-01T00:00:00Z","name_a2s":"Uncletopia | Warsaw | 4 | All Maps","protocol":17,"map":"pl_borneo","folder":"tf","game":"Team Fortress","app_id":440,"player_count":0,"max_players":24,"Bots":0,"server_type":"Dedicated","server_os":"Linux","password":true,"vac":true,"version":"7961495","steam_id":85568392925397853,"keywords":["nocrits","nodmgspread","payload","uncletopia"],"game_id":440,"stv_port":27046,"stv_name":"Uncletopia | Warsaw | 4 | All Maps | STV","players":null},{"server_id":53,"name":"Uncletopia | Warsaw | 5 | Stopwatch","name_short":"waw-5","host":"waw-1.pl.uncletopia.com","port":27055,"enabled":true,"region":"eu","cc":"pl","latitude":52.2297,"longitude":21.017532,"reserved":0,"last_update":"0001-01-01T00:00:00Z","name_a2s":"Uncletopia | Warsaw | 5 | Stopwatch","protocol":17,"map":"workshop/koth_ramjam_rc1.ugc459778887","folder":"tf","game":"Team Fortress","app_id":440,"player_count":0,"max_players":24,"Bots":0,"server_type":"Dedicated","server_os":"Linux","password":true,"vac":true,"version":"7961495","steam_id":85568392925397854,"keywords":["cp","nocrits","nodmgspread","uncletopia"],"game_id":440,"stv_port":27056,"stv_name":"Uncletopia | Warsaw | 5 | Stopwatch | STV","players":null},{"server_id":54,"name":"Uncletopia | Warsaw | 6 | Community","name_short":"waw-6","host":"waw-1.pl.uncletopia.com","port":27065,"enabled":true,"region":"eu","cc":"pl","latitude":52.2297,"longitude":21.017532,"reserved":0,"last_update":"0001-01-01T00:00:00Z","name_a2s":"Uncletopia | Warsaw | 6 | Community","protocol":17,"map":"workshop/pl_emerge_rc2.ugc888027758","folder":"tf","game":"Team Fortress","app_id":440,"player_count":0,"max_players":24,"Bots":0,"server_type":"Dedicated","server_os":"Linux","password":true,"vac":true,"version":"7961495","steam_id":85568392925397856,"keywords":["nocrits","nodmgspread","payload","uncletopia"],"game_id":440,"stv_port":27066,"stv_name":"Uncletopia | Warsaw | 6 | Community | STV","players":null}]}