{"status":true,"message":"","result":[{"server_id":9,"name":"Uncletopia | Atlanta | 1 | All Maps","name_short":"atl-1","host":"atl-1.us.uncletopia.com","port":27015,"enabled":true,"region":"us-east","cc":"us","latitude":33.753746,"longitude":-84.38633,"reserved":0,"last_update":"0001-01-01T00:00:00Z","name_a2s":"Uncletopia | Atlanta | 1 | All Maps","protocol":17,"map":"koth_cascade","folder":"tf","game":"Team Fortress","app_id":440,"player_count":0,"max_players":24,"Bots":0,"server_type":"Dedicated","server_os":"Linux","password":true,"vac":true,"version":"7757534","steam_id":85568392924469982,"keywords":["cp","nocrits","nodmgspread","uncletopia"],"game_id":440,"stv_port":27016,"stv_name":"Uncletopia | Atlanta | 1 | All Maps | STV","players":null},{"server_id":104,"name":"Uncletopia | Atlanta | 2 | All Maps","name_short":"atl-2","host":"atl-1.us.uncletopia.com","port":27025,"enabled":true,"region":"us-east","cc":"us","latitude":33.753746,"longitude":-84.38633,"reserved":0,"last_update":"0001-01-01T00:00:00Z","name_a2s":"Uncletopia | Atlanta | 2 | All Maps","protocol":17,"map":"cp_dustbowl","folder":"tf","game":"Team Fortress","app_id":440,"player_count":0,"max_players":24,"Bots":0,"server_type":"Dedicated","server_os":"Linux","password":true,"vac":true,"version":"7757534","steam_id":85568392924469983,"keywords":["cp","nocrits","nodmgspread","uncletopia"],"game_id":440,"stv_port":27026,"stv_name":"Uncletopia | Atlanta | 2 | All Maps | STV","players":null},{"server_id":400,"name":"Uncletopia | Atlanta | 3 | Community","name_short":"atl-3","host":"atl-1.us.uncletopia.com","port":27035,"enabled":true,"region":"us-east","cc":"us","latitude":33.753746,"longitude":-84.38633,"reserved":0,"last_update":"0001-01-01T00:00:00Z","name_a2s":"Uncletopia | Atlanta | 3 | Community","protocol":17,"map":"cp_snakewater_final1","folder":"tf","game":"Team Fortress","app_id":440,"player_count":0,"max_players":24,"Bots":0,"server_type":"Dedicated","server_os":"Linux","password":true,"vac":true,"version":"7757534","steam_id":85568392924515187,"keywords":["cp","nocrits","nodmgspread","uncletopia"],"game_id":440,"stv_port":27036,"stv_name":"Uncletopia | Atlanta | 3 | Community | STV","players":null},{"server_id":401,"name":"Uncletopia | Atlanta | 4 | No Payload","name_short":"atl-4","host":"atl-1.us.uncletopia.com","port":27045,"enabled":true,"region":"us-east","cc":"us","latitude":33.753746,"longitude":-84.38633,"reserved":0,"last_update":"0001-01-01T00:00:00Z","name_a2s":"","protocol":0,"map":"","folder":"","game":"","app_id":0,"player_count":0,"max_players":0,"Bots":0,"server_type":"","server_os":"","password":false,"vac":false,"version":"","steam_id":0,"keywords":null,"game_id":0,"stv_port":0,"stv_name":"","players":null},{"server_id":2,"name":"Uncletopia | Chicago | 1 | All Maps","name_short":"chi-1","host":"chi-1.us.uncletopia.com","port":27015,"enabled":true,"region":"us-central","cc":"us","latitude":41.881832,"longitude":-87.62318,"reserved":0,"last_update":"0001-01-01T00:00:00Z","name_a2s":"Uncletopia | Chicago | 1 | All Maps","protocol":17,"map":"cp_dustbowl","folder":"tf","game":"Team Fortress","app_id":440,"player_count":22,"max_players":24,"Bots":0,"server_type":"Dedicated","server_os":"Linux","password":true,"vac":true,"version":"7757534","steam_id":85568392924469984,"keywords":["cp","nocrits","nodmgspread","uncletopia"],"game_id":440,"stv_port":27016,"stv_name":"Uncletopia | Chicago | 1 | All Maps | STV","players":[{"user_id":954,"name":"CheeseCake488","steam_id":76561199407617942,"connected_time":2431000000000,"state":"active","ping":144},{"user_id":980,"name":"Eins","steam_id":76561199030343810,"connected_time":1204000000000,"state":"active","ping":58},{"user_id":984,"name":"Konical","steam_id":76561198056711430,"connected_time":978000000000,"state":"active","ping":94},{"user_id":963,"name":"donk","steam_id":76561198040360395,"connected_time":1558000000000,"state":"active","ping":59},{"user_id":992,"name":"AJR fan","steam_id":76561199210541615,"connected_time":104000000000,"state":"active","ping":79},{"user_id":985,"name":"Goober","steam_id":76561198931169208,"connected_time":824000000000,"state":"active","ping":101},{"user_id":970,"name":"Zoo Keeper Engie","steam_id":76561198064380111,"connected_time":1435000000000,"state":"active","ping":74},{"user_id":937,"name":"[DEEP]able","steam_id":76561198292552182,"connected_time":3966000000000,"state":"active","ping":85},{"user_id":990,"name":"Raizen","steam_id":76561199092445367,"connected_time":219000000000,"state":"active","ping":45},{"user_id":987,"name":"IceRunner","steam_id":76561198999311013,"connected_time":259000000000,"state":"active","ping":62},{"user_id":988,"name":"177013","steam_id":76561198072303290,"connected_time":257000000000,"state":"active","ping":61},{"user_id":967,"name":"CertifiedCereal","steam_id":76561198055027895,"connected_time":1505000000000,"state":"active","ping":70},{"user_id":991,"name":"Well-off Walnut","steam_id":76561198092494136,"connected_time":193000000000,"state":"active","ping":75},{"user_id":993,"name":"taintedgoat1","steam_id":76561198200240642,"connected_time":93000000000,"state":"active","ping":146},{"user_id":972,"name":"PSHH YOBA","steam_id":76561197999869136,"connected_time":1423000000000,"state":"active","ping":170},{"user_id":983,"name":"nichts","steam_id":76561198230007548,"connected_time":1042000000000,"state":"active","ping":88},{"user_id":994,"name":"THEY LET YOU PUT ANYTHING HERE","steam_id":76561198056214875,"connected_time":68000000000,"state":"active","ping":57},{"user_id":946,"name":"XBOX 360","steam_id":76561198066590783,"connected_time":2924000000000,"state":"active","ping":62},{"user_id":981,"name":"An Unhappy Clown","steam_id":76561198175516514,"connected_time":1195000000000,"state":"active","ping":75},{"user_id":959,"name":"Notation","steam_id":76561198119509319,"connected_time":1949000000000,"state":"active","ping":60},{"user_id":986,"name":"Dr. B Busta","steam_id":76561198206387303,"connected_time":313000000000,"state":"active","ping":91},{"user_id":961,"name":"Alfie Solomons #Shelby2020","steam_id":76561198061870046,"connected_time":1804000000000,"state":"active","ping":116}]},{"server_id":106,"name":"Uncletopia | Chicago | 2 | All Maps","name_short":"chi-2","host":"chi-1.us.uncletopia.com","port":27025,"enabled":true,"region":"us-central","cc":"us","latitude":41.881832,"longitude":-87.62318,"reserved":0,"last_update":"0001-01-01T00:00:00Z","name_a2s":"Uncletopia | Chicago | 2 | All Maps","protocol":17,"map":"pl_badwater","folder":"tf","game":"Team Fortress","app_id":440,"player_count":24,"max_players":24,"Bots":0,"server_type":"Dedicated","server_os":"Linux","password":true,"vac":true,"version":"7757534","steam_id":85568392924469985,"keywords":["nocrits","nodmgspread","payload","uncletopia"],"game_id":440,"stv_port":27026,"stv_name":"Uncletopia | Chicago | 2 | All Maps | STV","players":[{"user_id":1124,"name":"Maxx","steam_id":76561198045405304,"connected_time":843000000000,"state":"active","ping":82},{"user_id":1126,"name":"YNS","steam_id":76561198246975252,"connected_time":711000000000,"state":"active","ping":81},{"user_id":1077,"name":"Oniko","steam_id":76561198087703138,"connected_time":5002000000000,"state":"active","ping":63},{"user_id":1109,"name":"Ignatius J. Reilly","steam_id":76561198066958868,"connected_time":3206000000000,"state":"active","ping":68},{"user_id":1127,"name":"beyonder","steam_id":76561198045844070,"connected_time":679000000000,"state":"active","ping":75},{"user_id":1138,"name":"bri","steam_id":76561198881665250,"connected_time":239000000000,"state":"active","ping":90},{"user_id":1082,"name":"A Good Name (she/her)","steam_id":76561198858190691,"connected_time":4557000000000,"state":"active","ping":113},{"user_id":1119,"name":"The Godfather II","steam_id":76561198272394205,"connected_time":1929000000000,"state":"active","ping":96},{"user_id":1110,"name":"crunchy obama","steam_id":76561198044485217,"connected_time":3159000000000,"state":"active","ping":102},{"user_id":1118,"name":"An Englishman named Gavin","steam_id":76561198876137296,"connected_time":2002000000000,"state":"active","ping":117},{"user_id":1130,"name":"Psycho the Lunatic","steam_id":76561198012241125,"connected_time":615000000000,"state":"active","ping":60},{"user_id":1131,"name":"junglebeatz","steam_id":76561198257609313,"connected_time":563000000000,"state":"active","ping":77},{"user_id":1132,"name":"Doorhinge","steam_id":76561198872501684,"connected_time":550000000000,"state":"active","ping":116},{"user_id":1123,"name":"Handsome Mike","steam_id":76561198067479802,"connected_time":974000000000,"state":"active","ping":63},{"user_id":1112,"name":"GamingJoker2012","steam_id":76561198247589168,"connected_time":3138000000000,"state":"active","ping":74},{"user_id":1113,"name":"you've been deuced on!","steam_id":76561198236028020,"connected_time":3080000000000,"state":"active","ping":136},{"user_id":1139,"name":"Zackariah","steam_id":76561198269224342,"connected_time":193000000000,"state":"active","ping":66},{"user_id":1134,"name":"ScrockCat","steam_id":76561198012882208,"connected_time":515000000000,"state":"active","ping":91},{"user_id":1114,"name":"KotuAlls","steam_id":76561198325755844,"connected_time":2993000000000,"state":"active","ping":57},{"user_id":1135,"name":"4 Itchy Tasty","steam_id":76561198009869383,"connected_time":500000000000,"state":"active","ping":76},{"user_id":1121,"name":"An Offended","steam_id":76561198162461585,"connected_time":1737000000000,"state":"active","ping":93},{"user_id":1072,"name":"Ltn. What's-his-Nuts","steam_id":76561198133834262,"connected_time":5721000000000,"state":"active","ping":61},{"user_id":1122,"name":"plasmaofthedawn","steam_id":76561198287916194,"connected_time":1691000000000,"state":"active","ping":60},{"user_id":1137,"name":"Naldo","steam_id":76561198121273420,"connected_time":478000000000,"state":"active","ping":72}]},{"server_id":402,"name":"Uncletopia | Chicago | 3 | All Maps","name_short":"chi-3","host":"chi-1.us.uncletopia.com","port":27035,"enabled":true,"region":"us-central","cc":"us","latitude":41.881832,"longitude":-87.62318,"reserved":0,"last_update":"0001-01-01T00:00:00Z","name_a2s":"Uncletopia | Chicago | 3 | All Maps","protocol":17,"map":"pl_swiftwater_final1","folder":"tf","game":"Team Fortress","app_id":440,"player_count":0,"max_players":24,"Bots":0,"server_type":"Dedicated","server_os":"Linux","password":true,"vac":true,"version":"7757534","steam_id":85568392924515191,"keywords":["nocrits","nodmgspread","payload","uncletopia"],"game_id":440,"stv_port":27036,"stv_name":"Uncletopia | Chicago | 3 | All Maps | STV","players":null},{"server_id":403,"name":"Uncletopia | Chicago | 4 | All Maps","name_short":"chi-4","host":"chi-1.us.uncletopia.com","port":27045,"enabled":true,"region":"us-central","cc":"us","latitude":41.881832,"longitude":-87.62318,"reserved":0,"last_update":"0001-01-01T00:00:00Z","name_a2s":"Uncletopia | Chicago | 4 | All Maps","protocol":17,"map":"koth_cascade","folder":"tf","game":"Team Fortress","app_id":440,"player_count":0,"max_players":24,"Bots":0,"server_type":"Dedicated","server_os":"Linux","password":true,"vac":true,"version":"7757534","steam_id":85568392924515193,"keywords":["cp","nocrits","nodmgspread","uncletopia"],"game_id":440,"stv_port":27046,"stv_name":"Uncletopia | Chicago | 4 | All Maps | STV","players":null},{"server_id":36,"name":"Uncletopia | Chicago | 5 | All Maps","name_short":"chi-5","host":"chi-2.us.uncletopia.com","port":27015,"enabled":true,"region":"us-central","cc":"us","latitude":41.881832,"longitude":-87.62318,"reserved":0,"last_update":"0001-01-01T00:00:00Z","name_a2s":"Uncletopia | Chicago | 5 | All Maps","protocol":17,"map":"koth_highpass","folder":"tf","game":"Team Fortress","app_id":440,"player_count":0,"max_players":24,"Bots":0,"server_type":"Dedicated","server_os":"Linux","password":true,"vac":true,"version":"7757534","steam_id":85568392924866362,"keywords":["cp","nocrits","nodmgspread","uncletopia"],"game_id":440,"stv_port":27016,"stv_name":"Uncletopia | Chicago | 5 | All Maps | STV","players":null},{"server_id":37,"name":"Uncletopia | Chicago | 6 | All Maps","name_short":"chi-6","host":"chi-2.us.uncletopia.com","port":27025,"enabled":true,"region":"us-central","cc":"us","latitude":41.881832,"longitude":-87.62318,"reserved":0,"last_update":"0001-01-01T00:00:00Z","name_a2s":"Uncletopia | Chicago | 6 | All Maps","protocol":17,"map":"koth_viaduct","folder":"tf","game":"Team Fortress","app_id":440,"player_count":2,"max_players":24,"Bots":0,"server_type":"Dedicated","server_os":"Linux","password":true,"vac":true,"version":"7757534","steam_id":85568392924866363,"keywords":["cp","nocrits","nodmgspread","uncletopia"],"game_id":440,"stv_port":27026,"stv_name":"Uncletopia | Chicago | 6 | All Maps | STV","players":[{"user_id":771,"name":"*eta","steam_id":76561198143209841,"connected_time":629000000000,"state":"active","ping":87},{"user_id":772,"name":"Luv","steam_id":76561199200757524,"connected_time":526000000000,"state":"active","ping":106}]},{"server_id":38,"name":"Uncletopia | Chicago | 7 | Stopwatch Beta","name_short":"chi-7","host":"chi-2.us.uncletopia.com","port":27035,"enabled":true,"region":"us-central","cc":"us","latitude":41.881832,"longitude":-87.62318,"reserved":0,"last_update":"0001-01-01T00:00:00Z","name_a2s":"Uncletopia | Chicago | 7 | Stopwatch Beta","protocol":17,"map":"workshop/pl_badwater_pro_v12.ugc2142942074","folder":"tf","game":"Team Fortress","app_id":440,"player_count":0,"max_players":24,"Bots":0,"server_type":"Dedicated","server_os":"Linux","password":true,"vac":true,"version":"7757534","steam_id":85568392924866364,"keywords":["nocrits","nodmgspread","payload","uncletopia"],"game_id":440,"stv_port":27036,"stv_name":"Uncletopia | Chicago | 7 | Stopwatch Beta | STV","players":null},{"server_id":39,"name":"Uncletopia | Chicago | 8 | Community","name_short":"chi-8","host":"chi-2.us.uncletopia.com","port":27045,"enabled":true,"region":"us-central","cc":"us","latitude":41.881832,"longitude":-87.62318,"reserved":0,"last_update":"0001-01-01T00:00:00Z","name_a2s":"Uncletopia | Chicago | 8 | Community","protocol":17,"map":"workshop/pl_barnblitz_pro7.ugc582280235","folder":"tf","game":"Team Fortress","app_id":440,"player_count":0,"max_players":24,"Bots":0,"server_type":"Dedicated","server_os":"Linux","password":true,"vac":true,"version":"7757534","steam_id":85568392924866365,"keywords":["nocrits","nodmgspread","payload","uncletopia"],"game_id":440,"stv_port":27046,"stv_name":"Uncletopia | Chicago | 8 | Community | STV","players":null},{"server_id":8,"name":"Uncletopia | Dallas | 1 | All Maps","name_short":"dal-1","host":"dal-1.us.uncletopia.com","port":27015,"enabled":true,"region":"us-central","cc":"us","latitude":32.779167,"longitude":-96.80889,"reserved":0,"last_update":"0001-01-01T00:00:00Z","name_a2s":"Uncletopia | Dallas | 1 | All Maps","protocol":17,"map":"pl_thundermountain","folder":"tf","game":"Team Fortress","app_id":440,"player_count":21,"max_players":24,"Bots":0,"server_type":"Dedicated","server_os":"Linux","password":true,"vac":true,"version":"7757534","steam_id":85568392924469986,"keywords":["nocrits","nodmgspread","payload","uncletopia"],"game_id":440,"stv_port":27016,"stv_name":"Uncletopia | Dallas | 1 | All Maps | STV","players":[{"user_id":810,"name":"stigma","steam_id":76561197960315263,"connected_time":6715000000000,"state":"active","ping":75},{"user_id":885,"name":"TransWomanGaming","steam_id":76561198809645656,"connected_time":245000000000,"state":"active","ping":72},{"user_id":882,"name":"Heavy Headroom","steam_id":76561198056391496,"connected_time":286000000000,"state":"active","ping":87},{"user_id":803,"name":"Nekro Kitty","steam_id":76561198025054596,"connected_time":7960000000000,"state":"active","ping":72},{"user_id":876,"name":"Cheese Miller","steam_id":76561199451933673,"connected_time":363000000000,"state":"active","ping":95},{"user_id":862,"name":"cobalt","steam_id":76561198126982318,"connected_time":2100000000000,"state":"active","ping":41},{"user_id":886,"name":"DREDGE_N0X","steam_id":76561198391034995,"connected_time":11000000000,"state":"active","ping":135},{"user_id":878,"name":"FedSmoker","steam_id":76561198255854081,"connected_time":342000000000,"state":"active","ping":113},{"user_id":879,"name":"Commie","steam_id":76561198149370115,"connected_time":340000000000,"state":"active","ping":71},{"user_id":860,"name":"rain","steam_id":76561198848929793,"connected_time":2127000000000,"state":"active","ping":43},{"user_id":880,"name":"silvestrelops","steam_id":76561198275189720,"connected_time":336000000000,"state":"active","ping":106},{"user_id":874,"name":"Zanartan","steam_id":76561198050528902,"connected_time":856000000000,"state":"active","ping":184},{"user_id":883,"name":"Arachna.cadabra","steam_id":76561198039437427,"connected_time":274000000000,"state":"active","ping":107},{"user_id":877,"name":"mrselfdestruct13","steam_id":76561197992054553,"connected_time":361000000000,"state":"active","ping":72},{"user_id":836,"name":"tyg","steam_id":76561198056246867,"connected_time":5005000000000,"state":"active","ping":89},{"user_id":881,"name":"McSmitten","steam_id":76561198022358379,"connected_time":327000000000,"state":"active","ping":73},{"user_id":884,"name":"Mr. Positive","steam_id":76561198147725777,"connected_time":268000000000,"state":"active","ping":81},{"user_id":871,"name":"Hakurei Reimu","steam_id":76561198045388290,"connected_time":1573000000000,"state":"active","ping":99},{"user_id":834,"name":"Mario","steam_id":76561198321794277,"connected_time":5070000000000,"state":"active","ping":104},{"user_id":859,"name":"FLASH ASSANOVA","steam_id":76561197996266992,"connected_time":2249000000000,"state":"active","ping":64},{"user_id":875,"name":"TheSquirrelofHuscurl","steam_id":76561198073379623,"connected_time":841000000000,"state":"active","ping":100}]},{"server_id":108,"name":"Uncletopia | Dallas | 2 | All Maps","name_short":"dal-2","host":"dal-1.us.uncletopia.com","port":27025,"enabled":true,"region":"us-central","cc":"us","latitude":32.779167,"longitude":-96.80889,"reserved":0,"last_update":"0001-01-01T00:00:00Z","name_a2s":"Uncletopia | Dallas | 2 | All Maps","protocol":17,"map":"pl_pier","folder":"tf","game":"Team Fortress","app_id":440,"player_count":0,"max_players":24,"Bots":0,"server_type":"Dedicated","server_os":"Linux","password":true,"vac":true,"version":"7757534","steam_id":85568392924469988,"keywords":["nocrits","nodmgspread","payload","uncletopia"],"game_id":440,"stv_port":27026,"stv_name":"Uncletopia | Dallas | 2 | All Maps | STV","players":null},{"server_id":5,"name":"Uncletopia | Frankfurt | 1 | All Maps","name_short":"frk-1","host":"frk-1.de.uncletopia.com","port":27015,"enabled":true,"region":"eu","cc":"de","latitude":50.110924,"longitude":8.682127,"reserved":0,"last_update":"0001-01-01T00:00:00Z","name_a2s":"Uncletopia | Frankfurt | 1 | All Maps","protocol":17,"map":"cp_snakewater_final1","folder":"tf","game":"Team Fortress","app_id":440,"player_count":0,"max_players":24,"Bots":0,"server_type":"Dedicated","server_os":"Linux","password":true,"vac":true,"version":"7757534","steam_id":85568392924469989,"keywords":["cp","nocrits","nodmgspread","uncletopia"],"game_id":440,"stv_port":27016,"stv_name":"Uncletopia | Frankfurt | 1 | All Maps | STV","players":null},{"server_id":110,"name":"Uncletopia | Frankfurt | 2 | All Maps","name_short":"frk-2","host":"frk-1.de.uncletopia.com","port":27025,"enabled":true,"region":"eu","cc":"de","latitude":50.110924,"longitude":8.682127,"reserved":0,"last_update":"0001-01-01T00:00:00Z","name_a2s":"Uncletopia | Frankfurt | 2 | All Maps","protocol":17,"map":"cp_snakewater_final1","folder":"tf","game":"Team Fortress","app_id":440,"player_count":0,"max_players":24,"Bots":0,"server_type":"Dedicated","server_os":"Linux","password":true,"vac":true,"version":"7757534","steam_id":85568392924469990,"keywords":["cp","nocrits","nodmgspread","uncletopia"],"game_id":440,"stv_port":27026,"stv_name":"Uncletopia | Frankfurt | 2 | All Maps | STV","players":null},{"server_id":308,"name":"Uncletopia | Frankfurt | 3 | All Maps","name_short":"frk-3","host":"frk-1.de.uncletopia.com","port":27035,"enabled":true,"region":"eu","cc":"de","latitude":50.110924,"longitude":8.682127,"reserved":0,"last_update":"0001-01-01T00:00:00Z","name_a2s":"Uncletopia | Frankfurt | 3 | All Maps","protocol":17,"map":"pl_swiftwater_final1","folder":"tf","game":"Team Fortress","app_id":440,"player_count":0,"max_players":24,"Bots":0,"server_type":"Dedicated","server_os":"Linux","password":true,"vac":true,"version":"7757534","steam_id":85568392924504274,"keywords":["nocrits","nodmgspread","payload","uncletopia"],"game_id":440,"stv_port":27036,"stv_name":"Uncletopia | Frankfurt | 3 | All Maps | STV","players":null},{"server_id":309,"name":"Uncletopia | Frankfurt | 4 | All Maps","name_short":"frk-4","host":"frk-1.de.uncletopia.com","port":27045,"enabled":true,"region":"eu","cc":"de","latitude":50.110924,"longitude":8.682127,"reserved":0,"last_update":"0001-01-01T00:00:00Z","name_a2s":"Uncletopia | Frankfurt | 4 | All Maps","protocol":17,"map":"koth_viaduct","folder":"tf","game":"Team Fortress","app_id":440,"player_count":0,"max_players":24,"Bots":0,"server_type":"Dedicated","server_os":"Linux","password":true,"vac":true,"version":"7757534","steam_id":85568392924504275,"keywords":["cp","nocrits","nodmgspread","uncletopia"],"game_id":440,"stv_port":27046,"stv_name":"Uncletopia | Frankfurt | 4 | All Maps | STV","players":null},{"server_id":310,"name":"Uncletopia | Frankfurt | 5 | All Maps","name_short":"frk-5","host":"frk-1.de.uncletopia.com","port":27055,"enabled":true,"region":"eu","cc":"de","latitude":50.110924,"longitude":8.682127,"reserved":0,"last_update":"0001-01-01T00:00:00Z","name_a2s":"Uncletopia | Frankfurt | 5 | All Maps","protocol":17,"map":"koth_lakeside_final","folder":"tf","game":"Team Fortress","app_id":440,"player_count":0,"max_players":24,"Bots":0,"server_type":"Dedicated","server_os":"Linux","password":true,"vac":true,"version":"7757534","steam_id":85568392924504277,"keywords":["cp","nocrits","nodmgspread","uncletopia"],"game_id":440,"stv_port":27056,"stv_name":"Uncletopia | Frankfurt | 5 | All Maps | STV","players":null},{"server_id":311,"name":"Uncletopia | Frankfurt | 6 | All Maps","name_short":"frk-6","host":"frk-1.de.uncletopia.com","port":27065,"enabled":true,"region":"eu","cc":"de","latitude":50.110924,"longitude":8.682127,"reserved":0,"last_update":"0001-01-01T00:00:00Z","name_a2s":"Uncletopia | Frankfurt | 6 | All Maps","protocol":17,"map":"pl_frontier_final","folder":"tf","game":"Team Fortress","app_id":440,"player_count":11,"max_players":24,"Bots":0,"server_type":"Dedicated","server_os":"Linux","password":true,"vac":true,"version":"7757534","steam_id":85568392924504278,"keywords":["nocrits","nodmgspread","payload","uncletopia"],"game_id":440,"stv_port":27066,"stv_name":"Uncletopia | Frankfurt | 6 | All Maps | STV","players":[{"user_id":19,"name":"LazyBane","steam_id":76561198032359132,"connected_time":932000000000,"state":"active","ping":60},{"user_id":26,"name":"Side Chick Freeze","steam_id":76561198067348318,"connected_time":239000000000,"state":"active","ping":141},{"user_id":27,"name":"easily pronounceable name","steam_id":76561198000092350,"connected_time":11000000000,"state":"spawning","ping":59},{"user_id":22,"name":"scout","steam_id":76561198324316160,"connected_time":572000000000,"state":"active","ping":58},{"user_id":11,"name":"Shynii","steam_id":76561198194682105,"connected_time":1577000000000,"state":"active","ping":60},{"user_id":12,"name":"bad at tf2 episode 2","steam_id":76561198002451113,"connected_time":1498000000000,"state":"active","ping":91},{"user_id":25,"name":"poliakov.noam","steam_id":76561199259322961,"connected_time":422000000000,"state":"active","ping":103},{"user_id":16,"name":"Jedleo","steam_id":76561198347292531,"connected_time":1166000000000,"state":"active","ping":74},{"user_id":17,"name":"pyon","steam_id":76561198821425662,"connected_time":1137000000000,"state":"active","ping":46},{"user_id":18,"name":"Yea Yea","steam_id":76561198170081058,"connected_time":1132000000000,"state":"active","ping":52},{"user_id":23,"name":"heavy sings (real)","steam_id":76561199023804405,"connected_time":554000000000,"state":"active","ping":70}]},{"server_id":23,"name":"Uncletopia | Frankfurt | 7 | Stopwatch Beta","name_short":"frk-7","host":"frk-1.de.uncletopia.com","port":27075,"enabled":true,"region":"eu","cc":"de","latitude":50.110924,"longitude":8.682127,"reserved":0,"last_update":"0001-01-01T00:00:00Z","name_a2s":"Uncletopia | Frankfurt | 7 | Stopwatch Beta","protocol":17,"map":"cp_sunshine","folder":"tf","game":"Team Fortress","app_id":440,"player_count":0,"max_players":24,"Bots":0,"server_type":"Dedicated","server_os":"Linux","password":true,"vac":true,"version":"7757534","steam_id":85568392924742827,"keywords":["cp","nocrits","nodmgspread","uncletopia"],"game_id":440,"stv_port":27076,"stv_name":"Uncletopia | Frankfurt | 7 | Stopwatch Beta | STV","players":null},{"server_id":24,"name":"Uncletopia | Frankfurt | 8 | Community","name_short":"frk-8","host":"frk-1.de.uncletopia.com","port":27085,"enabled":true,"region":"eu","cc":"de","latitude":50.110924,"longitude":8.682127,"reserved":0,"last_update":"0001-01-01T00:00:00Z","name_a2s":"Uncletopia | Frankfurt | 8 | Community","protocol":17,"map":"koth_lakeside_final","folder":"tf","game":"Team Fortress","app_id":440,"player_count":0,"max_players":24,"Bots":0,"server_type":"Dedicated","server_os":"Linux","password":true,"vac":true,"version":"7757534","steam_id":85568392924742828,"keywords":["cp","nocrits","nodmgspread","uncletopia"],"game_id":440,"stv_port":27086,"stv_name":"Uncletopia | Frankfurt | 8 | Community | STV","players":null},{"server_id":202,"name":"Uncletopia | Hong Kong | 1 | All Maps","name_short":"hgk-1","host":"hgk-1.hk.uncletopia.com","port":27015,"enabled":true,"region":"asia","cc":"hk","latitude":22.302711,"longitude":114.177216,"reserved":0,"last_update":"0001-01-01T00:00:00Z","name_a2s":"Uncletopia | Hong Kong | 1 | All Maps","protocol":17,"map":"pl_goldrush","folder":"tf","game":"Team Fortress","app_id":440,"player_count":24,"max_players":24,"Bots":0,"server_type":"Dedicated","server_os":"Linux","password":true,"vac":true,"version":"7757534","steam_id":85568392924494504,"keywords":["nocrits","nodmgspread","payload","uncletopia"],"game_id":440,"stv_port":27016,"stv_name":"Uncletopia | Hong Kong | 1 | All Maps | STV","players":[{"user_id":153,"name":"Pyro","steam_id":76561198144194541,"connected_time":4669000000000,"state":"active","ping":128},{"user_id":199,"name":"manchaster united","steam_id":76561199107596818,"connected_time":470000000000,"state":"active","ping":108},{"user_id":185,"name":"Vortex Artemisio","steam_id":76561198833527091,"connected_time":1620000000000,"state":"active","ping":89},{"user_id":186,"name":"TheChainsaw","steam_id":76561198312001455,"connected_time":1349000000000,"state":"active","ping":118},{"user_id":193,"name":"Butt_grater","steam_id":76561198929466103,"connected_time":858000000000,"state":"active","ping":77},{"user_id":190,"name":"\"SKS\"","steam_id":76561198187995386,"connected_time":1257000000000,"state":"active","ping":86},{"user_id":196,"name":"stalin","steam_id":76561198144523963,"connected_time":673000000000,"state":"active","ping":96},{"user_id":197,"name":"spinach (old mouse)","steam_id":76561198042539541,"connected_time":529000000000,"state":"active","ping":85},{"user_id":165,"name":"KimvyKinsley","steam_id":76561198859745304,"connected_time":3255000000000,"state":"active","ping":84},{"user_id":141,"name":"ArcticDolphin","steam_id":76561198203626319,"connected_time":5245000000000,"state":"active","ping":143},{"user_id":200,"name":"Archer from Clash of Clans (coc","steam_id":76561199198665314,"connected_time":458000000000,"state":"active","ping":73},{"user_id":160,"name":"Pangolin","steam_id":76561198318126190,"connected_time":3596000000000,"state":"active","ping":97},{"user_id":164,"name":"DUDE","steam_id":76561198017159562,"connected_time":3317000000000,"state":"active","ping":90},{"user_id":201,"name":"bamboozled","steam_id":76561199032258535,"connected_time":455000000000,"state":"active","ping":58},{"user_id":149,"name":"silverhouse7","steam_id":76561198349634906,"connected_time":4857000000000,"state":"active","ping":68},{"user_id":191,"name":"sierra","steam_id":76561197969873415,"connected_time":1217000000000,"state":"active","ping":108},{"user_id":195,"name":"Mysterious_Network","steam_id":76561199445957166,"connected_time":810000000000,"state":"active","ping":74},{"user_id":202,"name":"Milk❤","steam_id":76561198163911560,"connected_time":307000000000,"state":"active","ping":138},{"user_id":203,"name":"nikhilborah49","steam_id":76561199152527526,"connected_time":236000000000,"state":"active","ping":77},{"user_id":206,"name":"Raid","steam_id":76561199097774374,"connected_time":106000000000,"state":"active","ping":73},{"user_id":172,"name":"TomCat","steam_id":76561198133744053,"connected_time":3115000000000,"state":"active","ping":118},{"user_id":188,"name":"kritz me","steam_id":76561198390893986,"connected_time":1342000000000,"state":"active","ping":100},{"user_id":205,"name":"Victor Charlie","steam_id":76561198255287958,"connected_time":181000000000,"state":"active","ping":93},{"user_id":175,"name":"Teampangit","steam_id":76561198087774626,"connected_time":2513000000000,"state":"active","ping":167}]},{"server_id":1,"name":"Uncletopia | Los Angeles | 1 | All Maps","name_short":"lax-1","host":"lax-1.us.uncletopia.com","port":27015,"enabled":true,"region":"us-west","cc":"us","latitude":33.94279,"longitude":-118.41004,"reserved":0,"last_update":"0001-01-01T00:00:00Z","name_a2s":"Uncletopia | Los Angeles | 1 | All Maps","protocol":17,"map":"koth_lakeside_final","folder":"tf","game":"Team Fortress","app_id":440,"player_count":0,"max_players":24,"Bots":0,"server_type":"Dedicated","server_os":"Linux","password":true,"vac":true,"version":"7757534","steam_id":85568392924469991,"keywords":["cp","nocrits","nodmgspread","uncletopia"],"game_id":440,"stv_port":27016,"stv_name":"Uncletopia | Los Angeles | 1 | All Maps | STV","players":null},{"server_id":112,"name":"Uncletopia | Los Angeles | 2 | All Maps","name_short":"lax-2","host":"lax-1.us.uncletopia.com","port":27025,"enabled":true,"region":"us-west","cc":"us","latitude":33.94279,"longitude":-118.41004,"reserved":0,"last_update":"0001-01-01T00:00:00Z","name_a2s":"Uncletopia | Los Angeles | 2 | All Maps","protocol":17,"map":"koth_highpass","folder":"tf","game":"Team Fortress","app_id":440,"player_count":0,"max_players":24,"Bots":0,"server_type":"Dedicated","server_os":"Linux","password":true,"vac":true,"version":"7757534","steam_id":85568392924469992,"keywords":["cp","nocrits","nodmgspread","uncletopia"],"game_id":440,"stv_port":27026,"stv_name":"Uncletopia | Los Angeles | 2 | All Maps | STV","players":null},{"server_id":324,"name":"Uncletopia | Los Angeles | 3 | All Maps","name_short":"lax-3","host":"lax-1.us.uncletopia.com","port":27035,"enabled":true,"region":"us-west","cc":"us","latitude":33.94279,"longitude":-118.41004,"reserved":0,"last_update":"0001-01-01T00:00:00Z","name_a2s":"Uncletopia | Los Angeles | 3 | All Maps","protocol":17,"map":"cp_dustbowl","folder":"tf","game":"Team Fortress","app_id":440,"player_count":0,"max_players":24,"Bots":0,"server_type":"Dedicated","server_os":"Linux","password":true,"vac":true,"version":"7757534","steam_id":85568392924510198,"keywords":["cp","nocrits","nodmgspread","uncletopia"],"game_id":440,"stv_port":27036,"stv_name":"Uncletopia | Los Angeles | 3 | All Maps | STV","players":null},{"server_id":25,"name":"Uncletopia | Los Angeles | 4 | Stopwatch Beta","name_short":"lax-4","host":"lax-1.us.uncletopia.com","port":27045,"enabled":true,"region":"us-west","cc":"us","latitude":33.94279,"longitude":-118.41004,"reserved":0,"last_update":"0001-01-01T00:00:00Z","name_a2s":"Uncletopia | Los Angeles | 4 | Stopwatch Beta","protocol":17,"map":"pl_swiftwater_final1","folder":"tf","game":"Team Fortress","app_id":440,"player_count":0,"max_players":24,"Bots":0,"server_type":"Dedicated","server_os":"Linux","password":true,"vac":true,"version":"7757534","steam_id":85568392924510199,"keywords":["nocrits","nodmgspread","payload","uncletopia"],"game_id":440,"stv_port":27046,"stv_name":"Uncletopia | Los Angeles | 4 | Stopwatch Beta | STV","players":null},{"server_id":11,"name":"Uncletopia | London | 1 | All Maps","name_short":"lon-1","host":"lon-1.uk.uncletopia.com","port":27015,"enabled":true,"region":"eu","cc":"gb","latitude":51.509865,"longitude":-0.118092,"reserved":0,"last_update":"0001-01-01T00:00:00Z","name_a2s":"Uncletopia | London | 1 | All Maps","protocol":17,"map":"pl_snowycoast","folder":"tf","game":"Team Fortress","app_id":440,"player_count":24,"max_players":24,"Bots":0,"server_type":"Dedicated","server_os":"Linux","password":true,"vac":true,"version":"7757534","steam_id":85568392924367362,"keywords":["nocrits","nodmgspread","payload","uncletopia"],"game_id":440,"stv_port":27016,"stv_name":"Uncletopia | London | 1 | All Maps | STV","players":[{"user_id":255,"name":"imthegerman","steam_id":76561198053401077,"connected_time":2217000000000,"state":"active","ping":111},{"user_id":238,"name":"rob","steam_id":76561198122211848,"connected_time":3235000000000,"state":"active","ping":89},{"user_id":271,"name":"Elfie","steam_id":76561198206802255,"connected_time":572000000000,"state":"active","ping":73},{"user_id":257,"name":"marco / s /","steam_id":76561198300120382,"connected_time":1649000000000,"state":"active","ping":61},{"user_id":268,"name":"Rat head","steam_id":76561198184360615,"connected_time":804000000000,"state":"active","ping":105},{"user_id":256,"name":"JOHN GAMING (#transrights)","steam_id":76561199085822219,"connected_time":2170000000000,"state":"active","ping":89},{"user_id":254,"name":"James","steam_id":76561198152128484,"connected_time":2275000000000,"state":"active","ping":41},{"user_id":266,"name":"Myrmodion","steam_id":76561198054746247,"connected_time":1130000000000,"state":"active","ping":75},{"user_id":272,"name":"Specialluxurytouring2007","steam_id":76561198236015392,"connected_time":561000000000,"state":"active","ping":120},{"user_id":234,"name":"REDZED","steam_id":76561198419203843,"connected_time":3561000000000,"state":"active","ping":110},{"user_id":241,"name":"Droy","steam_id":76561198065854668,"connected_time":3179000000000,"state":"active","ping":43},{"user_id":242,"name":"Wir suchen dich!","steam_id":76561198307613521,"connected_time":3167000000000,"state":"active","ping":51},{"user_id":274,"name":"Princess Fuzz","steam_id":76561198025783000,"connected_time":259000000000,"state":"active","ping":41},{"user_id":209,"name":"Yuzu","steam_id":76561198121694613,"connected_time":5444000000000,"state":"active","ping":51},{"user_id":273,"name":"Chambersite","steam_id":76561198197022399,"connected_time":349000000000,"state":"active","ping":65},{"user_id":222,"name":"Son Goku","steam_id":76561199383437138,"connected_time":4421000000000,"state":"active","ping":116},{"user_id":206,"name":"princess dvs","steam_id":76561198012901314,"connected_time":5520000000000,"state":"active","ping":103},{"user_id":261,"name":"SirSangoor","steam_id":76561198044462559,"connected_time":1310000000000,"state":"active","ping":120},{"user_id":267,"name":"cold rice","steam_id":76561197988085026,"connected_time":1048000000000,"state":"active","ping":74},{"user_id":224,"name":"Urfangonultasadana","steam_id":76561199389286151,"connected_time":3980000000000,"state":"active","ping":96},{"user_id":213,"name":"Labial","steam_id":76561198385163046,"connected_time":5120000000000,"state":"active","ping":43},{"user_id":216,"name":"it is what it is","steam_id":76561198255357694,"connected_time":4973000000000,"state":"active","ping":90},{"user_id":252,"name":"Piteras","steam_id":76561198858532207,"connected_time":2317000000000,"state":"active","ping":85},{"user_id":269,"name":"SaltyCupcakes","steam_id":76561198256386417,"connected_time":712000000000,"state":"active","ping":44}]},{"server_id":114,"name":"Uncletopia | London | 2 | All Maps","name_short":"lon-2","host":"lon-1.uk.uncletopia.com","port":27025,"enabled":true,"region":"eu","cc":"gb","latitude":51.509865,"longitude":-0.118092,"reserved":0,"last_update":"0001-01-01T00:00:00Z","name_a2s":"Uncletopia | London | 2 | All Maps","protocol":17,"map":"koth_viaduct","folder":"tf","game":"Team Fortress","app_id":440,"player_count":0,"max_players":24,"Bots":0,"server_type":"Dedicated","server_os":"Linux","password":true,"vac":true,"version":"7757534","steam_id":85568392924470941,"keywords":["cp","nocrits","nodmgspread","uncletopia"],"game_id":440,"stv_port":27026,"stv_name":"Uncletopia | London | 2 | All Maps | STV","players":null},{"server_id":320,"name":"Uncletopia | London | 3 | All Maps","name_short":"lon-3","host":"lon-1.uk.uncletopia.com","port":27035,"enabled":true,"region":"eu","cc":"gb","latitude":51.509865,"longitude":-0.118092,"reserved":0,"last_update":"0001-01-01T00:00:00Z","name_a2s":"Uncletopia | London | 3 | All Maps","protocol":17,"map":"cp_dustbowl","folder":"tf","game":"Team Fortress","app_id":440,"player_count":0,"max_players":24,"Bots":0,"server_type":"Dedicated","server_os":"Linux","password":true,"vac":true,"version":"7757534","steam_id":85568392924510192,"keywords":["cp","nocrits","nodmgspread","uncletopia"],"game_id":440,"stv_port":27036,"stv_name":"Uncletopia | London | 3 | All Maps | STV","players":null},{"server_id":321,"name":"Uncletopia | London | 4 | All Maps","name_short":"lon-4","host":"lon-1.uk.uncletopia.com","port":27045,"enabled":true,"region":"eu","cc":"gb","latitude":51.509865,"longitude":-0.118092,"reserved":0,"last_update":"0001-01-01T00:00:00Z","name_a2s":"Uncletopia | London | 4 | All Maps","protocol":17,"map":"cp_dustbowl","folder":"tf","game":"Team Fortress","app_id":440,"player_count":0,"max_players":24,"Bots":0,"server_type":"Dedicated","server_os":"Linux","password":true,"vac":true,"version":"7757534","steam_id":85568392924510193,"keywords":["cp","nocrits","nodmgspread","uncletopia"],"game_id":440,"stv_port":27046,"stv_name":"Uncletopia | London | 4 | All Maps | STV","players":null},{"server_id":21,"name":"Uncletopia | London | 5 | All Maps","name_short":"lon-5","host":"lon-1.uk.uncletopia.com","port":27055,"enabled":true,"region":"eu","cc":"gb","latitude":51.509865,"longitude":-0.118092,"reserved":0,"last_update":"0001-01-01T00:00:00Z","name_a2s":"Uncletopia | London | 5 | All Maps","protocol":17,"map":"cp_altitude","folder":"tf","game":"Team Fortress","app_id":440,"player_count":0,"max_players":24,"Bots":0,"server_type":"Dedicated","server_os":"Linux","password":true,"vac":true,"version":"7757534","steam_id":85568392924742829,"keywords":["cp","nocrits","nodmgspread","uncletopia"],"game_id":440,"stv_port":27056,"stv_name":"Uncletopia | London | 5 | All Maps | STV","players":null},{"server_id":22,"name":"Uncletopia | London | 6 | All Maps","name_short":"lon-6","host":"lon-1.uk.uncletopia.com","port":27065,"enabled":true,"region":"eu","cc":"gb","latitude":51.509865,"longitude":-0.118092,"reserved":0,"last_update":"0001-01-01T00:00:00Z","name_a2s":"Uncletopia | London | 6 | All Maps","protocol":17,"map":"pl_borneo","folder":"tf","game":"Team Fortress","app_id":440,"player_count":21,"max_players":24,"Bots":0,"server_type":"Dedicated","server_os":"Linux","password":true,"vac":true,"version":"7757534","steam_id":85568392924742830,"keywords":["nocrits","nodmgspread","payload","uncletopia"],"game_id":440,"stv_port":27066,"stv_name":"Uncletopia | London | 6 | All Maps | STV","players":[{"user_id":77,"name":"Umbro","steam_id":76561198087930438,"connected_time":239000000000,"state":"active","ping":76},{"user_id":78,"name":"Purps","steam_id":76561198053886680,"connected_time":193000000000,"state":"active","ping":33},{"user_id":68,"name":"Frylock","steam_id":76561198050292560,"connected_time":1052000000000,"state":"active","ping":45},{"user_id":32,"name":"Uncle Terry","steam_id":76561198396415736,"connected_time":3093000000000,"state":"active","ping":52},{"user_id":62,"name":"axl#pizdaaim","steam_id":76561198991661832,"connected_time":1479000000000,"state":"active","ping":99},{"user_id":70,"name":"hot","steam_id":76561198324048855,"connected_time":932000000000,"state":"active","ping":45},{"user_id":79,"name":"Ziltoid","steam_id":76561198020753675,"connected_time":170000000000,"state":"active","ping":86},{"user_id":67,"name":"frenchie","steam_id":76561198178298931,"connected_time":1121000000000,"state":"active","ping":37},{"user_id":80,"name":"jonbob","steam_id":76561197963506620,"connected_time":146000000000,"state":"active","ping":56},{"user_id":63,"name":"Romu3","steam_id":76561198055484251,"connected_time":1458000000000,"state":"active","ping":119},{"user_id":81,"name":"A stripper","steam_id":76561198034865891,"connected_time":99000000000,"state":"active","ping":60},{"user_id":82,"name":"Borat","steam_id":76561198122226417,"connected_time":93000000000,"state":"active","ping":26},{"user_id":83,"name":"Sulatejuusto","steam_id":76561198063971856,"connected_time":72000000000,"state":"active","ping":86},{"user_id":41,"name":"Cookies and Bakies","steam_id":76561198017442928,"connected_time":2724000000000,"state":"active","ping":65},{"user_id":43,"name":"tqla","steam_id":76561198073092585,"connected_time":2613000000000,"state":"active","ping":104},{"user_id":84,"name":"Tank","steam_id":76561199059174576,"connected_time":22000000000,"state":"active","ping":169},{"user_id":46,"name":"Shinyeyes","steam_id":76561198140748440,"connected_time":2575000000000,"state":"active","ping":86},{"user_id":71,"name":"Owlet","steam_id":76561198065613974,"connected_time":873000000000,"state":"active","ping":62},{"user_id":49,"name":"on1on (fried)","steam_id":76561197995304137,"connected_time":2499000000000,"state":"active","ping":73},{"user_id":53,"name":"Germanium_Ge","steam_id":76561198130561775,"connected_time":2391000000000,"state":"active","ping":56},{"user_id":74,"name":"b ull","steam_id":76561199233979726,"connected_time":429000000000,"state":"active","ping":88}]},{"server_id":40,"name":"Uncletopia | London | 7 | No Payload","name_short":"lon-7","host":"lon-1.uk.uncletopia.com","port":27075,"enabled":true,"region":"eu","cc":"gb","latitude":51.509865,"longitude":-0.118092,"reserved":0,"last_update":"0001-01-01T00:00:00Z","name_a2s":"Uncletopia | London | 7 | No Payload","protocol":17,"map":"pl_badwater","folder":"tf","game":"Team Fortress","app_id":440,"player_count":0,"max_players":24,"Bots":0,"server_type":"Dedicated","server_os":"Linux","password":true,"vac":true,"version":"7757534","steam_id":85568392924964314,"keywords":["nocrits","nodmgspread","payload","uncletopia"],"game_id":440,"stv_port":27076,"stv_name":"Uncletopia | London | 7 | No Payload | STV","players":null},{"server_id":41,"name":"Uncletopia | London | 8 | Community","name_short":"lon-8","host":"lon-1.uk.uncletopia.com","port":27085,"enabled":true,"region":"eu","cc":"gb","latitude":51.509865,"longitude":-0.118092,"reserved":0,"last_update":"0001-01-01T00:00:00Z","name_a2s":"Uncletopia | London | 8 | Community","protocol":17,"map":"pl_barnblitz","folder":"tf","game":"Team Fortress","app_id":440,"player_count":0,"max_players":24,"Bots":0,"server_type":"Dedicated","server_os":"Linux","password":true,"vac":true,"version":"7757534","steam_id":85568392924964315,"keywords":["nocrits","nodmgspread","payload","uncletopia"],"game_id":440,"stv_port":27086,"stv_name":"Uncletopia | London | 8 | Community | STV","players":null},{"server_id":300,"name":"Uncletopia | Montréal | 1 | All Maps","name_short":"mtl-1","host":"mtl-1.ca.uncletopia.com","port":27015,"enabled":true,"region":"us-east","cc":"ca","latitude":45.50889,"longitude":-73.56167,"reserved":0,"last_update":"0001-01-01T00:00:00Z","name_a2s":"Uncletopia | Montréal | 1 | All Maps","protocol":17,"map":"pl_upward","folder":"tf","game":"Team Fortress","app_id":440,"player_count":0,"max_players":24,"Bots":0,"server_type":"Dedicated","server_os":"Linux","password":true,"vac":true,"version":"7757534","steam_id":85568392924500087,"keywords":["nocrits","nodmgspread","payload","uncletopia"],"game_id":440,"stv_port":27016,"stv_name":"Uncletopia | Montréal | 1 | All Maps | STV","players":null},{"server_id":301,"name":"Uncletopia | Montréal | 2 | All Maps","name_short":"mtl-2","host":"mtl-1.ca.uncletopia.com","port":27025,"enabled":true,"region":"us-east","cc":"ca","latitude":45.50889,"longitude":-73.56167,"reserved":0,"last_update":"0001-01-01T00:00:00Z","name_a2s":"Uncletopia | Montréal | 2 | All Maps","protocol":17,"map":"pl_snowycoast","folder":"tf","game":"Team Fortress","app_id":440,"player_count":0,"max_players":24,"Bots":0,"server_type":"Dedicated","server_os":"Linux","password":true,"vac":true,"version":"7757534","steam_id":85568392924500088,"keywords":["nocrits","nodmgspread","payload","uncletopia"],"game_id":440,"stv_port":27026,"stv_name":"Uncletopia | Montréal | 2 | All Maps | STV","players":null},{"server_id":302,"name":"Uncletopia | Montréal | 3 | All Maps","name_short":"mtl-3","host":"mtl-1.ca.uncletopia.com","port":27035,"enabled":true,"region":"us-east","cc":"ca","latitude":45.50889,"longitude":-73.56167,"reserved":0,"last_update":"0001-01-01T00:00:00Z","name_a2s":"Uncletopia | Montréal | 3 | All Maps","protocol":17,"map":"pl_swiftwater_final1","folder":"tf","game":"Team Fortress","app_id":440,"player_count":0,"max_players":24,"Bots":0,"server_type":"Dedicated","server_os":"Linux","password":true,"vac":true,"version":"7757534","steam_id":85568392924500089,"keywords":["nocrits","nodmgspread","payload","uncletopia"],"game_id":440,"stv_port":27036,"stv_name":"Uncletopia | Montréal | 3 | All Maps | STV","players":null},{"server_id":303,"name":"Uncletopia | Montréal | 4 | No Payload","name_short":"mtl-4","host":"mtl-1.ca.uncletopia.com","port":27045,"enabled":true,"region":"us-east","cc":"ca","latitude":45.50889,"longitude":-73.56167,"reserved":0,"last_update":"0001-01-01T00:00:00Z","name_a2s":"Uncletopia | Montréal | 4 | No Payload","protocol":17,"map":"pl_pier","folder":"tf","game":"Team Fortress","app_id":440,"player_count":0,"max_players":24,"Bots":0,"server_type":"Dedicated","server_os":"Linux","password":true,"vac":true,"version":"7757534","steam_id":85568392924500090,"keywords":["nocrits","nodmgspread","payload","uncletopia"],"game_id":440,"stv_port":27046,"stv_name":"Uncletopia | Montréal | 4 | No Payload | STV","players":null},{"server_id":13,"name":"Uncletopia | New York City | 1 | All Maps","name_short":"nyc-1","host":"nyc-1.us.uncletopia.com","port":27015,"enabled":true,"region":"us-east","cc":"us","latitude":40.73061,"longitude":-73.93524,"reserved":0,"last_update":"0001-01-01T00:00:00Z","name_a2s":"Uncletopia | New York City | 1 | All Maps","protocol":17,"map":"koth_viaduct","folder":"tf","game":"Team Fortress","app_id":440,"player_count":0,"max_players":24,"Bots":0,"server_type":"Dedicated","server_os":"Linux","password":true,"vac":true,"version":"7757534","steam_id":85568392924469993,"keywords":["cp","nocrits","nodmgspread","uncletopia"],"game_id":440,"stv_port":27016,"stv_name":"Uncletopia | New York City | 1 | All Maps | STV","players":null},{"server_id":14,"name":"Uncletopia | New York City | 2 | All Maps","name_short":"nyc-2","host":"nyc-1.us.uncletopia.com","port":27025,"enabled":true,"region":"us-east","cc":"us","latitude":40.73061,"longitude":-73.93524,"reserved":0,"last_update":"0001-01-01T00:00:00Z","name_a2s":"Uncletopia | New York City | 2 | All Maps","protocol":17,"map":"pl_badwater","folder":"tf","game":"Team Fortress","app_id":440,"player_count":0,"max_players":24,"Bots":0,"server_type":"Dedicated","server_os":"Linux","password":true,"vac":true,"version":"7757534","steam_id":85568392924469994,"keywords":["nocrits","nodmgspread","payload","uncletopia"],"game_id":440,"stv_port":27026,"stv_name":"Uncletopia | New York City | 2 | All Maps | STV","players":null},{"server_id":15,"name":"Uncletopia | New York City | 3 | Stopwatch Beta","name_short":"nyc-3","host":"nyc-1.us.uncletopia.com","port":27035,"enabled":true,"region":"us-east","cc":"us","latitude":40.73061,"longitude":-73.93524,"reserved":0,"last_update":"0001-01-01T00:00:00Z","name_a2s":"Uncletopia | New York City | 3 | Stopwatch Beta","protocol":17,"map":"pl_upward","folder":"tf","game":"Team Fortress","app_id":440,"player_count":0,"max_players":24,"Bots":0,"server_type":"Dedicated","server_os":"Linux","password":true,"vac":true,"version":"7757534","steam_id":85568392924742820,"keywords":["nocrits","nodmgspread","payload","uncletopia"],"game_id":440,"stv_port":27036,"stv_name":"Uncletopia | New York City | 3 | Stopwatch Beta | STV","players":null},{"server_id":16,"name":"Uncletopia | New York City | 4 | Community","name_short":"nyc-4","host":"nyc-1.us.uncletopia.com","port":27045,"enabled":true,"region":"us-east","cc":"us","latitude":40.73061,"longitude":-73.93524,"reserved":0,"last_update":"0001-01-01T00:00:00Z","name_a2s":"Uncletopia | New York City | 4 | Community","protocol":17,"map":"pl_swiftwater_final1","folder":"tf","game":"Team Fortress","app_id":440,"player_count":0,"max_players":24,"Bots":0,"server_type":"Dedicated","server_os":"Linux","password":true,"vac":true,"version":"7757534","steam_id":85568392924742821,"keywords":["nocrits","nodmgspread","payload","uncletopia"],"game_id":440,"stv_port":27046,"stv_name":"Uncletopia | New York City | 4 | Community | STV","players":null},{"server_id":142,"name":"Uncletopia | São Paulo | 1 | All Maps","name_short":"sao-1","host":"sao-1.br.uncletopia.com","port":27015,"enabled":true,"region":"sa","cc":"br","latitude":-23.533773,"longitude":-46.62529,"reserved":0,"last_update":"0001-01-01T00:00:00Z","name_a2s":"Uncletopia | São Paulo | 1 | All Maps","protocol":17,"map":"koth_lakeside_final","folder":"tf","game":"Team Fortress","app_id":440,"player_count":0,"max_players":24,"Bots":0,"server_type":"Dedicated","server_os":"Linux","password":true,"vac":true,"version":"7757534","steam_id":85568392924469996,"keywords":["cp","nocrits","nodmgspread","uncletopia"],"game_id":440,"stv_port":27016,"stv_name":"Uncletopia | São Paulo | 1 | All Maps | STV","players":null},{"server_id":143,"name":"Uncletopia | São Paulo | 2 | All Maps","name_short":"sao-2","host":"sao-2.br.uncletopia.com","port":27015,"enabled":true,"region":"sa","cc":"br","latitude":-23.533773,"longitude":-46.62529,"reserved":0,"last_update":"0001-01-01T00:00:00Z","name_a2s":"Uncletopia | São Paulo | 2 | All Maps","protocol":17,"map":"pl_borneo","folder":"tf","game":"Team Fortress","app_id":440,"player_count":0,"max_players":24,"Bots":0,"server_type":"Dedicated","server_os":"Linux","password":true,"vac":true,"version":"7757534","steam_id":85568392924485349,"keywords":["nocrits","nodmgspread","payload","uncletopia"],"game_id":440,"stv_port":27016,"stv_name":"Uncletopia | São Paulo | 2 | All Maps | STV","players":null},{"server_id":7,"name":"Uncletopia | Seattle | 1 | All Maps","name_short":"sea-1","host":"sea-1.us.uncletopia.com","port":27015,"enabled":true,"region":"us-west","cc":"us","latitude":47.608013,"longitude":-122.33517,"reserved":0,"last_update":"0001-01-01T00:00:00Z","name_a2s":"Uncletopia | Seattle | 1 | All Maps","protocol":17,"map":"cp_mountainlab","folder":"tf","game":"Team Fortress","app_id":440,"player_count":0,"max_players":24,"Bots":0,"server_type":"Dedicated","server_os":"Linux","password":true,"vac":true,"version":"7757534","steam_id":85568392924469997,"keywords":["cp","nocrits","nodmgspread","uncletopia"],"game_id":440,"stv_port":27016,"stv_name":"Uncletopia | Seattle | 1 | All Maps | STV","players":null},{"server_id":119,"name":"Uncletopia | Seattle | 2 | All Maps","name_short":"sea-2","host":"sea-1.us.uncletopia.com","port":27025,"enabled":true,"region":"us-west","cc":"us","latitude":47.608013,"longitude":-122.33517,"reserved":0,"last_update":"0001-01-01T00:00:00Z","name_a2s":"Uncletopia | Seattle | 2 | All Maps","protocol":17,"map":"cp_process_final","folder":"tf","game":"Team Fortress","app_id":440,"player_count":24,"max_players":24,"Bots":0,"server_type":"Dedicated","server_os":"Linux","password":true,"vac":true,"version":"7757534","steam_id":85568392924469998,"keywords":["cp","nocrits","nodmgspread","uncletopia"],"game_id":440,"stv_port":27026,"stv_name":"Uncletopia | Seattle | 2 | All Maps | STV","players":[{"user_id":970,"name":"kato","steam_id":76561198088665810,"connected_time":4119000000000,"state":"active","ping":74},{"user_id":1052,"name":"creepycrawler","steam_id":76561198352016831,"connected_time":817000000000,"state":"active","ping":105},{"user_id":1053,"name":"MR.THE TOASTER","steam_id":76561199109565739,"connected_time":768000000000,"state":"active","ping":129},{"user_id":968,"name":"koncept","steam_id":76561198027812652,"connected_time":4172000000000,"state":"active","ping":75},{"user_id":1054,"name":"Rain","steam_id":76561198065612273,"connected_time":753000000000,"state":"active","ping":45},{"user_id":1026,"name":"Syrup","steam_id":76561198335677073,"connected_time":1494000000000,"state":"active","ping":77},{"user_id":983,"name":"Shochu Fiend","steam_id":76561198055193376,"connected_time":3354000000000,"state":"active","ping":79},{"user_id":1019,"name":"Some Dood on the Internet","steam_id":76561198054657687,"connected_time":1528000000000,"state":"active","ping":57},{"user_id":1000,"name":"Maho","steam_id":76561199076491805,"connected_time":2168000000000,"state":"active","ping":154},{"user_id":1020,"name":"luminary","steam_id":76561198126358045,"connected_time":1522000000000,"state":"active","ping":119},{"user_id":1050,"name":"2j psych ward boiwife","steam_id":76561198206752128,"connected_time":875000000000,"state":"active","ping":150},{"user_id":1055,"name":"cracky","steam_id":76561197971365444,"connected_time":736000000000,"state":"active","ping":52},{"user_id":1021,"name":"Goob","steam_id":76561198256918638,"connected_time":1520000000000,"state":"active","ping":68},{"user_id":1038,"name":"Checkered Scones","steam_id":76561198162786894,"connected_time":1217000000000,"state":"active","ping":77},{"user_id":1058,"name":"air bud goes to china","steam_id":76561198040475254,"connected_time":716000000000,"state":"active","ping":44},{"user_id":932,"name":"Cutie Pyro \u003c3","steam_id":76561197997820384,"connected_time":6120000000000,"state":"active","ping":96},{"user_id":1039,"name":"0","steam_id":76561198046065237,"connected_time":1175000000000,"state":"active","ping":117},{"user_id":1059,"name":"$199.95 12-Speed Mixer","steam_id":76561198251173702,"connected_time":715000000000,"state":"active","ping":89},{"user_id":1024,"name":"1 2 Oatmeal","steam_id":76561197999318398,"connected_time":1506000000000,"state":"active","ping":160},{"user_id":993,"name":"John West","steam_id":76561198018783676,"connected_time":2883000000000,"state":"active","ping":64},{"user_id":1029,"name":"smeasly","steam_id":76561198028718812,"connected_time":1462000000000,"state":"active","ping":42},{"user_id":1060,"name":"Gumby","steam_id":76561197992799336,"connected_time":688000000000,"state":"active","ping":113},{"user_id":1030,"name":"Star_Mann_Jr.","steam_id":76561198071148924,"connected_time":1453000000000,"state":"active","ping":106},{"user_id":1065,"name":"otto","steam_id":76561198888223024,"connected_time":453000000000,"state":"active","ping":105}]},{"server_id":406,"name":"Uncletopia | Seattle | 3 | Stopwatch Beta","name_short":"sea-3","host":"sea-1.us.uncletopia.com","port":27035,"enabled":true,"region":"us-west","cc":"us","latitude":47.608013,"longitude":-122.33517,"reserved":0,"last_update":"0001-01-01T00:00:00Z","name_a2s":"Uncletopia | Seattle | 3 | Stopwatch Beta","protocol":17,"map":"workshop/pl_summercoast_rc8e.ugc1761528829","folder":"tf","game":"Team Fortress","app_id":440,"player_count":0,"max_players":24,"Bots":0,"server_type":"Dedicated","server_os":"Linux","password":true,"vac":true,"version":"7757534","steam_id":85568392924515217,"keywords":["nocrits","nodmgspread","payload","uncletopia"],"game_id":440,"stv_port":27036,"stv_name":"Uncletopia | Seattle | 3 | Stopwatch Beta | STV","players":null},{"server_id":17,"name":"Uncletopia | San Francisco | 1 | All Maps","name_short":"sfo-1","host":"sfo-1.us.uncletopia.com","port":27015,"enabled":true,"region":"us-west","cc":"us","latitude":37.77397,"longitude":-122.4313,"reserved":0,"last_update":"0001-01-01T00:00:00Z","name_a2s":"Uncletopia | San Francisco | 1 | All Maps","protocol":17,"map":"cp_sunshine","folder":"tf","game":"Team Fortress","app_id":440,"player_count":1,"max_players":24,"Bots":0,"server_type":"Dedicated","server_os":"Linux","password":true,"vac":true,"version":"7757534","steam_id":85568392924469999,"keywords":["cp","nocrits","nodmgspread","uncletopia"],"game_id":440,"stv_port":27016,"stv_name":"Uncletopia | San Francisco | 1 | All Maps | STV","players":[{"user_id":683,"name":"Шаурмяу","steam_id":76561199475835322,"connected_time":599000000000,"state":"active","ping":332}]},{"server_id":18,"name":"Uncletopia | San Francisco | 2 | All Maps","name_short":"sfo-2","host":"sfo-1.us.uncletopia.com","port":27025,"enabled":true,"region":"us-west","cc":"us","latitude":37.77397,"longitude":-122.4313,"reserved":0,"last_update":"0001-01-01T00:00:00Z","name_a2s":"Uncletopia | San Francisco | 2 | All Maps","protocol":17,"map":"cp_sunshine","folder":"tf","game":"Team Fortress","app_id":440,"player_count":0,"max_players":24,"Bots":0,"server_type":"Dedicated","server_os":"Linux","password":true,"vac":true,"version":"7757534","steam_id":85568392924470000,"keywords":["cp","nocrits","nodmgspread","uncletopia"],"game_id":440,"stv_port":27026,"stv_name":"Uncletopia | San Francisco | 2 | All Maps | STV","players":null},{"server_id":19,"name":"Uncletopia | San Francisco | 3 | Stopwatch Beta","name_short":"sfo-3","host":"sfo-1.us.uncletopia.com","port":27035,"enabled":true,"region":"us-west","cc":"us","latitude":37.77397,"longitude":-122.4313,"reserved":0,"last_update":"0001-01-01T00:00:00Z","name_a2s":"Uncletopia | San Francisco | 3 | Stopwatch Beta","protocol":17,"map":"pl_borneo","folder":"tf","game":"Team Fortress","app_id":440,"player_count":0,"max_players":24,"Bots":0,"server_type":"Dedicated","server_os":"Linux","password":true,"vac":true,"version":"7757534","steam_id":85568392924742824,"keywords":["nocrits","nodmgspread","payload","uncletopia"],"game_id":440,"stv_port":27036,"stv_name":"Uncletopia | San Francisco | 3 | Stopwatch Beta | STV","players":null},{"server_id":20,"name":"Uncletopia | San Francisco | 4 | Community","name_short":"sfo-4","host":"sfo-1.us.uncletopia.com","port":27045,"enabled":true,"region":"us-west","cc":"us","latitude":37.77397,"longitude":-122.4313,"reserved":0,"last_update":"0001-01-01T00:00:00Z","name_a2s":"Uncletopia | San Francisco | 4 | Community","protocol":17,"map":"workshop/cp_snowbase_b18.ugc2081770490","folder":"tf","game":"Team Fortress","app_id":440,"player_count":0,"max_players":24,"Bots":0,"server_type":"Dedicated","server_os":"Linux","password":true,"vac":true,"version":"7757534","steam_id":85568392924742826,"keywords":["cp","nocrits","nodmgspread","uncletopia"],"game_id":440,"stv_port":27046,"stv_name":"Uncletopia | San Francisco | 4 | Community | STV","players":null},{"server_id":141,"name":"Uncletopia | Sydney | 1 | All Maps","name_short":"syd-1","host":"syd-1.au.uncletopia.com","port":27015,"enabled":true,"region":"au","cc":"au","latitude":-33.865143,"longitude":151.2099,"reserved":0,"last_update":"0001-01-01T00:00:00Z","name_a2s":"Uncletopia | Sydney | 1 | All Maps","protocol":17,"map":"cp_altitude","folder":"tf","game":"Team Fortress","app_id":440,"player_count":4,"max_players":24,"Bots":0,"server_type":"Dedicated","server_os":"Linux","password":true,"vac":true,"version":"7757534","steam_id":85568392924470001,"keywords":["cp","nocrits","nodmgspread","uncletopia"],"game_id":440,"stv_port":27016,"stv_name":"Uncletopia | Sydney | 1 | All Maps | STV","players":[{"user_id":194,"name":"Champ","steam_id":76561198119097735,"connected_time":1260000000000,"state":"active","ping":76},{"user_id":196,"name":"House fly","steam_id":76561198127767137,"connected_time":1125000000000,"state":"active","ping":60},{"user_id":197,"name":"crabL0v3r","steam_id":76561198050543515,"connected_time":1049000000000,"state":"active","ping":68},{"user_id":198,"name":"Benedryl Cabbagepatch","steam_id":76561198271627511,"connected_time":1025000000000,"state":"active","ping":69}]},{"server_id":123,"name":"Uncletopia | Sydney | 2 | All Maps","name_short":"syd-2","host":"syd-1.au.uncletopia.com","port":27025,"enabled":true,"region":"au","cc":"au","latitude":-33.865143,"longitude":151.2099,"reserved":0,"last_update":"0001-01-01T00:00:00Z","name_a2s":"Uncletopia | Sydney | 2 | All Maps","protocol":17,"map":"pl_goldrush","folder":"tf","game":"Team Fortress","app_id":440,"player_count":20,"max_players":24,"Bots":0,"server_type":"Dedicated","server_os":"Linux","password":true,"vac":true,"version":"7757534","steam_id":85568392924470002,"keywords":["nocrits","nodmgspread","payload","uncletopia"],"game_id":440,"stv_port":27026,"stv_name":"Uncletopia | Sydney | 2 | All Maps | STV","players":[{"user_id":133,"name":"Frog Friend","steam_id":76561198054505772,"connected_time":1313000000000,"state":"spawning","ping":61},{"user_id":139,"name":"helryeginn","steam_id":76561198202750573,"connected_time":591000000000,"state":"spawning","ping":61},{"user_id":102,"name":"Zoey","steam_id":76561198126153554,"connected_time":4523000000000,"state":"spawning","ping":108},{"user_id":120,"name":"whiteshaq","steam_id":76561198131988811,"connected_time":3375000000000,"state":"spawning","ping":67},{"user_id":134,"name":"Wubs","steam_id":76561198169757490,"connected_time":1048000000000,"state":"connecting","ping":57},{"user_id":93,"name":"O'rangutan","steam_id":76561198095916681,"connected_time":5484000000000,"state":"spawning","ping":47},{"user_id":97,"name":"Femboy Fractions","steam_id":76561198321471147,"connected_time":4948000000000,"state":"spawning","ping":117},{"user_id":135,"name":"SchlaytoN","steam_id":76561198206793747,"connected_time":1035000000000,"state":"spawning","ping":88},{"user_id":129,"name":"[FTW] RonnieD'","steam_id":76561197993957267,"connected_time":2310000000000,"state":"spawning","ping":65},{"user_id":103,"name":"Distilledrain41","steam_id":76561198272717119,"connected_time":4426000000000,"state":"spawning","ping":63},{"user_id":105,"name":"Pew pew pew!","steam_id":76561198004120277,"connected_time":4393000000000,"state":"connecting","ping":43},{"user_id":130,"name":"Pompadouraus","steam_id":76561198327530525,"connected_time":2156000000000,"state":"spawning","ping":98},{"user_id":115,"name":"Toody","steam_id":76561198212656752,"connected_time":3924000000000,"state":"connecting","ping":77},{"user_id":137,"name":"skinny loser man","steam_id":76561198094041769,"connected_time":984000000000,"state":"connecting","ping":46},{"user_id":136,"name":"Uncle Fester","steam_id":76561198036511528,"connected_time":1029000000000,"state":"spawning","ping":69},{"user_id":109,"name":"Jodelkönig Franzl Lang","steam_id":76561198007667830,"connected_time":4215000000000,"state":"spawning","ping":79}]},{"server_id":395,"name":"Uncletopia | Sydney | 3 | All Maps","name_short":"syd-3","host":"syd-1.au.uncletopia.com","port":27035,"enabled":true,"region":"au","cc":"au","latitude":-33.865143,"longitude":151.2099,"reserved":0,"last_update":"0001-01-01T00:00:00Z","name_a2s":"Uncletopia | Sydney | 3 | All Maps","protocol":17,"map":"cp_snakewater_final1","folder":"tf","game":"Team Fortress","app_id":440,"player_count":19,"max_players":24,"Bots":0,"server_type":"Dedicated","server_os":"Linux","password":true,"vac":true,"version":"7757534","steam_id":85568392925194467,"keywords":["cp","nocrits","nodmgspread","uncletopia"],"game_id":440,"stv_port":27036,"stv_name":"Uncletopia | Sydney | 3 | All Maps | STV","players":[{"user_id":346,"name":"smite","steam_id":76561198845304189,"connected_time":2677000000000,"state":"active","ping":65},{"user_id":319,"name":"mixyad3","steam_id":76561198046461767,"connected_time":4082000000000,"state":"active","ping":59},{"user_id":363,"name":"krandlez` (Any/All)","steam_id":76561198044839726,"connected_time":822000000000,"state":"active","ping":31},{"user_id":368,"name":"NUKING IS NOW LEGAL WORLDWIDE","steam_id":76561198831069486,"connected_time":544000000000,"state":"active","ping":56},{"user_id":285,"name":"BruceWillis235","steam_id":76561198884324029,"connected_time":7053000000000,"state":"active","ping":88},{"user_id":327,"name":"mc.sleek","steam_id":76561198057602720,"connected_time":3171000000000,"state":"active","ping":71},{"user_id":367,"name":"Bamooxa","steam_id":76561198067160709,"connected_time":620000000000,"state":"active","ping":82},{"user_id":359,"name":"Chett Ryan","steam_id":76561198071870475,"connected_time":1529000000000,"state":"active","ping":50},{"user_id":360,"name":"kisses you","steam_id":76561198288970258,"connected_time":1346000000000,"state":"active","ping":45},{"user_id":349,"name":"MythicalStraightFemboi","steam_id":76561198212958225,"connected_time":2327000000000,"state":"active","ping":78},{"user_id":369,"name":"Matt","steam_id":76561198006791420,"connected_time":399000000000,"state":"active","ping":101},{"user_id":334,"name":"Mpdacey","steam_id":76561198045063665,"connected_time":3030000000000,"state":"active","ping":52},{"user_id":336,"name":"Bob Ross","steam_id":76561198081686896,"connected_time":2982000000000,"state":"active","ping":60},{"user_id":370,"name":"Zzep_","steam_id":76561198059402662,"connected_time":350000000000,"state":"active","ping":60},{"user_id":354,"name":"voxii","steam_id":76561198099698281,"connected_time":2029000000000,"state":"active","ping":65},{"user_id":340,"name":"calculusfish","steam_id":76561198067205959,"connected_time":2966000000000,"state":"active","ping":61},{"user_id":355,"name":"gary without the r","steam_id":76561198061532381,"connected_time":2029000000000,"state":"active","ping":52},{"user_id":343,"name":"beans","steam_id":76561198202908888,"connected_time":2947000000000,"state":"active","ping":56},{"user_id":296,"name":"Ratbagus","steam_id":76561197993827486,"connected_time":6241000000000,"state":"active","ping":75}]},{"server_id":396,"name":"Uncletopia | Sydney | 4 | All Maps","name_short":"syd-4","host":"syd-1.au.uncletopia.com","port":27045,"enabled":true,"region":"au","cc":"au","latitude":-33.865143,"longitude":151.2099,"reserved":0,"last_update":"0001-01-01T00:00:00Z","name_a2s":"Uncletopia | Sydney | 4 | All Maps","protocol":17,"map":"koth_highpass","folder":"tf","game":"Team Fortress","app_id":440,"player_count":0,"max_players":24,"Bots":0,"server_type":"Dedicated","server_os":"Linux","password":true,"vac":true,"version":"7757534","steam_id":85568392925397958,"keywords":["cp","nocrits","nodmgspread","uncletopia"],"game_id":440,"stv_port":27046,"stv_name":"Uncletopia | Sydney | 4 | All Maps | STV","players":null},{"server_id":58,"name":"Uncletopia | Sydney | 5 | Stopwatch Beta","name_short":"syd-5","host":"syd-1.au.uncletopia.com","port":27055,"enabled":true,"region":"au","cc":"au","latitude":-33.865143,"longitude":151.2099,"reserved":0,"last_update":"0001-01-01T00:00:00Z","name_a2s":"Uncletopia | Sydney | 5 | Stopwatch Beta","protocol":17,"map":"pl_upward","folder":"tf","game":"Team Fortress","app_id":440,"player_count":1,"max_players":24,"Bots":0,"server_type":"Dedicated","server_os":"Linux","password":true,"vac":true,"version":"7757534","steam_id":85568392925397959,"keywords":["nocrits","nodmgspread","payload","uncletopia"],"game_id":440,"stv_port":27056,"stv_name":"Uncletopia | Sydney | 5 | Stopwatch Beta | STV","players":[{"user_id":9,"name":"El Chupacabra","steam_id":76561198070641651,"connected_time":12000000000,"state":"active","ping":47}]},{"server_id":59,"name":"Uncletopia | Sydney | 6 | Community","name_short":"syd-6","host":"syd-1.au.uncletopia.com","port":27065,"enabled":true,"region":"au","cc":"au","latitude":-33.865143,"longitude":151.2099,"reserved":0,"last_update":"0001-01-01T00:00:00Z","name_a2s":"Uncletopia | Sydney | 6 | Community","protocol":17,"map":"workshop/koth_ashville_final.ugc2130459942","folder":"tf","game":"Team Fortress","app_id":440,"player_count":0,"max_players":24,"Bots":0,"server_type":"Dedicated","server_os":"Linux","password":true,"vac":true,"version":"7757534","steam_id":85568392925397960,"keywords":["cp","nocrits","nodmgspread","uncletopia"],"game_id":440,"stv_port":27066,"stv_name":"Uncletopia | Sydney | 6 | Community | STV","players":null},{"server_id":49,"name":"Uncletopia | Warsaw | 1 | All Maps","name_short":"waw-1","host":"waw-1.pl.uncletopia.com","port":27015,"enabled":true,"region":"eu","cc":"pl","latitude":52.2297,"longitude":21.017532,"reserved":0,"last_update":"0001-01-01T00:00:00Z","name_a2s":"","protocol":0,"map":"","folder":"","game":"","app_id":0,"player_count":0,"max_players":0,"Bots":0,"server_type":"","server_os":"","password":false,"vac":false,"version":"","steam_id":0,"keywords":null,"game_id":0,"stv_port":0,"stv_name":"","players":null},{"server_id":50,"name":"Uncletopia | Warsaw | 2 | All Maps","name_short":"waw-2","host":"waw-1.pl.uncletopia.com","port":27025,"enabled":true,"region":"eu","cc":"pl","latitude":52.2297,"longitude":21.017532,"reserved":0,"last_update":"0001-01-01T00:00:00Z","name_a2s":"Uncletopia | Warsaw | 2 | All Maps","protocol":17,"map":"koth_viaduct","folder":"tf","game":"Team Fortress","app_id":440,"player_count":0,"max_players":24,"Bots":0,"server_type":"Dedicated","server_os":"Linux","password":true,"vac":true,"version":"7757534","steam_id":85568392925397851,"keywords":["cp","nocrits","nodmgspread","uncletopia"],"game_id":440,"stv_port":27026,"stv_name":"Uncletopia | Warsaw | 2 | All Maps | STV","players":null},{"server_id":51,"name":"Uncletopia | Warsaw | 3 | All Maps","name_short":"waw-3","host":"waw-1.pl.uncletopia.com","port":27035,"enabled":true,"region":"eu","cc":"pl","latitude":52.2297,"longitude":21.017532,"reserved":0,"last_update":"0001-01-01T00:00:00Z","name_a2s":"Uncletopia | Warsaw | 3 | All Maps","protocol":17,"map":"pl_barnblitz","folder":"tf","game":"Team Fortress","app_id":440,"player_count":0,"max_players":24,"Bots":0,"server_type":"Dedicated","server_os":"Linux","password":true,"vac":true,"version":"7757534","steam_id":85568392925397852,"keywords":["nocrits","nodmgspread","payload","uncletopia"],"game_id":440,"stv_port":27036,"stv_name":"Uncletopia | Warsaw | 3 | All Maps | STV","players":null},{"server_id":52,"name":"Uncletopia | Warsaw | 4 | All Maps","name_short":"waw-4","host":"waw-1.pl.uncletopia.com","port":27045,"enabled":true,"region":"eu","cc":"pl","latitude":52.2297,"longitude":21.017532,"reserved":0,"last_update":"0001-01-01T00:00:00Z","name_a2s":"Uncletopia | Warsaw | 4 | All Maps","protocol":17,"map":"koth_lakeside_final","folder":"tf","game":"Team Fortress","app_id":440,"player_count":0,"max_players":24,"Bots":0,"server_type":"Dedicated","server_os":"Linux","password":true,"vac":true,"version":"7757534","steam_id":85568392925397853,"keywords":["cp","nocrits","nodmgspread","uncletopia"],"game_id":440,"stv_port":27046,"stv_name":"Uncletopia | Warsaw | 4 | All Maps | STV","players":null},{"server_id":53,"name":"Uncletopia | Warsaw | 5 | Stopwatch Beta","name_short":"waw-5","host":"waw-1.pl.uncletopia.com","port":27055,"enabled":true,"region":"eu","cc":"pl","latitude":52.2297,"longitude":21.017532,"reserved":0,"last_update":"0001-01-01T00:00:00Z","name_a2s":"Uncletopia | Warsaw | 5 | Stopwatch Beta","protocol":17,"map":"pl_borneo","folder":"tf","game":"Team Fortress","app_id":440,"player_count":0,"max_players":24,"Bots":0,"server_type":"Dedicated","server_os":"Linux","password":true,"vac":true,"version":"7757534","steam_id":85568392925397854,"keywords":["nocrits","nodmgspread","payload","uncletopia"],"game_id":440,"stv_port":27056,"stv_name":"Uncletopia | Warsaw | 5 | Stopwatch Beta | STV","players":null},{"server_id":54,"name":"Uncletopia | Warsaw | 6 | Community","name_short":"waw-6","host":"waw-1.pl.uncletopia.com","port":27065,"enabled":true,"region":"eu","cc":"pl","latitude":52.2297,"longitude":21.017532,"reserved":0,"last_update":"0001-01-01T00:00:00Z","name_a2s":"Uncletopia | Warsaw | 6 | Community","protocol":17,"map":"koth_lakeside_final","folder":"tf","game":"Team Fortress","app_id":440,"player_count":0,"max_players":24,"Bots":0,"server_type":"Dedicated","server_os":"Linux","password":true,"vac":true,"version":"7757534","steam_id":85568392925397856,"keywords":["cp","nocrits","nodmgspread","uncletopia"],"game_id":440,"stv_port":27066,"stv_name":"Uncletopia | Warsaw | 6 | Community | STV","players":null}]}