{"status":true,"message":"","result":[{"server_id":9,"name":"Uncletopia | Atlanta | 1 | All Maps","name_short":"atl-1","host":"atl-1.us.uncletopia.com","port":27015,"enabled":true,"region":"us-east","cc":"us","latitude":33.753746,"longitude":-84.38633,"reserved":0,"last_update":"0001-01-01T00:00:00Z","name_a2s":"Uncletopia | Atlanta | 1 | All Maps","protocol":17,"map":"pl_borneo","folder":"tf","game":"Team Fortress","app_id":440,"player_count":24,"max_players":24,"Bots":0,"server_type":"Dedicated","server_os":"Linux","password":true,"vac":true,"version":"7757534","steam_id":85568392924469982,"keywords":["nocrits","nodmgspread","payload","uncletopia"],"game_id":440,"stv_port":27016,"stv_name":"Uncletopia | Atlanta | 1 | All Maps | STV","players":[{"user_id":530,"name":"DuckMann","steam_id":76561198197058638,"connected_time":1724000000000,"state":"active","ping":48},{"user_id":517,"name":"ATL1 | Kramer","steam_id":76561198083595936,"connected_time":3796000000000,"state":"active","ping":75},{"user_id":559,"name":"Snoogs","steam_id":76561198444880931,"connected_time":434000000000,"state":"active","ping":68},{"user_id":527,"name":"PerpetuaForever","steam_id":76561198347444353,"connected_time":2743000000000,"state":"active","ping":81},{"user_id":537,"name":"uhooter","steam_id":76561198007829078,"connected_time":1706000000000,"state":"active","ping":67},{"user_id":548,"name":"Scorch","steam_id":76561198167024005,"connected_time":1379000000000,"state":"active","ping":65},{"user_id":538,"name":"Scrumlet","steam_id":76561198339806643,"connected_time":1700000000000,"state":"active","ping":77},{"user_id":556,"name":"Put Dispenser Here","steam_id":76561198334676366,"connected_time":464000000000,"state":"active","ping":59},{"user_id":560,"name":"cheeks","steam_id":76561197993371179,"connected_time":216000000000,"state":"active","ping":58},{"user_id":532,"name":"ATL1 | Le4n!!!","steam_id":76561198045522596,"connected_time":1723000000000,"state":"active","ping":68},{"user_id":528,"name":"Straight White Mail","steam_id":76561198182813630,"connected_time":1736000000000,"state":"active","ping":176},{"user_id":520,"name":"Spoonful","steam_id":76561198927517471,"connected_time":3714000000000,"state":"active","ping":57},{"user_id":533,"name":"Wingm4n","steam_id":76561198064127012,"connected_time":1723000000000,"state":"active","ping":48},{"user_id":546,"name":"zefir","steam_id":76561198041348890,"connected_time":1585000000000,"state":"active","ping":70},{"user_id":511,"name":"Maet","steam_id":76561198030208485,"connected_time":4581000000000,"state":"active","ping":90},{"user_id":554,"name":"Im High","steam_id":76561198049954886,"connected_time":821000000000,"state":"active","ping":71},{"user_id":553,"name":"♡Alyx♡","steam_id":76561198024303978,"connected_time":997000000000,"state":"active","ping":60},{"user_id":552,"name":"Karma","steam_id":76561198030565234,"connected_time":1133000000000,"state":"active","ping":82},{"user_id":549,"name":"yeyoi","steam_id":76561198069821885,"connected_time":1378000000000,"state":"active","ping":62},{"user_id":523,"name":"Oddball","steam_id":76561198040440984,"connected_time":3492000000000,"state":"active","ping":85},{"user_id":485,"name":"ATL1 | Lylith!!!","steam_id":76561198386687546,"connected_time":6998000000000,"state":"active","ping":47},{"user_id":545,"name":"MC-ReN™","steam_id":76561197974243668,"connected_time":1653000000000,"state":"active","ping":67},{"user_id":555,"name":"ATL1 | Bandi","steam_id":76561198432036026,"connected_time":487000000000,"state":"active","ping":59},{"user_id":558,"name":"RED1 | snoops","steam_id":76561197986760351,"connected_time":449000000000,"state":"active","ping":75}]},{"server_id":400,"name":"Uncletopia | Atlanta | 3 | Community","name_short":"atl-3","host":"atl-1.us.uncletopia.com","port":27035,"enabled":true,"region":"us-east","cc":"us","latitude":33.753746,"longitude":-84.38633,"reserved":0,"last_update":"0001-01-01T00:00:00Z","name_a2s":"Uncletopia | Atlanta | 3 | Community","protocol":17,"map":"workshop/cp_indulge.ugc528106646","folder":"tf","game":"Team Fortress","app_id":440,"player_count":0,"max_players":32,"Bots":0,"server_type":"Dedicated","server_os":"Linux","password":true,"vac":true,"version":"7757534","steam_id":85568392924515187,"keywords":["cp","increased_maxplayers","nocrits","nodmgspread","uncletopia"],"game_id":440,"stv_port":27036,"stv_name":"Uncletopia | Atlanta | 3 | Community | STV","players":null},{"server_id":401,"name":"Uncletopia | Atlanta | 4 | No Payload","name_short":"atl-4","host":"atl-1.us.uncletopia.com","port":27045,"enabled":true,"region":"us-east","cc":"us","latitude":33.753746,"longitude":-84.38633,"reserved":0,"last_update":"0001-01-01T00:00:00Z","name_a2s":"","protocol":0,"map":"","folder":"","game":"","app_id":0,"player_count":0,"max_players":0,"Bots":0,"server_type":"","server_os":"","password":false,"vac":false,"version":"","steam_id":0,"keywords":null,"game_id":0,"stv_port":0,"stv_name":"","players":null},{"server_id":2,"name":"Uncletopia | Chicago | 1 | All Maps","name_short":"chi-1","host":"chi-1.us.uncletopia.com","port":27015,"enabled":true,"region":"us-central","cc":"us","latitude":41.881832,"longitude":-87.62318,"reserved":0,"last_update":"0001-01-01T00:00:00Z","name_a2s":"Uncletopia | Chicago | 1 | All Maps","protocol":17,"map":"pl_badwater","folder":"tf","game":"Team Fortress","app_id":440,"player_count":24,"max_players":24,"Bots":0,"server_type":"Dedicated","server_os":"Linux","password":true,"vac":true,"version":"7757534","steam_id":85568392924469984,"keywords":["nocrits","nodmgspread","payload","uncletopia"],"game_id":440,"stv_port":27016,"stv_name":"Uncletopia | Chicago | 1 | All Maps | STV","players":[{"user_id":806,"name":"edwinbrood","steam_id":76561198044848769,"connected_time":1032000000000,"state":"active","ping":54},{"user_id":810,"name":"Butter Beyond The Binary","steam_id":76561198128408544,"connected_time":399000000000,"state":"active","ping":60},{"user_id":811,"name":"The local hobo","steam_id":76561198289650060,"connected_time":383000000000,"state":"active","ping":84},{"user_id":680,"name":"HumFreY","steam_id":76561198076639682,"connected_time":12972000000000,"state":"active","ping":74},{"user_id":808,"name":"Matt.jpg","steam_id":76561198132469465,"connected_time":436000000000,"state":"active","ping":47},{"user_id":800,"name":"Wallem","steam_id":76561198052361822,"connected_time":1923000000000,"state":"active","ping":74},{"user_id":725,"name":"Hooked","steam_id":76561198007302139,"connected_time":9297000000000,"state":"active","ping":75},{"user_id":679,"name":"Anthid","steam_id":76561198074493797,"connected_time":13185000000000,"state":"active","ping":72},{"user_id":763,"name":"wiiblob","steam_id":76561198109106242,"connected_time":5167000000000,"state":"active","ping":135},{"user_id":791,"name":"Bolty","steam_id":76561198084199165,"connected_time":3414000000000,"state":"active","ping":85},{"user_id":785,"name":"Mitchu The Bidness Man","steam_id":76561198102494381,"connected_time":3671000000000,"state":"active","ping":61},{"user_id":771,"name":"LegendaryMister151","steam_id":76561198064890524,"connected_time":4494000000000,"state":"active","ping":89},{"user_id":795,"name":"Bungalow Bill","steam_id":76561198033536404,"connected_time":1968000000000,"state":"active","ping":64},{"user_id":801,"name":"Resh420","steam_id":76561198066619792,"connected_time":1921000000000,"state":"active","ping":70},{"user_id":804,"name":"disengage","steam_id":76561197992499738,"connected_time":1181000000000,"state":"active","ping":90},{"user_id":802,"name":"finger","steam_id":76561198068558572,"connected_time":1910000000000,"state":"active","ping":88},{"user_id":809,"name":"ARegularJohnDoe","steam_id":76561198015020139,"connected_time":431000000000,"state":"active","ping":60},{"user_id":807,"name":"leumas","steam_id":76561198240408540,"connected_time":694000000000,"state":"active","ping":59},{"user_id":787,"name":"Man Time","steam_id":76561198151147218,"connected_time":3629000000000,"state":"active","ping":85},{"user_id":803,"name":"Word To Your Mothership","steam_id":76561198034329138,"connected_time":1874000000000,"state":"active","ping":90},{"user_id":813,"name":"Duckywinner","steam_id":76561198254828139,"connected_time":375000000000,"state":"active","ping":86},{"user_id":814,"name":"t.tv/FamilyGuyFunnyMoments277","steam_id":76561198416047580,"connected_time":375000000000,"state":"active","ping":87},{"user_id":744,"name":"PKBEAST_7","steam_id":76561198177136537,"connected_time":7209000000000,"state":"active","ping":90},{"user_id":677,"name":"Slick Lia","steam_id":76561198151569597,"connected_time":13548000000000,"state":"active","ping":142}]},{"server_id":106,"name":"Uncletopia | Chicago | 2 | All Maps","name_short":"chi-2","host":"chi-1.us.uncletopia.com","port":27025,"enabled":true,"region":"us-central","cc":"us","latitude":41.881832,"longitude":-87.62318,"reserved":0,"last_update":"0001-01-01T00:00:00Z","name_a2s":"Uncletopia | Chicago | 2 | All Maps","protocol":17,"map":"pl_borneo","folder":"tf","game":"Team Fortress","app_id":440,"player_count":24,"max_players":24,"Bots":0,"server_type":"Dedicated","server_os":"Linux","password":true,"vac":true,"version":"7757534","steam_id":85568392924469985,"keywords":["nocrits","nodmgspread","payload","uncletopia"],"game_id":440,"stv_port":27026,"stv_name":"Uncletopia | Chicago | 2 | All Maps | STV","players":[{"user_id":320,"name":"Stormz64","steam_id":76561198239036482,"connected_time":173000000000,"state":"active","ping":51},{"user_id":315,"name":"H4N-TYUM1","steam_id":76561198069387999,"connected_time":278000000000,"state":"active","ping":68},{"user_id":290,"name":"【Crime】","steam_id":76561198319631200,"connected_time":2648000000000,"state":"active","ping":102},{"user_id":316,"name":"Shichinitzi","steam_id":76561198003833732,"connected_time":277000000000,"state":"active","ping":54},{"user_id":237,"name":"BOT Positronic♥June (they/she","steam_id":76561198042556857,"connected_time":5362000000000,"state":"active","ping":53},{"user_id":314,"name":"CertainlyMe","steam_id":76561198039564401,"connected_time":301000000000,"state":"active","ping":63},{"user_id":317,"name":"Nyarlathotep owes me $20","steam_id":76561197991015780,"connected_time":246000000000,"state":"active","ping":62},{"user_id":331,"name":"Smittywerbenjager-manjenson","steam_id":76561198067060742,"connected_time":49000000000,"state":"active","ping":61},{"user_id":285,"name":"Cyber Cylon","steam_id":76561198048972781,"connected_time":2951000000000,"state":"active","ping":58},{"user_id":318,"name":"kametro4","steam_id":76561198835430429,"connected_time":222000000000,"state":"active","ping":108},{"user_id":234,"name":"Tallyden","steam_id":76561197998572962,"connected_time":5449000000000,"state":"active","ping":70},{"user_id":319,"name":"boppetson","steam_id":76561198073529045,"connected_time":216000000000,"state":"active","ping":53},{"user_id":269,"name":"chipmunk in a microwave","steam_id":76561198059535856,"connected_time":4338000000000,"state":"active","ping":76},{"user_id":329,"name":"lemonlmao69","steam_id":76561199016539523,"connected_time":63000000000,"state":"active","ping":240},{"user_id":321,"name":"xthyl","steam_id":76561199361299006,"connected_time":155000000000,"state":"active","ping":81},{"user_id":312,"name":"eloressa \u003c3","steam_id":76561198120330867,"connected_time":310000000000,"state":"active","ping":64},{"user_id":322,"name":"IKEA Meatballs","steam_id":76561198025012508,"connected_time":146000000000,"state":"active","ping":97},{"user_id":327,"name":"NightRising","steam_id":76561198419765321,"connected_time":105000000000,"state":"active","ping":85},{"user_id":286,"name":"luser","steam_id":76561199186893169,"connected_time":2944000000000,"state":"active","ping":77},{"user_id":185,"name":"Average Engineer Main","steam_id":76561197999657118,"connected_time":9964000000000,"state":"active","ping":85},{"user_id":324,"name":"Scita","steam_id":76561198066861559,"connected_time":133000000000,"state":"active","ping":72},{"user_id":272,"name":"Space⭐Taffy","steam_id":76561198002271720,"connected_time":4292000000000,"state":"active","ping":72},{"user_id":328,"name":"pablo","steam_id":76561198395577807,"connected_time":77000000000,"state":"active","ping":47},{"user_id":330,"name":"Josh","steam_id":76561198055691099,"connected_time":61000000000,"state":"active","ping":72}]},{"server_id":402,"name":"Uncletopia | Chicago | 3 | All Maps","name_short":"chi-3","host":"chi-1.us.uncletopia.com","port":27035,"enabled":true,"region":"us-central","cc":"us","latitude":41.881832,"longitude":-87.62318,"reserved":0,"last_update":"0001-01-01T00:00:00Z","name_a2s":"Uncletopia | Chicago | 3 | All Maps","protocol":17,"map":"pl_upward","folder":"tf","game":"Team Fortress","app_id":440,"player_count":24,"max_players":24,"Bots":0,"server_type":"Dedicated","server_os":"Linux","password":true,"vac":true,"version":"7757534","steam_id":85568392924515191,"keywords":["nocrits","nodmgspread","payload","uncletopia"],"game_id":440,"stv_port":27036,"stv_name":"Uncletopia | Chicago | 3 | All Maps | STV","players":[{"user_id":296,"name":"Mattron1","steam_id":76561198012270524,"connected_time":4730000000000,"state":"active","ping":78},{"user_id":349,"name":"garfield","steam_id":76561198114119308,"connected_time":493000000000,"state":"active","ping":62},{"user_id":324,"name":"Fake Uncle","steam_id":76561198880227689,"connected_time":2435000000000,"state":"active","ping":68},{"user_id":328,"name":"Bri0","steam_id":76561198022124744,"connected_time":2232000000000,"state":"active","ping":183},{"user_id":342,"name":"Sad_Pepe","steam_id":76561199014989291,"connected_time":885000000000,"state":"active","ping":61},{"user_id":343,"name":"Dispenser (Twan)","steam_id":76561197991064908,"connected_time":613000000000,"state":"active","ping":61},{"user_id":339,"name":"Rudy","steam_id":76561198013456828,"connected_time":1373000000000,"state":"active","ping":60},{"user_id":344,"name":"stilvert bean","steam_id":76561199122440208,"connected_time":605000000000,"state":"active","ping":80},{"user_id":327,"name":"weeb_whacker #Jenius","steam_id":76561198187098041,"connected_time":2258000000000,"state":"active","ping":55},{"user_id":300,"name":"the monkey's paw curls","steam_id":76561198039909187,"connected_time":4654000000000,"state":"active","ping":52},{"user_id":294,"name":"Christmas Ham","steam_id":76561198119601623,"connected_time":4760000000000,"state":"active","ping":142},{"user_id":335,"name":"Fatcat.win(false) ;","steam_id":76561198069007806,"connected_time":1791000000000,"state":"active","ping":59},{"user_id":289,"name":"Stretch","steam_id":76561198200856614,"connected_time":5268000000000,"state":"active","ping":72},{"user_id":338,"name":"ShitsandGiggles™","steam_id":76561198058708019,"connected_time":1513000000000,"state":"active","ping":57},{"user_id":353,"name":"duBstep","steam_id":76561198353928965,"connected_time":90000000000,"state":"active","ping":67},{"user_id":323,"name":"bobby peanstalk","steam_id":76561198040495463,"connected_time":2838000000000,"state":"active","ping":75},{"user_id":336,"name":"Meki","steam_id":76561198108279631,"connected_time":1657000000000,"state":"active","ping":171},{"user_id":310,"name":"Hairy Pear","steam_id":76561198087397457,"connected_time":4030000000000,"state":"active","ping":87},{"user_id":284,"name":"Deal yo","steam_id":76561198282395338,"connected_time":6531000000000,"state":"active","ping":68},{"user_id":347,"name":"girlboss","steam_id":76561197989019617,"connected_time":594000000000,"state":"active","ping":50},{"user_id":319,"name":"Ka Xin Yu","steam_id":76561198057116531,"connected_time":3028000000000,"state":"active","ping":60},{"user_id":326,"name":"reetarcher","steam_id":76561198038110320,"connected_time":2288000000000,"state":"active","ping":61},{"user_id":350,"name":"Oing Juice","steam_id":76561198160554016,"connected_time":436000000000,"state":"active","ping":66},{"user_id":352,"name":"the lesbianist pyroshark","steam_id":76561198374227766,"connected_time":136000000000,"state":"active","ping":77}]},{"server_id":403,"name":"Uncletopia | Chicago | 4 | All Maps","name_short":"chi-4","host":"chi-1.us.uncletopia.com","port":27045,"enabled":true,"region":"us-central","cc":"us","latitude":41.881832,"longitude":-87.62318,"reserved":0,"last_update":"0001-01-01T00:00:00Z","name_a2s":"Uncletopia | Chicago | 4 | All Maps","protocol":17,"map":"pl_borneo","folder":"tf","game":"Team Fortress","app_id":440,"player_count":23,"max_players":24,"Bots":0,"server_type":"Dedicated","server_os":"Linux","password":true,"vac":true,"version":"7757534","steam_id":85568392924515193,"keywords":["nocrits","nodmgspread","payload","uncletopia"],"game_id":440,"stv_port":27046,"stv_name":"Uncletopia | Chicago | 4 | All Maps | STV","players":[{"user_id":185,"name":"NeverEnoughMustard","steam_id":76561199375843696,"connected_time":7094000000000,"state":"active","ping":120},{"user_id":281,"name":"HavocGDI","steam_id":76561199388371914,"connected_time":1620000000000,"state":"active","ping":141},{"user_id":289,"name":"white ray","steam_id":76561198026664629,"connected_time":1112000000000,"state":"spawning","ping":130},{"user_id":295,"name":"honked off the bobo","steam_id":76561198123287268,"connected_time":654000000000,"state":"spawning","ping":264},{"user_id":294,"name":"Tusk","steam_id":76561199066977033,"connected_time":844000000000,"state":"active","ping":58},{"user_id":270,"name":"coal","steam_id":76561198027252280,"connected_time":2875000000000,"state":"spawning","ping":123},{"user_id":287,"name":"Feeshy","steam_id":76561198061103166,"connected_time":1542000000000,"state":"spawning","ping":181},{"user_id":292,"name":"skylerlaber811","steam_id":76561199013737900,"connected_time":1014000000000,"state":"active","ping":146},{"user_id":280,"name":"c00kie","steam_id":76561198418178297,"connected_time":1655000000000,"state":"active","ping":53},{"user_id":263,"name":"CarlWheezer","steam_id":76561199012771039,"connected_time":3057000000000,"state":"active","ping":147},{"user_id":284,"name":"Pennis the Menace","steam_id":76561198254878037,"connected_time":1590000000000,"state":"active","ping":75},{"user_id":242,"name":"Deep Blue Day","steam_id":76561197991910828,"connected_time":4589000000000,"state":"active","ping":110},{"user_id":300,"name":"TaterNoots","steam_id":76561198079513450,"connected_time":110000000000,"state":"active","ping":116},{"user_id":290,"name":"giant_dork","steam_id":76561199105606956,"connected_time":1054000000000,"state":"spawning","ping":64},{"user_id":293,"name":"HollowMan","steam_id":76561198967266827,"connected_time":1010000000000,"state":"active","ping":108},{"user_id":260,"name":"AJones97","steam_id":76561198028973438,"connected_time":3192000000000,"state":"spawning","ping":294},{"user_id":285,"name":"cooltool21","steam_id":76561197996817585,"connected_time":1579000000000,"state":"spawning","ping":147},{"user_id":299,"name":"Predicta","steam_id":76561198017630616,"connected_time":135000000000,"state":"spawning","ping":305},{"user_id":286,"name":"Decimus","steam_id":76561198341781527,"connected_time":1567000000000,"state":"active","ping":100},{"user_id":261,"name":"rudy","steam_id":76561198088712799,"connected_time":3124000000000,"state":"active","ping":253},{"user_id":298,"name":"Father Chungus","steam_id":76561198010370396,"connected_time":306000000000,"state":"spawning","ping":46},{"user_id":273,"name":"DeckofDragons","steam_id":76561198057398213,"connected_time":2812000000000,"state":"spawning","ping":77},{"user_id":276,"name":"Gamer9er","steam_id":76561198113637099,"connected_time":2139000000000,"state":"active","ping":358}]},{"server_id":36,"name":"Uncletopia | Chicago | 5 | All Maps","name_short":"chi-5","host":"chi-2.us.uncletopia.com","port":27015,"enabled":true,"region":"us-central","cc":"us","latitude":41.881832,"longitude":-87.62318,"reserved":0,"last_update":"0001-01-01T00:00:00Z","name_a2s":"Uncletopia | Chicago | 5 | All Maps","protocol":17,"map":"pl_borneo","folder":"tf","game":"Team Fortress","app_id":440,"player_count":24,"max_players":24,"Bots":0,"server_type":"Dedicated","server_os":"Linux","password":true,"vac":true,"version":"7757534","steam_id":85568392924866362,"keywords":["nocrits","nodmgspread","payload","uncletopia"],"game_id":440,"stv_port":27016,"stv_name":"Uncletopia | Chicago | 5 | All Maps | STV","players":[{"user_id":279,"name":"Nickolai9","steam_id":76561198035759401,"connected_time":10213000000000,"state":"active","ping":63},{"user_id":341,"name":"fuckterry","steam_id":76561198271957738,"connected_time":4528000000000,"state":"active","ping":64},{"user_id":369,"name":"Saristan","steam_id":76561198093346048,"connected_time":1908000000000,"state":"active","ping":60},{"user_id":363,"name":"CeigeBirb","steam_id":76561198068538473,"connected_time":2488000000000,"state":"active","ping":75},{"user_id":377,"name":"the real big sips","steam_id":76561197999945358,"connected_time":720000000000,"state":"active","ping":67},{"user_id":375,"name":"Incredible Donk","steam_id":76561198427360423,"connected_time":802000000000,"state":"active","ping":94},{"user_id":372,"name":"bl8demast3r","steam_id":76561198006308462,"connected_time":1570000000000,"state":"active","ping":77},{"user_id":371,"name":"Carson","steam_id":76561198076771071,"connected_time":1578000000000,"state":"active","ping":43},{"user_id":204,"name":"Mxple.","steam_id":76561199165140868,"connected_time":14233000000000,"state":"active","ping":171},{"user_id":376,"name":"jan kili","steam_id":76561198289894834,"connected_time":740000000000,"state":"active","ping":74},{"user_id":373,"name":"Alucardo","steam_id":76561198320866421,"connected_time":1154000000000,"state":"active","ping":73},{"user_id":192,"name":"puppyonline_","steam_id":76561198253574099,"connected_time":14585000000000,"state":"active","ping":56},{"user_id":383,"name":"mcdoubble","steam_id":76561198089126832,"connected_time":343000000000,"state":"active","ping":87},{"user_id":379,"name":"soup","steam_id":76561198099977572,"connected_time":685000000000,"state":"active","ping":59},{"user_id":382,"name":"tyg","steam_id":76561198056246867,"connected_time":459000000000,"state":"active","ping":75},{"user_id":362,"name":"KrumpJuice1","steam_id":76561199230883553,"connected_time":2819000000000,"state":"active","ping":234},{"user_id":364,"name":"Coober","steam_id":76561199138880533,"connected_time":2475000000000,"state":"active","ping":71},{"user_id":380,"name":"Ragnoratsu","steam_id":76561198189688723,"connected_time":674000000000,"state":"active","ping":47},{"user_id":365,"name":"minecraft","steam_id":76561198023595873,"connected_time":2457000000000,"state":"active","ping":87},{"user_id":346,"name":"A Zoo Keeper","steam_id":76561198013732450,"connected_time":4173000000000,"state":"active","ping":59},{"user_id":357,"name":"The Jar","steam_id":76561198146013385,"connected_time":3422000000000,"state":"active","ping":81},{"user_id":381,"name":"yooooooo","steam_id":76561198989240788,"connected_time":610000000000,"state":"active","ping":90},{"user_id":367,"name":"Vivi","steam_id":76561198132698345,"connected_time":2447000000000,"state":"active","ping":56},{"user_id":349,"name":"BearAteMahoney","steam_id":76561198020439356,"connected_time":3883000000000,"state":"active","ping":65}]},{"server_id":37,"name":"Uncletopia | Chicago | 6 | All Maps","name_short":"chi-6","host":"chi-2.us.uncletopia.com","port":27025,"enabled":true,"region":"us-central","cc":"us","latitude":41.881832,"longitude":-87.62318,"reserved":0,"last_update":"0001-01-01T00:00:00Z","name_a2s":"Uncletopia | Chicago | 6 | All Maps","protocol":17,"map":"cp_snakewater_final1","folder":"tf","game":"Team Fortress","app_id":440,"player_count":14,"max_players":24,"Bots":0,"server_type":"Dedicated","server_os":"Linux","password":true,"vac":true,"version":"7757534","steam_id":85568392924866363,"keywords":["cp","nocrits","nodmgspread","uncletopia"],"game_id":440,"stv_port":27026,"stv_name":"Uncletopia | Chicago | 6 | All Maps | STV","players":[{"user_id":225,"name":"GC.JitKilla","steam_id":76561198053967778,"connected_time":35000000000,"state":"active","ping":59},{"user_id":104,"name":"p i n e ↟ ↟","steam_id":76561198058199952,"connected_time":8238000000000,"state":"active","ping":71},{"user_id":184,"name":"Ry","steam_id":76561198325802137,"connected_time":3770000000000,"state":"active","ping":70},{"user_id":222,"name":"Fluff","steam_id":76561198255399052,"connected_time":261000000000,"state":"active","ping":59},{"user_id":223,"name":"Arbys Master","steam_id":76561198799698323,"connected_time":217000000000,"state":"active","ping":104},{"user_id":224,"name":"AwesomeDavid702","steam_id":76561198880336261,"connected_time":118000000000,"state":"active","ping":94},{"user_id":216,"name":"nastypass","steam_id":76561198002601054,"connected_time":451000000000,"state":"active","ping":60},{"user_id":211,"name":"Javi","steam_id":76561198081407483,"connected_time":1760000000000,"state":"active","ping":79},{"user_id":92,"name":"radiohead enjoyer","steam_id":76561198397662124,"connected_time":9343000000000,"state":"active","ping":99},{"user_id":174,"name":"Sprucelass","steam_id":76561197998391724,"connected_time":4147000000000,"state":"active","ping":56},{"user_id":189,"name":"johnand1214","steam_id":76561199376334629,"connected_time":3710000000000,"state":"active","ping":60},{"user_id":190,"name":"b4rry","steam_id":76561198365887154,"connected_time":3698000000000,"state":"active","ping":66},{"user_id":207,"name":"chicken joe from surfs up 2","steam_id":76561198060807152,"connected_time":2077000000000,"state":"active","ping":67},{"user_id":209,"name":"Oifey","steam_id":76561198073474038,"connected_time":2014000000000,"state":"active","ping":56}]},{"server_id":38,"name":"Uncletopia | Chicago | 7 | Stopwatch Beta","name_short":"chi-7","host":"chi-2.us.uncletopia.com","port":27035,"enabled":true,"region":"us-central","cc":"us","latitude":41.881832,"longitude":-87.62318,"reserved":0,"last_update":"0001-01-01T00:00:00Z","name_a2s":"Uncletopia | Chicago | 7 | Stopwatch Beta","protocol":17,"map":"pl_upward","folder":"tf","game":"Team Fortress","app_id":440,"player_count":0,"max_players":24,"Bots":0,"server_type":"Dedicated","server_os":"Linux","password":true,"vac":true,"version":"7757534","steam_id":85568392924866364,"keywords":["nocrits","nodmgspread","payload","uncletopia"],"game_id":440,"stv_port":27036,"stv_name":"Uncletopia | Chicago | 7 | Stopwatch Beta | STV","players":null},{"server_id":39,"name":"Uncletopia | Chicago | 8 | Community","name_short":"chi-8","host":"chi-2.us.uncletopia.com","port":27045,"enabled":true,"region":"us-central","cc":"us","latitude":41.881832,"longitude":-87.62318,"reserved":0,"last_update":"0001-01-01T00:00:00Z","name_a2s":"Uncletopia | Chicago | 8 | Community","protocol":17,"map":"workshop/pl_fifthcurve_rc1.ugc648227046","folder":"tf","game":"Team Fortress","app_id":440,"player_count":0,"max_players":24,"Bots":0,"server_type":"Dedicated","server_os":"Linux","password":true,"vac":true,"version":"7757534","steam_id":85568392924866365,"keywords":["nocrits","nodmgspread","payload","uncletopia"],"game_id":440,"stv_port":27046,"stv_name":"Uncletopia | Chicago | 8 | Community | STV","players":null},{"server_id":8,"name":"Uncletopia | Dallas | 1 | All Maps","name_short":"dal-1","host":"dal-1.us.uncletopia.com","port":27015,"enabled":true,"region":"us-central","cc":"us","latitude":32.779167,"longitude":-96.80889,"reserved":0,"last_update":"0001-01-01T00:00:00Z","name_a2s":"Uncletopia | Dallas | 1 | All Maps","protocol":17,"map":"cp_dustbowl","folder":"tf","game":"Team Fortress","app_id":440,"player_count":24,"max_players":24,"Bots":0,"server_type":"Dedicated","server_os":"Linux","password":true,"vac":true,"version":"7757534","steam_id":85568392924469986,"keywords":["cp","nocrits","nodmgspread","uncletopia"],"game_id":440,"stv_port":27016,"stv_name":"Uncletopia | Dallas | 1 | All Maps | STV","players":[{"user_id":463,"name":"Mr Long Eyes","steam_id":76561198146221450,"connected_time":2412000000000,"state":"active","ping":95},{"user_id":487,"name":"The cringefest","steam_id":76561198840872782,"connected_time":511000000000,"state":"active","ping":90},{"user_id":456,"name":"FluttyPutty","steam_id":76561198218446556,"connected_time":2712000000000,"state":"active","ping":71},{"user_id":467,"name":"Daydream","steam_id":76561198059341917,"connected_time":2330000000000,"state":"active","ping":71},{"user_id":476,"name":"namey","steam_id":76561198018564445,"connected_time":2127000000000,"state":"active","ping":60},{"user_id":439,"name":"bb.rrr","steam_id":76561198339644583,"connected_time":4797000000000,"state":"active","ping":74},{"user_id":488,"name":"Tingus Pingus","steam_id":76561198155412348,"connected_time":249000000000,"state":"active","ping":74},{"user_id":454,"name":"NBA Youngboy","steam_id":76561199118797200,"connected_time":3284000000000,"state":"active","ping":48},{"user_id":484,"name":"Ballista","steam_id":76561197983182562,"connected_time":695000000000,"state":"active","ping":54},{"user_id":461,"name":"BurR","steam_id":76561198055431367,"connected_time":2427000000000,"state":"active","ping":79},{"user_id":477,"name":"Jumpin over your head","steam_id":76561198140517330,"connected_time":2111000000000,"state":"active","ping":80},{"user_id":473,"name":"Flying rat","steam_id":76561198891152046,"connected_time":2182000000000,"state":"active","ping":99},{"user_id":483,"name":"Esnuper","steam_id":76561198049737604,"connected_time":1349000000000,"state":"active","ping":84},{"user_id":478,"name":"Lemon Demon Enthusiast","steam_id":76561199026721822,"connected_time":2101000000000,"state":"active","ping":93},{"user_id":470,"name":"WeArMature","steam_id":76561198046116420,"connected_time":2196000000000,"state":"active","ping":178},{"user_id":471,"name":"Propaniac Gaming ☑","steam_id":76561198133963270,"connected_time":2193000000000,"state":"active","ping":58},{"user_id":311,"name":"Moonflower ✦","steam_id":76561198191782483,"connected_time":13850000000000,"state":"active","ping":50},{"user_id":427,"name":"Squish #1","steam_id":76561198087713516,"connected_time":5893000000000,"state":"active","ping":69},{"user_id":345,"name":"Protassium","steam_id":76561198084092694,"connected_time":11539000000000,"state":"active","ping":49},{"user_id":472,"name":"Colepie","steam_id":76561198037853211,"connected_time":2185000000000,"state":"active","ping":52},{"user_id":479,"name":"Gian","steam_id":76561198041434512,"connected_time":2100000000000,"state":"active","ping":109},{"user_id":480,"name":"AssClappicus","steam_id":76561198917309036,"connected_time":2090000000000,"state":"active","ping":86},{"user_id":481,"name":"My dad owns Club Penguin.","steam_id":76561198032864436,"connected_time":2078000000000,"state":"active","ping":93},{"user_id":482,"name":"sexyvillain","steam_id":76561198083127707,"connected_time":2071000000000,"state":"active","ping":53}]},{"server_id":108,"name":"Uncletopia | Dallas | 2 | All Maps","name_short":"dal-2","host":"dal-1.us.uncletopia.com","port":27025,"enabled":true,"region":"us-central","cc":"us","latitude":32.779167,"longitude":-96.80889,"reserved":0,"last_update":"0001-01-01T00:00:00Z","name_a2s":"Uncletopia | Dallas | 2 | All Maps","protocol":17,"map":"pl_frontier_final","folder":"tf","game":"Team Fortress","app_id":440,"player_count":24,"max_players":24,"Bots":0,"server_type":"Dedicated","server_os":"Linux","password":true,"vac":true,"version":"7757534","steam_id":85568392924469988,"keywords":["nocrits","nodmgspread","payload","uncletopia"],"game_id":440,"stv_port":27026,"stv_name":"Uncletopia | Dallas | 2 | All Maps | STV","players":[{"user_id":217,"name":"heiny :3","steam_id":76561197992551013,"connected_time":354000000000,"state":"active","ping":56},{"user_id":211,"name":"inzang","steam_id":76561198088318074,"connected_time":627000000000,"state":"active","ping":56},{"user_id":218,"name":"the heavy","steam_id":76561198101203842,"connected_time":205000000000,"state":"active","ping":56},{"user_id":157,"name":"Coosnut","steam_id":76561198061106216,"connected_time":5743000000000,"state":"active","ping":56},{"user_id":213,"name":"Doom Guy","steam_id":76561198035863569,"connected_time":560000000000,"state":"active","ping":85},{"user_id":195,"name":"dan","steam_id":76561197984998426,"connected_time":2062000000000,"state":"active","ping":103},{"user_id":212,"name":"MeMyBongusAndTheGreatOutdoors","steam_id":76561198097708978,"connected_time":626000000000,"state":"active","ping":51},{"user_id":196,"name":"Sammich","steam_id":76561198010543087,"connected_time":2022000000000,"state":"active","ping":72},{"user_id":151,"name":"xZackAttack27x","steam_id":76561198035446639,"connected_time":6382000000000,"state":"active","ping":42},{"user_id":191,"name":"plink","steam_id":76561198057829889,"connected_time":2223000000000,"state":"active","ping":112},{"user_id":197,"name":"CakeCadaver","steam_id":76561198080388883,"connected_time":2017000000000,"state":"active","ping":97},{"user_id":188,"name":"orange rind (eating bagels)","steam_id":76561198130242461,"connected_time":2823000000000,"state":"active","ping":58},{"user_id":207,"name":"Nipple Salads","steam_id":76561198358757709,"connected_time":1489000000000,"state":"active","ping":98},{"user_id":199,"name":"♡clubs♡","steam_id":76561198138087644,"connected_time":1978000000000,"state":"active","ping":76},{"user_id":208,"name":"half-eaten burnt marshmallow","steam_id":76561198355992431,"connected_time":1154000000000,"state":"active","ping":102},{"user_id":214,"name":"CreativeUsername","steam_id":76561198186045503,"connected_time":545000000000,"state":"active","ping":76},{"user_id":210,"name":"NOT Susie Deltarune (not real)","steam_id":76561199007365488,"connected_time":634000000000,"state":"active","ping":70},{"user_id":204,"name":"Killerkarate","steam_id":76561198067533929,"connected_time":1658000000000,"state":"active","ping":81},{"user_id":205,"name":"conscripted monk","steam_id":76561199029246232,"connected_time":1642000000000,"state":"active","ping":48},{"user_id":192,"name":"Tribute","steam_id":76561198081594043,"connected_time":2218000000000,"state":"active","ping":63},{"user_id":216,"name":"JJDrowsy","steam_id":76561198274501963,"connected_time":370000000000,"state":"active","ping":83},{"user_id":169,"name":"derdds","steam_id":76561198034339940,"connected_time":4654000000000,"state":"active","ping":85},{"user_id":134,"name":"Young-OG","steam_id":76561198058800479,"connected_time":7797000000000,"state":"active","ping":87},{"user_id":215,"name":"cosmology","steam_id":76561198038291026,"connected_time":487000000000,"state":"active","ping":41}]},{"server_id":5,"name":"Uncletopia | Frankfurt | 1 | All Maps","name_short":"frk-1","host":"frk-1.de.uncletopia.com","port":27015,"enabled":true,"region":"eu","cc":"de","latitude":50.110924,"longitude":8.682127,"reserved":0,"last_update":"0001-01-01T00:00:00Z","name_a2s":"Uncletopia | Frankfurt | 1 | All Maps","protocol":17,"map":"pl_upward","folder":"tf","game":"Team Fortress","app_id":440,"player_count":0,"max_players":24,"Bots":0,"server_type":"Dedicated","server_os":"Linux","password":true,"vac":true,"version":"7757534","steam_id":85568392924469989,"keywords":["nocrits","nodmgspread","payload","uncletopia"],"game_id":440,"stv_port":27016,"stv_name":"Uncletopia | Frankfurt | 1 | All Maps | STV","players":null},{"server_id":110,"name":"Uncletopia | Frankfurt | 2 | All Maps","name_short":"frk-2","host":"frk-1.de.uncletopia.com","port":27025,"enabled":true,"region":"eu","cc":"de","latitude":50.110924,"longitude":8.682127,"reserved":0,"last_update":"0001-01-01T00:00:00Z","name_a2s":"Uncletopia | Frankfurt | 2 | All Maps","protocol":17,"map":"koth_cascade","folder":"tf","game":"Team Fortress","app_id":440,"player_count":0,"max_players":24,"Bots":0,"server_type":"Dedicated","server_os":"Linux","password":true,"vac":true,"version":"7757534","steam_id":85568392924469990,"keywords":["cp","nocrits","nodmgspread","uncletopia"],"game_id":440,"stv_port":27026,"stv_name":"Uncletopia | Frankfurt | 2 | All Maps | STV","players":null},{"server_id":308,"name":"Uncletopia | Frankfurt | 3 | All Maps","name_short":"frk-3","host":"frk-1.de.uncletopia.com","port":27035,"enabled":true,"region":"eu","cc":"de","latitude":50.110924,"longitude":8.682127,"reserved":0,"last_update":"0001-01-01T00:00:00Z","name_a2s":"Uncletopia | Frankfurt | 3 | All Maps","protocol":17,"map":"koth_cascade","folder":"tf","game":"Team Fortress","app_id":440,"player_count":0,"max_players":24,"Bots":0,"server_type":"Dedicated","server_os":"Linux","password":true,"vac":true,"version":"7757534","steam_id":85568392924504274,"keywords":["cp","nocrits","nodmgspread","uncletopia"],"game_id":440,"stv_port":27036,"stv_name":"Uncletopia | Frankfurt | 3 | All Maps | STV","players":null},{"server_id":309,"name":"Uncletopia | Frankfurt | 4 | All Maps","name_short":"frk-4","host":"frk-1.de.uncletopia.com","port":27045,"enabled":true,"region":"eu","cc":"de","latitude":50.110924,"longitude":8.682127,"reserved":0,"last_update":"0001-01-01T00:00:00Z","name_a2s":"Uncletopia | Frankfurt | 4 | All Maps","protocol":17,"map":"koth_highpass","folder":"tf","game":"Team Fortress","app_id":440,"player_count":2,"max_players":24,"Bots":0,"server_type":"Dedicated","server_os":"Linux","password":true,"vac":true,"version":"7757534","steam_id":85568392924504275,"keywords":["cp","nocrits","nodmgspread","uncletopia"],"game_id":440,"stv_port":27046,"stv_name":"Uncletopia | Frankfurt | 4 | All Maps | STV","players":[{"user_id":692,"name":"My hands are so cold","steam_id":76561198042502842,"connected_time":765000000000,"state":"active","ping":69},{"user_id":686,"name":"r0la","steam_id":76561198128315340,"connected_time":1828000000000,"state":"active","ping":76}]},{"server_id":310,"name":"Uncletopia | Frankfurt | 5 | All Maps","name_short":"frk-5","host":"frk-1.de.uncletopia.com","port":27055,"enabled":true,"region":"eu","cc":"de","latitude":50.110924,"longitude":8.682127,"reserved":0,"last_update":"0001-01-01T00:00:00Z","name_a2s":"Uncletopia | Frankfurt | 5 | All Maps","protocol":17,"map":"cp_snakewater_final1","folder":"tf","game":"Team Fortress","app_id":440,"player_count":0,"max_players":24,"Bots":0,"server_type":"Dedicated","server_os":"Linux","password":true,"vac":true,"version":"7757534","steam_id":85568392924504277,"keywords":["cp","nocrits","nodmgspread","uncletopia"],"game_id":440,"stv_port":27056,"stv_name":"Uncletopia | Frankfurt | 5 | All Maps | STV","players":null},{"server_id":311,"name":"Uncletopia | Frankfurt | 6 | All Maps","name_short":"frk-6","host":"frk-1.de.uncletopia.com","port":27065,"enabled":true,"region":"eu","cc":"de","latitude":50.110924,"longitude":8.682127,"reserved":0,"last_update":"0001-01-01T00:00:00Z","name_a2s":"Uncletopia | Frankfurt | 6 | All Maps","protocol":17,"map":"cp_dustbowl","folder":"tf","game":"Team Fortress","app_id":440,"player_count":0,"max_players":24,"Bots":0,"server_type":"Dedicated","server_os":"Linux","password":true,"vac":true,"version":"7757534","steam_id":85568392924504278,"keywords":["cp","nocrits","nodmgspread","uncletopia"],"game_id":440,"stv_port":27066,"stv_name":"Uncletopia | Frankfurt | 6 | All Maps | STV","players":null},{"server_id":23,"name":"Uncletopia | Frankfurt | 7 | Stopwatch Beta","name_short":"frk-7","host":"frk-1.de.uncletopia.com","port":27075,"enabled":true,"region":"eu","cc":"de","latitude":50.110924,"longitude":8.682127,"reserved":0,"last_update":"0001-01-01T00:00:00Z","name_a2s":"Uncletopia | Frankfurt | 7 | Stopwatch Beta","protocol":17,"map":"pl_frontier_final","folder":"tf","game":"Team Fortress","app_id":440,"player_count":0,"max_players":24,"Bots":0,"server_type":"Dedicated","server_os":"Linux","password":true,"vac":true,"version":"7757534","steam_id":85568392924742827,"keywords":["nocrits","nodmgspread","payload","uncletopia"],"game_id":440,"stv_port":27076,"stv_name":"Uncletopia | Frankfurt | 7 | Stopwatch Beta | STV","players":null},{"server_id":24,"name":"Uncletopia | Frankfurt | 8 | Community","name_short":"frk-8","host":"frk-1.de.uncletopia.com","port":27085,"enabled":true,"region":"eu","cc":"de","latitude":50.110924,"longitude":8.682127,"reserved":0,"last_update":"0001-01-01T00:00:00Z","name_a2s":"Uncletopia | Frankfurt | 8 | Community","protocol":17,"map":"workshop/koth_product_final.ugc454272353","folder":"tf","game":"Team Fortress","app_id":440,"player_count":0,"max_players":24,"Bots":0,"server_type":"Dedicated","server_os":"Linux","password":true,"vac":true,"version":"7757534","steam_id":85568392924742828,"keywords":["cp","nocrits","nodmgspread","uncletopia"],"game_id":440,"stv_port":27086,"stv_name":"Uncletopia | Frankfurt | 8 | Community | STV","players":null},{"server_id":202,"name":"Uncletopia | Hong Kong | 1 | All Maps","name_short":"hgk-1","host":"hgk-1.hk.uncletopia.com","port":27015,"enabled":true,"region":"asia","cc":"hk","latitude":22.302711,"longitude":114.177216,"reserved":0,"last_update":"0001-01-01T00:00:00Z","name_a2s":"Uncletopia | Hong Kong | 1 | All Maps","protocol":17,"map":"cp_sunshine","folder":"tf","game":"Team Fortress","app_id":440,"player_count":3,"max_players":24,"Bots":0,"server_type":"Dedicated","server_os":"Linux","password":true,"vac":true,"version":"7757534","steam_id":85568392924494504,"keywords":["cp","nocrits","nodmgspread","uncletopia"],"game_id":440,"stv_port":27016,"stv_name":"Uncletopia | Hong Kong | 1 | All Maps | STV","players":[{"user_id":13,"name":"bravo","steam_id":76561199081419313,"connected_time":253000000000,"state":"active","ping":68},{"user_id":14,"name":"善良の墨","steam_id":76561199102754539,"connected_time":83000000000,"state":"active","ping":89},{"user_id":15,"name":"vutueminh888","steam_id":76561199383966662,"connected_time":53000000000,"state":"active","ping":82}]},{"server_id":1,"name":"Uncletopia | Los Angeles | 1 | All Maps","name_short":"lax-1","host":"lax-1.us.uncletopia.com","port":27015,"enabled":true,"region":"us-west","cc":"us","latitude":33.94279,"longitude":-118.41004,"reserved":0,"last_update":"0001-01-01T00:00:00Z","name_a2s":"Uncletopia | Los Angeles | 1 | All Maps","protocol":17,"map":"pl_frontier_final","folder":"tf","game":"Team Fortress","app_id":440,"player_count":24,"max_players":24,"Bots":0,"server_type":"Dedicated","server_os":"Linux","password":true,"vac":true,"version":"7757534","steam_id":85568392924469991,"keywords":["nocrits","nodmgspread","payload","uncletopia"],"game_id":440,"stv_port":27016,"stv_name":"Uncletopia | Los Angeles | 1 | All Maps | STV","players":[{"user_id":372,"name":"Bond","steam_id":76561198089262776,"connected_time":207000000000,"state":"active","ping":82},{"user_id":346,"name":"Arial Malice","steam_id":76561198217217396,"connected_time":1749000000000,"state":"active","ping":62},{"user_id":365,"name":"Riske","steam_id":76561198115840568,"connected_time":442000000000,"state":"active","ping":123},{"user_id":373,"name":"tie dye die guy","steam_id":76561198049845337,"connected_time":164000000000,"state":"active","ping":71},{"user_id":361,"name":"kritz enabler","steam_id":76561198068672882,"connected_time":519000000000,"state":"active","ping":55},{"user_id":319,"name":"Krazy","steam_id":76561198835502709,"connected_time":3860000000000,"state":"active","ping":41},{"user_id":374,"name":"Stoopnagle","steam_id":76561198011942560,"connected_time":128000000000,"state":"active","ping":76},{"user_id":331,"name":"HeroOfTime","steam_id":76561199096218001,"connected_time":2959000000000,"state":"active","ping":53},{"user_id":366,"name":"KnockOutClock","steam_id":76561199436877307,"connected_time":412000000000,"state":"active","ping":62},{"user_id":282,"name":"❤ Ashley ❤","steam_id":76561198056428303,"connected_time":5411000000000,"state":"active","ping":45},{"user_id":367,"name":"evil jesus 05","steam_id":76561198419315893,"connected_time":394000000000,"state":"active","ping":65},{"user_id":359,"name":"kritz enjoyer","steam_id":76561197979056451,"connected_time":636000000000,"state":"active","ping":76},{"user_id":368,"name":"i am clinically insane","steam_id":76561199013323529,"connected_time":363000000000,"state":"active","ping":63},{"user_id":375,"name":"dj casey ₉⁹₉","steam_id":76561198042641249,"connected_time":115000000000,"state":"active","ping":40},{"user_id":369,"name":"MR. MODE","steam_id":76561198046775352,"connected_time":360000000000,"state":"active","ping":50},{"user_id":363,"name":"hoopswoop9","steam_id":76561199203050556,"connected_time":463000000000,"state":"active","ping":59},{"user_id":362,"name":"Schnitz","steam_id":76561198265484253,"connected_time":474000000000,"state":"active","ping":54},{"user_id":310,"name":"SparklePawz ♥","steam_id":76561198093703065,"connected_time":4296000000000,"state":"active","ping":169},{"user_id":370,"name":"Smoeker","steam_id":76561198166723053,"connected_time":293000000000,"state":"active","ping":140},{"user_id":357,"name":"Snugboo","steam_id":76561198147970327,"connected_time":1154000000000,"state":"active","ping":104},{"user_id":316,"name":"engi","steam_id":76561199193020423,"connected_time":4165000000000,"state":"active","ping":56},{"user_id":352,"name":"BBL Sponsor","steam_id":76561199093733603,"connected_time":1349000000000,"state":"active","ping":57},{"user_id":371,"name":"Uprightmoss7528","steam_id":76561199200138486,"connected_time":250000000000,"state":"active","ping":58},{"user_id":345,"name":"xs","steam_id":76561198106938500,"connected_time":1830000000000,"state":"active","ping":52}]},{"server_id":112,"name":"Uncletopia | Los Angeles | 2 | All Maps","name_short":"lax-2","host":"lax-1.us.uncletopia.com","port":27025,"enabled":true,"region":"us-west","cc":"us","latitude":33.94279,"longitude":-118.41004,"reserved":0,"last_update":"0001-01-01T00:00:00Z","name_a2s":"Uncletopia | Los Angeles | 2 | All Maps","protocol":17,"map":"cp_altitude","folder":"tf","game":"Team Fortress","app_id":440,"player_count":6,"max_players":24,"Bots":0,"server_type":"Dedicated","server_os":"Linux","password":true,"vac":true,"version":"7757534","steam_id":85568392924469992,"keywords":["cp","nocrits","nodmgspread","uncletopia"],"game_id":440,"stv_port":27026,"stv_name":"Uncletopia | Los Angeles | 2 | All Maps | STV","players":[{"user_id":251,"name":"squid","steam_id":76561198070236972,"connected_time":424000000000,"state":"active","ping":48},{"user_id":252,"name":"Biggles","steam_id":76561198126576389,"connected_time":419000000000,"state":"active","ping":103},{"user_id":254,"name":"Bada Bingus","steam_id":76561198046743307,"connected_time":276000000000,"state":"active","ping":120},{"user_id":250,"name":"Barnie Sandlers","steam_id":76561198153295482,"connected_time":437000000000,"state":"active","ping":32},{"user_id":253,"name":"NagitoTheLucky","steam_id":76561198065096327,"connected_time":399000000000,"state":"active","ping":59},{"user_id":235,"name":"flamboyant homosexual man","steam_id":76561199122470341,"connected_time":1254000000000,"state":"active","ping":41}]},{"server_id":324,"name":"Uncletopia | Los Angeles | 3 | All Maps","name_short":"lax-3","host":"lax-1.us.uncletopia.com","port":27035,"enabled":true,"region":"us-west","cc":"us","latitude":33.94279,"longitude":-118.41004,"reserved":0,"last_update":"0001-01-01T00:00:00Z","name_a2s":"Uncletopia | Los Angeles | 3 | All Maps","protocol":17,"map":"cp_mountainlab","folder":"tf","game":"Team Fortress","app_id":440,"player_count":23,"max_players":24,"Bots":0,"server_type":"Dedicated","server_os":"Linux","password":true,"vac":true,"version":"7757534","steam_id":85568392924510198,"keywords":["cp","nocrits","nodmgspread","uncletopia"],"game_id":440,"stv_port":27036,"stv_name":"Uncletopia | Los Angeles | 3 | All Maps | STV","players":[{"user_id":41,"name":"bean drinker","steam_id":76561198044004639,"connected_time":2579000000000,"state":"active","ping":78},{"user_id":87,"name":"YOU RULE!!!","steam_id":76561198251164340,"connected_time":845000000000,"state":"active","ping":98},{"user_id":71,"name":"Just a little bit blue?","steam_id":76561199113013688,"connected_time":1288000000000,"state":"active","ping":53},{"user_id":72,"name":"Medic","steam_id":76561198023443251,"connected_time":1240000000000,"state":"active","ping":131},{"user_id":83,"name":"Scampy","steam_id":76561198001506924,"connected_time":1051000000000,"state":"active","ping":88},{"user_id":106,"name":"Conrad Murray","steam_id":76561198141682876,"connected_time":168000000000,"state":"active","ping":102},{"user_id":107,"name":"Kopenich","steam_id":76561198066205245,"connected_time":152000000000,"state":"active","ping":44},{"user_id":108,"name":"Peri","steam_id":76561198255311543,"connected_time":80000000000,"state":"active","ping":119},{"user_id":49,"name":"werolat","steam_id":76561197960544784,"connected_time":2007000000000,"state":"active","ping":54},{"user_id":50,"name":"Loafus","steam_id":76561198154561111,"connected_time":2007000000000,"state":"active","ping":119},{"user_id":75,"name":"Jailbreak","steam_id":76561198802085218,"connected_time":1173000000000,"state":"active","ping":86},{"user_id":76,"name":"cheeto dealer","steam_id":76561199243489976,"connected_time":1138000000000,"state":"active","ping":130},{"user_id":59,"name":"Lucille II","steam_id":76561198138543746,"connected_time":1601000000000,"state":"active","ping":136},{"user_id":77,"name":"StormRage","steam_id":76561199435079308,"connected_time":1138000000000,"state":"active","ping":181},{"user_id":56,"name":"Loudmouthed Fool","steam_id":76561198202018494,"connected_time":1677000000000,"state":"active","ping":49},{"user_id":60,"name":"praveus","steam_id":76561199227557263,"connected_time":1558000000000,"state":"active","ping":116},{"user_id":78,"name":"OBS","steam_id":76561199226941302,"connected_time":1117000000000,"state":"active","ping":87},{"user_id":102,"name":"hoOmIN","steam_id":76561198334947079,"connected_time":463000000000,"state":"active","ping":43},{"user_id":88,"name":"HaruhiSuzumiyaFan2007","steam_id":76561198799269836,"connected_time":779000000000,"state":"active","ping":56},{"user_id":85,"name":"Marz","steam_id":76561198799364911,"connected_time":920000000000,"state":"active","ping":56},{"user_id":91,"name":"Heavy","steam_id":76561198437794740,"connected_time":651000000000,"state":"active","ping":65},{"user_id":66,"name":"derek vinyard","steam_id":76561199156491041,"connected_time":1395000000000,"state":"active","ping":135},{"user_id":68,"name":"Goobers","steam_id":76561198106176755,"connected_time":1379000000000,"state":"active","ping":100}]},{"server_id":25,"name":"Uncletopia | Los Angeles | 4 | Stopwatch Beta","name_short":"lax-4","host":"lax-1.us.uncletopia.com","port":27045,"enabled":true,"region":"us-west","cc":"us","latitude":33.94279,"longitude":-118.41004,"reserved":0,"last_update":"0001-01-01T00:00:00Z","name_a2s":"Uncletopia | Los Angeles | 4 | Stopwatch Beta","protocol":17,"map":"pl_frontier_final","folder":"tf","game":"Team Fortress","app_id":440,"player_count":0,"max_players":24,"Bots":0,"server_type":"Dedicated","server_os":"Linux","password":true,"vac":true,"version":"7757534","steam_id":85568392924510199,"keywords":["nocrits","nodmgspread","payload","uncletopia"],"game_id":440,"stv_port":27046,"stv_name":"Uncletopia | Los Angeles | 4 | Stopwatch Beta | STV","players":null},{"server_id":11,"name":"Uncletopia | London | 1 | All Maps","name_short":"lon-1","host":"lon-1.uk.uncletopia.com","port":27015,"enabled":true,"region":"eu","cc":"gb","latitude":51.509865,"longitude":-0.118092,"reserved":0,"last_update":"0001-01-01T00:00:00Z","name_a2s":"Uncletopia | London | 1 | All Maps","protocol":17,"map":"pl_snowycoast","folder":"tf","game":"Team Fortress","app_id":440,"player_count":24,"max_players":24,"Bots":0,"server_type":"Dedicated","server_os":"Linux","password":true,"vac":true,"version":"7757534","steam_id":85568392924367362,"keywords":["nocrits","nodmgspread","payload","uncletopia"],"game_id":440,"stv_port":27016,"stv_name":"Uncletopia | London | 1 | All Maps | STV","players":[{"user_id":492,"name":"Donny","steam_id":76561198257836694,"connected_time":7232000000000,"state":"active","ping":37},{"user_id":567,"name":"MS","steam_id":76561198037560108,"connected_time":499000000000,"state":"active","ping":45},{"user_id":554,"name":"KittyKate ❤","steam_id":76561198116340817,"connected_time":1437000000000,"state":"active","ping":62},{"user_id":536,"name":"Rank 1 Gourmand World","steam_id":76561197970114051,"connected_time":3118000000000,"state":"active","ping":44},{"user_id":556,"name":"BuzzBees ❤","steam_id":76561198101502273,"connected_time":1374000000000,"state":"active","ping":47},{"user_id":514,"name":"cinny","steam_id":76561198832112629,"connected_time":5175000000000,"state":"active","ping":146},{"user_id":572,"name":"tm`","steam_id":76561197993580412,"connected_time":476000000000,"state":"active","ping":74},{"user_id":573,"name":"IHave2000HoursButPlayLIkeIHave1","steam_id":76561198295280927,"connected_time":475000000000,"state":"active","ping":166},{"user_id":557,"name":"Klumz","steam_id":76561198045750180,"connected_time":1372000000000,"state":"active","ping":72},{"user_id":560,"name":"Mr Eui","steam_id":76561198080355745,"connected_time":1325000000000,"state":"active","ping":65},{"user_id":497,"name":"Tsuruko","steam_id":76561198063618114,"connected_time":6582000000000,"state":"active","ping":73},{"user_id":566,"name":"jonbob","steam_id":76561197963506620,"connected_time":562000000000,"state":"active","ping":55},{"user_id":558,"name":"Peepster","steam_id":76561198297854733,"connected_time":1359000000000,"state":"active","ping":149},{"user_id":550,"name":"Gandhi the Grater","steam_id":76561198051198555,"connected_time":2522000000000,"state":"active","ping":60},{"user_id":531,"name":"Slow Mode","steam_id":76561199414716848,"connected_time":3912000000000,"state":"active","ping":76},{"user_id":505,"name":"Borat","steam_id":76561198122226417,"connected_time":6007000000000,"state":"active","ping":42},{"user_id":515,"name":"Sabour","steam_id":76561197963965445,"connected_time":5137000000000,"state":"active","ping":70},{"user_id":565,"name":"vani","steam_id":76561197991778291,"connected_time":1030000000000,"state":"active","ping":75},{"user_id":569,"name":"New","steam_id":76561198402195911,"connected_time":496000000000,"state":"active","ping":114},{"user_id":574,"name":"glyphoglossus molossus","steam_id":76561198191291749,"connected_time":447000000000,"state":"active","ping":84},{"user_id":506,"name":"Lovely dove bombing diarrhea","steam_id":76561198042593027,"connected_time":5991000000000,"state":"active","ping":99},{"user_id":544,"name":"frosty","steam_id":76561198094560834,"connected_time":2760000000000,"state":"active","ping":45},{"user_id":561,"name":"jones","steam_id":76561198044434971,"connected_time":1325000000000,"state":"active","ping":62},{"user_id":460,"name":"SuperBob103","steam_id":76561199175360012,"connected_time":10860000000000,"state":"active","ping":50}]},{"server_id":114,"name":"Uncletopia | London | 2 | All Maps","name_short":"lon-2","host":"lon-1.uk.uncletopia.com","port":27025,"enabled":true,"region":"eu","cc":"gb","latitude":51.509865,"longitude":-0.118092,"reserved":0,"last_update":"0001-01-01T00:00:00Z","name_a2s":"Uncletopia | London | 2 | All Maps","protocol":17,"map":"koth_viaduct","folder":"tf","game":"Team Fortress","app_id":440,"player_count":0,"max_players":24,"Bots":0,"server_type":"Dedicated","server_os":"Linux","password":true,"vac":true,"version":"7757534","steam_id":85568392924470941,"keywords":["cp","nocrits","nodmgspread","uncletopia"],"game_id":440,"stv_port":27026,"stv_name":"Uncletopia | London | 2 | All Maps | STV","players":null},{"server_id":320,"name":"Uncletopia | London | 3 | All Maps","name_short":"lon-3","host":"lon-1.uk.uncletopia.com","port":27035,"enabled":true,"region":"eu","cc":"gb","latitude":51.509865,"longitude":-0.118092,"reserved":0,"last_update":"0001-01-01T00:00:00Z","name_a2s":"Uncletopia | London | 3 | All Maps","protocol":17,"map":"koth_cascade","folder":"tf","game":"Team Fortress","app_id":440,"player_count":0,"max_players":24,"Bots":0,"server_type":"Dedicated","server_os":"Linux","password":true,"vac":true,"version":"7757534","steam_id":85568392924510192,"keywords":["cp","nocrits","nodmgspread","uncletopia"],"game_id":440,"stv_port":27036,"stv_name":"Uncletopia | London | 3 | All Maps | STV","players":null},{"server_id":321,"name":"Uncletopia | London | 4 | All Maps","name_short":"lon-4","host":"lon-1.uk.uncletopia.com","port":27045,"enabled":true,"region":"eu","cc":"gb","latitude":51.509865,"longitude":-0.118092,"reserved":0,"last_update":"0001-01-01T00:00:00Z","name_a2s":"Uncletopia | London | 4 | All Maps","protocol":17,"map":"plr_hightower","folder":"tf","game":"Team Fortress","app_id":440,"player_count":0,"max_players":24,"Bots":0,"server_type":"Dedicated","server_os":"Linux","password":true,"vac":true,"version":"7757534","steam_id":85568392924510193,"keywords":["nocrits","nodmgspread","payload","uncletopia"],"game_id":440,"stv_port":27046,"stv_name":"Uncletopia | London | 4 | All Maps | STV","players":null},{"server_id":21,"name":"Uncletopia | London | 5 | All Maps","name_short":"lon-5","host":"lon-1.uk.uncletopia.com","port":27055,"enabled":true,"region":"eu","cc":"gb","latitude":51.509865,"longitude":-0.118092,"reserved":0,"last_update":"0001-01-01T00:00:00Z","name_a2s":"Uncletopia | London | 5 | All Maps","protocol":17,"map":"cp_mountainlab","folder":"tf","game":"Team Fortress","app_id":440,"player_count":0,"max_players":24,"Bots":0,"server_type":"Dedicated","server_os":"Linux","password":true,"vac":true,"version":"7757534","steam_id":85568392924742829,"keywords":["cp","nocrits","nodmgspread","uncletopia"],"game_id":440,"stv_port":27056,"stv_name":"Uncletopia | London | 5 | All Maps | STV","players":null},{"server_id":22,"name":"Uncletopia | London | 6 | All Maps","name_short":"lon-6","host":"lon-1.uk.uncletopia.com","port":27065,"enabled":true,"region":"eu","cc":"gb","latitude":51.509865,"longitude":-0.118092,"reserved":0,"last_update":"0001-01-01T00:00:00Z","name_a2s":"Uncletopia | London | 6 | All Maps","protocol":17,"map":"koth_lakeside_final","folder":"tf","game":"Team Fortress","app_id":440,"player_count":0,"max_players":24,"Bots":0,"server_type":"Dedicated","server_os":"Linux","password":true,"vac":true,"version":"7757534","steam_id":85568392924742830,"keywords":["cp","nocrits","nodmgspread","uncletopia"],"game_id":440,"stv_port":27066,"stv_name":"Uncletopia | London | 6 | All Maps | STV","players":null},{"server_id":40,"name":"Uncletopia | London | 7 | No Payload","name_short":"lon-7","host":"lon-1.uk.uncletopia.com","port":27075,"enabled":true,"region":"eu","cc":"gb","latitude":51.509865,"longitude":-0.118092,"reserved":0,"last_update":"0001-01-01T00:00:00Z","name_a2s":"Uncletopia | London | 7 | No Payload","protocol":17,"map":"koth_harvest_final","folder":"tf","game":"Team Fortress","app_id":440,"player_count":0,"max_players":24,"Bots":0,"server_type":"Dedicated","server_os":"Linux","password":true,"vac":true,"version":"7757534","steam_id":85568392924964314,"keywords":["cp","nocrits","nodmgspread","uncletopia"],"game_id":440,"stv_port":27076,"stv_name":"Uncletopia | London | 7 | No Payload | STV","players":null},{"server_id":41,"name":"Uncletopia | London | 8 | Community","name_short":"lon-8","host":"lon-1.uk.uncletopia.com","port":27085,"enabled":true,"region":"eu","cc":"gb","latitude":51.509865,"longitude":-0.118092,"reserved":0,"last_update":"0001-01-01T00:00:00Z","name_a2s":"Uncletopia | London | 8 | Community","protocol":17,"map":"workshop/pl_highwood_b13.ugc1769496557","folder":"tf","game":"Team Fortress","app_id":440,"player_count":0,"max_players":24,"Bots":0,"server_type":"Dedicated","server_os":"Linux","password":true,"vac":true,"version":"7757534","steam_id":85568392924964315,"keywords":["nocrits","nodmgspread","payload","uncletopia"],"game_id":440,"stv_port":27086,"stv_name":"Uncletopia | London | 8 | Community | STV","players":null},{"server_id":300,"name":"Uncletopia | Montréal | 1 | All Maps","name_short":"mtl-1","host":"mtl-1.ca.uncletopia.com","port":27015,"enabled":true,"region":"us-east","cc":"ca","latitude":45.50889,"longitude":-73.56167,"reserved":0,"last_update":"0001-01-01T00:00:00Z","name_a2s":"Uncletopia | Montréal | 1 | All Maps","protocol":17,"map":"koth_viaduct","folder":"tf","game":"Team Fortress","app_id":440,"player_count":0,"max_players":24,"Bots":0,"server_type":"Dedicated","server_os":"Linux","password":true,"vac":true,"version":"7757534","steam_id":85568392924500087,"keywords":["cp","nocrits","nodmgspread","uncletopia"],"game_id":440,"stv_port":27016,"stv_name":"Uncletopia | Montréal | 1 | All Maps | STV","players":null},{"server_id":301,"name":"Uncletopia | Montréal | 2 | All Maps","name_short":"mtl-2","host":"mtl-1.ca.uncletopia.com","port":27025,"enabled":true,"region":"us-east","cc":"ca","latitude":45.50889,"longitude":-73.56167,"reserved":0,"last_update":"0001-01-01T00:00:00Z","name_a2s":"Uncletopia | Montréal | 2 | All Maps","protocol":17,"map":"koth_lakeside_final","folder":"tf","game":"Team Fortress","app_id":440,"player_count":0,"max_players":24,"Bots":0,"server_type":"Dedicated","server_os":"Linux","password":true,"vac":true,"version":"7757534","steam_id":85568392924500088,"keywords":["cp","nocrits","nodmgspread","uncletopia"],"game_id":440,"stv_port":27026,"stv_name":"Uncletopia | Montréal | 2 | All Maps | STV","players":null},{"server_id":302,"name":"Uncletopia | Montréal | 3 | All Maps","name_short":"mtl-3","host":"mtl-1.ca.uncletopia.com","port":27035,"enabled":true,"region":"us-east","cc":"ca","latitude":45.50889,"longitude":-73.56167,"reserved":0,"last_update":"0001-01-01T00:00:00Z","name_a2s":"Uncletopia | Montréal | 3 | All Maps","protocol":17,"map":"koth_lakeside_final","folder":"tf","game":"Team Fortress","app_id":440,"player_count":0,"max_players":24,"Bots":0,"server_type":"Dedicated","server_os":"Linux","password":true,"vac":true,"version":"7757534","steam_id":85568392924500089,"keywords":["cp","nocrits","nodmgspread","uncletopia"],"game_id":440,"stv_port":27036,"stv_name":"Uncletopia | Montréal | 3 | All Maps | STV","players":null},{"server_id":303,"name":"Uncletopia | Montréal | 4 | No Payload","name_short":"mtl-4","host":"mtl-1.ca.uncletopia.com","port":27045,"enabled":true,"region":"us-east","cc":"ca","latitude":45.50889,"longitude":-73.56167,"reserved":0,"last_update":"0001-01-01T00:00:00Z","name_a2s":"Uncletopia | Montréal | 4 | No Payload","protocol":17,"map":"pl_borneo","folder":"tf","game":"Team Fortress","app_id":440,"player_count":0,"max_players":24,"Bots":0,"server_type":"Dedicated","server_os":"Linux","password":true,"vac":true,"version":"7757534","steam_id":85568392924500090,"keywords":["nocrits","nodmgspread","payload","uncletopia"],"game_id":440,"stv_port":27046,"stv_name":"Uncletopia | Montréal | 4 | No Payload | STV","players":null},{"server_id":13,"name":"Uncletopia | New York City | 1 | All Maps","name_short":"nyc-1","host":"nyc-1.us.uncletopia.com","port":27015,"enabled":true,"region":"us-east","cc":"us","latitude":40.73061,"longitude":-73.93524,"reserved":0,"last_update":"0001-01-01T00:00:00Z","name_a2s":"Uncletopia | New York City | 1 | All Maps","protocol":17,"map":"plr_bananabay","folder":"tf","game":"Team Fortress","app_id":440,"player_count":23,"max_players":24,"Bots":0,"server_type":"Dedicated","server_os":"Linux","password":true,"vac":true,"version":"7757534","steam_id":85568392924469993,"keywords":["nocrits","nodmgspread","payload","uncletopia"],"game_id":440,"stv_port":27016,"stv_name":"Uncletopia | New York City | 1 | All Maps | STV","players":[{"user_id":333,"name":"muzikelretifhbr","steam_id":76561198445169719,"connected_time":3221000000000,"state":"active","ping":111},{"user_id":349,"name":"Kasane","steam_id":76561198209006780,"connected_time":2168000000000,"state":"active","ping":86},{"user_id":374,"name":"fi_ji","steam_id":76561198126087725,"connected_time":175000000000,"state":"active","ping":55},{"user_id":364,"name":"papa guacamole","steam_id":76561198167665608,"connected_time":1415000000000,"state":"active","ping":64},{"user_id":370,"name":"Only One Jhakobi","steam_id":76561197993641141,"connected_time":415000000000,"state":"active","ping":79},{"user_id":248,"name":"PinkLemonade","steam_id":76561198799286228,"connected_time":11139000000000,"state":"active","ping":56},{"user_id":316,"name":"scout main (derogatory)","steam_id":76561199117424896,"connected_time":5483000000000,"state":"active","ping":66},{"user_id":306,"name":"SecurityCamera","steam_id":76561198117266792,"connected_time":6616000000000,"state":"active","ping":67},{"user_id":362,"name":"JacripspyVulcano","steam_id":76561198966980576,"connected_time":1602000000000,"state":"active","ping":43},{"user_id":371,"name":"ShaiKai","steam_id":76561198333319986,"connected_time":388000000000,"state":"active","ping":108},{"user_id":339,"name":"Average Salamence Enjoyer","steam_id":76561198067342511,"connected_time":2848000000000,"state":"active","ping":100},{"user_id":308,"name":"Cidio Irion","steam_id":76561198176885019,"connected_time":6580000000000,"state":"active","ping":102},{"user_id":340,"name":"BigBear","steam_id":76561198105227261,"connected_time":2847000000000,"state":"active","ping":85},{"user_id":355,"name":"KitKat :)","steam_id":76561198191536489,"connected_time":1885000000000,"state":"active","ping":125},{"user_id":360,"name":"antivirus.exe","steam_id":76561198152067633,"connected_time":1814000000000,"state":"active","ping":87},{"user_id":373,"name":"Ifrit","steam_id":76561198044730782,"connected_time":273000000000,"state":"active","ping":99},{"user_id":323,"name":"shimp","steam_id":76561198067613190,"connected_time":4217000000000,"state":"active","ping":72},{"user_id":311,"name":"Cap'n Walrus","steam_id":76561198045651378,"connected_time":6562000000000,"state":"active","ping":100},{"user_id":367,"name":"Wiener Hole Paper Cut","steam_id":76561198000808203,"connected_time":839000000000,"state":"active","ping":102},{"user_id":358,"name":"Gumit","steam_id":76561198208126512,"connected_time":1852000000000,"state":"active","ping":57},{"user_id":350,"name":"BUNGACOWA","steam_id":76561198979176018,"connected_time":2160000000000,"state":"active","ping":89},{"user_id":347,"name":"Ratemis","steam_id":76561198069790264,"connected_time":2312000000000,"state":"active","ping":73},{"user_id":366,"name":"LunarrD","steam_id":76561198811220107,"connected_time":1221000000000,"state":"active","ping":71}]},{"server_id":14,"name":"Uncletopia | New York City | 2 | All Maps","name_short":"nyc-2","host":"nyc-1.us.uncletopia.com","port":27025,"enabled":true,"region":"us-east","cc":"us","latitude":40.73061,"longitude":-73.93524,"reserved":0,"last_update":"0001-01-01T00:00:00Z","name_a2s":"Uncletopia | New York City | 2 | All Maps","protocol":17,"map":"pl_frontier_final","folder":"tf","game":"Team Fortress","app_id":440,"player_count":23,"max_players":24,"Bots":0,"server_type":"Dedicated","server_os":"Linux","password":true,"vac":true,"version":"7757534","steam_id":85568392924469994,"keywords":["nocrits","nodmgspread","payload","uncletopia"],"game_id":440,"stv_port":27026,"stv_name":"Uncletopia | New York City | 2 | All Maps | STV","players":[{"user_id":566,"name":"Malex","steam_id":76561198012216805,"connected_time":718000000000,"state":"active","ping":59},{"user_id":553,"name":"*","steam_id":76561198173047169,"connected_time":2182000000000,"state":"active","ping":46},{"user_id":569,"name":"✯Mr.Causa✯","steam_id":76561198189667951,"connected_time":691000000000,"state":"active","ping":138},{"user_id":557,"name":"Weerk","steam_id":76561199209543551,"connected_time":1425000000000,"state":"active","ping":78},{"user_id":567,"name":"economy''","steam_id":76561197997207768,"connected_time":714000000000,"state":"active","ping":133},{"user_id":568,"name":"AverageGloop","steam_id":76561198243395378,"connected_time":702000000000,"state":"active","ping":40},{"user_id":545,"name":"Kraftlos","steam_id":76561198074350350,"connected_time":2416000000000,"state":"active","ping":57},{"user_id":554,"name":"PzVIIIMaus","steam_id":76561198346559365,"connected_time":1976000000000,"state":"active","ping":61},{"user_id":570,"name":"andy","steam_id":76561198892957312,"connected_time":682000000000,"state":"active","ping":150},{"user_id":537,"name":"M249 | Spectre","steam_id":76561198118334485,"connected_time":2552000000000,"state":"active","ping":83},{"user_id":550,"name":"a king who's on a budget","steam_id":76561199134895220,"connected_time":2264000000000,"state":"active","ping":59},{"user_id":571,"name":"the doo doo man","steam_id":76561198057076267,"connected_time":676000000000,"state":"active","ping":76},{"user_id":455,"name":"gghfgfgfg","steam_id":76561198064823861,"connected_time":7966000000000,"state":"active","ping":72},{"user_id":561,"name":"Xx_PR3TTY_R4VE_G!R1_xX","steam_id":76561199059016425,"connected_time":1278000000000,"state":"active","ping":71},{"user_id":565,"name":"SaltyFaulty","steam_id":76561199017898392,"connected_time":768000000000,"state":"active","ping":65},{"user_id":587,"name":"ihavetapeworms","steam_id":76561198357040313,"connected_time":125000000000,"state":"active","ping":125},{"user_id":589,"name":"viper","steam_id":76561198839942937,"connected_time":49000000000,"state":"active","ping":63},{"user_id":572,"name":"breesey","steam_id":76561198341658826,"connected_time":626000000000,"state":"active","ping":43},{"user_id":543,"name":"friend me and i will pocket you","steam_id":76561199383789041,"connected_time":2466000000000,"state":"active","ping":179},{"user_id":588,"name":"Sir Iasis","steam_id":76561198035666760,"connected_time":105000000000,"state":"active","ping":81},{"user_id":563,"name":"footoftheday","steam_id":76561198052712449,"connected_time":1132000000000,"state":"active","ping":79},{"user_id":574,"name":"chrisd149","steam_id":76561198018710480,"connected_time":576000000000,"state":"active","ping":93},{"user_id":551,"name":"The Land Admiral","steam_id":76561198159356609,"connected_time":2253000000000,"state":"active","ping":57}]},{"server_id":15,"name":"Uncletopia | New York City | 3 | Stopwatch Beta","name_short":"nyc-3","host":"nyc-1.us.uncletopia.com","port":27035,"enabled":true,"region":"us-east","cc":"us","latitude":40.73061,"longitude":-73.93524,"reserved":0,"last_update":"0001-01-01T00:00:00Z","name_a2s":"Uncletopia | New York City | 3 | Stopwatch Beta","protocol":17,"map":"koth_lakeside_final","folder":"tf","game":"Team Fortress","app_id":440,"player_count":24,"max_players":24,"Bots":0,"server_type":"Dedicated","server_os":"Linux","password":true,"vac":true,"version":"7757534","steam_id":85568392924742820,"keywords":["cp","nocrits","nodmgspread","uncletopia"],"game_id":440,"stv_port":27036,"stv_name":"Uncletopia | New York City | 3 | Stopwatch Beta | STV","players":[{"user_id":118,"name":"Persona Mann","steam_id":76561198293857963,"connected_time":200000000000,"state":"active","ping":131},{"user_id":101,"name":"Voodo133","steam_id":76561198042670351,"connected_time":882000000000,"state":"active","ping":79},{"user_id":119,"name":"Farseer Ulwithy","steam_id":76561197965179245,"connected_time":153000000000,"state":"active","ping":119},{"user_id":90,"name":"Otto","steam_id":76561198139834597,"connected_time":2201000000000,"state":"active","ping":93},{"user_id":99,"name":"Jammedpurse","steam_id":76561198998294201,"connected_time":1412000000000,"state":"active","ping":103},{"user_id":100,"name":"JustLooking","steam_id":76561198207877387,"connected_time":964000000000,"state":"active","ping":44},{"user_id":96,"name":"sxl #SHADOWWIZARDMONEYGANG","steam_id":76561198150627999,"connected_time":2014000000000,"state":"active","ping":62},{"user_id":112,"name":"Cadco","steam_id":76561198010519912,"connected_time":489000000000,"state":"active","ping":86},{"user_id":95,"name":"ContinuedBear","steam_id":76561198265176919,"connected_time":2102000000000,"state":"active","ping":75},{"user_id":104,"name":"yuki","steam_id":76561198028645098,"connected_time":838000000000,"state":"active","ping":104},{"user_id":109,"name":"theghazinator","steam_id":76561198188027695,"connected_time":745000000000,"state":"active","ping":72},{"user_id":97,"name":"SaucySandwichKid","steam_id":76561199372590934,"connected_time":1687000000000,"state":"active","ping":98},{"user_id":51,"name":"Bad Medic Buddy","steam_id":76561198093222632,"connected_time":4046000000000,"state":"active","ping":79},{"user_id":115,"name":"jmarcian62","steam_id":76561198378981448,"connected_time":436000000000,"state":"active","ping":86},{"user_id":107,"name":"Lord Scrubling","steam_id":76561198263744445,"connected_time":802000000000,"state":"active","ping":76},{"user_id":116,"name":"smocc","steam_id":76561197993726746,"connected_time":410000000000,"state":"active","ping":57},{"user_id":93,"name":"NastyStarchy","steam_id":76561198291849732,"connected_time":2183000000000,"state":"active","ping":56},{"user_id":111,"name":"Vzlæd","steam_id":76561198044192839,"connected_time":627000000000,"state":"active","ping":37},{"user_id":80,"name":"Rond Gong The Dong Machine","steam_id":76561198283349215,"connected_time":3407000000000,"state":"active","ping":129},{"user_id":108,"name":"bobdragon27","steam_id":76561198065833387,"connected_time":757000000000,"state":"active","ping":44},{"user_id":117,"name":"Sheep","steam_id":76561198122705864,"connected_time":295000000000,"state":"active","ping":98},{"user_id":82,"name":"Bel","steam_id":76561198213140033,"connected_time":3384000000000,"state":"active","ping":98},{"user_id":83,"name":"Poptart From Mars","steam_id":76561197979930960,"connected_time":3354000000000,"state":"active","ping":94}]},{"server_id":16,"name":"Uncletopia | New York City | 4 | Community","name_short":"nyc-4","host":"nyc-1.us.uncletopia.com","port":27045,"enabled":true,"region":"us-east","cc":"us","latitude":40.73061,"longitude":-73.93524,"reserved":0,"last_update":"0001-01-01T00:00:00Z","name_a2s":"Uncletopia | New York City | 4 | Community","protocol":17,"map":"workshop/pl_badwater_pro_v12.ugc2142942074","folder":"tf","game":"Team Fortress","app_id":440,"player_count":0,"max_players":24,"Bots":0,"server_type":"Dedicated","server_os":"Linux","password":true,"vac":true,"version":"7757534","steam_id":85568392924742821,"keywords":["nocrits","nodmgspread","payload","uncletopia"],"game_id":440,"stv_port":27046,"stv_name":"Uncletopia | New York City | 4 | Community | STV","players":null},{"server_id":142,"name":"Uncletopia | São Paulo | 1 | All Maps","name_short":"sao-1","host":"sao-1.br.uncletopia.com","port":27015,"enabled":true,"region":"sa","cc":"br","latitude":-23.533773,"longitude":-46.62529,"reserved":0,"last_update":"0001-01-01T00:00:00Z","name_a2s":"Uncletopia | São Paulo | 1 | All Maps","protocol":17,"map":"pl_swiftwater_final1","folder":"tf","game":"Team Fortress","app_id":440,"player_count":0,"max_players":24,"Bots":0,"server_type":"Dedicated","server_os":"Linux","password":true,"vac":true,"version":"7757534","steam_id":85568392924469996,"keywords":["nocrits","nodmgspread","payload","uncletopia"],"game_id":440,"stv_port":27016,"stv_name":"Uncletopia | São Paulo | 1 | All Maps | STV","players":null},{"server_id":143,"name":"Uncletopia | São Paulo | 2 | All Maps","name_short":"sao-2","host":"sao-2.br.uncletopia.com","port":27015,"enabled":true,"region":"sa","cc":"br","latitude":-23.533773,"longitude":-46.62529,"reserved":0,"last_update":"0001-01-01T00:00:00Z","name_a2s":"Uncletopia | São Paulo | 2 | All Maps","protocol":17,"map":"cp_process_final","folder":"tf","game":"Team Fortress","app_id":440,"player_count":0,"max_players":24,"Bots":0,"server_type":"Dedicated","server_os":"Linux","password":true,"vac":true,"version":"7757534","steam_id":85568392924485349,"keywords":["cp","nocrits","nodmgspread","uncletopia"],"game_id":440,"stv_port":27016,"stv_name":"Uncletopia | São Paulo | 2 | All Maps | STV","players":null},{"server_id":7,"name":"Uncletopia | Seattle | 1 | All Maps","name_short":"sea-1","host":"sea-1.us.uncletopia.com","port":27015,"enabled":true,"region":"us-west","cc":"us","latitude":47.608013,"longitude":-122.33517,"reserved":0,"last_update":"0001-01-01T00:00:00Z","name_a2s":"Uncletopia | Seattle | 1 | All Maps","protocol":17,"map":"koth_sawmill","folder":"tf","game":"Team Fortress","app_id":440,"player_count":24,"max_players":24,"Bots":0,"server_type":"Dedicated","server_os":"Linux","password":true,"vac":true,"version":"7757534","steam_id":85568392924469997,"keywords":["cp","nocrits","nodmgspread","uncletopia"],"game_id":440,"stv_port":27016,"stv_name":"Uncletopia | Seattle | 1 | All Maps | STV","players":[{"user_id":557,"name":"〣dust〣 -she/it-","steam_id":76561198045218909,"connected_time":4181000000000,"state":"active","ping":41},{"user_id":600,"name":"River Rat","steam_id":76561198116383976,"connected_time":292000000000,"state":"active","ping":62},{"user_id":592,"name":"Lime","steam_id":76561198080786408,"connected_time":920000000000,"state":"active","ping":53},{"user_id":553,"name":"Reiidaya","steam_id":76561198325306660,"connected_time":4627000000000,"state":"active","ping":58},{"user_id":540,"name":"Mr.Thirteen","steam_id":76561198047468836,"connected_time":5627000000000,"state":"active","ping":66},{"user_id":599,"name":"Yesterday's Grouse's Son","steam_id":76561198259873083,"connected_time":317000000000,"state":"active","ping":63},{"user_id":601,"name":"NéoGothique🕯","steam_id":76561198003467269,"connected_time":272000000000,"state":"active","ping":110},{"user_id":604,"name":"HoboNoah","steam_id":76561197998236540,"connected_time":200000000000,"state":"active","ping":75},{"user_id":587,"name":"HaphazardHazel","steam_id":76561198316812693,"connected_time":2241000000000,"state":"active","ping":137},{"user_id":566,"name":"oo","steam_id":76561198119626492,"connected_time":3606000000000,"state":"active","ping":77},{"user_id":608,"name":"Agent86","steam_id":76561198046794593,"connected_time":72000000000,"state":"active","ping":111},{"user_id":597,"name":"Lunacy","steam_id":76561199386273760,"connected_time":518000000000,"state":"active","ping":88},{"user_id":503,"name":"Luca","steam_id":76561198125087140,"connected_time":7570000000000,"state":"active","ping":46},{"user_id":593,"name":"1dk","steam_id":76561198135104742,"connected_time":770000000000,"state":"active","ping":52},{"user_id":590,"name":"Cam(era)","steam_id":76561198285054047,"connected_time":1002000000000,"state":"active","ping":83},{"user_id":602,"name":"[Bandit]","steam_id":76561197986919852,"connected_time":269000000000,"state":"active","ping":47},{"user_id":603,"name":"cofferhead","steam_id":76561199191108449,"connected_time":215000000000,"state":"active","ping":91},{"user_id":579,"name":"Ghee Buttersnaps","steam_id":76561199225708271,"connected_time":2807000000000,"state":"active","ping":56},{"user_id":605,"name":"DrStarBucksCoffee","steam_id":76561198037372470,"connected_time":197000000000,"state":"active","ping":76},{"user_id":609,"name":"Bread","steam_id":76561198320293423,"connected_time":50000000000,"state":"active","ping":51},{"user_id":591,"name":"AmiableNebula","steam_id":76561198094306627,"connected_time":957000000000,"state":"active","ping":76},{"user_id":589,"name":"Mico (Goblin Mode)","steam_id":76561198125462953,"connected_time":1450000000000,"state":"active","ping":46},{"user_id":598,"name":"TheOtherBrush","steam_id":76561199048222977,"connected_time":428000000000,"state":"active","ping":171},{"user_id":606,"name":"Kxd","steam_id":76561198083641548,"connected_time":170000000000,"state":"active","ping":126}]},{"server_id":119,"name":"Uncletopia | Seattle | 2 | All Maps","name_short":"sea-2","host":"sea-1.us.uncletopia.com","port":27025,"enabled":true,"region":"us-west","cc":"us","latitude":47.608013,"longitude":-122.33517,"reserved":0,"last_update":"0001-01-01T00:00:00Z","name_a2s":"Uncletopia | Seattle | 2 | All Maps","protocol":17,"map":"pl_frontier_final","folder":"tf","game":"Team Fortress","app_id":440,"player_count":24,"max_players":24,"Bots":0,"server_type":"Dedicated","server_os":"Linux","password":true,"vac":true,"version":"7757534","steam_id":85568392924469998,"keywords":["nocrits","nodmgspread","payload","uncletopia"],"game_id":440,"stv_port":27026,"stv_name":"Uncletopia | Seattle | 2 | All Maps | STV","players":[{"user_id":660,"name":"Phaze","steam_id":76561198025267071,"connected_time":743000000000,"state":"active","ping":75},{"user_id":557,"name":"Disc0","steam_id":76561198067337267,"connected_time":7381000000000,"state":"active","ping":47},{"user_id":610,"name":"Eric Cartman","steam_id":76561198850898505,"connected_time":3915000000000,"state":"active","ping":53},{"user_id":661,"name":"Flooder","steam_id":76561198043792818,"connected_time":729000000000,"state":"active","ping":58},{"user_id":663,"name":"raduski","steam_id":76561198795699119,"connected_time":686000000000,"state":"active","ping":90},{"user_id":634,"name":"weegeebad","steam_id":76561198280841437,"connected_time":1834000000000,"state":"active","ping":112},{"user_id":671,"name":"Laggy Payday 2 player","steam_id":76561199082906857,"connected_time":472000000000,"state":"active","ping":79},{"user_id":633,"name":"bash -lc ./asshat.sh","steam_id":76561198004584315,"connected_time":1865000000000,"state":"active","ping":91},{"user_id":664,"name":"Diaper Baby","steam_id":76561198067231684,"connected_time":683000000000,"state":"active","ping":59},{"user_id":665,"name":"McSpazatron","steam_id":76561198955942148,"connected_time":659000000000,"state":"active","ping":107},{"user_id":658,"name":"Butters495","steam_id":76561197998689042,"connected_time":877000000000,"state":"active","ping":86},{"user_id":637,"name":"boobies arc","steam_id":76561198316753540,"connected_time":1758000000000,"state":"active","ping":67},{"user_id":645,"name":"Ślimak","steam_id":76561198296476784,"connected_time":1601000000000,"state":"active","ping":92},{"user_id":649,"name":"Clormac Macalahacte","steam_id":76561198103305334,"connected_time":1466000000000,"state":"active","ping":93},{"user_id":672,"name":"shiftshock01","steam_id":76561199049488870,"connected_time":259000000000,"state":"active","ping":57},{"user_id":641,"name":"MonteJT","steam_id":76561198055409360,"connected_time":1642000000000,"state":"active","ping":36},{"user_id":642,"name":"Limey","steam_id":76561198142932841,"connected_time":1638000000000,"state":"active","ping":83},{"user_id":643,"name":"watchfull","steam_id":76561198433266742,"connected_time":1636000000000,"state":"active","ping":61},{"user_id":673,"name":"Gaming","steam_id":76561198327632113,"connected_time":165000000000,"state":"active","ping":51},{"user_id":674,"name":"tortoise","steam_id":76561198161809306,"connected_time":114000000000,"state":"active","ping":125},{"user_id":654,"name":"Court Wizard, Sir Dr. Clydesdal","steam_id":76561198149267697,"connected_time":1092000000000,"state":"active","ping":67},{"user_id":668,"name":"American freedom bird","steam_id":76561198366142388,"connected_time":553000000000,"state":"active","ping":88},{"user_id":619,"name":"GregGaming098","steam_id":76561198882415360,"connected_time":3281000000000,"state":"active","ping":67},{"user_id":659,"name":"Algibruh","steam_id":76561199221599415,"connected_time":877000000000,"state":"active","ping":45}]},{"server_id":406,"name":"Uncletopia | Seattle | 3 | Stopwatch Beta","name_short":"sea-3","host":"sea-1.us.uncletopia.com","port":27035,"enabled":true,"region":"us-west","cc":"us","latitude":47.608013,"longitude":-122.33517,"reserved":0,"last_update":"0001-01-01T00:00:00Z","name_a2s":"Uncletopia | Seattle | 3 | Stopwatch Beta","protocol":17,"map":"workshop/pl_barnblitz_pro7.ugc582280235","folder":"tf","game":"Team Fortress","app_id":440,"player_count":0,"max_players":24,"Bots":0,"server_type":"Dedicated","server_os":"Linux","password":true,"vac":true,"version":"7757534","steam_id":85568392924515217,"keywords":["nocrits","nodmgspread","payload","uncletopia"],"game_id":440,"stv_port":27036,"stv_name":"Uncletopia | Seattle | 3 | Stopwatch Beta | STV","players":null},{"server_id":17,"name":"Uncletopia | San Francisco | 1 | All Maps","name_short":"sfo-1","host":"sfo-1.us.uncletopia.com","port":27015,"enabled":true,"region":"us-west","cc":"us","latitude":37.77397,"longitude":-122.4313,"reserved":0,"last_update":"0001-01-01T00:00:00Z","name_a2s":"Uncletopia | San Francisco | 1 | All Maps","protocol":17,"map":"cp_dustbowl","folder":"tf","game":"Team Fortress","app_id":440,"player_count":13,"max_players":24,"Bots":0,"server_type":"Dedicated","server_os":"Linux","password":true,"vac":true,"version":"7757534","steam_id":85568392924469999,"keywords":["cp","nocrits","nodmgspread","uncletopia"],"game_id":440,"stv_port":27016,"stv_name":"Uncletopia | San Francisco | 1 | All Maps | STV","players":[{"user_id":235,"name":"Dingas","steam_id":76561198040422803,"connected_time":93000000000,"state":"active","ping":69},{"user_id":236,"name":"shrimpfarmer","steam_id":76561198037073424,"connected_time":86000000000,"state":"active","ping":75},{"user_id":234,"name":"Funky Kazoo","steam_id":76561198972379484,"connected_time":147000000000,"state":"active","ping":114},{"user_id":223,"name":"greens beans","steam_id":76561198153611491,"connected_time":730000000000,"state":"active","ping":54},{"user_id":171,"name":"assassincrazy18","steam_id":76561199465661561,"connected_time":4611000000000,"state":"active","ping":82},{"user_id":232,"name":"Whapper","steam_id":76561198044029606,"connected_time":176000000000,"state":"active","ping":49},{"user_id":237,"name":"A 7/10","steam_id":76561198075814864,"connected_time":72000000000,"state":"active","ping":107},{"user_id":233,"name":"unnamed56565","steam_id":76561199082953233,"connected_time":161000000000,"state":"active","ping":55},{"user_id":238,"name":"billysexyhobo","steam_id":76561198354137633,"connected_time":7000000000,"state":"spawning","ping":114},{"user_id":228,"name":"bull","steam_id":76561198128124800,"connected_time":347000000000,"state":"active","ping":97},{"user_id":230,"name":"Chiwogi","steam_id":76561198199790246,"connected_time":331000000000,"state":"active","ping":80},{"user_id":129,"name":"Dosario","steam_id":76561198298095535,"connected_time":8353000000000,"state":"active","ping":73},{"user_id":226,"name":"Breadfan","steam_id":76561197993176053,"connected_time":634000000000,"state":"active","ping":101}]},{"server_id":18,"name":"Uncletopia | San Francisco | 2 | All Maps","name_short":"sfo-2","host":"sfo-1.us.uncletopia.com","port":27025,"enabled":true,"region":"us-west","cc":"us","latitude":37.77397,"longitude":-122.4313,"reserved":0,"last_update":"0001-01-01T00:00:00Z","name_a2s":"Uncletopia | San Francisco | 2 | All Maps","protocol":17,"map":"pl_snowycoast","folder":"tf","game":"Team Fortress","app_id":440,"player_count":24,"max_players":24,"Bots":0,"server_type":"Dedicated","server_os":"Linux","password":true,"vac":true,"version":"7757534","steam_id":85568392924470000,"keywords":["nocrits","nodmgspread","payload","uncletopia"],"game_id":440,"stv_port":27026,"stv_name":"Uncletopia | San Francisco | 2 | All Maps | STV","players":[{"user_id":7,"name":"Mr. human","steam_id":76561199405891554,"connected_time":6677000000000,"state":"active","ping":143},{"user_id":8,"name":"Obumna soda drinker","steam_id":76561199466811135,"connected_time":6652000000000,"state":"active","ping":125},{"user_id":69,"name":"spacetoven","steam_id":76561198115821131,"connected_time":363000000000,"state":"active","ping":44},{"user_id":58,"name":"lemontine","steam_id":76561198058546008,"connected_time":1222000000000,"state":"active","ping":95},{"user_id":60,"name":"Gamebun 🐇","steam_id":76561197998855425,"connected_time":1175000000000,"state":"active","ping":88},{"user_id":68,"name":"chanoc","steam_id":76561198026734746,"connected_time":601000000000,"state":"active","ping":52},{"user_id":50,"name":"79305","steam_id":76561198031153452,"connected_time":2102000000000,"state":"active","ping":71},{"user_id":57,"name":"jan Soja","steam_id":76561198039644185,"connected_time":1334000000000,"state":"active","ping":98},{"user_id":48,"name":"Nova Academy of Salmon Action","steam_id":76561198021842526,"connected_time":2108000000000,"state":"active","ping":63},{"user_id":72,"name":"saladfish","steam_id":76561198453203619,"connected_time":149000000000,"state":"active","ping":55},{"user_id":47,"name":"ಠ_ಠ","steam_id":76561198081836417,"connected_time":2254000000000,"state":"active","ping":75},{"user_id":24,"name":"living","steam_id":76561198105060591,"connected_time":4035000000000,"state":"active","ping":50},{"user_id":26,"name":"Jiggy","steam_id":76561198299329638,"connected_time":3970000000000,"state":"active","ping":43},{"user_id":67,"name":"Horse","steam_id":76561199112075552,"connected_time":768000000000,"state":"active","ping":107},{"user_id":28,"name":"With respect to x","steam_id":76561198088321636,"connected_time":3910000000000,"state":"active","ping":80},{"user_id":29,"name":"Cloudy L","steam_id":76561198127045046,"connected_time":3905000000000,"state":"active","ping":101},{"user_id":71,"name":"rmbl","steam_id":76561198150137369,"connected_time":194000000000,"state":"active","ping":55},{"user_id":74,"name":"pingus","steam_id":76561198268995867,"connected_time":89000000000,"state":"active","ping":55},{"user_id":49,"name":"nurseShark","steam_id":76561198050225459,"connected_time":2107000000000,"state":"active","ping":108},{"user_id":65,"name":"Toastedtoast222","steam_id":76561198120756409,"connected_time":1091000000000,"state":"active","ping":83},{"user_id":35,"name":"fatass baller penguin","steam_id":76561198253585444,"connected_time":3843000000000,"state":"active","ping":64},{"user_id":37,"name":"The Lelda of Zelda","steam_id":76561199120483390,"connected_time":3810000000000,"state":"active","ping":110},{"user_id":42,"name":"maybe","steam_id":76561198799428830,"connected_time":3498000000000,"state":"active","ping":74},{"user_id":66,"name":"Agent Q","steam_id":76561198830829003,"connected_time":1086000000000,"state":"active","ping":75}]},{"server_id":19,"name":"Uncletopia | San Francisco | 3 | Stopwatch Beta","name_short":"sfo-3","host":"sfo-1.us.uncletopia.com","port":27035,"enabled":true,"region":"us-west","cc":"us","latitude":37.77397,"longitude":-122.4313,"reserved":0,"last_update":"0001-01-01T00:00:00Z","name_a2s":"Uncletopia | San Francisco | 3 | Stopwatch Beta","protocol":17,"map":"pl_borneo","folder":"tf","game":"Team Fortress","app_id":440,"player_count":0,"max_players":24,"Bots":0,"server_type":"Dedicated","server_os":"Linux","password":true,"vac":true,"version":"7757534","steam_id":85568392924742824,"keywords":["nocrits","nodmgspread","payload","uncletopia"],"game_id":440,"stv_port":27036,"stv_name":"Uncletopia | San Francisco | 3 | Stopwatch Beta | STV","players":null},{"server_id":20,"name":"Uncletopia | San Francisco | 4 | Community","name_short":"sfo-4","host":"sfo-1.us.uncletopia.com","port":27045,"enabled":true,"region":"us-west","cc":"us","latitude":37.77397,"longitude":-122.4313,"reserved":0,"last_update":"0001-01-01T00:00:00Z","name_a2s":"Uncletopia | San Francisco | 4 | Community","protocol":17,"map":"koth_highpass","folder":"tf","game":"Team Fortress","app_id":440,"player_count":0,"max_players":24,"Bots":0,"server_type":"Dedicated","server_os":"Linux","password":true,"vac":true,"version":"7757534","steam_id":85568392924742826,"keywords":["cp","nocrits","nodmgspread","uncletopia"],"game_id":440,"stv_port":27046,"stv_name":"Uncletopia | San Francisco | 4 | Community | STV","players":null},{"server_id":141,"name":"Uncletopia | Sydney | 1 | All Maps","name_short":"syd-1","host":"syd-1.au.uncletopia.com","port":27015,"enabled":true,"region":"au","cc":"au","latitude":-33.865143,"longitude":151.2099,"reserved":0,"last_update":"0001-01-01T00:00:00Z","name_a2s":"Uncletopia | Sydney | 1 | All Maps","protocol":17,"map":"pl_pier","folder":"tf","game":"Team Fortress","app_id":440,"player_count":24,"max_players":24,"Bots":0,"server_type":"Dedicated","server_os":"Linux","password":true,"vac":true,"version":"7757534","steam_id":85568392924470001,"keywords":["nocrits","nodmgspread","payload","uncletopia"],"game_id":440,"stv_port":27016,"stv_name":"Uncletopia | Sydney | 1 | All Maps | STV","players":[{"user_id":109,"name":"Dupiter","steam_id":76561198108820767,"connected_time":2980000000000,"state":"active","ping":49},{"user_id":120,"name":"Muffin™","steam_id":76561198819353439,"connected_time":1948000000000,"state":"active","ping":47},{"user_id":112,"name":"Bamooxa","steam_id":76561198067160709,"connected_time":2828000000000,"state":"active","ping":85},{"user_id":98,"name":"Gasoline","steam_id":76561198879023728,"connected_time":4060000000000,"state":"active","ping":68},{"user_id":125,"name":"SinisterMagnus","steam_id":76561198133867907,"connected_time":1814000000000,"state":"active","ping":69},{"user_id":99,"name":"doctor morbin' (real)","steam_id":76561199365241695,"connected_time":4028000000000,"state":"active","ping":115},{"user_id":116,"name":"NollReed","steam_id":76561198098501571,"connected_time":2212000000000,"state":"active","ping":79},{"user_id":118,"name":"Jdn","steam_id":76561198293079232,"connected_time":2055000000000,"state":"active","ping":60},{"user_id":123,"name":"battery licker","steam_id":76561198315774295,"connected_time":1835000000000,"state":"active","ping":64},{"user_id":142,"name":"FighterX9","steam_id":76561198832500806,"connected_time":90000000000,"state":"active","ping":195},{"user_id":130,"name":"snooty123","steam_id":76561199055258276,"connected_time":1338000000000,"state":"active","ping":170},{"user_id":102,"name":"there's something in your eyes","steam_id":76561198132937542,"connected_time":4010000000000,"state":"active","ping":55},{"user_id":89,"name":"Janbric OwO","steam_id":76561199161207802,"connected_time":4447000000000,"state":"active","ping":97},{"user_id":143,"name":"I NEED WEED","steam_id":76561198836003115,"connected_time":9000000000,"state":"active","ping":115},{"user_id":134,"name":"Ticklypuff","steam_id":76561198103977751,"connected_time":994000000000,"state":"active","ping":50},{"user_id":137,"name":"terrablade_master","steam_id":76561198997249192,"connected_time":652000000000,"state":"active","ping":61},{"user_id":136,"name":"nescu","steam_id":76561198278067465,"connected_time":794000000000,"state":"active","ping":70},{"user_id":121,"name":"blortzoing","steam_id":76561198063481761,"connected_time":1936000000000,"state":"active","ping":44},{"user_id":135,"name":"banned for card counting","steam_id":76561198150293480,"connected_time":994000000000,"state":"active","ping":61},{"user_id":126,"name":"Livid","steam_id":76561198060024585,"connected_time":1802000000000,"state":"active","ping":36},{"user_id":107,"name":"FyreFeat","steam_id":76561198068428930,"connected_time":3354000000000,"state":"active","ping":54},{"user_id":141,"name":"Jazza Boi","steam_id":76561198196764109,"connected_time":195000000000,"state":"active","ping":90},{"user_id":62,"name":"Emanuel Augustus","steam_id":76561199081848498,"connected_time":5716000000000,"state":"active","ping":66},{"user_id":114,"name":"Batering","steam_id":76561198039849442,"connected_time":2522000000000,"state":"active","ping":55}]},{"server_id":123,"name":"Uncletopia | Sydney | 2 | All Maps","name_short":"syd-2","host":"syd-1.au.uncletopia.com","port":27025,"enabled":true,"region":"au","cc":"au","latitude":-33.865143,"longitude":151.2099,"reserved":0,"last_update":"0001-01-01T00:00:00Z","name_a2s":"Uncletopia | Sydney | 2 | All Maps","protocol":17,"map":"pl_swiftwater_final1","folder":"tf","game":"Team Fortress","app_id":440,"player_count":2,"max_players":24,"Bots":0,"server_type":"Dedicated","server_os":"Linux","password":true,"vac":true,"version":"7757534","steam_id":85568392924470002,"keywords":["nocrits","nodmgspread","payload","uncletopia"],"game_id":440,"stv_port":27026,"stv_name":"Uncletopia | Sydney | 2 | All Maps | STV","players":[{"user_id":12,"name":"Donfen","steam_id":76561199076889222,"connected_time":1673000000000,"state":"active","ping":48},{"user_id":13,"name":"RagedPlague","steam_id":76561198208507111,"connected_time":1644000000000,"state":"active","ping":46}]},{"server_id":395,"name":"Uncletopia | Sydney | 3 | All Maps","name_short":"syd-3","host":"syd-1.au.uncletopia.com","port":27035,"enabled":true,"region":"au","cc":"au","latitude":-33.865143,"longitude":151.2099,"reserved":0,"last_update":"0001-01-01T00:00:00Z","name_a2s":"Uncletopia | Sydney | 3 | All Maps","protocol":17,"map":"koth_lakeside_final","folder":"tf","game":"Team Fortress","app_id":440,"player_count":2,"max_players":24,"Bots":0,"server_type":"Dedicated","server_os":"Linux","password":true,"vac":true,"version":"7757534","steam_id":85568392925194467,"keywords":["cp","nocrits","nodmgspread","uncletopia"],"game_id":440,"stv_port":27036,"stv_name":"Uncletopia | Sydney | 3 | All Maps | STV","players":[{"user_id":6,"name":"LegEaterHK","steam_id":76561199357838817,"connected_time":570000000000,"state":"active","ping":76},{"user_id":7,"name":"rylan.chen","steam_id":76561199152151734,"connected_time":565000000000,"state":"active","ping":68}]},{"server_id":396,"name":"Uncletopia | Sydney | 4 | All Maps","name_short":"syd-4","host":"syd-1.au.uncletopia.com","port":27045,"enabled":true,"region":"au","cc":"au","latitude":-33.865143,"longitude":151.2099,"reserved":0,"last_update":"0001-01-01T00:00:00Z","name_a2s":"Uncletopia | Sydney | 4 | All Maps","protocol":17,"map":"pl_snowycoast","folder":"tf","game":"Team Fortress","app_id":440,"player_count":6,"max_players":24,"Bots":0,"server_type":"Dedicated","server_os":"Linux","password":true,"vac":true,"version":"7757534","steam_id":85568392925397958,"keywords":["nocrits","nodmgspread","payload","uncletopia"],"game_id":440,"stv_port":27046,"stv_name":"Uncletopia | Sydney | 4 | All Maps | STV","players":[{"user_id":4,"name":"mixyad3","steam_id":76561198046461767,"connected_time":2205000000000,"state":"active","ping":55},{"user_id":5,"name":"[RR] Gazza","steam_id":76561198195761449,"connected_time":2008000000000,"state":"active","ping":59},{"user_id":6,"name":"bobo","steam_id":76561198156622144,"connected_time":1848000000000,"state":"active","ping":45},{"user_id":8,"name":"Lord Oink","steam_id":76561198125237921,"connected_time":1430000000000,"state":"active","ping":37},{"user_id":9,"name":"ziah","steam_id":76561198159375596,"connected_time":1206000000000,"state":"active","ping":57},{"user_id":10,"name":"RR Nah (f2p)","steam_id":76561198869190432,"connected_time":1168000000000,"state":"active","ping":58}]},{"server_id":58,"name":"Uncletopia | Sydney | 5 | Stopwatch Beta","name_short":"syd-5","host":"syd-1.au.uncletopia.com","port":27055,"enabled":true,"region":"au","cc":"au","latitude":-33.865143,"longitude":151.2099,"reserved":0,"last_update":"0001-01-01T00:00:00Z","name_a2s":"Uncletopia | Sydney | 5 | Stopwatch Beta","protocol":17,"map":"koth_highpass","folder":"tf","game":"Team Fortress","app_id":440,"player_count":0,"max_players":24,"Bots":0,"server_type":"Dedicated","server_os":"Linux","password":true,"vac":true,"version":"7757534","steam_id":85568392925397959,"keywords":["cp","nocrits","nodmgspread","uncletopia"],"game_id":440,"stv_port":27056,"stv_name":"Uncletopia | Sydney | 5 | Stopwatch Beta | STV","players":null},{"server_id":59,"name":"Uncletopia | Sydney | 6 | Community","name_short":"syd-6","host":"syd-1.au.uncletopia.com","port":27065,"enabled":true,"region":"au","cc":"au","latitude":-33.865143,"longitude":151.2099,"reserved":0,"last_update":"0001-01-01T00:00:00Z","name_a2s":"Uncletopia | Sydney | 6 | Community","protocol":17,"map":"workshop/koth_synthetic_rc6a.ugc1549817316","folder":"tf","game":"Team Fortress","app_id":440,"player_count":0,"max_players":24,"Bots":0,"server_type":"Dedicated","server_os":"Linux","password":true,"vac":true,"version":"7757534","steam_id":85568392925397960,"keywords":["cp","nocrits","nodmgspread","uncletopia"],"game_id":440,"stv_port":27066,"stv_name":"Uncletopia | Sydney | 6 | Community | STV","players":null},{"server_id":49,"name":"Uncletopia | Warsaw | 1 | All Maps","name_short":"waw-1","host":"waw-1.pl.uncletopia.com","port":27015,"enabled":true,"region":"eu","cc":"pl","latitude":52.2297,"longitude":21.017532,"reserved":0,"last_update":"0001-01-01T00:00:00Z","name_a2s":"","protocol":0,"map":"","folder":"","game":"","app_id":0,"player_count":0,"max_players":0,"Bots":0,"server_type":"","server_os":"","password":false,"vac":false,"version":"","steam_id":0,"keywords":null,"game_id":0,"stv_port":0,"stv_name":"","players":null},{"server_id":50,"name":"Uncletopia | Warsaw | 2 | All Maps","name_short":"waw-2","host":"waw-1.pl.uncletopia.com","port":27025,"enabled":true,"region":"eu","cc":"pl","latitude":52.2297,"longitude":21.017532,"reserved":0,"last_update":"0001-01-01T00:00:00Z","name_a2s":"Uncletopia | Warsaw | 2 | All Maps","protocol":17,"map":"koth_lakeside_final","folder":"tf","game":"Team Fortress","app_id":440,"player_count":0,"max_players":24,"Bots":0,"server_type":"Dedicated","server_os":"Linux","password":true,"vac":true,"version":"7757534","steam_id":85568392925397851,"keywords":["cp","nocrits","nodmgspread","uncletopia"],"game_id":440,"stv_port":27026,"stv_name":"Uncletopia | Warsaw | 2 | All Maps | STV","players":null},{"server_id":51,"name":"Uncletopia | Warsaw | 3 | All Maps","name_short":"waw-3","host":"waw-1.pl.uncletopia.com","port":27035,"enabled":true,"region":"eu","cc":"pl","latitude":52.2297,"longitude":21.017532,"reserved":0,"last_update":"0001-01-01T00:00:00Z","name_a2s":"Uncletopia | Warsaw | 3 | All Maps","protocol":17,"map":"koth_cascade","folder":"tf","game":"Team Fortress","app_id":440,"player_count":0,"max_players":24,"Bots":0,"server_type":"Dedicated","server_os":"Linux","password":true,"vac":true,"version":"7757534","steam_id":85568392925397852,"keywords":["cp","nocrits","nodmgspread","uncletopia"],"game_id":440,"stv_port":27036,"stv_name":"Uncletopia | Warsaw | 3 | All Maps | STV","players":null},{"server_id":52,"name":"Uncletopia | Warsaw | 4 | All Maps","name_short":"waw-4","host":"waw-1.pl.uncletopia.com","port":27045,"enabled":true,"region":"eu","cc":"pl","latitude":52.2297,"longitude":21.017532,"reserved":0,"last_update":"0001-01-01T00:00:00Z","name_a2s":"Uncletopia | Warsaw | 4 | All Maps","protocol":17,"map":"pl_borneo","folder":"tf","game":"Team Fortress","app_id":440,"player_count":0,"max_players":24,"Bots":0,"server_type":"Dedicated","server_os":"Linux","password":true,"vac":true,"version":"7757534","steam_id":85568392925397853,"keywords":["nocrits","nodmgspread","payload","uncletopia"],"game_id":440,"stv_port":27046,"stv_name":"Uncletopia | Warsaw | 4 | All Maps | STV","players":null},{"server_id":53,"name":"Uncletopia | Warsaw | 5 | Stopwatch Beta","name_short":"waw-5","host":"waw-1.pl.uncletopia.com","port":27055,"enabled":true,"region":"eu","cc":"pl","latitude":52.2297,"longitude":21.017532,"reserved":0,"last_update":"0001-01-01T00:00:00Z","name_a2s":"Uncletopia | Warsaw | 5 | Stopwatch Beta","protocol":17,"map":"pl_barnblitz","folder":"tf","game":"Team Fortress","app_id":440,"player_count":0,"max_players":24,"Bots":0,"server_type":"Dedicated","server_os":"Linux","password":true,"vac":true,"version":"7757534","steam_id":85568392925397854,"keywords":["nocrits","nodmgspread","payload","uncletopia"],"game_id":440,"stv_port":27056,"stv_name":"Uncletopia | Warsaw | 5 | Stopwatch Beta | STV","players":null},{"server_id":54,"name":"Uncletopia | Warsaw | 6 | Community","name_short":"waw-6","host":"waw-1.pl.uncletopia.com","port":27065,"enabled":true,"region":"eu","cc":"pl","latitude":52.2297,"longitude":21.017532,"reserved":0,"last_update":"0001-01-01T00:00:00Z","name_a2s":"Uncletopia | Warsaw | 6 | Community","protocol":17,"map":"workshop/koth_trenchfoot_b1a.ugc731436616","folder":"tf","game":"Team Fortress","app_id":440,"player_count":0,"max_players":24,"Bots":0,"server_type":"Dedicated","server_os":"Linux","password":true,"vac":true,"version":"7757534","steam_id":85568392925397856,"keywords":["cp","nocrits","nodmgspread","uncletopia"],"game_id":440,"stv_port":27066,"stv_name":"Uncletopia | Warsaw | 6 | Community | STV","players":null}]}