{"status":true,"message":"","result":[{"server_id":9,"name":"Uncletopia | Atlanta | 1 | All Maps","name_short":"atl-1","host":"atl-1.us.uncletopia.com","port":27015,"enabled":true,"region":"us-east","cc":"us","latitude":33.753746,"longitude":-84.38633,"reserved":0,"last_update":"0001-01-01T00:00:00Z","name_a2s":"Uncletopia | Atlanta | 1 | All Maps","protocol":17,"map":"koth_lakeside_final","folder":"tf","game":"Team Fortress","app_id":440,"player_count":24,"max_players":24,"Bots":0,"server_type":"Dedicated","server_os":"Linux","password":true,"vac":true,"version":"7882260","steam_id":85568392924469982,"keywords":["cp","nocrits","nodmgspread","uncletopia"],"game_id":440,"stv_port":27016,"stv_name":"Uncletopia | Atlanta | 1 | All Maps | STV","players":[{"user_id":206,"name":"Captain Chicken","steam_id":76561198398677744,"connected_time":3510000000000,"state":"active","ping":90},{"user_id":190,"name":"JestinJester","steam_id":76561198411846094,"connected_time":4763000000000,"state":"active","ping":70},{"user_id":241,"name":"D r e a d ‚ò¢üíØ","steam_id":76561198059216451,"connected_time":567000000000,"state":"active","ping":60},{"user_id":244,"name":"NBA Youngboy","steam_id":76561199118797200,"connected_time":144000000000,"state":"active","ping":66},{"user_id":113,"name":"zzz","steam_id":76561198143727547,"connected_time":9963000000000,"state":"active","ping":110},{"user_id":227,"name":"RarestGuide","steam_id":76561198050338923,"connected_time":2005000000000,"state":"active","ping":72},{"user_id":238,"name":"Rafl","steam_id":76561198055222756,"connected_time":675000000000,"state":"active","ping":59},{"user_id":178,"name":"LasagneMan","steam_id":76561198971904377,"connected_time":5727000000000,"state":"active","ping":146},{"user_id":162,"name":"Oopsie Daisy ‚ùã","steam_id":76561198042144492,"connected_time":6907000000000,"state":"active","ping":54},{"user_id":208,"name":"DFR oakdotpng","steam_id":76561198092135570,"connected_time":3383000000000,"state":"active","ping":60},{"user_id":226,"name":"HarryjusttHarry","steam_id":76561198982810452,"connected_time":2008000000000,"state":"active","ping":71},{"user_id":129,"name":"wG deez","steam_id":76561198277163301,"connected_time":9028000000000,"state":"active","ping":79},{"user_id":243,"name":"Spiderfight1","steam_id":76561199189991528,"connected_time":404000000000,"state":"active","ping":71},{"user_id":182,"name":"superprogamerman2009","steam_id":76561199393831863,"connected_time":5569000000000,"state":"active","ping":135},{"user_id":222,"name":"Daniel Craig Fan","steam_id":76561198053467923,"connected_time":2227000000000,"state":"active","ping":77},{"user_id":242,"name":"Uzi bin Laden","steam_id":76561198218811453,"connected_time":515000000000,"state":"active","ping":77},{"user_id":183,"name":"noobkiller420","steam_id":76561198079416036,"connected_time":5512000000000,"state":"active","ping":82},{"user_id":192,"name":"lynt","steam_id":76561198988333976,"connected_time":4747000000000,"state":"active","ping":39},{"user_id":239,"name":"Toonice","steam_id":76561198402994885,"connected_time":654000000000,"state":"active","ping":83},{"user_id":245,"name":"(no monitor) ayylien","steam_id":76561198042127970,"connected_time":91000000000,"state":"active","ping":56},{"user_id":246,"name":"tostada","steam_id":76561198004481006,"connected_time":81000000000,"state":"active","ping":114},{"user_id":240,"name":"Motorol¬™","steam_id":76561198358119669,"connected_time":639000000000,"state":"active","ping":113},{"user_id":168,"name":"Sage","steam_id":76561198143101697,"connected_time":6619000000000,"state":"active","ping":110},{"user_id":193,"name":"noobfrotter69","steam_id":76561198249206656,"connected_time":4681000000000,"state":"active","ping":85}]},{"server_id":104,"name":"Uncletopia | Atlanta | 2 | All Maps","name_short":"atl-2","host":"atl-1.us.uncletopia.com","port":27025,"enabled":true,"region":"us-east","cc":"us","latitude":33.753746,"longitude":-84.38633,"reserved":0,"last_update":"0001-01-01T00:00:00Z","name_a2s":"Uncletopia | Atlanta | 2 | All Maps","protocol":17,"map":"cp_powerhouse","folder":"tf","game":"Team Fortress","app_id":440,"player_count":24,"max_players":24,"Bots":0,"server_type":"Dedicated","server_os":"Linux","password":true,"vac":true,"version":"7882260","steam_id":85568392924469983,"keywords":["cp","nocrits","nodmgspread","uncletopia"],"game_id":440,"stv_port":27026,"stv_name":"Uncletopia | Atlanta | 2 | All Maps | STV","players":[{"user_id":384,"name":"fruitpunch","steam_id":76561198156516161,"connected_time":2831000000000,"state":"active","ping":61},{"user_id":388,"name":"Notation","steam_id":76561198119509319,"connected_time":2757000000000,"state":"active","ping":46},{"user_id":418,"name":"Batsy","steam_id":76561198044767185,"connected_time":359000000000,"state":"active","ping":47},{"user_id":414,"name":"Coffee","steam_id":76561198098622184,"connected_time":498000000000,"state":"active","ping":63},{"user_id":409,"name":"trobin120","steam_id":76561199122420273,"connected_time":1010000000000,"state":"active","ping":62},{"user_id":422,"name":"the real babytron","steam_id":76561197989627918,"connected_time":301000000000,"state":"active","ping":79},{"user_id":417,"name":"Raine","steam_id":76561199081937889,"connected_time":371000000000,"state":"active","ping":50},{"user_id":403,"name":"lost in spaaaaace","steam_id":76561199085974120,"connected_time":1292000000000,"state":"active","ping":62},{"user_id":379,"name":"Romo","steam_id":76561198243101572,"connected_time":3092000000000,"state":"active","ping":62},{"user_id":424,"name":"nothing burger eater","steam_id":76561198046201690,"connected_time":160000000000,"state":"active","ping":150},{"user_id":402,"name":"Obelisk","steam_id":76561198049416866,"connected_time":1415000000000,"state":"active","ping":51},{"user_id":386,"name":"MineAGK","steam_id":76561198128372943,"connected_time":2829000000000,"state":"active","ping":87},{"user_id":420,"name":"Sentry Gun Main Man","steam_id":76561198327938247,"connected_time":334000000000,"state":"active","ping":85},{"user_id":394,"name":"reallyfriendly","steam_id":76561197996819313,"connected_time":2236000000000,"state":"active","ping":60},{"user_id":408,"name":"Smiles","steam_id":76561198107197973,"connected_time":1036000000000,"state":"active","ping":76},{"user_id":421,"name":"frizzle fried","steam_id":76561198062991744,"connected_time":314000000000,"state":"active","ping":63},{"user_id":356,"name":"ThatGamingKiwi","steam_id":76561199170522237,"connected_time":4049000000000,"state":"active","ping":95},{"user_id":316,"name":"SeaBass","steam_id":76561197982949108,"connected_time":8189000000000,"state":"active","ping":54},{"user_id":395,"name":"troll","steam_id":76561198040890252,"connected_time":2000000000000,"state":"active","ping":53},{"user_id":423,"name":"Frajer","steam_id":76561198059129680,"connected_time":301000000000,"state":"active","ping":86},{"user_id":393,"name":"Stakie","steam_id":76561198401556657,"connected_time":2328000000000,"state":"active","ping":163},{"user_id":412,"name":"tubby","steam_id":76561198174982661,"connected_time":650000000000,"state":"active","ping":67},{"user_id":425,"name":"Zin","steam_id":76561199041369507,"connected_time":142000000000,"state":"active","ping":76},{"user_id":365,"name":"Happy Yaoi Friday","steam_id":76561198111290441,"connected_time":3857000000000,"state":"active","ping":54}]},{"server_id":400,"name":"Uncletopia | Atlanta | 3 | Community","name_short":"atl-3","host":"atl-1.us.uncletopia.com","port":27035,"enabled":true,"region":"us-east","cc":"us","latitude":33.753746,"longitude":-84.38633,"reserved":0,"last_update":"0001-01-01T00:00:00Z","name_a2s":"Uncletopia | Atlanta | 3 | Community","protocol":17,"map":"workshop/cp_glassworks_rc6a.ugc454118349","folder":"tf","game":"Team Fortress","app_id":440,"player_count":0,"max_players":24,"Bots":0,"server_type":"Dedicated","server_os":"Linux","password":true,"vac":true,"version":"7882260","steam_id":85568392924515187,"keywords":["cp","nocrits","nodmgspread","uncletopia"],"game_id":440,"stv_port":27036,"stv_name":"Uncletopia | Atlanta | 3 | Community | STV","players":null},{"server_id":401,"name":"Uncletopia | Atlanta | 4 | No Payload","name_short":"atl-4","host":"atl-1.us.uncletopia.com","port":27045,"enabled":true,"region":"us-east","cc":"us","latitude":33.753746,"longitude":-84.38633,"reserved":0,"last_update":"0001-01-01T00:00:00Z","name_a2s":"","protocol":0,"map":"","folder":"","game":"","app_id":0,"player_count":0,"max_players":0,"Bots":0,"server_type":"","server_os":"","password":false,"vac":false,"version":"","steam_id":0,"keywords":null,"game_id":0,"stv_port":0,"stv_name":"","players":null},{"server_id":2,"name":"Uncletopia | Chicago | 1 | All Maps","name_short":"chi-1","host":"chi-1.us.uncletopia.com","port":27015,"enabled":true,"region":"us-central","cc":"us","latitude":41.881832,"longitude":-87.62318,"reserved":0,"last_update":"0001-01-01T00:00:00Z","name_a2s":"Uncletopia | Chicago | 1 | All Maps","protocol":17,"map":"pl_frontier_final","folder":"tf","game":"Team Fortress","app_id":440,"player_count":24,"max_players":24,"Bots":0,"server_type":"Dedicated","server_os":"Linux","password":true,"vac":true,"version":"7882260","steam_id":85568392924469984,"keywords":["nocrits","nodmgspread","payload","uncletopia"],"game_id":440,"stv_port":27016,"stv_name":"Uncletopia | Chicago | 1 | All Maps | STV","players":[{"user_id":289,"name":"LVL 4 Dispenser Gaming","steam_id":76561198044244547,"connected_time":184000000000,"state":"active","ping":78},{"user_id":275,"name":"Antifa Alligator","steam_id":76561197988170816,"connected_time":1011000000000,"state":"active","ping":60},{"user_id":266,"name":"caption cool","steam_id":76561197990612056,"connected_time":2265000000000,"state":"active","ping":46},{"user_id":276,"name":"B·µ¢g B‚Çí‚Çõ‚Çõ","steam_id":76561198090271815,"connected_time":983000000000,"state":"active","ping":107},{"user_id":286,"name":"Mystikkal","steam_id":76561198003949147,"connected_time":294000000000,"state":"active","ping":110},{"user_id":277,"name":"cringe","steam_id":76561198104086771,"connected_time":978000000000,"state":"active","ping":94},{"user_id":278,"name":"Tophu","steam_id":76561198380229671,"connected_time":959000000000,"state":"active","ping":66},{"user_id":287,"name":"kermitcreeper(ZAZA)","steam_id":76561199222829972,"connected_time":278000000000,"state":"active","ping":56},{"user_id":252,"name":"richard clock","steam_id":76561198048455671,"connected_time":3032000000000,"state":"active","ping":55},{"user_id":282,"name":"Crazy__Biscuit","steam_id":76561198399851872,"connected_time":779000000000,"state":"active","ping":56},{"user_id":279,"name":"God of bread","steam_id":76561198373688035,"connected_time":931000000000,"state":"active","ping":82},{"user_id":264,"name":"Shipmunk","steam_id":76561198063062670,"connected_time":2381000000000,"state":"active","ping":64},{"user_id":190,"name":"WatchWill","steam_id":76561198157237945,"connected_time":8771000000000,"state":"active","ping":72},{"user_id":268,"name":"Dwaggy","steam_id":76561198027369555,"connected_time":2118000000000,"state":"active","ping":65},{"user_id":200,"name":"vv","steam_id":76561198134813102,"connected_time":7839000000000,"state":"active","ping":60},{"user_id":214,"name":"the","steam_id":76561199026721822,"connected_time":6463000000000,"state":"active","ping":139},{"user_id":284,"name":"Lost CS player","steam_id":76561198892387723,"connected_time":607000000000,"state":"active","ping":72},{"user_id":280,"name":"gideon nav my beloved","steam_id":76561198259092181,"connected_time":899000000000,"state":"active","ping":68},{"user_id":291,"name":"comfy and cozy","steam_id":76561198860068961,"connected_time":145000000000,"state":"active","ping":63},{"user_id":293,"name":"Schmingus","steam_id":76561199476148332,"connected_time":60000000000,"state":"active","ping":110},{"user_id":262,"name":"LightningBlitz47","steam_id":76561198310971283,"connected_time":2789000000000,"state":"active","ping":104},{"user_id":285,"name":"0","steam_id":76561198994761483,"connected_time":352000000000,"state":"active","ping":99},{"user_id":294,"name":"[UHS] K24A4 2.4","steam_id":76561199072970627,"connected_time":44000000000,"state":"active","ping":45}]},{"server_id":106,"name":"Uncletopia | Chicago | 2 | All Maps","name_short":"chi-2","host":"chi-1.us.uncletopia.com","port":27025,"enabled":true,"region":"us-central","cc":"us","latitude":41.881832,"longitude":-87.62318,"reserved":0,"last_update":"0001-01-01T00:00:00Z","name_a2s":"Uncletopia | Chicago | 2 | All Maps","protocol":17,"map":"pl_barnblitz","folder":"tf","game":"Team Fortress","app_id":440,"player_count":24,"max_players":24,"Bots":0,"server_type":"Dedicated","server_os":"Linux","password":true,"vac":true,"version":"7882260","steam_id":85568392924469985,"keywords":["nocrits","nodmgspread","payload","uncletopia"],"game_id":440,"stv_port":27026,"stv_name":"Uncletopia | Chicago | 2 | All Maps | STV","players":[{"user_id":12,"name":"The Barnyard","steam_id":76561199062074592,"connected_time":4326000000000,"state":"active","ping":54},{"user_id":32,"name":"BATLORD","steam_id":76561197999278866,"connected_time":1905000000000,"state":"active","ping":98},{"user_id":28,"name":"Professional Brohamad","steam_id":76561198824025210,"connected_time":2237000000000,"state":"active","ping":47},{"user_id":30,"name":"The KING Assripper","steam_id":76561199127423378,"connected_time":2006000000000,"state":"active","ping":115},{"user_id":34,"name":"LemonZest","steam_id":76561199196369249,"connected_time":1725000000000,"state":"active","ping":77},{"user_id":19,"name":"Cynicalrage #TF2center","steam_id":76561198085805532,"connected_time":3234000000000,"state":"active","ping":75},{"user_id":31,"name":"ultralisk52","steam_id":76561198051666604,"connected_time":1942000000000,"state":"active","ping":63},{"user_id":35,"name":"Get Beaned","steam_id":76561198391590820,"connected_time":1720000000000,"state":"active","ping":111},{"user_id":36,"name":"Rickety Cricket","steam_id":76561198025814747,"connected_time":1651000000000,"state":"active","ping":80},{"user_id":37,"name":"UNIT 220","steam_id":76561198042243497,"connected_time":1635000000000,"state":"active","ping":65},{"user_id":38,"name":"Jasper Zawn","steam_id":76561198077651204,"connected_time":1629000000000,"state":"active","ping":63},{"user_id":39,"name":"Weebmcgee","steam_id":76561198081231557,"connected_time":1613000000000,"state":"active","ping":65},{"user_id":40,"name":"crashymicsplody","steam_id":76561198213916765,"connected_time":1585000000000,"state":"active","ping":59},{"user_id":53,"name":"caberknight tf2  (f2p-ish)","steam_id":76561199273882768,"connected_time":1204000000000,"state":"active","ping":67},{"user_id":55,"name":"Detective X „ÉÑ","steam_id":76561198191880906,"connected_time":837000000000,"state":"active","ping":81},{"user_id":46,"name":"uzr","steam_id":76561198799343084,"connected_time":1372000000000,"state":"active","ping":106},{"user_id":44,"name":"Luscious Ham","steam_id":76561199065549686,"connected_time":1493000000000,"state":"active","ping":59},{"user_id":56,"name":"Mburesh","steam_id":76561198137460717,"connected_time":322000000000,"state":"active","ping":87},{"user_id":48,"name":"izzydex","steam_id":76561199101531034,"connected_time":1346000000000,"state":"active","ping":58},{"user_id":49,"name":"Assitins","steam_id":76561198041572892,"connected_time":1332000000000,"state":"active","ping":71},{"user_id":50,"name":"Bee","steam_id":76561198074681324,"connected_time":1330000000000,"state":"active","ping":60},{"user_id":51,"name":"nurp","steam_id":76561198071687616,"connected_time":1299000000000,"state":"active","ping":62},{"user_id":52,"name":"Racist(in Minecraft)","steam_id":76561198117206414,"connected_time":1284000000000,"state":"active","ping":75},{"user_id":54,"name":"sound","steam_id":76561199053033603,"connected_time":1197000000000,"state":"active","ping":124}]},{"server_id":402,"name":"Uncletopia | Chicago | 3 | All Maps","name_short":"chi-3","host":"chi-1.us.uncletopia.com","port":27035,"enabled":true,"region":"us-central","cc":"us","latitude":41.881832,"longitude":-87.62318,"reserved":0,"last_update":"0001-01-01T00:00:00Z","name_a2s":"Uncletopia | Chicago | 3 | All Maps","protocol":17,"map":"pl_badwater","folder":"tf","game":"Team Fortress","app_id":440,"player_count":0,"max_players":24,"Bots":0,"server_type":"Dedicated","server_os":"Linux","password":true,"vac":true,"version":"7882260","steam_id":85568392924515191,"keywords":["nocrits","nodmgspread","payload","uncletopia"],"game_id":440,"stv_port":27036,"stv_name":"Uncletopia | Chicago | 3 | All Maps | STV","players":null},{"server_id":403,"name":"Uncletopia | Chicago | 4 | All Maps","name_short":"chi-4","host":"chi-1.us.uncletopia.com","port":27045,"enabled":true,"region":"us-central","cc":"us","latitude":41.881832,"longitude":-87.62318,"reserved":0,"last_update":"0001-01-01T00:00:00Z","name_a2s":"Uncletopia | Chicago | 4 | All Maps","protocol":17,"map":"koth_cascade","folder":"tf","game":"Team Fortress","app_id":440,"player_count":0,"max_players":24,"Bots":0,"server_type":"Dedicated","server_os":"Linux","password":true,"vac":true,"version":"7882260","steam_id":85568392924515193,"keywords":["cp","nocrits","nodmgspread","uncletopia"],"game_id":440,"stv_port":27046,"stv_name":"Uncletopia | Chicago | 4 | All Maps | STV","players":null},{"server_id":36,"name":"Uncletopia | Chicago | 5 | All Maps","name_short":"chi-5","host":"chi-2.us.uncletopia.com","port":27015,"enabled":true,"region":"us-central","cc":"us","latitude":41.881832,"longitude":-87.62318,"reserved":0,"last_update":"0001-01-01T00:00:00Z","name_a2s":"Uncletopia | Chicago | 5 | All Maps","protocol":17,"map":"pl_snowycoast","folder":"tf","game":"Team Fortress","app_id":440,"player_count":0,"max_players":24,"Bots":0,"server_type":"Dedicated","server_os":"Linux","password":true,"vac":true,"version":"7882260","steam_id":85568392924866362,"keywords":["nocrits","nodmgspread","payload","uncletopia"],"game_id":440,"stv_port":27016,"stv_name":"Uncletopia | Chicago | 5 | All Maps | STV","players":null},{"server_id":37,"name":"Uncletopia | Chicago | 6 | All Maps","name_short":"chi-6","host":"chi-2.us.uncletopia.com","port":27025,"enabled":true,"region":"us-central","cc":"us","latitude":41.881832,"longitude":-87.62318,"reserved":0,"last_update":"0001-01-01T00:00:00Z","name_a2s":"Uncletopia | Chicago | 6 | All Maps","protocol":17,"map":"koth_cascade","folder":"tf","game":"Team Fortress","app_id":440,"player_count":0,"max_players":24,"Bots":0,"server_type":"Dedicated","server_os":"Linux","password":true,"vac":true,"version":"7882260","steam_id":85568392924866363,"keywords":["cp","nocrits","nodmgspread","uncletopia"],"game_id":440,"stv_port":27026,"stv_name":"Uncletopia | Chicago | 6 | All Maps | STV","players":null},{"server_id":38,"name":"Uncletopia | Chicago | 7 | Stopwatch Beta","name_short":"chi-7","host":"chi-2.us.uncletopia.com","port":27035,"enabled":true,"region":"us-central","cc":"us","latitude":41.881832,"longitude":-87.62318,"reserved":0,"last_update":"0001-01-01T00:00:00Z","name_a2s":"Uncletopia | Chicago | 7 | Stopwatch Beta","protocol":17,"map":"workshop/cp_process_f12.ugc2302948105","folder":"tf","game":"Team Fortress","app_id":440,"player_count":0,"max_players":24,"Bots":0,"server_type":"Dedicated","server_os":"Linux","password":true,"vac":true,"version":"7882260","steam_id":85568392924866364,"keywords":["cp","nocrits","nodmgspread","uncletopia"],"game_id":440,"stv_port":27036,"stv_name":"Uncletopia | Chicago | 7 | Stopwatch Beta | STV","players":null},{"server_id":39,"name":"Uncletopia | Chicago | 8 | Community","name_short":"chi-8","host":"chi-2.us.uncletopia.com","port":27045,"enabled":true,"region":"us-central","cc":"us","latitude":41.881832,"longitude":-87.62318,"reserved":0,"last_update":"0001-01-01T00:00:00Z","name_a2s":"Uncletopia | Chicago | 8 | Community","protocol":17,"map":"workshop/cp_kalinka_rc6a.ugc1272700588","folder":"tf","game":"Team Fortress","app_id":440,"player_count":0,"max_players":24,"Bots":0,"server_type":"Dedicated","server_os":"Linux","password":true,"vac":true,"version":"7882260","steam_id":85568392924866365,"keywords":["cp","nocrits","nodmgspread","uncletopia"],"game_id":440,"stv_port":27046,"stv_name":"Uncletopia | Chicago | 8 | Community | STV","players":null},{"server_id":8,"name":"Uncletopia | Dallas | 1 | All Maps","name_short":"dal-1","host":"dal-1.us.uncletopia.com","port":27015,"enabled":true,"region":"us-central","cc":"us","latitude":32.779167,"longitude":-96.80889,"reserved":0,"last_update":"0001-01-01T00:00:00Z","name_a2s":"Uncletopia | Dallas | 1 | All Maps","protocol":17,"map":"pl_rumford_event","folder":"tf","game":"Team Fortress","app_id":440,"player_count":24,"max_players":24,"Bots":0,"server_type":"Dedicated","server_os":"Linux","password":true,"vac":true,"version":"7882260","steam_id":85568392924469986,"keywords":["nocrits","nodmgspread","payload","uncletopia"],"game_id":440,"stv_port":27016,"stv_name":"Uncletopia | Dallas | 1 | All Maps | STV","players":[{"user_id":123,"name":"g00bur","steam_id":76561197993622520,"connected_time":1413000000000,"state":"active","ping":86},{"user_id":103,"name":"Speedy","steam_id":76561198873086850,"connected_time":2831000000000,"state":"active","ping":95},{"user_id":116,"name":"epicsauce guy 9491","steam_id":76561198414336279,"connected_time":1695000000000,"state":"active","ping":61},{"user_id":99,"name":"Boomer Gaming","steam_id":76561198037803087,"connected_time":3020000000000,"state":"active","ping":65},{"user_id":117,"name":"Big Man","steam_id":76561198353366625,"connected_time":1653000000000,"state":"active","ping":83},{"user_id":78,"name":"Conclusion E¬≤","steam_id":76561198100017156,"connected_time":4362000000000,"state":"active","ping":82},{"user_id":146,"name":"LucentOwl","steam_id":76561198140978957,"connected_time":274000000000,"state":"active","ping":59},{"user_id":110,"name":"Orca?","steam_id":76561198164341099,"connected_time":1971000000000,"state":"active","ping":71},{"user_id":143,"name":"BenP18","steam_id":76561198030844446,"connected_time":306000000000,"state":"active","ping":59},{"user_id":119,"name":"Specterbomb","steam_id":76561198224550712,"connected_time":1492000000000,"state":"active","ping":124},{"user_id":76,"name":"M","steam_id":76561198255827013,"connected_time":4401000000000,"state":"active","ping":120},{"user_id":120,"name":"mkl","steam_id":76561197986401685,"connected_time":1477000000000,"state":"active","ping":67},{"user_id":138,"name":"Legit_Jaxer","steam_id":76561198172234053,"connected_time":836000000000,"state":"active","ping":99},{"user_id":144,"name":"JZ","steam_id":76561198377029198,"connected_time":298000000000,"state":"active","ping":65},{"user_id":122,"name":"Kid B8","steam_id":76561198086764710,"connected_time":1417000000000,"state":"active","ping":78},{"user_id":139,"name":"Rukh","steam_id":76561197999361315,"connected_time":815000000000,"state":"active","ping":99},{"user_id":145,"name":"Arrluk","steam_id":76561198396679452,"connected_time":291000000000,"state":"active","ping":73},{"user_id":39,"name":"escape","steam_id":76561198119689085,"connected_time":6129000000000,"state":"active","ping":74},{"user_id":125,"name":"Primal","steam_id":76561197983118203,"connected_time":1344000000000,"state":"active","ping":101},{"user_id":136,"name":"Jones","steam_id":76561198046037216,"connected_time":1007000000000,"state":"active","ping":146},{"user_id":129,"name":"DaveGhostman #SaveTF2","steam_id":76561198293806628,"connected_time":1277000000000,"state":"active","ping":74},{"user_id":133,"name":"double tap 2.0","steam_id":76561198062146253,"connected_time":1180000000000,"state":"active","ping":131},{"user_id":134,"name":"creeeeeee","steam_id":76561198392539722,"connected_time":1091000000000,"state":"active","ping":86},{"user_id":141,"name":"no doubt a spy","steam_id":76561199030218131,"connected_time":358000000000,"state":"active","ping":142}]},{"server_id":108,"name":"Uncletopia | Dallas | 2 | All Maps","name_short":"dal-2","host":"dal-1.us.uncletopia.com","port":27025,"enabled":true,"region":"us-central","cc":"us","latitude":32.779167,"longitude":-96.80889,"reserved":0,"last_update":"0001-01-01T00:00:00Z","name_a2s":"Uncletopia | Dallas | 2 | All Maps","protocol":17,"map":"ctf_2fort","folder":"tf","game":"Team Fortress","app_id":440,"player_count":11,"max_players":24,"Bots":0,"server_type":"Dedicated","server_os":"Linux","password":true,"vac":true,"version":"7882260","steam_id":85568392924469988,"keywords":["ctf","nocrits","nodmgspread","uncletopia"],"game_id":440,"stv_port":27026,"stv_name":"Uncletopia | Dallas | 2 | All Maps | STV","players":[{"user_id":33,"name":"bachphong760","steam_id":76561199433780443,"connected_time":163000000000,"state":"active","ping":99},{"user_id":11,"name":"god gamer","steam_id":76561198168149434,"connected_time":2494000000000,"state":"active","ping":114},{"user_id":12,"name":"AstroVulpes","steam_id":76561198384277161,"connected_time":2427000000000,"state":"active","ping":171},{"user_id":13,"name":"craf","steam_id":76561198163535075,"connected_time":2093000000000,"state":"active","ping":88},{"user_id":14,"name":"OrangeSodaMachine","steam_id":76561198079230156,"connected_time":2071000000000,"state":"active","ping":73},{"user_id":15,"name":"TheBurningPhoenix","steam_id":76561198123620770,"connected_time":2009000000000,"state":"active","ping":103},{"user_id":29,"name":"milk master","steam_id":76561198127851014,"connected_time":499000000000,"state":"active","ping":40},{"user_id":17,"name":"‚ô•Npenplz‚ô•","steam_id":76561197999605423,"connected_time":1990000000000,"state":"active","ping":83},{"user_id":30,"name":"Sly Marbo","steam_id":76561198056476987,"connected_time":455000000000,"state":"active","ping":65},{"user_id":31,"name":"Spinch","steam_id":76561198296224166,"connected_time":270000000000,"state":"active","ping":79},{"user_id":32,"name":"Sanic","steam_id":76561198083124962,"connected_time":256000000000,"state":"active","ping":236}]},{"server_id":5,"name":"Uncletopia | Frankfurt | 1 | All Maps","name_short":"frk-1","host":"frk-1.de.uncletopia.com","port":27015,"enabled":true,"region":"eu","cc":"de","latitude":50.110924,"longitude":8.682127,"reserved":0,"last_update":"0001-01-01T00:00:00Z","name_a2s":"Uncletopia | Frankfurt | 1 | All Maps","protocol":17,"map":"koth_king","folder":"tf","game":"Team Fortress","app_id":440,"player_count":24,"max_players":24,"Bots":0,"server_type":"Dedicated","server_os":"Linux","password":true,"vac":true,"version":"7882260","steam_id":85568392924469989,"keywords":["cp","nocrits","nodmgspread","uncletopia"],"game_id":440,"stv_port":27016,"stv_name":"Uncletopia | Frankfurt | 1 | All Maps | STV","players":[{"user_id":397,"name":"oscar","steam_id":76561198079636127,"connected_time":2043000000000,"state":"active","ping":80},{"user_id":372,"name":"SpaceNut","steam_id":76561198059198302,"connected_time":3419000000000,"state":"active","ping":62},{"user_id":400,"name":"Rainbow Sapling","steam_id":76561198127682941,"connected_time":1572000000000,"state":"active","ping":79},{"user_id":419,"name":"ScaryTree","steam_id":76561199384362833,"connected_time":175000000000,"state":"active","ping":74},{"user_id":367,"name":"kremlin = terrorists","steam_id":76561198065009070,"connected_time":4219000000000,"state":"active","ping":80},{"user_id":402,"name":"Lugialf","steam_id":76561198069050794,"connected_time":1350000000000,"state":"active","ping":85},{"user_id":409,"name":"I am piss man","steam_id":76561198039209685,"connected_time":939000000000,"state":"active","ping":57},{"user_id":416,"name":"HOI","steam_id":76561198061182117,"connected_time":643000000000,"state":"active","ping":62},{"user_id":404,"name":"Carter","steam_id":76561198005243938,"connected_time":1162000000000,"state":"active","ping":75},{"user_id":420,"name":"bubamara69","steam_id":76561198866870398,"connected_time":29000000000,"state":"spawning","ping":72},{"user_id":407,"name":"Ross from F.R.I.E.N.D.S.","steam_id":76561198008511665,"connected_time":1039000000000,"state":"active","ping":60},{"user_id":393,"name":"Filleman","steam_id":76561198159386946,"connected_time":2272000000000,"state":"active","ping":63},{"user_id":345,"name":"BrotherPotato","steam_id":76561198049948120,"connected_time":6326000000000,"state":"active","ping":75},{"user_id":388,"name":"F2P gameing","steam_id":76561198834713682,"connected_time":2699000000000,"state":"active","ping":77},{"user_id":376,"name":"Ketich","steam_id":76561198021772703,"connected_time":3143000000000,"state":"active","ping":74},{"user_id":333,"name":"giclure :;","steam_id":76561197986362828,"connected_time":7132000000000,"state":"active","ping":60},{"user_id":394,"name":"La-Li-Lu-Le-Lo","steam_id":76561198047990600,"connected_time":2200000000000,"state":"active","ping":57},{"user_id":405,"name":"Hildreth","steam_id":76561197995254867,"connected_time":1124000000000,"state":"active","ping":62},{"user_id":418,"name":"peso enjoyer","steam_id":76561198798177799,"connected_time":347000000000,"state":"active","ping":71},{"user_id":411,"name":"Valkyr","steam_id":76561197994049208,"connected_time":860000000000,"state":"active","ping":64},{"user_id":366,"name":"bunglar","steam_id":76561198027374166,"connected_time":4237000000000,"state":"active","ping":53},{"user_id":414,"name":"cyc –ø—Å–∏—Ö–æ–∫–∏–¥","steam_id":76561198039233724,"connected_time":773000000000,"state":"active","ping":117},{"user_id":369,"name":"Adam","steam_id":76561198062388802,"connected_time":4115000000000,"state":"active","ping":46},{"user_id":371,"name":"pavlik rohlik","steam_id":76561198110544279,"connected_time":3717000000000,"state":"active","ping":48}]},{"server_id":110,"name":"Uncletopia | Frankfurt | 2 | All Maps","name_short":"frk-2","host":"frk-1.de.uncletopia.com","port":27025,"enabled":true,"region":"eu","cc":"de","latitude":50.110924,"longitude":8.682127,"reserved":0,"last_update":"0001-01-01T00:00:00Z","name_a2s":"Uncletopia | Frankfurt | 2 | All Maps","protocol":17,"map":"cp_process_final","folder":"tf","game":"Team Fortress","app_id":440,"player_count":24,"max_players":24,"Bots":0,"server_type":"Dedicated","server_os":"Linux","password":true,"vac":true,"version":"7882260","steam_id":85568392924469990,"keywords":["cp","nocrits","nodmgspread","uncletopia"],"game_id":440,"stv_port":27026,"stv_name":"Uncletopia | Frankfurt | 2 | All Maps | STV","players":[{"user_id":535,"name":"Klifton","steam_id":76561198803743443,"connected_time":2028000000000,"state":"active","ping":74},{"user_id":563,"name":"TND","steam_id":76561197996379424,"connected_time":273000000000,"state":"active","ping":60},{"user_id":564,"name":"Dope","steam_id":76561198318858892,"connected_time":267000000000,"state":"active","ping":70},{"user_id":553,"name":"Swedish Vegan","steam_id":76561198042775020,"connected_time":954000000000,"state":"active","ping":78},{"user_id":565,"name":"Better Call Medic","steam_id":76561198939711234,"connected_time":191000000000,"state":"active","ping":116},{"user_id":554,"name":"glyph","steam_id":76561197980736364,"connected_time":949000000000,"state":"active","ping":76},{"user_id":555,"name":"vdova v√Ωrobce","steam_id":76561198012946164,"connected_time":898000000000,"state":"active","ping":65},{"user_id":500,"name":"Tison","steam_id":76561199127635841,"connected_time":4791000000000,"state":"active","ping":34},{"user_id":529,"name":"Dimitri_612","steam_id":76561199223984137,"connected_time":2312000000000,"state":"active","ping":45},{"user_id":530,"name":"David \"Crash\" Murphy","steam_id":76561198292845505,"connected_time":2306000000000,"state":"active","ping":91},{"user_id":566,"name":"MMMonkey | trade.tf","steam_id":76561198118917458,"connected_time":118000000000,"state":"active","ping":114},{"user_id":557,"name":"siamang ape","steam_id":76561198366599617,"connected_time":892000000000,"state":"active","ping":60},{"user_id":567,"name":"Commando Booce","steam_id":76561199209786129,"connected_time":115000000000,"state":"active","ping":114},{"user_id":537,"name":"Magirby","steam_id":76561198818777390,"connected_time":1958000000000,"state":"active","ping":103},{"user_id":540,"name":"L3ONNE","steam_id":76561198308893829,"connected_time":1916000000000,"state":"active","ping":58},{"user_id":539,"name":"Akiron","steam_id":76561199267799044,"connected_time":1920000000000,"state":"active","ping":86},{"user_id":541,"name":"EastmoreRandoms.","steam_id":76561198048921203,"connected_time":1911000000000,"state":"active","ping":74},{"user_id":550,"name":"Torttu","steam_id":76561198013980029,"connected_time":1669000000000,"state":"active","ping":60},{"user_id":543,"name":"nibsÓÑ∏","steam_id":76561198040099538,"connected_time":1871000000000,"state":"active","ping":75},{"user_id":545,"name":"Sniper is poorly designed","steam_id":76561198357107806,"connected_time":1732000000000,"state":"active","ping":61},{"user_id":569,"name":"Ruvix","steam_id":76561198239689346,"connected_time":33000000000,"state":"active","ping":75},{"user_id":547,"name":"Kan0_","steam_id":76561198129596771,"connected_time":1718000000000,"state":"active","ping":50},{"user_id":552,"name":"TidB","steam_id":76561198055342304,"connected_time":1333000000000,"state":"active","ping":60},{"user_id":549,"name":"MrBanana","steam_id":76561198116021623,"connected_time":1705000000000,"state":"active","ping":47}]},{"server_id":308,"name":"Uncletopia | Frankfurt | 3 | All Maps","name_short":"frk-3","host":"frk-1.de.uncletopia.com","port":27035,"enabled":true,"region":"eu","cc":"de","latitude":50.110924,"longitude":8.682127,"reserved":0,"last_update":"0001-01-01T00:00:00Z","name_a2s":"Uncletopia | Frankfurt | 3 | All Maps","protocol":17,"map":"pl_goldrush","folder":"tf","game":"Team Fortress","app_id":440,"player_count":24,"max_players":24,"Bots":0,"server_type":"Dedicated","server_os":"Linux","password":true,"vac":true,"version":"7882260","steam_id":85568392924504274,"keywords":["nocrits","nodmgspread","payload","uncletopia"],"game_id":440,"stv_port":27036,"stv_name":"Uncletopia | Frankfurt | 3 | All Maps | STV","players":[{"user_id":945,"name":"Eith__","steam_id":76561198164775785,"connected_time":2242000000000,"state":"active","ping":73},{"user_id":954,"name":"Dr.Cranium","steam_id":76561197992726926,"connected_time":1469000000000,"state":"active","ping":110},{"user_id":931,"name":"Littleyoshifan","steam_id":76561198445491045,"connected_time":2540000000000,"state":"active","ping":51},{"user_id":975,"name":"Oxy:*","steam_id":76561198275120049,"connected_time":282000000000,"state":"active","ping":67},{"user_id":957,"name":"usia","steam_id":76561198120406679,"connected_time":1078000000000,"state":"active","ping":92},{"user_id":933,"name":"69 ME 2NITE","steam_id":76561199124261801,"connected_time":2515000000000,"state":"active","ping":102},{"user_id":922,"name":"szmen","steam_id":76561198072569764,"connected_time":3452000000000,"state":"active","ping":72},{"user_id":956,"name":"Kocham Wode z Filtra","steam_id":76561198016042113,"connected_time":1113000000000,"state":"active","ping":86},{"user_id":960,"name":"Emma","steam_id":76561198076724979,"connected_time":790000000000,"state":"active","ping":60},{"user_id":959,"name":"F.Fazbear","steam_id":76561198406606196,"connected_time":903000000000,"state":"active","ping":83},{"user_id":936,"name":"Kowakum","steam_id":76561197998125950,"connected_time":2498000000000,"state":"active","ping":100},{"user_id":962,"name":"Rasbatu","steam_id":76561198119364896,"connected_time":735000000000,"state":"active","ping":86},{"user_id":937,"name":"Washburne","steam_id":76561198032810579,"connected_time":2495000000000,"state":"active","ping":69},{"user_id":862,"name":"Loki Beaker","steam_id":76561198048086250,"connected_time":6904000000000,"state":"active","ping":51},{"user_id":977,"name":"Sakari","steam_id":76561197997811299,"connected_time":114000000000,"state":"active","ping":59},{"user_id":978,"name":"Ë™∞„Åã„ÅåË¶ã„Å¶„ÅÑ„Çã","steam_id":76561198834913692,"connected_time":43000000000,"state":"active","ping":65},{"user_id":965,"name":"lightsabers","steam_id":76561198101292843,"connected_time":544000000000,"state":"active","ping":56},{"user_id":972,"name":"Dill Killem","steam_id":76561199071571354,"connected_time":388000000000,"state":"active","ping":77},{"user_id":898,"name":"Charmedelf","steam_id":76561197993611881,"connected_time":5490000000000,"state":"active","ping":60},{"user_id":970,"name":"Makasim:)","steam_id":76561198816061842,"connected_time":444000000000,"state":"active","ping":72},{"user_id":968,"name":"D_Ink","steam_id":76561198267716662,"connected_time":471000000000,"state":"active","ping":59},{"user_id":969,"name":"Egor Pomidor","steam_id":76561199175688390,"connected_time":471000000000,"state":"active","ping":83},{"user_id":971,"name":"boofing prozac","steam_id":76561198851157897,"connected_time":412000000000,"state":"active","ping":81},{"user_id":973,"name":"Matteo Il Biondo","steam_id":76561198315389475,"connected_time":373000000000,"state":"active","ping":70}]},{"server_id":309,"name":"Uncletopia | Frankfurt | 4 | All Maps","name_short":"frk-4","host":"frk-1.de.uncletopia.com","port":27045,"enabled":true,"region":"eu","cc":"de","latitude":50.110924,"longitude":8.682127,"reserved":0,"last_update":"0001-01-01T00:00:00Z","name_a2s":"Uncletopia | Frankfurt | 4 | All Maps","protocol":17,"map":"koth_highpass","folder":"tf","game":"Team Fortress","app_id":440,"player_count":8,"max_players":24,"Bots":0,"server_type":"Dedicated","server_os":"Linux","password":true,"vac":true,"version":"7882260","steam_id":85568392924504275,"keywords":["cp","nocrits","nodmgspread","uncletopia"],"game_id":440,"stv_port":27046,"stv_name":"Uncletopia | Frankfurt | 4 | All Maps | STV","players":[{"user_id":107,"name":"p (real)","steam_id":76561198839843428,"connected_time":2541000000000,"state":"active","ping":121},{"user_id":111,"name":"a","steam_id":76561198390523242,"connected_time":1601000000000,"state":"active","ping":74},{"user_id":116,"name":"ran is running","steam_id":76561199443185667,"connected_time":665000000000,"state":"active","ping":130},{"user_id":117,"name":"F","steam_id":76561199149462792,"connected_time":431000000000,"state":"active","ping":69},{"user_id":113,"name":"Concorde","steam_id":76561199141714627,"connected_time":1195000000000,"state":"active","ping":73},{"user_id":114,"name":"GREEP","steam_id":76561199443547191,"connected_time":1144000000000,"state":"active","ping":70},{"user_id":115,"name":"r","steam_id":76561198410598772,"connected_time":784000000000,"state":"active","ping":57},{"user_id":118,"name":"Diezel Z","steam_id":76561198391803889,"connected_time":126000000000,"state":"active","ping":87}]},{"server_id":310,"name":"Uncletopia | Frankfurt | 5 | All Maps","name_short":"frk-5","host":"frk-1.de.uncletopia.com","port":27055,"enabled":true,"region":"eu","cc":"de","latitude":50.110924,"longitude":8.682127,"reserved":0,"last_update":"0001-01-01T00:00:00Z","name_a2s":"Uncletopia | Frankfurt | 5 | All Maps","protocol":17,"map":"pl_badwater","folder":"tf","game":"Team Fortress","app_id":440,"player_count":24,"max_players":24,"Bots":0,"server_type":"Dedicated","server_os":"Linux","password":true,"vac":true,"version":"7882260","steam_id":85568392924504277,"keywords":["nocrits","nodmgspread","payload","uncletopia"],"game_id":440,"stv_port":27056,"stv_name":"Uncletopia | Frankfurt | 5 | All Maps | STV","players":[{"user_id":201,"name":"JohkupohkuXD","steam_id":76561198391108762,"connected_time":333000000000,"state":"active","ping":84},{"user_id":198,"name":"the_Qcumber","steam_id":76561199152515819,"connected_time":502000000000,"state":"active","ping":79},{"user_id":163,"name":"An unnecessary Jojo reference","steam_id":76561198121764825,"connected_time":3882000000000,"state":"active","ping":62},{"user_id":199,"name":"Eosson","steam_id":76561198108642113,"connected_time":440000000000,"state":"active","ping":165},{"user_id":177,"name":"cazador","steam_id":76561198123096922,"connected_time":2825000000000,"state":"active","ping":90},{"user_id":204,"name":"Kildon","steam_id":76561198134661558,"connected_time":271000000000,"state":"active","ping":89},{"user_id":68,"name":"Mr. Mietsch","steam_id":76561198077516818,"connected_time":12723000000000,"state":"active","ping":52},{"user_id":211,"name":"Ecton","steam_id":76561198025103720,"connected_time":11000000000,"state":"spawning","ping":68},{"user_id":165,"name":"xavier","steam_id":76561198076494034,"connected_time":3035000000000,"state":"active","ping":58},{"user_id":209,"name":"Miles","steam_id":76561198084891833,"connected_time":140000000000,"state":"active","ping":46},{"user_id":193,"name":"Galzra87","steam_id":76561198063414443,"connected_time":1245000000000,"state":"active","ping":68},{"user_id":143,"name":"Lyncurion","steam_id":76561199260022725,"connected_time":5348000000000,"state":"active","ping":80},{"user_id":189,"name":"hananamanna","steam_id":76561198006570285,"connected_time":1343000000000,"state":"active","ping":103},{"user_id":172,"name":"Vershal Smershal","steam_id":76561198116223995,"connected_time":2917000000000,"state":"active","ping":61},{"user_id":203,"name":"Bonk my Balls","steam_id":76561198070154445,"connected_time":293000000000,"state":"active","ping":166},{"user_id":195,"name":"dimitrij_6ix_god","steam_id":76561199023275543,"connected_time":1115000000000,"state":"active","ping":75},{"user_id":140,"name":"Rahu 'Siebren' Godless","steam_id":76561198276259175,"connected_time":5652000000000,"state":"active","ping":100},{"user_id":197,"name":"kryhu","steam_id":76561198293327713,"connected_time":530000000000,"state":"active","ping":73},{"user_id":205,"name":"Muppburg","steam_id":76561198031070682,"connected_time":264000000000,"state":"active","ping":78},{"user_id":206,"name":"‡πñAtomicskullz","steam_id":76561197970627347,"connected_time":256000000000,"state":"active","ping":169},{"user_id":182,"name":"Snd","steam_id":76561198010816408,"connected_time":2736000000000,"state":"active","ping":117},{"user_id":194,"name":"Crunchips","steam_id":76561198004336818,"connected_time":1178000000000,"state":"active","ping":98},{"user_id":188,"name":"HelwiiHill","steam_id":76561198066730552,"connected_time":1613000000000,"state":"active","ping":84},{"user_id":208,"name":"Combat Wombat","steam_id":76561197994720068,"connected_time":186000000000,"state":"active","ping":71}]},{"server_id":311,"name":"Uncletopia | Frankfurt | 6 | All Maps","name_short":"frk-6","host":"frk-1.de.uncletopia.com","port":27065,"enabled":true,"region":"eu","cc":"de","latitude":50.110924,"longitude":8.682127,"reserved":0,"last_update":"0001-01-01T00:00:00Z","name_a2s":"Uncletopia | Frankfurt | 6 | All Maps","protocol":17,"map":"koth_nucleus","folder":"tf","game":"Team Fortress","app_id":440,"player_count":10,"max_players":24,"Bots":0,"server_type":"Dedicated","server_os":"Linux","password":true,"vac":true,"version":"7882260","steam_id":85568392924504278,"keywords":["cp","nocrits","nodmgspread","uncletopia"],"game_id":440,"stv_port":27066,"stv_name":"Uncletopia | Frankfurt | 6 | All Maps | STV","players":[{"user_id":76,"name":"metamikko","steam_id":76561198324704234,"connected_time":3664000000000,"state":"active","ping":107},{"user_id":21,"name":"mcjabba","steam_id":76561198019267806,"connected_time":5839000000000,"state":"active","ping":56},{"user_id":109,"name":"DeanAdamFry","steam_id":76561198054153160,"connected_time":462000000000,"state":"active","ping":61},{"user_id":110,"name":"9000 DPI Gaming","steam_id":76561198999956111,"connected_time":434000000000,"state":"active","ping":53},{"user_id":30,"name":"mavlove","steam_id":76561198064754800,"connected_time":5319000000000,"state":"active","ping":69},{"user_id":79,"name":"KeTlEr","steam_id":76561198100957443,"connected_time":3431000000000,"state":"active","ping":61},{"user_id":69,"name":"LihaveitsiPenikseen","steam_id":76561198044174757,"connected_time":4194000000000,"state":"active","ping":85},{"user_id":86,"name":"hlug2340","steam_id":76561198087970118,"connected_time":2798000000000,"state":"active","ping":70},{"user_id":107,"name":"Panter","steam_id":76561198285729061,"connected_time":733000000000,"state":"active","ping":76},{"user_id":111,"name":"taima","steam_id":76561198281053248,"connected_time":431000000000,"state":"active","ping":57}]},{"server_id":23,"name":"Uncletopia | Frankfurt | 7 | Stopwatch Beta","name_short":"frk-7","host":"frk-1.de.uncletopia.com","port":27075,"enabled":true,"region":"eu","cc":"de","latitude":50.110924,"longitude":8.682127,"reserved":0,"last_update":"0001-01-01T00:00:00Z","name_a2s":"Uncletopia | Frankfurt | 7 | Stopwatch Beta","protocol":17,"map":"cp_dustbowl","folder":"tf","game":"Team Fortress","app_id":440,"player_count":0,"max_players":24,"Bots":0,"server_type":"Dedicated","server_os":"Linux","password":true,"vac":true,"version":"7882260","steam_id":85568392924742827,"keywords":["cp","nocrits","nodmgspread","uncletopia"],"game_id":440,"stv_port":27076,"stv_name":"Uncletopia | Frankfurt | 7 | Stopwatch Beta | STV","players":null},{"server_id":24,"name":"Uncletopia | Frankfurt | 8 | Community","name_short":"frk-8","host":"frk-1.de.uncletopia.com","port":27085,"enabled":true,"region":"eu","cc":"de","latitude":50.110924,"longitude":8.682127,"reserved":0,"last_update":"0001-01-01T00:00:00Z","name_a2s":"Uncletopia | Frankfurt | 8 | Community","protocol":17,"map":"koth_cascade","folder":"tf","game":"Team Fortress","app_id":440,"player_count":0,"max_players":24,"Bots":0,"server_type":"Dedicated","server_os":"Linux","password":true,"vac":true,"version":"7882260","steam_id":85568392924742828,"keywords":["cp","nocrits","nodmgspread","uncletopia"],"game_id":440,"stv_port":27086,"stv_name":"Uncletopia | Frankfurt | 8 | Community | STV","players":null},{"server_id":202,"name":"Uncletopia | Hong Kong | 1 | All Maps","name_short":"hgk-1","host":"hgk-1.hk.uncletopia.com","port":27015,"enabled":true,"region":"asia","cc":"hk","latitude":22.302711,"longitude":114.177216,"reserved":0,"last_update":"0001-01-01T00:00:00Z","name_a2s":"Uncletopia | Hong Kong | 1 | All Maps","protocol":17,"map":"koth_highpass","folder":"tf","game":"Team Fortress","app_id":440,"player_count":0,"max_players":24,"Bots":0,"server_type":"Dedicated","server_os":"Linux","password":true,"vac":true,"version":"7882260","steam_id":85568392924494504,"keywords":["cp","nocrits","nodmgspread","uncletopia"],"game_id":440,"stv_port":27016,"stv_name":"Uncletopia | Hong Kong | 1 | All Maps | STV","players":null},{"server_id":1,"name":"Uncletopia | Los Angeles | 1 | All Maps","name_short":"lax-1","host":"lax-1.us.uncletopia.com","port":27015,"enabled":true,"region":"us-west","cc":"us","latitude":33.94279,"longitude":-118.41004,"reserved":0,"last_update":"0001-01-01T00:00:00Z","name_a2s":"Uncletopia | Los Angeles | 1 | All Maps","protocol":17,"map":"pl_pier","folder":"tf","game":"Team Fortress","app_id":440,"player_count":0,"max_players":24,"Bots":0,"server_type":"Dedicated","server_os":"Linux","password":true,"vac":true,"version":"7882260","steam_id":85568392924469991,"keywords":["nocrits","nodmgspread","payload","uncletopia"],"game_id":440,"stv_port":27016,"stv_name":"Uncletopia | Los Angeles | 1 | All Maps | STV","players":null},{"server_id":112,"name":"Uncletopia | Los Angeles | 2 | All Maps","name_short":"lax-2","host":"lax-1.us.uncletopia.com","port":27025,"enabled":true,"region":"us-west","cc":"us","latitude":33.94279,"longitude":-118.41004,"reserved":0,"last_update":"0001-01-01T00:00:00Z","name_a2s":"Uncletopia | Los Angeles | 2 | All Maps","protocol":17,"map":"cp_process_final","folder":"tf","game":"Team Fortress","app_id":440,"player_count":24,"max_players":24,"Bots":0,"server_type":"Dedicated","server_os":"Linux","password":true,"vac":true,"version":"7882260","steam_id":85568392924469992,"keywords":["cp","nocrits","nodmgspread","uncletopia"],"game_id":440,"stv_port":27026,"stv_name":"Uncletopia | Los Angeles | 2 | All Maps | STV","players":[{"user_id":313,"name":"Bot Maxwell","steam_id":76561198040781615,"connected_time":929000000000,"state":"active","ping":60},{"user_id":321,"name":"Cringe Guillotine User","steam_id":76561198997067030,"connected_time":349000000000,"state":"active","ping":116},{"user_id":254,"name":"Zebulon","steam_id":76561198025719753,"connected_time":4099000000000,"state":"active","ping":61},{"user_id":293,"name":"Drakon","steam_id":76561198078210822,"connected_time":1945000000000,"state":"active","ping":56},{"user_id":318,"name":"sludgeman101","steam_id":76561198076733505,"connected_time":565000000000,"state":"active","ping":111},{"user_id":291,"name":"Techne","steam_id":76561198090486583,"connected_time":1988000000000,"state":"active","ping":120},{"user_id":295,"name":"African Water Buffalo","steam_id":76561198106938500,"connected_time":1919000000000,"state":"active","ping":45},{"user_id":236,"name":"echelon","steam_id":76561198139172979,"connected_time":5339000000000,"state":"active","ping":58},{"user_id":296,"name":"Testiclitz Penischmidt","steam_id":76561198050582941,"connected_time":1909000000000,"state":"active","ping":107},{"user_id":314,"name":"Rave Cat","steam_id":76561198026369683,"connected_time":756000000000,"state":"active","ping":59},{"user_id":325,"name":"Centre","steam_id":76561198281612642,"connected_time":31000000000,"state":"active","ping":82},{"user_id":322,"name":"bendera","steam_id":76561197965486503,"connected_time":224000000000,"state":"active","ping":112},{"user_id":304,"name":"Mom","steam_id":76561198207936000,"connected_time":1607000000000,"state":"active","ping":46},{"user_id":324,"name":"Critical","steam_id":76561198123744966,"connected_time":123000000000,"state":"active","ping":118},{"user_id":289,"name":"Agent BSoD","steam_id":76561198050346368,"connected_time":2027000000000,"state":"active","ping":75},{"user_id":320,"name":"Bagoool","steam_id":76561198065368286,"connected_time":505000000000,"state":"active","ping":99},{"user_id":299,"name":"BocchiTheRock From BocchiTheRoc","steam_id":76561198986388085,"connected_time":1873000000000,"state":"active","ping":106},{"user_id":326,"name":"sagekiss","steam_id":76561198038831240,"connected_time":8000000000,"state":"spawning","ping":74},{"user_id":305,"name":"Mr. Pockets","steam_id":76561198053657771,"connected_time":1402000000000,"state":"active","ping":55},{"user_id":317,"name":"Giant","steam_id":76561198851536991,"connected_time":618000000000,"state":"active","ping":66},{"user_id":273,"name":"Walmus","steam_id":76561198111416393,"connected_time":3424000000000,"state":"active","ping":56},{"user_id":271,"name":"numa","steam_id":76561198856016840,"connected_time":3469000000000,"state":"active","ping":112},{"user_id":319,"name":"Goose","steam_id":76561198036774894,"connected_time":537000000000,"state":"active","ping":77},{"user_id":308,"name":"Cooki","steam_id":76561198051705314,"connected_time":1217000000000,"state":"active","ping":125}]},{"server_id":324,"name":"Uncletopia | Los Angeles | 3 | All Maps","name_short":"lax-3","host":"lax-1.us.uncletopia.com","port":27035,"enabled":true,"region":"us-west","cc":"us","latitude":33.94279,"longitude":-118.41004,"reserved":0,"last_update":"0001-01-01T00:00:00Z","name_a2s":"Uncletopia | Los Angeles | 3 | All Maps","protocol":17,"map":"pl_pier","folder":"tf","game":"Team Fortress","app_id":440,"player_count":25,"max_players":24,"Bots":0,"server_type":"Dedicated","server_os":"Linux","password":true,"vac":true,"version":"7882260","steam_id":85568392924510198,"keywords":["nocrits","nodmgspread","payload","uncletopia"],"game_id":440,"stv_port":27036,"stv_name":"Uncletopia | Los Angeles | 3 | All Maps | STV","players":[{"user_id":220,"name":"Harold","steam_id":76561198057317770,"connected_time":4338000000000,"state":"active","ping":45},{"user_id":263,"name":"Bevan(The Manager)","steam_id":76561198073890273,"connected_time":1022000000000,"state":"active","ping":82},{"user_id":192,"name":"BONKster","steam_id":76561198170089663,"connected_time":7146000000000,"state":"active","ping":127},{"user_id":256,"name":"bocaJ","steam_id":76561198374535092,"connected_time":1674000000000,"state":"active","ping":30},{"user_id":193,"name":"TTV/ChadMorningWood","steam_id":76561198139832291,"connected_time":6969000000000,"state":"active","ping":47},{"user_id":264,"name":"H00DEDRIOT","steam_id":76561198351880498,"connected_time":1005000000000,"state":"active","ping":82},{"user_id":286,"name":"lazy","steam_id":76561198046693328,"connected_time":57000000000,"state":"active","ping":46},{"user_id":258,"name":"Vottor","steam_id":76561199482683267,"connected_time":1425000000000,"state":"active","ping":68},{"user_id":272,"name":"Ramblin' Man","steam_id":76561198149106374,"connected_time":494000000000,"state":"active","ping":123},{"user_id":266,"name":"Surfing Garchomp","steam_id":76561199107236884,"connected_time":781000000000,"state":"active","ping":90},{"user_id":246,"name":"DOPEam1ne","steam_id":76561198112204774,"connected_time":2514000000000,"state":"active","ping":57},{"user_id":251,"name":"EightySix","steam_id":76561198186678831,"connected_time":2274000000000,"state":"active","ping":53},{"user_id":267,"name":"Ricky Dicky Doo Dah Grimes","steam_id":76561198143221900,"connected_time":741000000000,"state":"active","ping":113},{"user_id":260,"name":"jom","steam_id":76561198044597012,"connected_time":1099000000000,"state":"active","ping":82},{"user_id":187,"name":"Temujin","steam_id":76561198030936583,"connected_time":7261000000000,"state":"active","ping":92},{"user_id":253,"name":"joethefool","steam_id":76561199015436319,"connected_time":2052000000000,"state":"active","ping":115},{"user_id":268,"name":"TheFatNinja","steam_id":76561197998934635,"connected_time":736000000000,"state":"active","ping":55},{"user_id":204,"name":"boof","steam_id":76561198053901968,"connected_time":5785000000000,"state":"active","ping":86},{"user_id":269,"name":"GLXy","steam_id":76561198207551544,"connected_time":728000000000,"state":"active","ping":81},{"user_id":271,"name":"Moonman327","steam_id":76561197992616059,"connected_time":657000000000,"state":"active","ping":105},{"user_id":273,"name":"PossumGaming","steam_id":76561198170171050,"connected_time":487000000000,"state":"active","ping":107},{"user_id":277,"name":"fisherman","steam_id":76561198157435832,"connected_time":417000000000,"state":"active","ping":130},{"user_id":233,"name":"noceof","steam_id":76561198043656816,"connected_time":3488000000000,"state":"active","ping":167},{"user_id":279,"name":"Outcast_","steam_id":76561199122744740,"connected_time":322000000000,"state":"active","ping":118},{"user_id":289,"name":"mineblast99","steam_id":76561199065648954,"connected_time":2000000000,"state":"spawning","ping":83}]},{"server_id":25,"name":"Uncletopia | Los Angeles | 4 | Stopwatch Beta","name_short":"lax-4","host":"lax-1.us.uncletopia.com","port":27045,"enabled":true,"region":"us-west","cc":"us","latitude":33.94279,"longitude":-118.41004,"reserved":0,"last_update":"0001-01-01T00:00:00Z","name_a2s":"Uncletopia | Los Angeles | 4 | Stopwatch Beta","protocol":17,"map":"cp_snakewater_final1","folder":"tf","game":"Team Fortress","app_id":440,"player_count":0,"max_players":24,"Bots":0,"server_type":"Dedicated","server_os":"Linux","password":true,"vac":true,"version":"7882260","steam_id":85568392924510199,"keywords":["cp","nocrits","nodmgspread","uncletopia"],"game_id":440,"stv_port":27046,"stv_name":"Uncletopia | Los Angeles | 4 | Stopwatch Beta | STV","players":null},{"server_id":11,"name":"Uncletopia | London | 1 | All Maps","name_short":"lon-1","host":"lon-1.uk.uncletopia.com","port":27015,"enabled":true,"region":"eu","cc":"gb","latitude":51.509865,"longitude":-0.118092,"reserved":0,"last_update":"0001-01-01T00:00:00Z","name_a2s":"Uncletopia | London | 1 | All Maps","protocol":17,"map":"cp_dustbowl","folder":"tf","game":"Team Fortress","app_id":440,"player_count":23,"max_players":24,"Bots":0,"server_type":"Dedicated","server_os":"Linux","password":true,"vac":true,"version":"7882260","steam_id":85568392924367362,"keywords":["cp","nocrits","nodmgspread","uncletopia"],"game_id":440,"stv_port":27016,"stv_name":"Uncletopia | London | 1 | All Maps | STV","players":[{"user_id":674,"name":"Seail_M","steam_id":76561198002405605,"connected_time":514000000000,"state":"active","ping":67},{"user_id":614,"name":"Jofiah/TTV","steam_id":76561197977233962,"connected_time":3893000000000,"state":"active","ping":46},{"user_id":640,"name":"silicon based life form","steam_id":76561199127121346,"connected_time":2780000000000,"state":"active","ping":54},{"user_id":656,"name":"Mapavri","steam_id":76561198370196400,"connected_time":1750000000000,"state":"active","ping":84},{"user_id":677,"name":"Son Goku","steam_id":76561199383437138,"connected_time":133000000000,"state":"active","ping":123},{"user_id":675,"name":"Petight","steam_id":76561197999438798,"connected_time":413000000000,"state":"active","ping":38},{"user_id":678,"name":"Dwevy","steam_id":76561198090379437,"connected_time":112000000000,"state":"active","ping":52},{"user_id":676,"name":"Smokio","steam_id":76561198069650580,"connected_time":373000000000,"state":"active","ping":90},{"user_id":650,"name":"NuGs","steam_id":76561198305550934,"connected_time":2108000000000,"state":"active","ping":52},{"user_id":649,"name":"‚ô• aura ‚ô•","steam_id":76561198066258544,"connected_time":2262000000000,"state":"active","ping":61},{"user_id":669,"name":"Django","steam_id":76561198090143282,"connected_time":794000000000,"state":"active","ping":74},{"user_id":671,"name":"Kretur","steam_id":76561198161086266,"connected_time":550000000000,"state":"active","ping":108},{"user_id":574,"name":"Gubbly Bubbins","steam_id":76561198101451654,"connected_time":6798000000000,"state":"active","ping":46},{"user_id":651,"name":"LilithR","steam_id":76561199164255561,"connected_time":2055000000000,"state":"active","ping":71},{"user_id":666,"name":"maybe blw.tf","steam_id":76561199028670732,"connected_time":987000000000,"state":"active","ping":62},{"user_id":634,"name":"Shovelhalfrusty","steam_id":76561198346447513,"connected_time":2892000000000,"state":"active","ping":70},{"user_id":653,"name":"Yuzu","steam_id":76561198121694613,"connected_time":1851000000000,"state":"active","ping":51},{"user_id":620,"name":"goff","steam_id":76561198118989010,"connected_time":3819000000000,"state":"active","ping":53},{"user_id":626,"name":"killbind irl","steam_id":76561198180637374,"connected_time":3341000000000,"state":"active","ping":97},{"user_id":665,"name":"dec","steam_id":76561198009660168,"connected_time":1012000000000,"state":"active","ping":46},{"user_id":645,"name":"chazza","steam_id":76561199076124858,"connected_time":2503000000000,"state":"active","ping":49},{"user_id":646,"name":"Lugger","steam_id":76561198450095455,"connected_time":2498000000000,"state":"active","ping":45},{"user_id":672,"name":"piss‚Ñ¢","steam_id":76561198108098760,"connected_time":550000000000,"state":"active","ping":42}]},{"server_id":114,"name":"Uncletopia | London | 2 | All Maps","name_short":"lon-2","host":"lon-1.uk.uncletopia.com","port":27025,"enabled":true,"region":"eu","cc":"gb","latitude":51.509865,"longitude":-0.118092,"reserved":0,"last_update":"0001-01-01T00:00:00Z","name_a2s":"Uncletopia | London | 2 | All Maps","protocol":17,"map":"cp_steel","folder":"tf","game":"Team Fortress","app_id":440,"player_count":22,"max_players":24,"Bots":0,"server_type":"Dedicated","server_os":"Linux","password":true,"vac":true,"version":"7882260","steam_id":85568392924470941,"keywords":["cp","nocrits","nodmgspread","uncletopia"],"game_id":440,"stv_port":27026,"stv_name":"Uncletopia | London | 2 | All Maps | STV","players":[{"user_id":184,"name":"SolarSystem \u003c3","steam_id":76561198264248353,"connected_time":1409000000000,"state":"active","ping":82},{"user_id":193,"name":"Lethal","steam_id":76561198452042648,"connected_time":755000000000,"state":"active","ping":67},{"user_id":158,"name":"Dirty Joe","steam_id":76561198142418870,"connected_time":2799000000000,"state":"active","ping":42},{"user_id":183,"name":"Frank","steam_id":76561198086672774,"connected_time":1452000000000,"state":"active","ping":53},{"user_id":128,"name":"Punchy","steam_id":76561197961020896,"connected_time":4242000000000,"state":"active","ping":45},{"user_id":170,"name":"Kotbube Peter","steam_id":76561198148386749,"connected_time":2356000000000,"state":"active","ping":66},{"user_id":143,"name":"The_Jaystone","steam_id":76561198126280691,"connected_time":3401000000000,"state":"active","ping":45},{"user_id":178,"name":"Anoobis","steam_id":76561199419533757,"connected_time":1988000000000,"state":"active","ping":75},{"user_id":179,"name":"I Don't Know","steam_id":76561198841011430,"connected_time":1694000000000,"state":"active","ping":85},{"user_id":174,"name":"los jeezos","steam_id":76561198123592400,"connected_time":2218000000000,"state":"active","ping":90},{"user_id":145,"name":"VMX The Gamer BROS","steam_id":76561198083980267,"connected_time":3355000000000,"state":"active","ping":89},{"user_id":187,"name":"Krzty","steam_id":76561198306160711,"connected_time":1291000000000,"state":"active","ping":82},{"user_id":194,"name":"pardner","steam_id":76561198451471161,"connected_time":356000000000,"state":"active","ping":57},{"user_id":175,"name":"SlipstreamMuzzle„ÉÑ | SFM","steam_id":76561199116696395,"connected_time":2216000000000,"state":"active","ping":46},{"user_id":144,"name":"SkiTzIe","steam_id":76561198010381798,"connected_time":3365000000000,"state":"active","ping":68},{"user_id":172,"name":"thuurs","steam_id":76561198095850568,"connected_time":2336000000000,"state":"active","ping":54},{"user_id":188,"name":"d u k k i","steam_id":76561198071807437,"connected_time":1258000000000,"state":"active","ping":92},{"user_id":196,"name":"Jimmy","steam_id":76561198133680783,"connected_time":48000000000,"state":"active","ping":70},{"user_id":176,"name":"the indomitable human spirit","steam_id":76561199444971686,"connected_time":2163000000000,"state":"active","ping":53},{"user_id":173,"name":"Griffith","steam_id":76561198074407897,"connected_time":2317000000000,"state":"active","ping":116},{"user_id":195,"name":"Fridge","steam_id":76561198071665589,"connected_time":352000000000,"state":"active","ping":96},{"user_id":177,"name":"Nassu","steam_id":76561198147367577,"connected_time":2089000000000,"state":"active","ping":160}]},{"server_id":320,"name":"Uncletopia | London | 3 | All Maps","name_short":"lon-3","host":"lon-1.uk.uncletopia.com","port":27035,"enabled":true,"region":"eu","cc":"gb","latitude":51.509865,"longitude":-0.118092,"reserved":0,"last_update":"0001-01-01T00:00:00Z","name_a2s":"Uncletopia | London | 3 | All Maps","protocol":17,"map":"koth_cascade","folder":"tf","game":"Team Fortress","app_id":440,"player_count":0,"max_players":24,"Bots":0,"server_type":"Dedicated","server_os":"Linux","password":true,"vac":true,"version":"7882260","steam_id":85568392924510192,"keywords":["cp","nocrits","nodmgspread","uncletopia"],"game_id":440,"stv_port":27036,"stv_name":"Uncletopia | London | 3 | All Maps | STV","players":null},{"server_id":321,"name":"Uncletopia | London | 4 | All Maps","name_short":"lon-4","host":"lon-1.uk.uncletopia.com","port":27045,"enabled":true,"region":"eu","cc":"gb","latitude":51.509865,"longitude":-0.118092,"reserved":0,"last_update":"0001-01-01T00:00:00Z","name_a2s":"Uncletopia | London | 4 | All Maps","protocol":17,"map":"pl_barnblitz","folder":"tf","game":"Team Fortress","app_id":440,"player_count":24,"max_players":24,"Bots":0,"server_type":"Dedicated","server_os":"Linux","password":true,"vac":true,"version":"7882260","steam_id":85568392924510193,"keywords":["nocrits","nodmgspread","payload","uncletopia"],"game_id":440,"stv_port":27046,"stv_name":"Uncletopia | London | 4 | All Maps | STV","players":[{"user_id":625,"name":"Davey","steam_id":76561198256879107,"connected_time":223000000000,"state":"active","ping":75},{"user_id":560,"name":"ramirez","steam_id":76561198117060048,"connected_time":4762000000000,"state":"active","ping":63},{"user_id":621,"name":"Carrotcracker","steam_id":76561198034862396,"connected_time":539000000000,"state":"active","ping":80},{"user_id":619,"name":"eeeeee","steam_id":76561198017786875,"connected_time":730000000000,"state":"active","ping":65},{"user_id":588,"name":"Gordon","steam_id":76561198303652059,"connected_time":2629000000000,"state":"active","ping":65},{"user_id":570,"name":"strohkopf9","steam_id":76561198059349860,"connected_time":4053000000000,"state":"active","ping":76},{"user_id":565,"name":"lulu","steam_id":76561199147764133,"connected_time":4724000000000,"state":"active","ping":76},{"user_id":627,"name":"moayad","steam_id":76561198116607724,"connected_time":4000000000,"state":"spawning","ping":104},{"user_id":613,"name":"GinoFastidio","steam_id":76561198075830259,"connected_time":1152000000000,"state":"active","ping":130},{"user_id":601,"name":"mercurial","steam_id":76561198046227550,"connected_time":1583000000000,"state":"active","ping":44},{"user_id":623,"name":"[sigma] rwota","steam_id":76561198385769722,"connected_time":340000000000,"state":"active","ping":105},{"user_id":610,"name":"jaime8D","steam_id":76561197980590671,"connected_time":1211000000000,"state":"active","ping":89},{"user_id":616,"name":"flr","steam_id":76561198249327786,"connected_time":1065000000000,"state":"active","ping":61},{"user_id":605,"name":"Makumba","steam_id":76561198057014708,"connected_time":1440000000000,"state":"active","ping":74},{"user_id":537,"name":"s a i","steam_id":76561197970379754,"connected_time":6322000000000,"state":"active","ping":62},{"user_id":580,"name":"Wattoz","steam_id":76561198127779511,"connected_time":2979000000000,"state":"active","ping":51},{"user_id":597,"name":"Suspicious Viktor","steam_id":76561198136496249,"connected_time":2143000000000,"state":"active","ping":66},{"user_id":590,"name":"Buddy","steam_id":76561198050185582,"connected_time":2616000000000,"state":"active","ping":69},{"user_id":612,"name":"Pipper","steam_id":76561197970326616,"connected_time":1188000000000,"state":"active","ping":76},{"user_id":591,"name":"Makaron","steam_id":76561199087204537,"connected_time":2602000000000,"state":"active","ping":82},{"user_id":607,"name":"One Shiny Boi‚Ñ¢","steam_id":76561198199193627,"connected_time":1400000000000,"state":"active","ping":75},{"user_id":611,"name":"FattyBomalatty","steam_id":76561198435295702,"connected_time":1200000000000,"state":"active","ping":55},{"user_id":600,"name":"Sophie","steam_id":76561198970075085,"connected_time":1633000000000,"state":"active","ping":50},{"user_id":617,"name":"LOBZIK","steam_id":76561198114830120,"connected_time":1065000000000,"state":"active","ping":79}]},{"server_id":21,"name":"Uncletopia | London | 5 | All Maps","name_short":"lon-5","host":"lon-1.uk.uncletopia.com","port":27055,"enabled":true,"region":"eu","cc":"gb","latitude":51.509865,"longitude":-0.118092,"reserved":0,"last_update":"0001-01-01T00:00:00Z","name_a2s":"Uncletopia | London | 5 | All Maps","protocol":17,"map":"pl_borneo","folder":"tf","game":"Team Fortress","app_id":440,"player_count":22,"max_players":24,"Bots":0,"server_type":"Dedicated","server_os":"Linux","password":true,"vac":true,"version":"7882260","steam_id":85568392924742829,"keywords":["nocrits","nodmgspread","payload","uncletopia"],"game_id":440,"stv_port":27056,"stv_name":"Uncletopia | London | 5 | All Maps | STV","players":[{"user_id":114,"name":"DJThunderHeart","steam_id":76561198274197575,"connected_time":2205000000000,"state":"active","ping":118},{"user_id":169,"name":"kilikia","steam_id":76561198350261670,"connected_time":182000000000,"state":"active","ping":93},{"user_id":149,"name":"jordieeh2011","steam_id":76561198202001138,"connected_time":1016000000000,"state":"active","ping":79},{"user_id":117,"name":"hedon/","steam_id":76561198249832770,"connected_time":2152000000000,"state":"active","ping":48},{"user_id":153,"name":"the statue of liberty","steam_id":76561199103261584,"connected_time":487000000000,"state":"active","ping":53},{"user_id":162,"name":"Basil","steam_id":76561197990239733,"connected_time":312000000000,"state":"active","ping":50},{"user_id":145,"name":"SynthBox3","steam_id":76561199094075745,"connected_time":1109000000000,"state":"active","ping":106},{"user_id":159,"name":"Rat King","steam_id":76561198256783599,"connected_time":386000000000,"state":"active","ping":53},{"user_id":155,"name":"Vanilla","steam_id":76561198073933435,"connected_time":475000000000,"state":"active","ping":46},{"user_id":131,"name":"Foreskin Gamer","steam_id":76561198283106341,"connected_time":1493000000000,"state":"active","ping":68},{"user_id":168,"name":"goblinninja110","steam_id":76561198269159354,"connected_time":221000000000,"state":"active","ping":59},{"user_id":157,"name":"radek","steam_id":76561197998883721,"connected_time":467000000000,"state":"active","ping":76},{"user_id":158,"name":"Micha≈Ç","steam_id":76561198320346362,"connected_time":441000000000,"state":"active","ping":65},{"user_id":160,"name":"BastLover","steam_id":76561198247062724,"connected_time":362000000000,"state":"active","ping":62},{"user_id":140,"name":"tone","steam_id":76561197975301462,"connected_time":1306000000000,"state":"active","ping":49},{"user_id":161,"name":"Deputy Dog","steam_id":76561197960441667,"connected_time":340000000000,"state":"active","ping":148},{"user_id":163,"name":"team fortress two heavy (real)","steam_id":76561199474619310,"connected_time":279000000000,"state":"active","ping":46},{"user_id":165,"name":"One nipple at a time","steam_id":76561199116882319,"connected_time":266000000000,"state":"active","ping":54},{"user_id":166,"name":"Maestro_69","steam_id":76561199153246582,"connected_time":253000000000,"state":"active","ping":127},{"user_id":167,"name":"multiflex","steam_id":76561198049639319,"connected_time":245000000000,"state":"active","ping":73},{"user_id":170,"name":"rig","steam_id":76561199084202397,"connected_time":171000000000,"state":"active","ping":100},{"user_id":171,"name":"womp","steam_id":76561198283192660,"connected_time":65000000000,"state":"active","ping":86}]},{"server_id":22,"name":"Uncletopia | London | 6 | All Maps","name_short":"lon-6","host":"lon-1.uk.uncletopia.com","port":27065,"enabled":true,"region":"eu","cc":"gb","latitude":51.509865,"longitude":-0.118092,"reserved":0,"last_update":"0001-01-01T00:00:00Z","name_a2s":"Uncletopia | London | 6 | All Maps","protocol":17,"map":"pl_upward","folder":"tf","game":"Team Fortress","app_id":440,"player_count":0,"max_players":24,"Bots":0,"server_type":"Dedicated","server_os":"Linux","password":true,"vac":true,"version":"7882260","steam_id":85568392924742830,"keywords":["nocrits","nodmgspread","payload","uncletopia"],"game_id":440,"stv_port":27066,"stv_name":"Uncletopia | London | 6 | All Maps | STV","players":null},{"server_id":40,"name":"Uncletopia | London | 7 | No Payload","name_short":"lon-7","host":"lon-1.uk.uncletopia.com","port":27075,"enabled":true,"region":"eu","cc":"gb","latitude":51.509865,"longitude":-0.118092,"reserved":0,"last_update":"0001-01-01T00:00:00Z","name_a2s":"Uncletopia | London | 7 | No Payload","protocol":17,"map":"plr_nightfall_final","folder":"tf","game":"Team Fortress","app_id":440,"player_count":13,"max_players":24,"Bots":0,"server_type":"Dedicated","server_os":"Linux","password":true,"vac":true,"version":"7882260","steam_id":85568392924964314,"keywords":["nocrits","nodmgspread","payload","uncletopia"],"game_id":440,"stv_port":27076,"stv_name":"Uncletopia | London | 7 | No Payload | STV","players":[{"user_id":420,"name":"Teecho","steam_id":76561197995269610,"connected_time":1289000000000,"state":"active","ping":53},{"user_id":444,"name":"saul goodman gaming","steam_id":76561199010713883,"connected_time":99000000000,"state":"active","ping":61},{"user_id":441,"name":"nop 21","steam_id":76561198331641220,"connected_time":212000000000,"state":"active","ping":51},{"user_id":442,"name":"goz","steam_id":76561198155229347,"connected_time":200000000000,"state":"active","ping":44},{"user_id":426,"name":"PASTAMANIA!","steam_id":76561197967858558,"connected_time":1088000000000,"state":"active","ping":44},{"user_id":438,"name":"quickfast","steam_id":76561199438900919,"connected_time":368000000000,"state":"active","ping":41},{"user_id":417,"name":"Unvid","steam_id":76561198031588080,"connected_time":1399000000000,"state":"active","ping":57},{"user_id":439,"name":"zmbcclps","steam_id":76561198409725218,"connected_time":362000000000,"state":"active","ping":42},{"user_id":433,"name":"Umberto Bossi","steam_id":76561198136150267,"connected_time":715000000000,"state":"active","ping":60},{"user_id":321,"name":"IndigoJones","steam_id":76561198050284262,"connected_time":6573000000000,"state":"active","ping":45},{"user_id":430,"name":"Horo","steam_id":76561198009504508,"connected_time":825000000000,"state":"active","ping":55},{"user_id":432,"name":"Umbro","steam_id":76561198087930438,"connected_time":730000000000,"state":"active","ping":75},{"user_id":237,"name":"Providence","steam_id":76561198003920270,"connected_time":11014000000000,"state":"active","ping":71}]},{"server_id":41,"name":"Uncletopia | London | 8 | Community","name_short":"lon-8","host":"lon-1.uk.uncletopia.com","port":27085,"enabled":true,"region":"eu","cc":"gb","latitude":51.509865,"longitude":-0.118092,"reserved":0,"last_update":"0001-01-01T00:00:00Z","name_a2s":"Uncletopia | London | 8 | Community","protocol":17,"map":"workshop/koth_trenchfoot_b1a.ugc731436616","folder":"tf","game":"Team Fortress","app_id":440,"player_count":0,"max_players":24,"Bots":0,"server_type":"Dedicated","server_os":"Linux","password":true,"vac":true,"version":"7882260","steam_id":85568392924964315,"keywords":["cp","nocrits","nodmgspread","uncletopia"],"game_id":440,"stv_port":27086,"stv_name":"Uncletopia | London | 8 | Community | STV","players":null},{"server_id":300,"name":"Uncletopia | Montr√©al | 1 | All Maps","name_short":"mtl-1","host":"mtl-1.ca.uncletopia.com","port":27015,"enabled":true,"region":"us-east","cc":"ca","latitude":45.50889,"longitude":-73.56167,"reserved":0,"last_update":"0001-01-01T00:00:00Z","name_a2s":"Uncletopia | Montr√©al | 1 | All Maps","protocol":17,"map":"cp_sunshine","folder":"tf","game":"Team Fortress","app_id":440,"player_count":2,"max_players":24,"Bots":0,"server_type":"Dedicated","server_os":"Linux","password":true,"vac":true,"version":"7882260","steam_id":85568392924500087,"keywords":["cp","nocrits","nodmgspread","uncletopia"],"game_id":440,"stv_port":27016,"stv_name":"Uncletopia | Montr√©al | 1 | All Maps | STV","players":[{"user_id":3,"name":"larry","steam_id":76561198236166288,"connected_time":2697000000000,"state":"active","ping":31},{"user_id":4,"name":"i thought you were my friend","steam_id":76561198929646112,"connected_time":2627000000000,"state":"active","ping":28}]},{"server_id":301,"name":"Uncletopia | Montr√©al | 2 | All Maps","name_short":"mtl-2","host":"mtl-1.ca.uncletopia.com","port":27025,"enabled":true,"region":"us-east","cc":"ca","latitude":45.50889,"longitude":-73.56167,"reserved":0,"last_update":"0001-01-01T00:00:00Z","name_a2s":"Uncletopia | Montr√©al | 2 | All Maps","protocol":17,"map":"pl_barnblitz","folder":"tf","game":"Team Fortress","app_id":440,"player_count":0,"max_players":24,"Bots":0,"server_type":"Dedicated","server_os":"Linux","password":true,"vac":true,"version":"7882260","steam_id":85568392924500088,"keywords":["nocrits","nodmgspread","payload","uncletopia"],"game_id":440,"stv_port":27026,"stv_name":"Uncletopia | Montr√©al | 2 | All Maps | STV","players":null},{"server_id":302,"name":"Uncletopia | Montr√©al | 3 | All Maps","name_short":"mtl-3","host":"mtl-1.ca.uncletopia.com","port":27035,"enabled":true,"region":"us-east","cc":"ca","latitude":45.50889,"longitude":-73.56167,"reserved":0,"last_update":"0001-01-01T00:00:00Z","name_a2s":"Uncletopia | Montr√©al | 3 | All Maps","protocol":17,"map":"pl_borneo","folder":"tf","game":"Team Fortress","app_id":440,"player_count":0,"max_players":24,"Bots":0,"server_type":"Dedicated","server_os":"Linux","password":true,"vac":true,"version":"7882260","steam_id":85568392924500089,"keywords":["nocrits","nodmgspread","payload","uncletopia"],"game_id":440,"stv_port":27036,"stv_name":"Uncletopia | Montr√©al | 3 | All Maps | STV","players":null},{"server_id":303,"name":"Uncletopia | Montr√©al | 4 | No Payload","name_short":"mtl-4","host":"mtl-1.ca.uncletopia.com","port":27045,"enabled":true,"region":"us-east","cc":"ca","latitude":45.50889,"longitude":-73.56167,"reserved":0,"last_update":"0001-01-01T00:00:00Z","name_a2s":"Uncletopia | Montr√©al | 4 | No Payload","protocol":17,"map":"cp_altitude","folder":"tf","game":"Team Fortress","app_id":440,"player_count":0,"max_players":24,"Bots":0,"server_type":"Dedicated","server_os":"Linux","password":true,"vac":true,"version":"7882260","steam_id":85568392924500090,"keywords":["cp","nocrits","nodmgspread","uncletopia"],"game_id":440,"stv_port":27046,"stv_name":"Uncletopia | Montr√©al | 4 | No Payload | STV","players":null},{"server_id":13,"name":"Uncletopia | New York City | 1 | All Maps","name_short":"nyc-1","host":"nyc-1.us.uncletopia.com","port":27015,"enabled":true,"region":"us-east","cc":"us","latitude":40.73061,"longitude":-73.93524,"reserved":0,"last_update":"0001-01-01T00:00:00Z","name_a2s":"Uncletopia | New York City | 1 | All Maps","protocol":17,"map":"koth_harvest_final","folder":"tf","game":"Team Fortress","app_id":440,"player_count":24,"max_players":24,"Bots":0,"server_type":"Dedicated","server_os":"Linux","password":true,"vac":true,"version":"7882260","steam_id":85568392924469993,"keywords":["cp","nocrits","nodmgspread","uncletopia"],"game_id":440,"stv_port":27016,"stv_name":"Uncletopia | New York City | 1 | All Maps | STV","players":[{"user_id":136,"name":"sam","steam_id":76561198217362968,"connected_time":962000000000,"state":"active","ping":60},{"user_id":97,"name":"Uncasual Crusader","steam_id":76561198167004125,"connected_time":4762000000000,"state":"active","ping":144},{"user_id":143,"name":"wushi","steam_id":76561198078330635,"connected_time":756000000000,"state":"active","ping":63},{"user_id":137,"name":"TrashMann","steam_id":76561198040969743,"connected_time":951000000000,"state":"active","ping":65},{"user_id":151,"name":"Alfonso Molestro","steam_id":76561197998677099,"connected_time":526000000000,"state":"active","ping":59},{"user_id":162,"name":"Frost ‚ô•","steam_id":76561198168870617,"connected_time":103000000000,"state":"active","ping":55},{"user_id":127,"name":"sqerkbo","steam_id":76561198080012700,"connected_time":2019000000000,"state":"active","ping":44},{"user_id":164,"name":"Xuulis","steam_id":76561198042810905,"connected_time":26000000000,"state":"active","ping":83},{"user_id":140,"name":"Mutt","steam_id":76561198113640643,"connected_time":872000000000,"state":"active","ping":129},{"user_id":141,"name":"Moyaimya","steam_id":76561198116525682,"connected_time":869000000000,"state":"active","ping":69},{"user_id":142,"name":"Warkin Iskander Volselli","steam_id":76561198042437026,"connected_time":838000000000,"state":"active","ping":80},{"user_id":131,"name":"Chris P. Bacon","steam_id":76561198000851038,"connected_time":1445000000000,"state":"active","ping":54},{"user_id":161,"name":"peee pee man","steam_id":76561198044979205,"connected_time":125000000000,"state":"active","ping":53},{"user_id":152,"name":"fi_ji","steam_id":76561198126087725,"connected_time":446000000000,"state":"active","ping":60},{"user_id":153,"name":"Adonut","steam_id":76561198805858184,"connected_time":429000000000,"state":"active","ping":98},{"user_id":160,"name":"Gofoto","steam_id":76561199106987583,"connected_time":181000000000,"state":"active","ping":87},{"user_id":155,"name":"Dome","steam_id":76561198941203517,"connected_time":407000000000,"state":"active","ping":184},{"user_id":156,"name":"Zoro01","steam_id":76561198407989540,"connected_time":374000000000,"state":"active","ping":132},{"user_id":145,"name":"greg","steam_id":76561198106483305,"connected_time":723000000000,"state":"active","ping":54},{"user_id":133,"name":"Slazzer","steam_id":76561198404351844,"connected_time":1344000000000,"state":"active","ping":58},{"user_id":134,"name":"Sgt. Oddball","steam_id":76561198036096912,"connected_time":1315000000000,"state":"active","ping":65},{"user_id":118,"name":"Michaelpc1","steam_id":76561198088365519,"connected_time":2839000000000,"state":"active","ping":60},{"user_id":158,"name":"nerd gaming","steam_id":76561198066018972,"connected_time":259000000000,"state":"active","ping":85},{"user_id":92,"name":"Kritzburgh","steam_id":76561198149466938,"connected_time":4877000000000,"state":"active","ping":49}]},{"server_id":14,"name":"Uncletopia | New York City | 2 | All Maps","name_short":"nyc-2","host":"nyc-1.us.uncletopia.com","port":27025,"enabled":true,"region":"us-east","cc":"us","latitude":40.73061,"longitude":-73.93524,"reserved":0,"last_update":"0001-01-01T00:00:00Z","name_a2s":"Uncletopia | New York City | 2 | All Maps","protocol":17,"map":"koth_viaduct","folder":"tf","game":"Team Fortress","app_id":440,"player_count":0,"max_players":24,"Bots":0,"server_type":"Dedicated","server_os":"Linux","password":true,"vac":true,"version":"7882260","steam_id":85568392924469994,"keywords":["cp","nocrits","nodmgspread","uncletopia"],"game_id":440,"stv_port":27026,"stv_name":"Uncletopia | New York City | 2 | All Maps | STV","players":null},{"server_id":15,"name":"Uncletopia | New York City | 3 | Stopwatch Beta","name_short":"nyc-3","host":"nyc-1.us.uncletopia.com","port":27035,"enabled":true,"region":"us-east","cc":"us","latitude":40.73061,"longitude":-73.93524,"reserved":0,"last_update":"0001-01-01T00:00:00Z","name_a2s":"Uncletopia | New York City | 3 | Stopwatch Beta","protocol":17,"map":"cp_sunshine","folder":"tf","game":"Team Fortress","app_id":440,"player_count":0,"max_players":24,"Bots":0,"server_type":"Dedicated","server_os":"Linux","password":true,"vac":true,"version":"7882260","steam_id":85568392924742820,"keywords":["cp","nocrits","nodmgspread","uncletopia"],"game_id":440,"stv_port":27036,"stv_name":"Uncletopia | New York City | 3 | Stopwatch Beta | STV","players":null},{"server_id":16,"name":"Uncletopia | New York City | 4 | Community","name_short":"nyc-4","host":"nyc-1.us.uncletopia.com","port":27045,"enabled":true,"region":"us-east","cc":"us","latitude":40.73061,"longitude":-73.93524,"reserved":0,"last_update":"0001-01-01T00:00:00Z","name_a2s":"Uncletopia | New York City | 4 | Community","protocol":17,"map":"pl_badwater","folder":"tf","game":"Team Fortress","app_id":440,"player_count":0,"max_players":24,"Bots":0,"server_type":"Dedicated","server_os":"Linux","password":true,"vac":true,"version":"7882260","steam_id":85568392924742821,"keywords":["nocrits","nodmgspread","payload","uncletopia"],"game_id":440,"stv_port":27046,"stv_name":"Uncletopia | New York City | 4 | Community | STV","players":null},{"server_id":142,"name":"Uncletopia | S√£o Paulo | 1 | All Maps","name_short":"sao-1","host":"sao-1.br.uncletopia.com","port":27015,"enabled":true,"region":"sa","cc":"br","latitude":-23.533773,"longitude":-46.62529,"reserved":0,"last_update":"0001-01-01T00:00:00Z","name_a2s":"Uncletopia | S√£o Paulo | 1 | All Maps","protocol":17,"map":"pl_swiftwater_final1","folder":"tf","game":"Team Fortress","app_id":440,"player_count":0,"max_players":24,"Bots":0,"server_type":"Dedicated","server_os":"Linux","password":true,"vac":true,"version":"7882260","steam_id":85568392924469996,"keywords":["nocrits","nodmgspread","payload","uncletopia"],"game_id":440,"stv_port":27016,"stv_name":"Uncletopia | S√£o Paulo | 1 | All Maps | STV","players":null},{"server_id":143,"name":"Uncletopia | S√£o Paulo | 2 | All Maps","name_short":"sao-2","host":"sao-2.br.uncletopia.com","port":27015,"enabled":true,"region":"sa","cc":"br","latitude":-23.533773,"longitude":-46.62529,"reserved":0,"last_update":"0001-01-01T00:00:00Z","name_a2s":"Uncletopia | S√£o Paulo | 2 | All Maps","protocol":17,"map":"cp_dustbowl","folder":"tf","game":"Team Fortress","app_id":440,"player_count":0,"max_players":24,"Bots":0,"server_type":"Dedicated","server_os":"Linux","password":true,"vac":true,"version":"7882260","steam_id":85568392924485349,"keywords":["cp","nocrits","nodmgspread","uncletopia"],"game_id":440,"stv_port":27016,"stv_name":"Uncletopia | S√£o Paulo | 2 | All Maps | STV","players":null},{"server_id":7,"name":"Uncletopia | Seattle | 1 | All Maps","name_short":"sea-1","host":"sea-1.us.uncletopia.com","port":27015,"enabled":true,"region":"us-west","cc":"us","latitude":47.608013,"longitude":-122.33517,"reserved":0,"last_update":"0001-01-01T00:00:00Z","name_a2s":"Uncletopia | Seattle | 1 | All Maps","protocol":17,"map":"pl_swiftwater_final1","folder":"tf","game":"Team Fortress","app_id":440,"player_count":24,"max_players":24,"Bots":0,"server_type":"Dedicated","server_os":"Linux","password":true,"vac":true,"version":"7882260","steam_id":85568392924469997,"keywords":["nocrits","nodmgspread","payload","uncletopia"],"game_id":440,"stv_port":27016,"stv_name":"Uncletopia | Seattle | 1 | All Maps | STV","players":[{"user_id":123,"name":"Boyaredeen","steam_id":76561198880492636,"connected_time":4304000000000,"state":"active","ping":50},{"user_id":133,"name":"BlazedBunny","steam_id":76561198243610560,"connected_time":3302000000000,"state":"active","ping":125},{"user_id":134,"name":"Y2K","steam_id":76561199191855486,"connected_time":3104000000000,"state":"active","ping":37},{"user_id":153,"name":"Ducks","steam_id":76561198130038345,"connected_time":506000000000,"state":"active","ping":78},{"user_id":142,"name":"Fallen","steam_id":76561198206490352,"connected_time":1884000000000,"state":"active","ping":66},{"user_id":132,"name":"Shark Sandwich","steam_id":76561198025007938,"connected_time":3679000000000,"state":"active","ping":58},{"user_id":145,"name":"SibilantSerpent","steam_id":76561198154488754,"connected_time":1660000000000,"state":"active","ping":49},{"user_id":143,"name":"KellyKapoor","steam_id":76561198040828123,"connected_time":1877000000000,"state":"active","ping":46},{"user_id":155,"name":"liliLovesUnicorns83","steam_id":76561199391478575,"connected_time":405000000000,"state":"active","ping":74},{"user_id":150,"name":"Intel B5","steam_id":76561198837368317,"connected_time":818000000000,"state":"active","ping":58},{"user_id":87,"name":"Delicate Steve","steam_id":76561198063582381,"connected_time":6388000000000,"state":"active","ping":67},{"user_id":82,"name":"Tyler\u0026Fingers","steam_id":76561198085154485,"connected_time":6885000000000,"state":"active","ping":134},{"user_id":95,"name":"Flesh Eating Turtle","steam_id":76561198116742139,"connected_time":5922000000000,"state":"active","ping":55},{"user_id":130,"name":"crayon flashlight","steam_id":76561198036032168,"connected_time":3702000000000,"state":"active","ping":101},{"user_id":152,"name":"Yurei","steam_id":76561198088750661,"connected_time":580000000000,"state":"active","ping":77},{"user_id":147,"name":"toes","steam_id":76561198221151676,"connected_time":954000000000,"state":"active","ping":55},{"user_id":144,"name":"‚ô• Milo Stefferson ‚ô• (Soupca","steam_id":76561198056269538,"connected_time":1783000000000,"state":"active","ping":64},{"user_id":139,"name":"shiadyne","steam_id":76561198271939793,"connected_time":2716000000000,"state":"active","ping":56},{"user_id":141,"name":"camp3r","steam_id":76561197992870439,"connected_time":1895000000000,"state":"active","ping":33},{"user_id":81,"name":"Sir Coreden","steam_id":76561198008430589,"connected_time":7567000000000,"state":"active","ping":101},{"user_id":110,"name":"Tibetan Pop Star","steam_id":76561198844903984,"connected_time":4838000000000,"state":"active","ping":89},{"user_id":121,"name":"jayeskae","steam_id":76561198144220801,"connected_time":4455000000000,"state":"active","ping":47},{"user_id":146,"name":"TheMagicMrWaffle","steam_id":76561198104357256,"connected_time":956000000000,"state":"active","ping":69},{"user_id":156,"name":"Saint Laurent Don","steam_id":76561198116820706,"connected_time":80000000000,"state":"active","ping":72}]},{"server_id":119,"name":"Uncletopia | Seattle | 2 | All Maps","name_short":"sea-2","host":"sea-1.us.uncletopia.com","port":27025,"enabled":true,"region":"us-west","cc":"us","latitude":47.608013,"longitude":-122.33517,"reserved":0,"last_update":"0001-01-01T00:00:00Z","name_a2s":"Uncletopia | Seattle | 2 | All Maps","protocol":17,"map":"pl_borneo","folder":"tf","game":"Team Fortress","app_id":440,"player_count":4,"max_players":24,"Bots":0,"server_type":"Dedicated","server_os":"Linux","password":true,"vac":true,"version":"7882260","steam_id":85568392924469998,"keywords":["nocrits","nodmgspread","payload","uncletopia"],"game_id":440,"stv_port":27026,"stv_name":"Uncletopia | Seattle | 2 | All Maps | STV","players":[{"user_id":10,"name":"Kipper","steam_id":76561198008515450,"connected_time":1702000000000,"state":"spawning","ping":63},{"user_id":16,"name":"Keamy","steam_id":76561199471434875,"connected_time":183000000000,"state":"spawning","ping":35},{"user_id":12,"name":"kimchiking82","steam_id":76561198008423339,"connected_time":1547000000000,"state":"spawning","ping":109},{"user_id":15,"name":"Cr0w!","steam_id":76561198178437265,"connected_time":1394000000000,"state":"spawning","ping":47}]},{"server_id":406,"name":"Uncletopia | Seattle | 3 | Stopwatch Beta","name_short":"sea-3","host":"sea-1.us.uncletopia.com","port":27035,"enabled":true,"region":"us-west","cc":"us","latitude":47.608013,"longitude":-122.33517,"reserved":0,"last_update":"0001-01-01T00:00:00Z","name_a2s":"Uncletopia | Seattle | 3 | Stopwatch Beta","protocol":17,"map":"cp_mountainlab","folder":"tf","game":"Team Fortress","app_id":440,"player_count":0,"max_players":24,"Bots":0,"server_type":"Dedicated","server_os":"Linux","password":true,"vac":true,"version":"7882260","steam_id":85568392924515217,"keywords":["cp","nocrits","nodmgspread","uncletopia"],"game_id":440,"stv_port":27036,"stv_name":"Uncletopia | Seattle | 3 | Stopwatch Beta | STV","players":null},{"server_id":17,"name":"Uncletopia | San Francisco | 1 | All Maps","name_short":"sfo-1","host":"sfo-1.us.uncletopia.com","port":27015,"enabled":true,"region":"us-west","cc":"us","latitude":37.77397,"longitude":-122.4313,"reserved":0,"last_update":"0001-01-01T00:00:00Z","name_a2s":"Uncletopia | San Francisco | 1 | All Maps","protocol":17,"map":"cp_process_final","folder":"tf","game":"Team Fortress","app_id":440,"player_count":0,"max_players":24,"Bots":0,"server_type":"Dedicated","server_os":"Linux","password":true,"vac":true,"version":"7757534","steam_id":85568392924469999,"keywords":["cp","nocrits","nodmgspread","uncletopia"],"game_id":440,"stv_port":27016,"stv_name":"Uncletopia | San Francisco | 1 | All Maps | STV","players":null},{"server_id":18,"name":"Uncletopia | San Francisco | 2 | All Maps","name_short":"sfo-2","host":"sfo-1.us.uncletopia.com","port":27025,"enabled":true,"region":"us-west","cc":"us","latitude":37.77397,"longitude":-122.4313,"reserved":0,"last_update":"0001-01-01T00:00:00Z","name_a2s":"Uncletopia | San Francisco | 2 | All Maps","protocol":17,"map":"koth_highpass","folder":"tf","game":"Team Fortress","app_id":440,"player_count":0,"max_players":24,"Bots":0,"server_type":"Dedicated","server_os":"Linux","password":true,"vac":true,"version":"7757534","steam_id":85568392924470000,"keywords":["cp","nocrits","nodmgspread","uncletopia"],"game_id":440,"stv_port":27026,"stv_name":"Uncletopia | San Francisco | 2 | All Maps | STV","players":null},{"server_id":19,"name":"Uncletopia | San Francisco | 3 | Stopwatch Beta","name_short":"sfo-3","host":"sfo-1.us.uncletopia.com","port":27035,"enabled":true,"region":"us-west","cc":"us","latitude":37.77397,"longitude":-122.4313,"reserved":0,"last_update":"0001-01-01T00:00:00Z","name_a2s":"Uncletopia | San Francisco | 3 | Stopwatch Beta","protocol":17,"map":"koth_lakeside_final","folder":"tf","game":"Team Fortress","app_id":440,"player_count":0,"max_players":24,"Bots":0,"server_type":"Dedicated","server_os":"Linux","password":true,"vac":true,"version":"7757534","steam_id":85568392924742824,"keywords":["cp","nocrits","nodmgspread","uncletopia"],"game_id":440,"stv_port":27036,"stv_name":"Uncletopia | San Francisco | 3 | Stopwatch Beta | STV","players":null},{"server_id":20,"name":"Uncletopia | San Francisco | 4 | Community","name_short":"sfo-4","host":"sfo-1.us.uncletopia.com","port":27045,"enabled":true,"region":"us-west","cc":"us","latitude":37.77397,"longitude":-122.4313,"reserved":0,"last_update":"0001-01-01T00:00:00Z","name_a2s":"Uncletopia | San Francisco | 4 | Community","protocol":17,"map":"cp_altitude","folder":"tf","game":"Team Fortress","app_id":440,"player_count":0,"max_players":24,"Bots":0,"server_type":"Dedicated","server_os":"Linux","password":true,"vac":true,"version":"7757534","steam_id":85568392924742826,"keywords":["cp","nocrits","nodmgspread","uncletopia"],"game_id":440,"stv_port":27046,"stv_name":"Uncletopia | San Francisco | 4 | Community | STV","players":null},{"server_id":141,"name":"Uncletopia | Sydney | 1 | All Maps","name_short":"syd-1","host":"syd-1.au.uncletopia.com","port":27015,"enabled":true,"region":"au","cc":"au","latitude":-33.865143,"longitude":151.2099,"reserved":0,"last_update":"0001-01-01T00:00:00Z","name_a2s":"Uncletopia | Sydney | 1 | All Maps","protocol":17,"map":"cp_snakewater_final1","folder":"tf","game":"Team Fortress","app_id":440,"player_count":0,"max_players":24,"Bots":0,"server_type":"Dedicated","server_os":"Linux","password":true,"vac":true,"version":"7882260","steam_id":85568392924470001,"keywords":["cp","nocrits","nodmgspread","uncletopia"],"game_id":440,"stv_port":27016,"stv_name":"Uncletopia | Sydney | 1 | All Maps | STV","players":null},{"server_id":123,"name":"Uncletopia | Sydney | 2 | All Maps","name_short":"syd-2","host":"syd-1.au.uncletopia.com","port":27025,"enabled":true,"region":"au","cc":"au","latitude":-33.865143,"longitude":151.2099,"reserved":0,"last_update":"0001-01-01T00:00:00Z","name_a2s":"Uncletopia | Sydney | 2 | All Maps","protocol":17,"map":"pl_barnblitz","folder":"tf","game":"Team Fortress","app_id":440,"player_count":0,"max_players":24,"Bots":0,"server_type":"Dedicated","server_os":"Linux","password":true,"vac":true,"version":"7882260","steam_id":85568392924470002,"keywords":["nocrits","nodmgspread","payload","uncletopia"],"game_id":440,"stv_port":27026,"stv_name":"Uncletopia | Sydney | 2 | All Maps | STV","players":null},{"server_id":395,"name":"Uncletopia | Sydney | 3 | All Maps","name_short":"syd-3","host":"syd-1.au.uncletopia.com","port":27035,"enabled":true,"region":"au","cc":"au","latitude":-33.865143,"longitude":151.2099,"reserved":0,"last_update":"0001-01-01T00:00:00Z","name_a2s":"Uncletopia | Sydney | 3 | All Maps","protocol":17,"map":"pl_badwater","folder":"tf","game":"Team Fortress","app_id":440,"player_count":0,"max_players":24,"Bots":0,"server_type":"Dedicated","server_os":"Linux","password":true,"vac":true,"version":"7882260","steam_id":85568392925194467,"keywords":["nocrits","nodmgspread","payload","uncletopia"],"game_id":440,"stv_port":27036,"stv_name":"Uncletopia | Sydney | 3 | All Maps | STV","players":null},{"server_id":396,"name":"Uncletopia | Sydney | 4 | All Maps","name_short":"syd-4","host":"syd-1.au.uncletopia.com","port":27045,"enabled":true,"region":"au","cc":"au","latitude":-33.865143,"longitude":151.2099,"reserved":0,"last_update":"0001-01-01T00:00:00Z","name_a2s":"Uncletopia | Sydney | 4 | All Maps","protocol":17,"map":"cp_dustbowl","folder":"tf","game":"Team Fortress","app_id":440,"player_count":0,"max_players":24,"Bots":0,"server_type":"Dedicated","server_os":"Linux","password":true,"vac":true,"version":"7882260","steam_id":85568392925397958,"keywords":["cp","nocrits","nodmgspread","uncletopia"],"game_id":440,"stv_port":27046,"stv_name":"Uncletopia | Sydney | 4 | All Maps | STV","players":null},{"server_id":58,"name":"Uncletopia | Sydney | 5 | Stopwatch Beta","name_short":"syd-5","host":"syd-1.au.uncletopia.com","port":27055,"enabled":true,"region":"au","cc":"au","latitude":-33.865143,"longitude":151.2099,"reserved":0,"last_update":"0001-01-01T00:00:00Z","name_a2s":"Uncletopia | Sydney | 5 | Stopwatch Beta","protocol":17,"map":"workshop/pl_barnblitz_pro7.ugc582280235","folder":"tf","game":"Team Fortress","app_id":440,"player_count":0,"max_players":24,"Bots":0,"server_type":"Dedicated","server_os":"Linux","password":true,"vac":true,"version":"7882260","steam_id":85568392925397959,"keywords":["nocrits","nodmgspread","payload","uncletopia"],"game_id":440,"stv_port":27056,"stv_name":"Uncletopia | Sydney | 5 | Stopwatch Beta | STV","players":null},{"server_id":59,"name":"Uncletopia | Sydney | 6 | Community","name_short":"syd-6","host":"syd-1.au.uncletopia.com","port":27065,"enabled":true,"region":"au","cc":"au","latitude":-33.865143,"longitude":151.2099,"reserved":0,"last_update":"0001-01-01T00:00:00Z","name_a2s":"Uncletopia | Sydney | 6 | Community","protocol":17,"map":"pl_snowycoast","folder":"tf","game":"Team Fortress","app_id":440,"player_count":0,"max_players":24,"Bots":0,"server_type":"Dedicated","server_os":"Linux","password":true,"vac":true,"version":"7882260","steam_id":85568392925397960,"keywords":["nocrits","nodmgspread","payload","uncletopia"],"game_id":440,"stv_port":27066,"stv_name":"Uncletopia | Sydney | 6 | Community | STV","players":null},{"server_id":49,"name":"Uncletopia | Warsaw | 1 | All Maps","name_short":"waw-1","host":"waw-1.pl.uncletopia.com","port":27015,"enabled":true,"region":"eu","cc":"pl","latitude":52.2297,"longitude":21.017532,"reserved":0,"last_update":"0001-01-01T00:00:00Z","name_a2s":"","protocol":0,"map":"","folder":"","game":"","app_id":0,"player_count":0,"max_players":0,"Bots":0,"server_type":"","server_os":"","password":false,"vac":false,"version":"","steam_id":0,"keywords":null,"game_id":0,"stv_port":0,"stv_name":"","players":null},{"server_id":50,"name":"Uncletopia | Warsaw | 2 | All Maps","name_short":"waw-2","host":"waw-1.pl.uncletopia.com","port":27025,"enabled":true,"region":"eu","cc":"pl","latitude":52.2297,"longitude":21.017532,"reserved":0,"last_update":"0001-01-01T00:00:00Z","name_a2s":"Uncletopia | Warsaw | 2 | All Maps","protocol":17,"map":"koth_lakeside_final","folder":"tf","game":"Team Fortress","app_id":440,"player_count":0,"max_players":24,"Bots":0,"server_type":"Dedicated","server_os":"Linux","password":true,"vac":true,"version":"7882260","steam_id":85568392925397851,"keywords":["cp","nocrits","nodmgspread","uncletopia"],"game_id":440,"stv_port":27026,"stv_name":"Uncletopia | Warsaw | 2 | All Maps | STV","players":null},{"server_id":51,"name":"Uncletopia | Warsaw | 3 | All Maps","name_short":"waw-3","host":"waw-1.pl.uncletopia.com","port":27035,"enabled":true,"region":"eu","cc":"pl","latitude":52.2297,"longitude":21.017532,"reserved":0,"last_update":"0001-01-01T00:00:00Z","name_a2s":"Uncletopia | Warsaw | 3 | All Maps","protocol":17,"map":"koth_viaduct","folder":"tf","game":"Team Fortress","app_id":440,"player_count":0,"max_players":24,"Bots":0,"server_type":"Dedicated","server_os":"Linux","password":true,"vac":true,"version":"7882260","steam_id":85568392925397852,"keywords":["cp","nocrits","nodmgspread","uncletopia"],"game_id":440,"stv_port":27036,"stv_name":"Uncletopia | Warsaw | 3 | All Maps | STV","players":null},{"server_id":52,"name":"Uncletopia | Warsaw | 4 | All Maps","name_short":"waw-4","host":"waw-1.pl.uncletopia.com","port":27045,"enabled":true,"region":"eu","cc":"pl","latitude":52.2297,"longitude":21.017532,"reserved":0,"last_update":"0001-01-01T00:00:00Z","name_a2s":"Uncletopia | Warsaw | 4 | All Maps","protocol":17,"map":"koth_highpass","folder":"tf","game":"Team Fortress","app_id":440,"player_count":0,"max_players":24,"Bots":0,"server_type":"Dedicated","server_os":"Linux","password":true,"vac":true,"version":"7882260","steam_id":85568392925397853,"keywords":["cp","nocrits","nodmgspread","uncletopia"],"game_id":440,"stv_port":27046,"stv_name":"Uncletopia | Warsaw | 4 | All Maps | STV","players":null},{"server_id":53,"name":"Uncletopia | Warsaw | 5 | Stopwatch Beta","name_short":"waw-5","host":"waw-1.pl.uncletopia.com","port":27055,"enabled":true,"region":"eu","cc":"pl","latitude":52.2297,"longitude":21.017532,"reserved":0,"last_update":"0001-01-01T00:00:00Z","name_a2s":"Uncletopia | Warsaw | 5 | Stopwatch Beta","protocol":17,"map":"cp_mountainlab","folder":"tf","game":"Team Fortress","app_id":440,"player_count":0,"max_players":24,"Bots":0,"server_type":"Dedicated","server_os":"Linux","password":true,"vac":true,"version":"7882260","steam_id":85568392925397854,"keywords":["cp","nocrits","nodmgspread","uncletopia"],"game_id":440,"stv_port":27056,"stv_name":"Uncletopia | Warsaw | 5 | Stopwatch Beta | STV","players":null},{"server_id":54,"name":"Uncletopia | Warsaw | 6 | Community","name_short":"waw-6","host":"waw-1.pl.uncletopia.com","port":27065,"enabled":true,"region":"eu","cc":"pl","latitude":52.2297,"longitude":21.017532,"reserved":0,"last_update":"0001-01-01T00:00:00Z","name_a2s":"Uncletopia | Warsaw | 6 | Community","protocol":17,"map":"koth_viaduct","folder":"tf","game":"Team Fortress","app_id":440,"player_count":0,"max_players":24,"Bots":0,"server_type":"Dedicated","server_os":"Linux","password":true,"vac":true,"version":"7882260","steam_id":85568392925397856,"keywords":["cp","nocrits","nodmgspread","uncletopia"],"game_id":440,"stv_port":27066,"stv_name":"Uncletopia | Warsaw | 6 | Community | STV","players":null}]}