{"status":true,"message":"","result":[{"server_id":9,"name":"Uncletopia | Atlanta | 1 | All Maps","name_short":"atl-1","host":"atl-1.us.uncletopia.com","port":27015,"enabled":true,"region":"us-east","cc":"us","latitude":33.753746,"longitude":-84.38633,"reserved":0,"last_update":"0001-01-01T00:00:00Z","name_a2s":"Uncletopia | Atlanta | 1 | All Maps","protocol":17,"map":"koth_cascade","folder":"tf","game":"Team Fortress","app_id":440,"player_count":3,"max_players":24,"Bots":0,"server_type":"Dedicated","server_os":"Linux","password":true,"vac":true,"version":"7757534","steam_id":85568392924469982,"keywords":["cp","nocrits","nodmgspread","uncletopia"],"game_id":440,"stv_port":27016,"stv_name":"Uncletopia | Atlanta | 1 | All Maps | STV","players":[{"user_id":6,"name":"Shy","steam_id":76561198394890836,"connected_time":372000000000,"state":"active","ping":46},{"user_id":7,"name":"MaxieTheFireFox","steam_id":76561198868412298,"connected_time":335000000000,"state":"active","ping":98},{"user_id":8,"name":"Portie","steam_id":76561198004697125,"connected_time":40000000000,"state":"active","ping":57}]},{"server_id":104,"name":"Uncletopia | Atlanta | 2 | All Maps","name_short":"atl-2","host":"atl-1.us.uncletopia.com","port":27025,"enabled":true,"region":"us-east","cc":"us","latitude":33.753746,"longitude":-84.38633,"reserved":0,"last_update":"0001-01-01T00:00:00Z","name_a2s":"Uncletopia | Atlanta | 2 | All Maps","protocol":17,"map":"koth_highpass","folder":"tf","game":"Team Fortress","app_id":440,"player_count":0,"max_players":24,"Bots":0,"server_type":"Dedicated","server_os":"Linux","password":true,"vac":true,"version":"7757534","steam_id":85568392924469983,"keywords":["cp","nocrits","nodmgspread","uncletopia"],"game_id":440,"stv_port":27026,"stv_name":"Uncletopia | Atlanta | 2 | All Maps | STV","players":null},{"server_id":400,"name":"Uncletopia | Atlanta | 3 | Community","name_short":"atl-3","host":"atl-1.us.uncletopia.com","port":27035,"enabled":true,"region":"us-east","cc":"us","latitude":33.753746,"longitude":-84.38633,"reserved":0,"last_update":"0001-01-01T00:00:00Z","name_a2s":"Uncletopia | Atlanta | 3 | Community","protocol":17,"map":"cp_snakewater_final1","folder":"tf","game":"Team Fortress","app_id":440,"player_count":0,"max_players":24,"Bots":0,"server_type":"Dedicated","server_os":"Linux","password":true,"vac":true,"version":"7757534","steam_id":85568392924515187,"keywords":["cp","nocrits","nodmgspread","uncletopia"],"game_id":440,"stv_port":27036,"stv_name":"Uncletopia | Atlanta | 3 | Community | STV","players":null},{"server_id":401,"name":"Uncletopia | Atlanta | 4 | No Payload","name_short":"atl-4","host":"atl-1.us.uncletopia.com","port":27045,"enabled":true,"region":"us-east","cc":"us","latitude":33.753746,"longitude":-84.38633,"reserved":0,"last_update":"0001-01-01T00:00:00Z","name_a2s":"","protocol":0,"map":"","folder":"","game":"","app_id":0,"player_count":0,"max_players":0,"Bots":0,"server_type":"","server_os":"","password":false,"vac":false,"version":"","steam_id":0,"keywords":null,"game_id":0,"stv_port":0,"stv_name":"","players":null},{"server_id":2,"name":"Uncletopia | Chicago | 1 | All Maps","name_short":"chi-1","host":"chi-1.us.uncletopia.com","port":27015,"enabled":true,"region":"us-central","cc":"us","latitude":41.881832,"longitude":-87.62318,"reserved":0,"last_update":"0001-01-01T00:00:00Z","name_a2s":"Uncletopia | Chicago | 1 | All Maps","protocol":17,"map":"pl_pier","folder":"tf","game":"Team Fortress","app_id":440,"player_count":23,"max_players":24,"Bots":0,"server_type":"Dedicated","server_os":"Linux","password":true,"vac":true,"version":"7757534","steam_id":85568392924469984,"keywords":["nocrits","nodmgspread","payload","uncletopia"],"game_id":440,"stv_port":27016,"stv_name":"Uncletopia | Chicago | 1 | All Maps | STV","players":[{"user_id":191,"name":"resident frotter (women only)","steam_id":76561198248461754,"connected_time":205000000000,"state":"active","ping":109},{"user_id":185,"name":"William Wallace","steam_id":76561199343316814,"connected_time":814000000000,"state":"active","ping":75},{"user_id":184,"name":"Recursive Gamer","steam_id":76561198042102952,"connected_time":1786000000000,"state":"active","ping":61},{"user_id":146,"name":"mangoman36","steam_id":76561198094984106,"connected_time":4586000000000,"state":"active","ping":51},{"user_id":192,"name":"snowcap","steam_id":76561198344164944,"connected_time":128000000000,"state":"active","ping":113},{"user_id":133,"name":"TF2 players are retarded","steam_id":76561198039763676,"connected_time":5882000000000,"state":"active","ping":76},{"user_id":147,"name":"RiverEgg","steam_id":76561198888913405,"connected_time":4581000000000,"state":"active","ping":57},{"user_id":188,"name":"Rx Auntie","steam_id":76561198051618393,"connected_time":667000000000,"state":"active","ping":61},{"user_id":181,"name":"sammayyy","steam_id":76561199086305225,"connected_time":2177000000000,"state":"active","ping":95},{"user_id":150,"name":"Big Phony","steam_id":76561199092395311,"connected_time":4502000000000,"state":"active","ping":61},{"user_id":193,"name":"Male Parental Figure","steam_id":76561199232220786,"connected_time":98000000000,"state":"active","ping":106},{"user_id":174,"name":"Im High","steam_id":76561198049954886,"connected_time":2718000000000,"state":"active","ping":61},{"user_id":194,"name":"kametro4","steam_id":76561198835430429,"connected_time":69000000000,"state":"active","ping":76},{"user_id":180,"name":"goober","steam_id":76561199014881883,"connected_time":2183000000000,"state":"active","ping":73},{"user_id":195,"name":"super dookie 69","steam_id":76561198300660227,"connected_time":59000000000,"state":"active","ping":60},{"user_id":186,"name":"Your Local Queer Librarian","steam_id":76561198013077080,"connected_time":800000000000,"state":"active","ping":58},{"user_id":166,"name":"Glory","steam_id":76561198013975080,"connected_time":3319000000000,"state":"active","ping":74},{"user_id":196,"name":"deamongaming4","steam_id":76561199476748210,"connected_time":44000000000,"state":"active","ping":235},{"user_id":197,"name":"MitzoAtlas","steam_id":76561198160890702,"connected_time":26000000000,"state":"active","ping":78},{"user_id":172,"name":"Ganja Bandit","steam_id":76561198875131601,"connected_time":2959000000000,"state":"active","ping":102},{"user_id":187,"name":"Angela Lynn","steam_id":76561198046293501,"connected_time":729000000000,"state":"active","ping":59},{"user_id":189,"name":"Veirū Viseris","steam_id":76561197989857176,"connected_time":537000000000,"state":"active","ping":159},{"user_id":182,"name":"Purgatory","steam_id":76561198374795958,"connected_time":2176000000000,"state":"active","ping":93}]},{"server_id":106,"name":"Uncletopia | Chicago | 2 | All Maps","name_short":"chi-2","host":"chi-1.us.uncletopia.com","port":27025,"enabled":true,"region":"us-central","cc":"us","latitude":41.881832,"longitude":-87.62318,"reserved":0,"last_update":"0001-01-01T00:00:00Z","name_a2s":"Uncletopia | Chicago | 2 | All Maps","protocol":17,"map":"koth_viaduct","folder":"tf","game":"Team Fortress","app_id":440,"player_count":21,"max_players":24,"Bots":0,"server_type":"Dedicated","server_os":"Linux","password":true,"vac":true,"version":"7757534","steam_id":85568392924469985,"keywords":["cp","nocrits","nodmgspread","uncletopia"],"game_id":440,"stv_port":27026,"stv_name":"Uncletopia | Chicago | 2 | All Maps | STV","players":[{"user_id":141,"name":"d-_-b","steam_id":76561198120725877,"connected_time":311000000000,"state":"active","ping":49},{"user_id":132,"name":"kratomSnorter.1quarter","steam_id":76561198946987511,"connected_time":614000000000,"state":"active","ping":76},{"user_id":145,"name":"-=HarrySTruman=-","steam_id":76561198030900154,"connected_time":35000000000,"state":"active","ping":72},{"user_id":110,"name":"ADALEXAD","steam_id":76561198037496891,"connected_time":2189000000000,"state":"active","ping":101},{"user_id":133,"name":"minly","steam_id":76561199078991134,"connected_time":585000000000,"state":"active","ping":71},{"user_id":130,"name":"dreamy_melina","steam_id":76561199059788460,"connected_time":793000000000,"state":"active","ping":96},{"user_id":65,"name":"mumbles(muted)","steam_id":76561197994528974,"connected_time":6061000000000,"state":"active","ping":116},{"user_id":131,"name":"Fiendish Frog","steam_id":76561198029478821,"connected_time":756000000000,"state":"active","ping":67},{"user_id":134,"name":"gamers aren't real","steam_id":76561198113748347,"connected_time":569000000000,"state":"active","ping":88},{"user_id":142,"name":"Shark Sandwich","steam_id":76561198025007938,"connected_time":215000000000,"state":"active","ping":133},{"user_id":120,"name":"Teesitin","steam_id":76561198116147302,"connected_time":1556000000000,"state":"active","ping":90},{"user_id":123,"name":"023e20902o0239ee02390o239e","steam_id":76561198175741741,"connected_time":1460000000000,"state":"active","ping":70},{"user_id":137,"name":"Cement","steam_id":76561199439212717,"connected_time":372000000000,"state":"active","ping":173},{"user_id":138,"name":"CFG Ponder","steam_id":76561198127039453,"connected_time":358000000000,"state":"active","ping":97},{"user_id":124,"name":"Ricky Dicky Doo Dah Grimes","steam_id":76561198143221900,"connected_time":1383000000000,"state":"active","ping":74},{"user_id":111,"name":"Blue Zelda","steam_id":76561198022750476,"connected_time":1900000000000,"state":"active","ping":60},{"user_id":122,"name":"Neon Inhaler","steam_id":76561198024881072,"connected_time":1516000000000,"state":"active","ping":70},{"user_id":146,"name":"Cinnannoe","steam_id":76561198406524568,"connected_time":35000000000,"state":"spawning","ping":162},{"user_id":144,"name":"Moyai","steam_id":76561199063871925,"connected_time":69000000000,"state":"active","ping":167},{"user_id":75,"name":"Mister","steam_id":76561198097164652,"connected_time":5301000000000,"state":"active","ping":69},{"user_id":117,"name":"Observer","steam_id":76561198220720512,"connected_time":1667000000000,"state":"active","ping":65}]},{"server_id":402,"name":"Uncletopia | Chicago | 3 | All Maps","name_short":"chi-3","host":"chi-1.us.uncletopia.com","port":27035,"enabled":true,"region":"us-central","cc":"us","latitude":41.881832,"longitude":-87.62318,"reserved":0,"last_update":"0001-01-01T00:00:00Z","name_a2s":"Uncletopia | Chicago | 3 | All Maps","protocol":17,"map":"pl_barnblitz","folder":"tf","game":"Team Fortress","app_id":440,"player_count":0,"max_players":24,"Bots":0,"server_type":"Dedicated","server_os":"Linux","password":true,"vac":true,"version":"7757534","steam_id":85568392924515191,"keywords":["nocrits","nodmgspread","payload","uncletopia"],"game_id":440,"stv_port":27036,"stv_name":"Uncletopia | Chicago | 3 | All Maps | STV","players":null},{"server_id":403,"name":"Uncletopia | Chicago | 4 | All Maps","name_short":"chi-4","host":"chi-1.us.uncletopia.com","port":27045,"enabled":true,"region":"us-central","cc":"us","latitude":41.881832,"longitude":-87.62318,"reserved":0,"last_update":"0001-01-01T00:00:00Z","name_a2s":"Uncletopia | Chicago | 4 | All Maps","protocol":17,"map":"koth_lakeside_final","folder":"tf","game":"Team Fortress","app_id":440,"player_count":0,"max_players":24,"Bots":0,"server_type":"Dedicated","server_os":"Linux","password":true,"vac":true,"version":"7757534","steam_id":85568392924515193,"keywords":["cp","nocrits","nodmgspread","uncletopia"],"game_id":440,"stv_port":27046,"stv_name":"Uncletopia | Chicago | 4 | All Maps | STV","players":null},{"server_id":36,"name":"Uncletopia | Chicago | 5 | All Maps","name_short":"chi-5","host":"chi-2.us.uncletopia.com","port":27015,"enabled":true,"region":"us-central","cc":"us","latitude":41.881832,"longitude":-87.62318,"reserved":0,"last_update":"0001-01-01T00:00:00Z","name_a2s":"Uncletopia | Chicago | 5 | All Maps","protocol":17,"map":"koth_cascade","folder":"tf","game":"Team Fortress","app_id":440,"player_count":0,"max_players":24,"Bots":0,"server_type":"Dedicated","server_os":"Linux","password":true,"vac":true,"version":"7757534","steam_id":85568392924866362,"keywords":["cp","nocrits","nodmgspread","uncletopia"],"game_id":440,"stv_port":27016,"stv_name":"Uncletopia | Chicago | 5 | All Maps | STV","players":null},{"server_id":37,"name":"Uncletopia | Chicago | 6 | All Maps","name_short":"chi-6","host":"chi-2.us.uncletopia.com","port":27025,"enabled":true,"region":"us-central","cc":"us","latitude":41.881832,"longitude":-87.62318,"reserved":0,"last_update":"0001-01-01T00:00:00Z","name_a2s":"Uncletopia | Chicago | 6 | All Maps","protocol":17,"map":"pl_borneo","folder":"tf","game":"Team Fortress","app_id":440,"player_count":0,"max_players":24,"Bots":0,"server_type":"Dedicated","server_os":"Linux","password":true,"vac":true,"version":"7757534","steam_id":85568392924866363,"keywords":["nocrits","nodmgspread","payload","uncletopia"],"game_id":440,"stv_port":27026,"stv_name":"Uncletopia | Chicago | 6 | All Maps | STV","players":null},{"server_id":38,"name":"Uncletopia | Chicago | 7 | Stopwatch Beta","name_short":"chi-7","host":"chi-2.us.uncletopia.com","port":27035,"enabled":true,"region":"us-central","cc":"us","latitude":41.881832,"longitude":-87.62318,"reserved":0,"last_update":"0001-01-01T00:00:00Z","name_a2s":"Uncletopia | Chicago | 7 | Stopwatch Beta","protocol":17,"map":"pl_barnblitz","folder":"tf","game":"Team Fortress","app_id":440,"player_count":0,"max_players":24,"Bots":0,"server_type":"Dedicated","server_os":"Linux","password":true,"vac":true,"version":"7757534","steam_id":85568392924866364,"keywords":["nocrits","nodmgspread","payload","uncletopia"],"game_id":440,"stv_port":27036,"stv_name":"Uncletopia | Chicago | 7 | Stopwatch Beta | STV","players":null},{"server_id":39,"name":"Uncletopia | Chicago | 8 | Community","name_short":"chi-8","host":"chi-2.us.uncletopia.com","port":27045,"enabled":true,"region":"us-central","cc":"us","latitude":41.881832,"longitude":-87.62318,"reserved":0,"last_update":"0001-01-01T00:00:00Z","name_a2s":"Uncletopia | Chicago | 8 | Community","protocol":17,"map":"koth_cascade","folder":"tf","game":"Team Fortress","app_id":440,"player_count":0,"max_players":24,"Bots":0,"server_type":"Dedicated","server_os":"Linux","password":true,"vac":true,"version":"7757534","steam_id":85568392924866365,"keywords":["cp","nocrits","nodmgspread","uncletopia"],"game_id":440,"stv_port":27046,"stv_name":"Uncletopia | Chicago | 8 | Community | STV","players":null},{"server_id":8,"name":"Uncletopia | Dallas | 1 | All Maps","name_short":"dal-1","host":"dal-1.us.uncletopia.com","port":27015,"enabled":true,"region":"us-central","cc":"us","latitude":32.779167,"longitude":-96.80889,"reserved":0,"last_update":"0001-01-01T00:00:00Z","name_a2s":"Uncletopia | Dallas | 1 | All Maps","protocol":17,"map":"pl_upward","folder":"tf","game":"Team Fortress","app_id":440,"player_count":22,"max_players":24,"Bots":0,"server_type":"Dedicated","server_os":"Linux","password":true,"vac":true,"version":"7757534","steam_id":85568392924469986,"keywords":["nocrits","nodmgspread","payload","uncletopia"],"game_id":440,"stv_port":27016,"stv_name":"Uncletopia | Dallas | 1 | All Maps | STV","players":[{"user_id":225,"name":"tf3aflyingmouse","steam_id":76561198058134934,"connected_time":145000000000,"state":"active","ping":98},{"user_id":196,"name":"Resistance","steam_id":76561198146782074,"connected_time":1567000000000,"state":"active","ping":84},{"user_id":220,"name":"ACrispSlimJim","steam_id":76561198145913920,"connected_time":483000000000,"state":"active","ping":74},{"user_id":171,"name":"PotatoSaladMyDood","steam_id":76561198974226056,"connected_time":3906000000000,"state":"active","ping":101},{"user_id":204,"name":"Viperbro_FGC #SaveTF2","steam_id":76561198140863068,"connected_time":1019000000000,"state":"active","ping":73},{"user_id":188,"name":"Dietrich","steam_id":76561198028163840,"connected_time":2376000000000,"state":"active","ping":65},{"user_id":210,"name":"ZodiacThundaga","steam_id":76561199025117814,"connected_time":778000000000,"state":"active","ping":99},{"user_id":141,"name":"DualiTea","steam_id":76561198081733870,"connected_time":5918000000000,"state":"active","ping":61},{"user_id":226,"name":"HAIL SATAN","steam_id":76561198085906239,"connected_time":5000000000,"state":"spawning","ping":79},{"user_id":221,"name":"traf (not stınko)","steam_id":76561198802107825,"connected_time":387000000000,"state":"active","ping":69},{"user_id":144,"name":"SadFapping","steam_id":76561198076651049,"connected_time":5513000000000,"state":"active","ping":112},{"user_id":223,"name":"Patio","steam_id":76561197986082608,"connected_time":300000000000,"state":"active","ping":102},{"user_id":206,"name":"Logamuffin","steam_id":76561198074557448,"connected_time":950000000000,"state":"active","ping":73},{"user_id":219,"name":"Guwop","steam_id":76561197970425737,"connected_time":520000000000,"state":"active","ping":72},{"user_id":222,"name":"poseidon","steam_id":76561199085441984,"connected_time":384000000000,"state":"active","ping":84},{"user_id":138,"name":"Carl, Good to see you","steam_id":76561198070574075,"connected_time":6169000000000,"state":"active","ping":75},{"user_id":224,"name":"Bong Rips for Karl","steam_id":76561197976436609,"connected_time":285000000000,"state":"active","ping":88},{"user_id":208,"name":"\"Big\" Jack Horner","steam_id":76561199000922074,"connected_time":830000000000,"state":"active","ping":182},{"user_id":195,"name":"upside down cat","steam_id":76561198028288349,"connected_time":1732000000000,"state":"active","ping":92},{"user_id":198,"name":"big reefer d00d","steam_id":76561198114603745,"connected_time":1561000000000,"state":"active","ping":87},{"user_id":200,"name":"FOrce of nature","steam_id":76561198390522839,"connected_time":1336000000000,"state":"active","ping":105},{"user_id":117,"name":"Also UbeR","steam_id":76561198166926843,"connected_time":8222000000000,"state":"active","ping":90}]},{"server_id":108,"name":"Uncletopia | Dallas | 2 | All Maps","name_short":"dal-2","host":"dal-1.us.uncletopia.com","port":27025,"enabled":true,"region":"us-central","cc":"us","latitude":32.779167,"longitude":-96.80889,"reserved":0,"last_update":"0001-01-01T00:00:00Z","name_a2s":"Uncletopia | Dallas | 2 | All Maps","protocol":17,"map":"pl_enclosure_final","folder":"tf","game":"Team Fortress","app_id":440,"player_count":21,"max_players":24,"Bots":0,"server_type":"Dedicated","server_os":"Linux","password":true,"vac":true,"version":"7757534","steam_id":85568392924469988,"keywords":["nocrits","nodmgspread","payload","uncletopia"],"game_id":440,"stv_port":27026,"stv_name":"Uncletopia | Dallas | 2 | All Maps | STV","players":[{"user_id":115,"name":"whycameback","steam_id":76561198222556872,"connected_time":209000000000,"state":"active","ping":83},{"user_id":100,"name":"Parker","steam_id":76561198046044893,"connected_time":1378000000000,"state":"active","ping":70},{"user_id":106,"name":"89","steam_id":76561198106308056,"connected_time":1097000000000,"state":"active","ping":75},{"user_id":102,"name":"Kid named download","steam_id":76561199192074448,"connected_time":1308000000000,"state":"active","ping":104},{"user_id":116,"name":"Primal","steam_id":76561197983118203,"connected_time":175000000000,"state":"active","ping":94},{"user_id":117,"name":"Spiky haired protagonist","steam_id":76561198059485070,"connected_time":141000000000,"state":"active","ping":107},{"user_id":15,"name":".jpegged","steam_id":76561198120078454,"connected_time":5563000000000,"state":"active","ping":72},{"user_id":110,"name":"Ass Blaster, Disaster Master","steam_id":76561197997774469,"connected_time":531000000000,"state":"active","ping":67},{"user_id":68,"name":"\u003c`)))))\u003c fish","steam_id":76561198410078962,"connected_time":3322000000000,"state":"active","ping":61},{"user_id":105,"name":"Campasrt","steam_id":76561198165410359,"connected_time":1129000000000,"state":"active","ping":85},{"user_id":69,"name":"kris the deer","steam_id":76561198170928310,"connected_time":3103000000000,"state":"active","ping":92},{"user_id":111,"name":"Titus Tyrwitt","steam_id":76561197990779673,"connected_time":512000000000,"state":"active","ping":75},{"user_id":90,"name":"Techno-slender","steam_id":76561198116881752,"connected_time":2269000000000,"state":"active","ping":81},{"user_id":114,"name":"Rabbit²","steam_id":76561198173207707,"connected_time":269000000000,"state":"active","ping":60},{"user_id":29,"name":"Little Linguine","steam_id":76561198816986370,"connected_time":4765000000000,"state":"active","ping":104},{"user_id":88,"name":"DarkEmpireOne","steam_id":76561198106849547,"connected_time":2357000000000,"state":"active","ping":72},{"user_id":71,"name":"g00bur","steam_id":76561197993622520,"connected_time":2993000000000,"state":"active","ping":84},{"user_id":87,"name":"Gr8alex #KILLTF2","steam_id":76561198227675960,"connected_time":2402000000000,"state":"active","ping":90},{"user_id":79,"name":"船尾","steam_id":76561198128764422,"connected_time":2664000000000,"state":"active","ping":82},{"user_id":107,"name":"TikoTF2","steam_id":76561199066864469,"connected_time":811000000000,"state":"active","ping":65},{"user_id":97,"name":"Kirbothebrony","steam_id":76561198971911330,"connected_time":1502000000000,"state":"active","ping":68}]},{"server_id":5,"name":"Uncletopia | Frankfurt | 1 | All Maps","name_short":"frk-1","host":"frk-1.de.uncletopia.com","port":27015,"enabled":true,"region":"eu","cc":"de","latitude":50.110924,"longitude":8.682127,"reserved":0,"last_update":"0001-01-01T00:00:00Z","name_a2s":"Uncletopia | Frankfurt | 1 | All Maps","protocol":17,"map":"pl_badwater","folder":"tf","game":"Team Fortress","app_id":440,"player_count":0,"max_players":24,"Bots":0,"server_type":"Dedicated","server_os":"Linux","password":true,"vac":true,"version":"7757534","steam_id":85568392924469989,"keywords":["nocrits","nodmgspread","payload","uncletopia"],"game_id":440,"stv_port":27016,"stv_name":"Uncletopia | Frankfurt | 1 | All Maps | STV","players":null},{"server_id":110,"name":"Uncletopia | Frankfurt | 2 | All Maps","name_short":"frk-2","host":"frk-1.de.uncletopia.com","port":27025,"enabled":true,"region":"eu","cc":"de","latitude":50.110924,"longitude":8.682127,"reserved":0,"last_update":"0001-01-01T00:00:00Z","name_a2s":"Uncletopia | Frankfurt | 2 | All Maps","protocol":17,"map":"koth_viaduct","folder":"tf","game":"Team Fortress","app_id":440,"player_count":0,"max_players":24,"Bots":0,"server_type":"Dedicated","server_os":"Linux","password":true,"vac":true,"version":"7757534","steam_id":85568392924469990,"keywords":["cp","nocrits","nodmgspread","uncletopia"],"game_id":440,"stv_port":27026,"stv_name":"Uncletopia | Frankfurt | 2 | All Maps | STV","players":null},{"server_id":308,"name":"Uncletopia | Frankfurt | 3 | All Maps","name_short":"frk-3","host":"frk-1.de.uncletopia.com","port":27035,"enabled":true,"region":"eu","cc":"de","latitude":50.110924,"longitude":8.682127,"reserved":0,"last_update":"0001-01-01T00:00:00Z","name_a2s":"Uncletopia | Frankfurt | 3 | All Maps","protocol":17,"map":"koth_highpass","folder":"tf","game":"Team Fortress","app_id":440,"player_count":0,"max_players":24,"Bots":0,"server_type":"Dedicated","server_os":"Linux","password":true,"vac":true,"version":"7757534","steam_id":85568392924504274,"keywords":["cp","nocrits","nodmgspread","uncletopia"],"game_id":440,"stv_port":27036,"stv_name":"Uncletopia | Frankfurt | 3 | All Maps | STV","players":null},{"server_id":309,"name":"Uncletopia | Frankfurt | 4 | All Maps","name_short":"frk-4","host":"frk-1.de.uncletopia.com","port":27045,"enabled":true,"region":"eu","cc":"de","latitude":50.110924,"longitude":8.682127,"reserved":0,"last_update":"0001-01-01T00:00:00Z","name_a2s":"Uncletopia | Frankfurt | 4 | All Maps","protocol":17,"map":"koth_viaduct","folder":"tf","game":"Team Fortress","app_id":440,"player_count":1,"max_players":24,"Bots":0,"server_type":"Dedicated","server_os":"Linux","password":true,"vac":true,"version":"7757534","steam_id":85568392924504275,"keywords":["cp","nocrits","nodmgspread","uncletopia"],"game_id":440,"stv_port":27046,"stv_name":"Uncletopia | Frankfurt | 4 | All Maps | STV","players":[{"user_id":10,"name":"4","steam_id":76561197964945192,"connected_time":60000000000,"state":"active","ping":45}]},{"server_id":310,"name":"Uncletopia | Frankfurt | 5 | All Maps","name_short":"frk-5","host":"frk-1.de.uncletopia.com","port":27055,"enabled":true,"region":"eu","cc":"de","latitude":50.110924,"longitude":8.682127,"reserved":0,"last_update":"0001-01-01T00:00:00Z","name_a2s":"Uncletopia | Frankfurt | 5 | All Maps","protocol":17,"map":"pl_snowycoast","folder":"tf","game":"Team Fortress","app_id":440,"player_count":24,"max_players":24,"Bots":0,"server_type":"Dedicated","server_os":"Linux","password":true,"vac":true,"version":"7757534","steam_id":85568392924504277,"keywords":["nocrits","nodmgspread","payload","uncletopia"],"game_id":440,"stv_port":27056,"stv_name":"Uncletopia | Frankfurt | 5 | All Maps | STV","players":[{"user_id":187,"name":"Stu","steam_id":76561198131449281,"connected_time":1670000000000,"state":"active","ping":49},{"user_id":222,"name":"Spieller","steam_id":76561198057197847,"connected_time":500000000000,"state":"active","ping":78},{"user_id":193,"name":"akakez","steam_id":76561198095432821,"connected_time":1387000000000,"state":"active","ping":116},{"user_id":217,"name":"Breizbuc","steam_id":76561198118220633,"connected_time":756000000000,"state":"active","ping":64},{"user_id":223,"name":"scroted sigma freud","steam_id":76561198162462063,"connected_time":480000000000,"state":"active","ping":68},{"user_id":210,"name":"LemonLeCitron","steam_id":76561198215545267,"connected_time":914000000000,"state":"active","ping":74},{"user_id":219,"name":"purplecan","steam_id":76561199208283508,"connected_time":712000000000,"state":"active","ping":56},{"user_id":158,"name":"Zelmor","steam_id":76561197997708311,"connected_time":3350000000000,"state":"active","ping":54},{"user_id":206,"name":"disposablesuperbread","steam_id":76561199074703607,"connected_time":1177000000000,"state":"active","ping":73},{"user_id":172,"name":"bAdmon","steam_id":76561197961785793,"connected_time":2961000000000,"state":"active","ping":58},{"user_id":228,"name":"EthanRek","steam_id":76561198238165572,"connected_time":350000000000,"state":"active","ping":164},{"user_id":213,"name":"Spinyapickle","steam_id":76561198086653667,"connected_time":804000000000,"state":"active","ping":68},{"user_id":229,"name":"i look at gay people","steam_id":76561198078032019,"connected_time":135000000000,"state":"active","ping":67},{"user_id":224,"name":"I I","steam_id":76561199101935057,"connected_time":477000000000,"state":"active","ping":84},{"user_id":199,"name":"Tre3","steam_id":76561198054795379,"connected_time":1355000000000,"state":"active","ping":52},{"user_id":196,"name":"Someone","steam_id":76561199030195879,"connected_time":1377000000000,"state":"active","ping":57},{"user_id":221,"name":"VanillaWoof","steam_id":76561198158343951,"connected_time":656000000000,"state":"active","ping":57},{"user_id":214,"name":"$nØw","steam_id":76561198238781028,"connected_time":803000000000,"state":"active","ping":109},{"user_id":138,"name":"AleXandriX","steam_id":76561198035203950,"connected_time":4690000000000,"state":"active","ping":58},{"user_id":189,"name":"BigNik","steam_id":76561197975026342,"connected_time":1521000000000,"state":"active","ping":102},{"user_id":215,"name":"Schelemago","steam_id":76561198074733578,"connected_time":786000000000,"state":"active","ping":55},{"user_id":198,"name":"Katae","steam_id":76561199191465517,"connected_time":1363000000000,"state":"active","ping":89},{"user_id":204,"name":"a Regurar Barroon","steam_id":76561198834913692,"connected_time":1325000000000,"state":"active","ping":66},{"user_id":209,"name":"FxaS","steam_id":76561198092776178,"connected_time":1070000000000,"state":"active","ping":60}]},{"server_id":311,"name":"Uncletopia | Frankfurt | 6 | All Maps","name_short":"frk-6","host":"frk-1.de.uncletopia.com","port":27065,"enabled":true,"region":"eu","cc":"de","latitude":50.110924,"longitude":8.682127,"reserved":0,"last_update":"0001-01-01T00:00:00Z","name_a2s":"Uncletopia | Frankfurt | 6 | All Maps","protocol":17,"map":"pl_badwater","folder":"tf","game":"Team Fortress","app_id":440,"player_count":24,"max_players":24,"Bots":0,"server_type":"Dedicated","server_os":"Linux","password":true,"vac":true,"version":"7757534","steam_id":85568392924504278,"keywords":["nocrits","nodmgspread","payload","uncletopia"],"game_id":440,"stv_port":27066,"stv_name":"Uncletopia | Frankfurt | 6 | All Maps | STV","players":[{"user_id":415,"name":"walluu","steam_id":76561198121830870,"connected_time":1811000000000,"state":"active","ping":72},{"user_id":434,"name":"noobdog","steam_id":76561198036486671,"connected_time":424000000000,"state":"active","ping":60},{"user_id":436,"name":"scav","steam_id":76561199003863244,"connected_time":387000000000,"state":"active","ping":112},{"user_id":429,"name":"Feeli","steam_id":76561198026923585,"connected_time":557000000000,"state":"active","ping":69},{"user_id":430,"name":"G6 sherlock","steam_id":76561198802967796,"connected_time":528000000000,"state":"active","ping":121},{"user_id":420,"name":"Estyle","steam_id":76561198157804700,"connected_time":1200000000000,"state":"active","ping":86},{"user_id":386,"name":"Femboypawnguy","steam_id":76561198274894771,"connected_time":4193000000000,"state":"active","ping":58},{"user_id":426,"name":"Dsart","steam_id":76561199020866602,"connected_time":658000000000,"state":"active","ping":95},{"user_id":387,"name":"Mr.Usean","steam_id":76561198965758724,"connected_time":4180000000000,"state":"active","ping":69},{"user_id":431,"name":"Rodia","steam_id":76561197968293161,"connected_time":511000000000,"state":"active","ping":60},{"user_id":432,"name":"System","steam_id":76561199442503973,"connected_time":482000000000,"state":"active","ping":48},{"user_id":438,"name":"Kirre","steam_id":76561198446872726,"connected_time":162000000000,"state":"active","ping":76},{"user_id":409,"name":"JeanCorben","steam_id":76561197965133561,"connected_time":2432000000000,"state":"active","ping":47},{"user_id":433,"name":"Vibes 99","steam_id":76561198146194820,"connected_time":473000000000,"state":"active","ping":59},{"user_id":427,"name":"foof","steam_id":76561198308439257,"connected_time":609000000000,"state":"active","ping":71},{"user_id":439,"name":"hasansaeedifar","steam_id":76561198974563618,"connected_time":111000000000,"state":"active","ping":159},{"user_id":364,"name":"Chopperson_","steam_id":76561198873728497,"connected_time":5306000000000,"state":"active","ping":111},{"user_id":403,"name":"XPullaHiiri","steam_id":76561198031652375,"connected_time":2905000000000,"state":"active","ping":83},{"user_id":399,"name":"bigwish | bmod.tf","steam_id":76561197997859723,"connected_time":3019000000000,"state":"active","ping":89},{"user_id":344,"name":"howabe","steam_id":76561197996486818,"connected_time":6516000000000,"state":"active","ping":52},{"user_id":435,"name":"autistic luigi","steam_id":76561199218285040,"connected_time":422000000000,"state":"active","ping":76},{"user_id":437,"name":"F","steam_id":76561199149462792,"connected_time":386000000000,"state":"active","ping":70},{"user_id":421,"name":"Cookies and Bakies","steam_id":76561198017442928,"connected_time":1189000000000,"state":"active","ping":63},{"user_id":425,"name":"skai","steam_id":76561198184881255,"connected_time":683000000000,"state":"active","ping":75}]},{"server_id":23,"name":"Uncletopia | Frankfurt | 7 | Stopwatch Beta","name_short":"frk-7","host":"frk-1.de.uncletopia.com","port":27075,"enabled":true,"region":"eu","cc":"de","latitude":50.110924,"longitude":8.682127,"reserved":0,"last_update":"0001-01-01T00:00:00Z","name_a2s":"Uncletopia | Frankfurt | 7 | Stopwatch Beta","protocol":17,"map":"workshop/koth_ashville_final.ugc2130459942","folder":"tf","game":"Team Fortress","app_id":440,"player_count":0,"max_players":24,"Bots":0,"server_type":"Dedicated","server_os":"Linux","password":true,"vac":true,"version":"7757534","steam_id":85568392924742827,"keywords":["cp","nocrits","nodmgspread","uncletopia"],"game_id":440,"stv_port":27076,"stv_name":"Uncletopia | Frankfurt | 7 | Stopwatch Beta | STV","players":null},{"server_id":24,"name":"Uncletopia | Frankfurt | 8 | Community","name_short":"frk-8","host":"frk-1.de.uncletopia.com","port":27085,"enabled":true,"region":"eu","cc":"de","latitude":50.110924,"longitude":8.682127,"reserved":0,"last_update":"0001-01-01T00:00:00Z","name_a2s":"Uncletopia | Frankfurt | 8 | Community","protocol":17,"map":"koth_lakeside_final","folder":"tf","game":"Team Fortress","app_id":440,"player_count":0,"max_players":24,"Bots":0,"server_type":"Dedicated","server_os":"Linux","password":true,"vac":true,"version":"7757534","steam_id":85568392924742828,"keywords":["cp","nocrits","nodmgspread","uncletopia"],"game_id":440,"stv_port":27086,"stv_name":"Uncletopia | Frankfurt | 8 | Community | STV","players":null},{"server_id":202,"name":"Uncletopia | Hong Kong | 1 | All Maps","name_short":"hgk-1","host":"hgk-1.hk.uncletopia.com","port":27015,"enabled":true,"region":"asia","cc":"hk","latitude":22.302711,"longitude":114.177216,"reserved":0,"last_update":"0001-01-01T00:00:00Z","name_a2s":"Uncletopia | Hong Kong | 1 | All Maps","protocol":17,"map":"ctf_landfall","folder":"tf","game":"Team Fortress","app_id":440,"player_count":20,"max_players":24,"Bots":0,"server_type":"Dedicated","server_os":"Linux","password":true,"vac":true,"version":"7757534","steam_id":85568392924494504,"keywords":["ctf","nocrits","nodmgspread","uncletopia"],"game_id":440,"stv_port":27016,"stv_name":"Uncletopia | Hong Kong | 1 | All Maps | STV","players":[{"user_id":437,"name":"Rizzard Tower HDDT","steam_id":76561198333437182,"connected_time":605000000000,"state":"active","ping":35},{"user_id":269,"name":"tiden2000","steam_id":76561198092969425,"connected_time":12980000000000,"state":"active","ping":102},{"user_id":405,"name":"Smarks123","steam_id":76561198132170503,"connected_time":3330000000000,"state":"active","ping":85},{"user_id":365,"name":"AmaiToxic","steam_id":76561199122491157,"connected_time":6363000000000,"state":"active","ping":63},{"user_id":418,"name":"쿠키","steam_id":76561197997220367,"connected_time":1982000000000,"state":"active","ping":53},{"user_id":413,"name":"๋","steam_id":76561198413116920,"connected_time":2243000000000,"state":"active","ping":76},{"user_id":402,"name":"MsD IV","steam_id":76561198059707655,"connected_time":3893000000000,"state":"active","ping":94},{"user_id":391,"name":"i have minor hallucinations","steam_id":76561198138187921,"connected_time":4596000000000,"state":"active","ping":67},{"user_id":438,"name":"rizz in peace","steam_id":76561198155210881,"connected_time":522000000000,"state":"active","ping":82},{"user_id":436,"name":"NeoSiah","steam_id":76561198331361845,"connected_time":786000000000,"state":"active","ping":75},{"user_id":420,"name":"hoe bidon!","steam_id":76561198378829574,"connected_time":1824000000000,"state":"active","ping":108},{"user_id":399,"name":"7853","steam_id":76561199390507975,"connected_time":3980000000000,"state":"active","ping":51},{"user_id":374,"name":"DevAllen","steam_id":76561198830629355,"connected_time":5231000000000,"state":"active","ping":67},{"user_id":406,"name":"Azi","steam_id":76561198147872523,"connected_time":3291000000000,"state":"active","ping":61},{"user_id":347,"name":"KimvyKinsley","steam_id":76561198859745304,"connected_time":7650000000000,"state":"active","ping":80},{"user_id":377,"name":"bocchi no oppai","steam_id":76561198008307645,"connected_time":5215000000000,"state":"active","ping":77},{"user_id":401,"name":"gamerazilla_17","steam_id":76561199050258195,"connected_time":3909000000000,"state":"active","ping":91},{"user_id":433,"name":"hasty","steam_id":76561198439382132,"connected_time":991000000000,"state":"active","ping":119},{"user_id":412,"name":"jesse biatch!","steam_id":76561199065906077,"connected_time":2285000000000,"state":"active","ping":109},{"user_id":390,"name":"Cloud-Verse","steam_id":76561198194370973,"connected_time":4651000000000,"state":"active","ping":87}]},{"server_id":1,"name":"Uncletopia | Los Angeles | 1 | All Maps","name_short":"lax-1","host":"lax-1.us.uncletopia.com","port":27015,"enabled":true,"region":"us-west","cc":"us","latitude":33.94279,"longitude":-118.41004,"reserved":0,"last_update":"0001-01-01T00:00:00Z","name_a2s":"Uncletopia | Los Angeles | 1 | All Maps","protocol":17,"map":"koth_lakeside_final","folder":"tf","game":"Team Fortress","app_id":440,"player_count":0,"max_players":24,"Bots":0,"server_type":"Dedicated","server_os":"Linux","password":true,"vac":true,"version":"7757534","steam_id":85568392924469991,"keywords":["cp","nocrits","nodmgspread","uncletopia"],"game_id":440,"stv_port":27016,"stv_name":"Uncletopia | Los Angeles | 1 | All Maps | STV","players":null},{"server_id":112,"name":"Uncletopia | Los Angeles | 2 | All Maps","name_short":"lax-2","host":"lax-1.us.uncletopia.com","port":27025,"enabled":true,"region":"us-west","cc":"us","latitude":33.94279,"longitude":-118.41004,"reserved":0,"last_update":"0001-01-01T00:00:00Z","name_a2s":"Uncletopia | Los Angeles | 2 | All Maps","protocol":17,"map":"pl_badwater","folder":"tf","game":"Team Fortress","app_id":440,"player_count":0,"max_players":24,"Bots":0,"server_type":"Dedicated","server_os":"Linux","password":true,"vac":true,"version":"7757534","steam_id":85568392924469992,"keywords":["nocrits","nodmgspread","payload","uncletopia"],"game_id":440,"stv_port":27026,"stv_name":"Uncletopia | Los Angeles | 2 | All Maps | STV","players":null},{"server_id":324,"name":"Uncletopia | Los Angeles | 3 | All Maps","name_short":"lax-3","host":"lax-1.us.uncletopia.com","port":27035,"enabled":true,"region":"us-west","cc":"us","latitude":33.94279,"longitude":-118.41004,"reserved":0,"last_update":"0001-01-01T00:00:00Z","name_a2s":"Uncletopia | Los Angeles | 3 | All Maps","protocol":17,"map":"pl_barnblitz","folder":"tf","game":"Team Fortress","app_id":440,"player_count":0,"max_players":24,"Bots":0,"server_type":"Dedicated","server_os":"Linux","password":true,"vac":true,"version":"7757534","steam_id":85568392924510198,"keywords":["nocrits","nodmgspread","payload","uncletopia"],"game_id":440,"stv_port":27036,"stv_name":"Uncletopia | Los Angeles | 3 | All Maps | STV","players":null},{"server_id":25,"name":"Uncletopia | Los Angeles | 4 | Stopwatch Beta","name_short":"lax-4","host":"lax-1.us.uncletopia.com","port":27045,"enabled":true,"region":"us-west","cc":"us","latitude":33.94279,"longitude":-118.41004,"reserved":0,"last_update":"0001-01-01T00:00:00Z","name_a2s":"Uncletopia | Los Angeles | 4 | Stopwatch Beta","protocol":17,"map":"pl_swiftwater_final1","folder":"tf","game":"Team Fortress","app_id":440,"player_count":0,"max_players":24,"Bots":0,"server_type":"Dedicated","server_os":"Linux","password":true,"vac":true,"version":"7757534","steam_id":85568392924510199,"keywords":["nocrits","nodmgspread","payload","uncletopia"],"game_id":440,"stv_port":27046,"stv_name":"Uncletopia | Los Angeles | 4 | Stopwatch Beta | STV","players":null},{"server_id":11,"name":"Uncletopia | London | 1 | All Maps","name_short":"lon-1","host":"lon-1.uk.uncletopia.com","port":27015,"enabled":true,"region":"eu","cc":"gb","latitude":51.509865,"longitude":-0.118092,"reserved":0,"last_update":"0001-01-01T00:00:00Z","name_a2s":"Uncletopia | London | 1 | All Maps","protocol":17,"map":"cp_process_final","folder":"tf","game":"Team Fortress","app_id":440,"player_count":24,"max_players":24,"Bots":0,"server_type":"Dedicated","server_os":"Linux","password":true,"vac":true,"version":"7757534","steam_id":85568392924367362,"keywords":["cp","nocrits","nodmgspread","uncletopia"],"game_id":440,"stv_port":27016,"stv_name":"Uncletopia | London | 1 | All Maps | STV","players":[{"user_id":416,"name":"NLSAM","steam_id":76561199111154916,"connected_time":3052000000000,"state":"active","ping":58},{"user_id":347,"name":"Neo Kojiro","steam_id":76561198000967076,"connected_time":10201000000000,"state":"active","ping":129},{"user_id":418,"name":"Maximus","steam_id":76561198032472655,"connected_time":2492000000000,"state":"active","ping":60},{"user_id":433,"name":"Rezkey","steam_id":76561198206079048,"connected_time":1901000000000,"state":"active","ping":55},{"user_id":468,"name":"player","steam_id":76561198054474684,"connected_time":61000000000,"state":"active","ping":77},{"user_id":419,"name":"Fat Pigeon","steam_id":76561198817940142,"connected_time":2479000000000,"state":"active","ping":48},{"user_id":441,"name":"SPONGE","steam_id":76561198040933472,"connected_time":1195000000000,"state":"active","ping":60},{"user_id":427,"name":"Munibe","steam_id":76561198107967904,"connected_time":2370000000000,"state":"active","ping":68},{"user_id":452,"name":"KingTeddy","steam_id":76561198131757499,"connected_time":480000000000,"state":"active","ping":69},{"user_id":469,"name":"_Chelik_","steam_id":76561199076069284,"connected_time":47000000000,"state":"active","ping":92},{"user_id":466,"name":"Kretur","steam_id":76561198161086266,"connected_time":189000000000,"state":"active","ping":100},{"user_id":467,"name":"kotamine","steam_id":76561198068907991,"connected_time":147000000000,"state":"active","ping":70},{"user_id":414,"name":"regimiro","steam_id":76561198120457008,"connected_time":3543000000000,"state":"active","ping":52},{"user_id":434,"name":"Gustas","steam_id":76561198966776109,"connected_time":1771000000000,"state":"active","ping":65},{"user_id":447,"name":"Myrmodion","steam_id":76561198054746247,"connected_time":575000000000,"state":"active","ping":73},{"user_id":391,"name":"Fruit","steam_id":76561198346687933,"connected_time":5820000000000,"state":"active","ping":61},{"user_id":432,"name":"chssdk","steam_id":76561198262231733,"connected_time":2086000000000,"state":"active","ping":90},{"user_id":435,"name":"Piox","steam_id":76561198125689157,"connected_time":1762000000000,"state":"active","ping":75},{"user_id":440,"name":"Momovsky","steam_id":76561198005738407,"connected_time":1279000000000,"state":"active","ping":91},{"user_id":428,"name":"coffee","steam_id":76561198382387303,"connected_time":2352000000000,"state":"active","ping":109},{"user_id":448,"name":"Comrade_BUCKETS","steam_id":76561198053853136,"connected_time":572000000000,"state":"active","ping":43},{"user_id":439,"name":"wouris","steam_id":76561198876188003,"connected_time":1511000000000,"state":"active","ping":71},{"user_id":429,"name":"Jonathan","steam_id":76561198087988880,"connected_time":2317000000000,"state":"active","ping":59},{"user_id":449,"name":"Qui-Gon Jinn","steam_id":76561198853214333,"connected_time":571000000000,"state":"active","ping":59}]},{"server_id":114,"name":"Uncletopia | London | 2 | All Maps","name_short":"lon-2","host":"lon-1.uk.uncletopia.com","port":27025,"enabled":true,"region":"eu","cc":"gb","latitude":51.509865,"longitude":-0.118092,"reserved":0,"last_update":"0001-01-01T00:00:00Z","name_a2s":"Uncletopia | London | 2 | All Maps","protocol":17,"map":"pl_pier","folder":"tf","game":"Team Fortress","app_id":440,"player_count":24,"max_players":24,"Bots":0,"server_type":"Dedicated","server_os":"Linux","password":true,"vac":true,"version":"7757534","steam_id":85568392924470941,"keywords":["nocrits","nodmgspread","payload","uncletopia"],"game_id":440,"stv_port":27026,"stv_name":"Uncletopia | London | 2 | All Maps | STV","players":[{"user_id":89,"name":"jaime8D","steam_id":76561197980590671,"connected_time":347000000000,"state":"active","ping":91},{"user_id":83,"name":"CAMON ENGELAND","steam_id":76561198054301125,"connected_time":846000000000,"state":"active","ping":86},{"user_id":96,"name":"SmashKittens","steam_id":76561199038699306,"connected_time":4000000000,"state":"spawning","ping":59},{"user_id":90,"name":"RaidBoss","steam_id":76561198138777659,"connected_time":332000000000,"state":"active","ping":66},{"user_id":65,"name":"full power heart attack","steam_id":76561199196568965,"connected_time":2182000000000,"state":"active","ping":94},{"user_id":85,"name":"r06u3 #SummerUpdate_Coming","steam_id":76561198254099253,"connected_time":614000000000,"state":"active","ping":180},{"user_id":56,"name":"The Fellow Feller","steam_id":76561198188864306,"connected_time":3109000000000,"state":"active","ping":79},{"user_id":66,"name":"Creative","steam_id":76561198835034247,"connected_time":2170000000000,"state":"active","ping":77},{"user_id":86,"name":"Purplenoogie","steam_id":76561198081872160,"connected_time":611000000000,"state":"active","ping":45},{"user_id":92,"name":"Toebeans","steam_id":76561198049890080,"connected_time":252000000000,"state":"active","ping":46},{"user_id":80,"name":"true","steam_id":76561198031145243,"connected_time":895000000000,"state":"active","ping":75},{"user_id":59,"name":"Seaney","steam_id":76561198059138839,"connected_time":2818000000000,"state":"active","ping":61},{"user_id":93,"name":"murderwow","steam_id":76561198024566944,"connected_time":235000000000,"state":"active","ping":109},{"user_id":28,"name":"wide appreciator","steam_id":76561198083286511,"connected_time":4959000000000,"state":"active","ping":45},{"user_id":68,"name":"Houf","steam_id":76561198448050535,"connected_time":2160000000000,"state":"active","ping":69},{"user_id":91,"name":"After8","steam_id":76561198090750865,"connected_time":301000000000,"state":"active","ping":69},{"user_id":29,"name":"Zogg","steam_id":76561198352683491,"connected_time":4957000000000,"state":"active","ping":41},{"user_id":82,"name":"ricky pee pee","steam_id":76561198152620745,"connected_time":869000000000,"state":"active","ping":58},{"user_id":48,"name":"Red Dynamite","steam_id":76561199073167935,"connected_time":4169000000000,"state":"active","ping":164},{"user_id":60,"name":"gagalak","steam_id":76561198089979108,"connected_time":2738000000000,"state":"active","ping":103},{"user_id":50,"name":"Kodutah","steam_id":76561198203405574,"connected_time":4045000000000,"state":"active","ping":82},{"user_id":79,"name":"makarov","steam_id":76561198363892870,"connected_time":985000000000,"state":"active","ping":82},{"user_id":95,"name":"rajAs","steam_id":76561198035928111,"connected_time":107000000000,"state":"active","ping":87},{"user_id":78,"name":"meZzo82","steam_id":76561199094017865,"connected_time":1146000000000,"state":"active","ping":74}]},{"server_id":320,"name":"Uncletopia | London | 3 | All Maps","name_short":"lon-3","host":"lon-1.uk.uncletopia.com","port":27035,"enabled":true,"region":"eu","cc":"gb","latitude":51.509865,"longitude":-0.118092,"reserved":0,"last_update":"0001-01-01T00:00:00Z","name_a2s":"Uncletopia | London | 3 | All Maps","protocol":17,"map":"koth_lakeside_final","folder":"tf","game":"Team Fortress","app_id":440,"player_count":24,"max_players":24,"Bots":0,"server_type":"Dedicated","server_os":"Linux","password":true,"vac":true,"version":"7757534","steam_id":85568392924510192,"keywords":["cp","nocrits","nodmgspread","uncletopia"],"game_id":440,"stv_port":27036,"stv_name":"Uncletopia | London | 3 | All Maps | STV","players":[{"user_id":261,"name":"Fpaoullis","steam_id":76561198897866131,"connected_time":941000000000,"state":"active","ping":85},{"user_id":271,"name":"Pencil Billy","steam_id":76561198009407651,"connected_time":57000000000,"state":"active","ping":50},{"user_id":235,"name":"leibhéalfaidh mé thú","steam_id":76561198078484073,"connected_time":2007000000000,"state":"active","ping":77},{"user_id":186,"name":"Mircoxi","steam_id":76561199407632710,"connected_time":5329000000000,"state":"active","ping":61},{"user_id":244,"name":"agile_bea$t","steam_id":76561198026052716,"connected_time":1896000000000,"state":"active","ping":50},{"user_id":220,"name":"silicon based life form","steam_id":76561199127121346,"connected_time":2736000000000,"state":"active","ping":55},{"user_id":262,"name":"subway vergil","steam_id":76561199110064166,"connected_time":815000000000,"state":"active","ping":83},{"user_id":68,"name":"Sakari","steam_id":76561197997811299,"connected_time":17679000000000,"state":"active","ping":60},{"user_id":171,"name":"♥ aura ♥","steam_id":76561198066258544,"connected_time":8219000000000,"state":"active","ping":60},{"user_id":272,"name":"whimsy.","steam_id":76561198878171763,"connected_time":55000000000,"state":"active","ping":56},{"user_id":266,"name":"☜(ﾟヮﾟ☜) fribs","steam_id":76561198000461999,"connected_time":545000000000,"state":"active","ping":120},{"user_id":270,"name":"Topia","steam_id":76561198163571788,"connected_time":141000000000,"state":"active","ping":89},{"user_id":257,"name":"Qpangfire","steam_id":76561198094354139,"connected_time":1248000000000,"state":"active","ping":46},{"user_id":258,"name":"Ironsiren","steam_id":76561198098075733,"connected_time":1238000000000,"state":"active","ping":90},{"user_id":246,"name":"Pauler le one","steam_id":76561198398152855,"connected_time":1844000000000,"state":"active","ping":85},{"user_id":253,"name":"Thalash","steam_id":76561198064052251,"connected_time":1613000000000,"state":"active","ping":69},{"user_id":255,"name":"mr Teo","steam_id":76561198030853412,"connected_time":1573000000000,"state":"active","ping":62},{"user_id":194,"name":"Jinx my beloved","steam_id":76561198819986745,"connected_time":4421000000000,"state":"active","ping":92},{"user_id":241,"name":"SalamiMuncher69","steam_id":76561198049312442,"connected_time":1949000000000,"state":"active","ping":45},{"user_id":215,"name":"BONK-TEC!","steam_id":76561198272667029,"connected_time":3124000000000,"state":"active","ping":55},{"user_id":260,"name":"Oldworldjazz","steam_id":76561198184632645,"connected_time":1017000000000,"state":"active","ping":105},{"user_id":268,"name":"puck","steam_id":76561198121260981,"connected_time":313000000000,"state":"active","ping":45},{"user_id":264,"name":"Hydro","steam_id":76561199081791855,"connected_time":697000000000,"state":"active","ping":55},{"user_id":243,"name":"Doughy","steam_id":76561198044084210,"connected_time":1936000000000,"state":"active","ping":73}]},{"server_id":321,"name":"Uncletopia | London | 4 | All Maps","name_short":"lon-4","host":"lon-1.uk.uncletopia.com","port":27045,"enabled":true,"region":"eu","cc":"gb","latitude":51.509865,"longitude":-0.118092,"reserved":0,"last_update":"0001-01-01T00:00:00Z","name_a2s":"Uncletopia | London | 4 | All Maps","protocol":17,"map":"cp_mountainlab","folder":"tf","game":"Team Fortress","app_id":440,"player_count":0,"max_players":24,"Bots":0,"server_type":"Dedicated","server_os":"Linux","password":true,"vac":true,"version":"7757534","steam_id":85568392924510193,"keywords":["cp","nocrits","nodmgspread","uncletopia"],"game_id":440,"stv_port":27046,"stv_name":"Uncletopia | London | 4 | All Maps | STV","players":null},{"server_id":21,"name":"Uncletopia | London | 5 | All Maps","name_short":"lon-5","host":"lon-1.uk.uncletopia.com","port":27055,"enabled":true,"region":"eu","cc":"gb","latitude":51.509865,"longitude":-0.118092,"reserved":0,"last_update":"0001-01-01T00:00:00Z","name_a2s":"Uncletopia | London | 5 | All Maps","protocol":17,"map":"cp_granary","folder":"tf","game":"Team Fortress","app_id":440,"player_count":24,"max_players":24,"Bots":0,"server_type":"Dedicated","server_os":"Linux","password":true,"vac":true,"version":"7757534","steam_id":85568392924742829,"keywords":["cp","nocrits","nodmgspread","uncletopia"],"game_id":440,"stv_port":27056,"stv_name":"Uncletopia | London | 5 | All Maps | STV","players":[{"user_id":258,"name":"Heavy","steam_id":76561198419169297,"connected_time":2681000000000,"state":"active","ping":85},{"user_id":269,"name":"Art","steam_id":76561198823514629,"connected_time":1914000000000,"state":"active","ping":129},{"user_id":248,"name":"Son Goku","steam_id":76561199383437138,"connected_time":3208000000000,"state":"active","ping":130},{"user_id":223,"name":"I-I","steam_id":76561198267969436,"connected_time":4669000000000,"state":"active","ping":70},{"user_id":232,"name":"★Larimore★","steam_id":76561198258279528,"connected_time":4142000000000,"state":"active","ping":125},{"user_id":286,"name":"TonTon","steam_id":76561198145468895,"connected_time":555000000000,"state":"active","ping":62},{"user_id":281,"name":"Firit","steam_id":76561198988590216,"connected_time":1074000000000,"state":"active","ping":92},{"user_id":276,"name":"medic appreciator","steam_id":76561198055389492,"connected_time":1253000000000,"state":"active","ping":41},{"user_id":270,"name":"Oak","steam_id":76561198067315672,"connected_time":1780000000000,"state":"active","ping":44},{"user_id":280,"name":"Ape","steam_id":76561198322703872,"connected_time":1085000000000,"state":"active","ping":69},{"user_id":279,"name":"Tesco Mixed Herbs","steam_id":76561198136239861,"connected_time":1100000000000,"state":"active","ping":60},{"user_id":272,"name":"bayzoes","steam_id":76561198117472639,"connected_time":1434000000000,"state":"active","ping":38},{"user_id":289,"name":"Uncle Terry","steam_id":76561198396415736,"connected_time":170000000000,"state":"active","ping":55},{"user_id":247,"name":"Specialluxurytouring2007","steam_id":76561198236015392,"connected_time":3408000000000,"state":"active","ping":120},{"user_id":283,"name":"Lucky B.🏆","steam_id":76561198077571162,"connected_time":907000000000,"state":"active","ping":53},{"user_id":291,"name":"Miles","steam_id":76561198084891833,"connected_time":93000000000,"state":"active","ping":98},{"user_id":290,"name":"NitPig","steam_id":76561198212991935,"connected_time":165000000000,"state":"active","ping":95},{"user_id":260,"name":"GamingCarp","steam_id":76561198285235511,"connected_time":2607000000000,"state":"active","ping":44},{"user_id":285,"name":"Matt the Waffling-Iron","steam_id":76561198044066043,"connected_time":843000000000,"state":"active","ping":87},{"user_id":243,"name":"Anri Okita's Massive Milkers","steam_id":76561199186352720,"connected_time":3621000000000,"state":"active","ping":52},{"user_id":194,"name":"engineer drip","steam_id":76561198991032570,"connected_time":6862000000000,"state":"active","ping":89},{"user_id":278,"name":"ScaryTree","steam_id":76561199384362833,"connected_time":1119000000000,"state":"active","ping":54},{"user_id":273,"name":"Dogman","steam_id":76561198052217354,"connected_time":1410000000000,"state":"active","ping":96},{"user_id":245,"name":"Irbynx","steam_id":76561197980421195,"connected_time":3592000000000,"state":"active","ping":78}]},{"server_id":22,"name":"Uncletopia | London | 6 | All Maps","name_short":"lon-6","host":"lon-1.uk.uncletopia.com","port":27065,"enabled":true,"region":"eu","cc":"gb","latitude":51.509865,"longitude":-0.118092,"reserved":0,"last_update":"0001-01-01T00:00:00Z","name_a2s":"Uncletopia | London | 6 | All Maps","protocol":17,"map":"cp_mountainlab","folder":"tf","game":"Team Fortress","app_id":440,"player_count":0,"max_players":24,"Bots":0,"server_type":"Dedicated","server_os":"Linux","password":true,"vac":true,"version":"7757534","steam_id":85568392924742830,"keywords":["cp","nocrits","nodmgspread","uncletopia"],"game_id":440,"stv_port":27066,"stv_name":"Uncletopia | London | 6 | All Maps | STV","players":null},{"server_id":40,"name":"Uncletopia | London | 7 | No Payload","name_short":"lon-7","host":"lon-1.uk.uncletopia.com","port":27075,"enabled":true,"region":"eu","cc":"gb","latitude":51.509865,"longitude":-0.118092,"reserved":0,"last_update":"0001-01-01T00:00:00Z","name_a2s":"Uncletopia | London | 7 | No Payload","protocol":17,"map":"plr_nightfall_final","folder":"tf","game":"Team Fortress","app_id":440,"player_count":0,"max_players":24,"Bots":0,"server_type":"Dedicated","server_os":"Linux","password":true,"vac":true,"version":"7757534","steam_id":85568392924964314,"keywords":["nocrits","nodmgspread","payload","uncletopia"],"game_id":440,"stv_port":27076,"stv_name":"Uncletopia | London | 7 | No Payload | STV","players":null},{"server_id":41,"name":"Uncletopia | London | 8 | Community","name_short":"lon-8","host":"lon-1.uk.uncletopia.com","port":27085,"enabled":true,"region":"eu","cc":"gb","latitude":51.509865,"longitude":-0.118092,"reserved":0,"last_update":"0001-01-01T00:00:00Z","name_a2s":"Uncletopia | London | 8 | Community","protocol":17,"map":"workshop/pl_cashworks_final1.ugc2904065412","folder":"tf","game":"Team Fortress","app_id":440,"player_count":0,"max_players":24,"Bots":0,"server_type":"Dedicated","server_os":"Linux","password":true,"vac":true,"version":"7757534","steam_id":85568392924964315,"keywords":["nocrits","nodmgspread","payload","uncletopia"],"game_id":440,"stv_port":27086,"stv_name":"Uncletopia | London | 8 | Community | STV","players":null},{"server_id":300,"name":"Uncletopia | Montréal | 1 | All Maps","name_short":"mtl-1","host":"mtl-1.ca.uncletopia.com","port":27015,"enabled":true,"region":"us-east","cc":"ca","latitude":45.50889,"longitude":-73.56167,"reserved":0,"last_update":"0001-01-01T00:00:00Z","name_a2s":"Uncletopia | Montréal | 1 | All Maps","protocol":17,"map":"pl_upward","folder":"tf","game":"Team Fortress","app_id":440,"player_count":0,"max_players":24,"Bots":0,"server_type":"Dedicated","server_os":"Linux","password":true,"vac":true,"version":"7757534","steam_id":85568392924500087,"keywords":["nocrits","nodmgspread","payload","uncletopia"],"game_id":440,"stv_port":27016,"stv_name":"Uncletopia | Montréal | 1 | All Maps | STV","players":null},{"server_id":301,"name":"Uncletopia | Montréal | 2 | All Maps","name_short":"mtl-2","host":"mtl-1.ca.uncletopia.com","port":27025,"enabled":true,"region":"us-east","cc":"ca","latitude":45.50889,"longitude":-73.56167,"reserved":0,"last_update":"0001-01-01T00:00:00Z","name_a2s":"Uncletopia | Montréal | 2 | All Maps","protocol":17,"map":"plr_hightower","folder":"tf","game":"Team Fortress","app_id":440,"player_count":0,"max_players":24,"Bots":0,"server_type":"Dedicated","server_os":"Linux","password":true,"vac":true,"version":"7757534","steam_id":85568392924500088,"keywords":["nocrits","nodmgspread","payload","uncletopia"],"game_id":440,"stv_port":27026,"stv_name":"Uncletopia | Montréal | 2 | All Maps | STV","players":null},{"server_id":302,"name":"Uncletopia | Montréal | 3 | All Maps","name_short":"mtl-3","host":"mtl-1.ca.uncletopia.com","port":27035,"enabled":true,"region":"us-east","cc":"ca","latitude":45.50889,"longitude":-73.56167,"reserved":0,"last_update":"0001-01-01T00:00:00Z","name_a2s":"Uncletopia | Montréal | 3 | All Maps","protocol":17,"map":"pl_swiftwater_final1","folder":"tf","game":"Team Fortress","app_id":440,"player_count":0,"max_players":24,"Bots":0,"server_type":"Dedicated","server_os":"Linux","password":true,"vac":true,"version":"7757534","steam_id":85568392924500089,"keywords":["nocrits","nodmgspread","payload","uncletopia"],"game_id":440,"stv_port":27036,"stv_name":"Uncletopia | Montréal | 3 | All Maps | STV","players":null},{"server_id":303,"name":"Uncletopia | Montréal | 4 | No Payload","name_short":"mtl-4","host":"mtl-1.ca.uncletopia.com","port":27045,"enabled":true,"region":"us-east","cc":"ca","latitude":45.50889,"longitude":-73.56167,"reserved":0,"last_update":"0001-01-01T00:00:00Z","name_a2s":"Uncletopia | Montréal | 4 | No Payload","protocol":17,"map":"pl_pier","folder":"tf","game":"Team Fortress","app_id":440,"player_count":0,"max_players":24,"Bots":0,"server_type":"Dedicated","server_os":"Linux","password":true,"vac":true,"version":"7757534","steam_id":85568392924500090,"keywords":["nocrits","nodmgspread","payload","uncletopia"],"game_id":440,"stv_port":27046,"stv_name":"Uncletopia | Montréal | 4 | No Payload | STV","players":null},{"server_id":13,"name":"Uncletopia | New York City | 1 | All Maps","name_short":"nyc-1","host":"nyc-1.us.uncletopia.com","port":27015,"enabled":true,"region":"us-east","cc":"us","latitude":40.73061,"longitude":-73.93524,"reserved":0,"last_update":"0001-01-01T00:00:00Z","name_a2s":"Uncletopia | New York City | 1 | All Maps","protocol":17,"map":"pl_frontier_final","folder":"tf","game":"Team Fortress","app_id":440,"player_count":24,"max_players":24,"Bots":0,"server_type":"Dedicated","server_os":"Linux","password":true,"vac":true,"version":"7757534","steam_id":85568392924469993,"keywords":["nocrits","nodmgspread","payload","uncletopia"],"game_id":440,"stv_port":27016,"stv_name":"Uncletopia | New York City | 1 | All Maps | STV","players":[{"user_id":5,"name":"Professional Zoo Tycoon Player","steam_id":76561198013026044,"connected_time":2413000000000,"state":"active","ping":71},{"user_id":6,"name":"MobyThicc","steam_id":76561198392348621,"connected_time":2303000000000,"state":"active","ping":73},{"user_id":15,"name":"Alshek","steam_id":76561198115594676,"connected_time":1559000000000,"state":"active","ping":44},{"user_id":17,"name":"Awenova","steam_id":76561198322928940,"connected_time":1416000000000,"state":"active","ping":76},{"user_id":9,"name":"mana_sourcer","steam_id":76561199231055566,"connected_time":1915000000000,"state":"active","ping":105},{"user_id":10,"name":"wraithe_13","steam_id":76561198274617837,"connected_time":1815000000000,"state":"active","ping":138},{"user_id":27,"name":"oogies","steam_id":76561198170050361,"connected_time":690000000000,"state":"active","ping":86},{"user_id":19,"name":"._.","steam_id":76561198110775575,"connected_time":1366000000000,"state":"active","ping":69},{"user_id":13,"name":"the pest","steam_id":76561198826298849,"connected_time":1574000000000,"state":"active","ping":89},{"user_id":28,"name":"robsan","steam_id":76561198137375391,"connected_time":675000000000,"state":"active","ping":149},{"user_id":22,"name":"GOLDWING","steam_id":76561198081864746,"connected_time":1066000000000,"state":"active","ping":71},{"user_id":23,"name":"An_Italian_Otter","steam_id":76561197993495879,"connected_time":941000000000,"state":"active","ping":75},{"user_id":24,"name":"tocka","steam_id":76561198106917662,"connected_time":878000000000,"state":"active","ping":77},{"user_id":29,"name":"Ghost","steam_id":76561198426370628,"connected_time":650000000000,"state":"active","ping":65},{"user_id":26,"name":"Fieldrook","steam_id":76561198799005478,"connected_time":759000000000,"state":"active","ping":89},{"user_id":30,"name":"Sparky","steam_id":76561198086845464,"connected_time":648000000000,"state":"active","ping":75},{"user_id":31,"name":"Pluto","steam_id":76561198338593690,"connected_time":571000000000,"state":"active","ping":75},{"user_id":32,"name":"Kirsk","steam_id":76561198084397649,"connected_time":564000000000,"state":"active","ping":75},{"user_id":33,"name":"Wender","steam_id":76561198995247917,"connected_time":550000000000,"state":"active","ping":112},{"user_id":39,"name":"***MeDiCuRe***","steam_id":76561199216222247,"connected_time":144000000000,"state":"active","ping":89},{"user_id":35,"name":"potateking","steam_id":76561198066579830,"connected_time":473000000000,"state":"active","ping":150},{"user_id":36,"name":"Pennis the Menace","steam_id":76561198254878037,"connected_time":446000000000,"state":"active","ping":77},{"user_id":37,"name":"watchfull","steam_id":76561198433266742,"connected_time":437000000000,"state":"active","ping":121},{"user_id":38,"name":"dangergirl99","steam_id":76561198121651564,"connected_time":356000000000,"state":"active","ping":42}]},{"server_id":14,"name":"Uncletopia | New York City | 2 | All Maps","name_short":"nyc-2","host":"nyc-1.us.uncletopia.com","port":27025,"enabled":true,"region":"us-east","cc":"us","latitude":40.73061,"longitude":-73.93524,"reserved":0,"last_update":"0001-01-01T00:00:00Z","name_a2s":"Uncletopia | New York City | 2 | All Maps","protocol":17,"map":"pl_borneo","folder":"tf","game":"Team Fortress","app_id":440,"player_count":19,"max_players":24,"Bots":0,"server_type":"Dedicated","server_os":"Linux","password":true,"vac":true,"version":"7757534","steam_id":85568392924469994,"keywords":["nocrits","nodmgspread","payload","uncletopia"],"game_id":440,"stv_port":27026,"stv_name":"Uncletopia | New York City | 2 | All Maps | STV","players":[{"user_id":65,"name":"Jin","steam_id":76561198119873148,"connected_time":1028000000000,"state":"active","ping":61},{"user_id":59,"name":"MontellWilliams","steam_id":76561198172143015,"connected_time":1985000000000,"state":"active","ping":43},{"user_id":78,"name":"rs","steam_id":76561198076180373,"connected_time":56000000000,"state":"active","ping":46},{"user_id":7,"name":"ExEm","steam_id":76561198832738000,"connected_time":5232000000000,"state":"active","ping":62},{"user_id":71,"name":"Deiler","steam_id":76561198988955474,"connected_time":634000000000,"state":"active","ping":45},{"user_id":37,"name":"SadBl0ckBoy","steam_id":76561199154260102,"connected_time":3406000000000,"state":"active","ping":67},{"user_id":76,"name":"ssstEVe","steam_id":76561198063475894,"connected_time":241000000000,"state":"active","ping":61},{"user_id":73,"name":"Sinny","steam_id":76561197999598422,"connected_time":520000000000,"state":"active","ping":157},{"user_id":67,"name":"Bozanimal","steam_id":76561198044096897,"connected_time":955000000000,"state":"active","ping":44},{"user_id":58,"name":"{(.:A.o.S:.)}gumby","steam_id":76561197970528239,"connected_time":2073000000000,"state":"active","ping":70},{"user_id":25,"name":"bong soy","steam_id":76561198190323610,"connected_time":3898000000000,"state":"active","ping":74},{"user_id":61,"name":"the spy behind the healing (F2P","steam_id":76561198854070384,"connected_time":1475000000000,"state":"active","ping":120},{"user_id":27,"name":"Zenabie","steam_id":76561198088372680,"connected_time":3891000000000,"state":"active","ping":71},{"user_id":28,"name":"Curlytop","steam_id":76561198368845472,"connected_time":3888000000000,"state":"active","ping":84},{"user_id":31,"name":"Milk Delivery Boy","steam_id":76561198887859782,"connected_time":3869000000000,"state":"active","ping":54},{"user_id":75,"name":"Panic Opossum","steam_id":76561198043838227,"connected_time":347000000000,"state":"active","ping":58},{"user_id":44,"name":"rivera","steam_id":76561198051058706,"connected_time":3348000000000,"state":"active","ping":33},{"user_id":77,"name":"Smug Pug","steam_id":76561198059423334,"connected_time":107000000000,"state":"active","ping":84},{"user_id":70,"name":"Mê †ro","steam_id":76561198165562389,"connected_time":818000000000,"state":"active","ping":71}]},{"server_id":15,"name":"Uncletopia | New York City | 3 | Stopwatch Beta","name_short":"nyc-3","host":"nyc-1.us.uncletopia.com","port":27035,"enabled":true,"region":"us-east","cc":"us","latitude":40.73061,"longitude":-73.93524,"reserved":0,"last_update":"0001-01-01T00:00:00Z","name_a2s":"Uncletopia | New York City | 3 | Stopwatch Beta","protocol":17,"map":"workshop/koth_ashville_final.ugc2130459942","folder":"tf","game":"Team Fortress","app_id":440,"player_count":0,"max_players":24,"Bots":0,"server_type":"Dedicated","server_os":"Linux","password":true,"vac":true,"version":"7757534","steam_id":85568392924742820,"keywords":["cp","nocrits","nodmgspread","uncletopia"],"game_id":440,"stv_port":27036,"stv_name":"Uncletopia | New York City | 3 | Stopwatch Beta | STV","players":null},{"server_id":16,"name":"Uncletopia | New York City | 4 | Community","name_short":"nyc-4","host":"nyc-1.us.uncletopia.com","port":27045,"enabled":true,"region":"us-east","cc":"us","latitude":40.73061,"longitude":-73.93524,"reserved":0,"last_update":"0001-01-01T00:00:00Z","name_a2s":"Uncletopia | New York City | 4 | Community","protocol":17,"map":"pl_swiftwater_final1","folder":"tf","game":"Team Fortress","app_id":440,"player_count":0,"max_players":24,"Bots":0,"server_type":"Dedicated","server_os":"Linux","password":true,"vac":true,"version":"7757534","steam_id":85568392924742821,"keywords":["nocrits","nodmgspread","payload","uncletopia"],"game_id":440,"stv_port":27046,"stv_name":"Uncletopia | New York City | 4 | Community | STV","players":null},{"server_id":142,"name":"Uncletopia | São Paulo | 1 | All Maps","name_short":"sao-1","host":"sao-1.br.uncletopia.com","port":27015,"enabled":true,"region":"sa","cc":"br","latitude":-23.533773,"longitude":-46.62529,"reserved":0,"last_update":"0001-01-01T00:00:00Z","name_a2s":"Uncletopia | São Paulo | 1 | All Maps","protocol":17,"map":"koth_lakeside_final","folder":"tf","game":"Team Fortress","app_id":440,"player_count":0,"max_players":24,"Bots":0,"server_type":"Dedicated","server_os":"Linux","password":true,"vac":true,"version":"7757534","steam_id":85568392924469996,"keywords":["cp","nocrits","nodmgspread","uncletopia"],"game_id":440,"stv_port":27016,"stv_name":"Uncletopia | São Paulo | 1 | All Maps | STV","players":null},{"server_id":143,"name":"Uncletopia | São Paulo | 2 | All Maps","name_short":"sao-2","host":"sao-2.br.uncletopia.com","port":27015,"enabled":true,"region":"sa","cc":"br","latitude":-23.533773,"longitude":-46.62529,"reserved":0,"last_update":"0001-01-01T00:00:00Z","name_a2s":"Uncletopia | São Paulo | 2 | All Maps","protocol":17,"map":"pl_borneo","folder":"tf","game":"Team Fortress","app_id":440,"player_count":0,"max_players":24,"Bots":0,"server_type":"Dedicated","server_os":"Linux","password":true,"vac":true,"version":"7757534","steam_id":85568392924485349,"keywords":["nocrits","nodmgspread","payload","uncletopia"],"game_id":440,"stv_port":27016,"stv_name":"Uncletopia | São Paulo | 2 | All Maps | STV","players":null},{"server_id":7,"name":"Uncletopia | Seattle | 1 | All Maps","name_short":"sea-1","host":"sea-1.us.uncletopia.com","port":27015,"enabled":true,"region":"us-west","cc":"us","latitude":47.608013,"longitude":-122.33517,"reserved":0,"last_update":"0001-01-01T00:00:00Z","name_a2s":"Uncletopia | Seattle | 1 | All Maps","protocol":17,"map":"koth_lakeside_final","folder":"tf","game":"Team Fortress","app_id":440,"player_count":0,"max_players":24,"Bots":0,"server_type":"Dedicated","server_os":"Linux","password":true,"vac":true,"version":"7757534","steam_id":85568392924469997,"keywords":["cp","nocrits","nodmgspread","uncletopia"],"game_id":440,"stv_port":27016,"stv_name":"Uncletopia | Seattle | 1 | All Maps | STV","players":null},{"server_id":119,"name":"Uncletopia | Seattle | 2 | All Maps","name_short":"sea-2","host":"sea-1.us.uncletopia.com","port":27025,"enabled":true,"region":"us-west","cc":"us","latitude":47.608013,"longitude":-122.33517,"reserved":0,"last_update":"0001-01-01T00:00:00Z","name_a2s":"Uncletopia | Seattle | 2 | All Maps","protocol":17,"map":"koth_highpass","folder":"tf","game":"Team Fortress","app_id":440,"player_count":0,"max_players":24,"Bots":0,"server_type":"Dedicated","server_os":"Linux","password":true,"vac":true,"version":"7757534","steam_id":85568392924469998,"keywords":["cp","nocrits","nodmgspread","uncletopia"],"game_id":440,"stv_port":27026,"stv_name":"Uncletopia | Seattle | 2 | All Maps | STV","players":null},{"server_id":406,"name":"Uncletopia | Seattle | 3 | Stopwatch Beta","name_short":"sea-3","host":"sea-1.us.uncletopia.com","port":27035,"enabled":true,"region":"us-west","cc":"us","latitude":47.608013,"longitude":-122.33517,"reserved":0,"last_update":"0001-01-01T00:00:00Z","name_a2s":"Uncletopia | Seattle | 3 | Stopwatch Beta","protocol":17,"map":"cp_dustbowl","folder":"tf","game":"Team Fortress","app_id":440,"player_count":0,"max_players":24,"Bots":0,"server_type":"Dedicated","server_os":"Linux","password":true,"vac":true,"version":"7757534","steam_id":85568392924515217,"keywords":["cp","nocrits","nodmgspread","uncletopia"],"game_id":440,"stv_port":27036,"stv_name":"Uncletopia | Seattle | 3 | Stopwatch Beta | STV","players":null},{"server_id":17,"name":"Uncletopia | San Francisco | 1 | All Maps","name_short":"sfo-1","host":"sfo-1.us.uncletopia.com","port":27015,"enabled":true,"region":"us-west","cc":"us","latitude":37.77397,"longitude":-122.4313,"reserved":0,"last_update":"0001-01-01T00:00:00Z","name_a2s":"Uncletopia | San Francisco | 1 | All Maps","protocol":17,"map":"cp_process_final","folder":"tf","game":"Team Fortress","app_id":440,"player_count":0,"max_players":24,"Bots":0,"server_type":"Dedicated","server_os":"Linux","password":true,"vac":true,"version":"7757534","steam_id":85568392924469999,"keywords":["cp","nocrits","nodmgspread","uncletopia"],"game_id":440,"stv_port":27016,"stv_name":"Uncletopia | San Francisco | 1 | All Maps | STV","players":null},{"server_id":18,"name":"Uncletopia | San Francisco | 2 | All Maps","name_short":"sfo-2","host":"sfo-1.us.uncletopia.com","port":27025,"enabled":true,"region":"us-west","cc":"us","latitude":37.77397,"longitude":-122.4313,"reserved":0,"last_update":"0001-01-01T00:00:00Z","name_a2s":"Uncletopia | San Francisco | 2 | All Maps","protocol":17,"map":"koth_highpass","folder":"tf","game":"Team Fortress","app_id":440,"player_count":0,"max_players":24,"Bots":0,"server_type":"Dedicated","server_os":"Linux","password":true,"vac":true,"version":"7757534","steam_id":85568392924470000,"keywords":["cp","nocrits","nodmgspread","uncletopia"],"game_id":440,"stv_port":27026,"stv_name":"Uncletopia | San Francisco | 2 | All Maps | STV","players":null},{"server_id":19,"name":"Uncletopia | San Francisco | 3 | Stopwatch Beta","name_short":"sfo-3","host":"sfo-1.us.uncletopia.com","port":27035,"enabled":true,"region":"us-west","cc":"us","latitude":37.77397,"longitude":-122.4313,"reserved":0,"last_update":"0001-01-01T00:00:00Z","name_a2s":"Uncletopia | San Francisco | 3 | Stopwatch Beta","protocol":17,"map":"koth_lakeside_final","folder":"tf","game":"Team Fortress","app_id":440,"player_count":0,"max_players":24,"Bots":0,"server_type":"Dedicated","server_os":"Linux","password":true,"vac":true,"version":"7757534","steam_id":85568392924742824,"keywords":["cp","nocrits","nodmgspread","uncletopia"],"game_id":440,"stv_port":27036,"stv_name":"Uncletopia | San Francisco | 3 | Stopwatch Beta | STV","players":null},{"server_id":20,"name":"Uncletopia | San Francisco | 4 | Community","name_short":"sfo-4","host":"sfo-1.us.uncletopia.com","port":27045,"enabled":true,"region":"us-west","cc":"us","latitude":37.77397,"longitude":-122.4313,"reserved":0,"last_update":"0001-01-01T00:00:00Z","name_a2s":"Uncletopia | San Francisco | 4 | Community","protocol":17,"map":"cp_altitude","folder":"tf","game":"Team Fortress","app_id":440,"player_count":0,"max_players":24,"Bots":0,"server_type":"Dedicated","server_os":"Linux","password":true,"vac":true,"version":"7757534","steam_id":85568392924742826,"keywords":["cp","nocrits","nodmgspread","uncletopia"],"game_id":440,"stv_port":27046,"stv_name":"Uncletopia | San Francisco | 4 | Community | STV","players":null},{"server_id":141,"name":"Uncletopia | Sydney | 1 | All Maps","name_short":"syd-1","host":"syd-1.au.uncletopia.com","port":27015,"enabled":true,"region":"au","cc":"au","latitude":-33.865143,"longitude":151.2099,"reserved":0,"last_update":"0001-01-01T00:00:00Z","name_a2s":"Uncletopia | Sydney | 1 | All Maps","protocol":17,"map":"pl_frontier_final","folder":"tf","game":"Team Fortress","app_id":440,"player_count":0,"max_players":24,"Bots":0,"server_type":"Dedicated","server_os":"Linux","password":true,"vac":true,"version":"7757534","steam_id":85568392924470001,"keywords":["nocrits","nodmgspread","payload","uncletopia"],"game_id":440,"stv_port":27016,"stv_name":"Uncletopia | Sydney | 1 | All Maps | STV","players":null},{"server_id":123,"name":"Uncletopia | Sydney | 2 | All Maps","name_short":"syd-2","host":"syd-1.au.uncletopia.com","port":27025,"enabled":true,"region":"au","cc":"au","latitude":-33.865143,"longitude":151.2099,"reserved":0,"last_update":"0001-01-01T00:00:00Z","name_a2s":"Uncletopia | Sydney | 2 | All Maps","protocol":17,"map":"cp_process_final","folder":"tf","game":"Team Fortress","app_id":440,"player_count":0,"max_players":24,"Bots":0,"server_type":"Dedicated","server_os":"Linux","password":true,"vac":true,"version":"7757534","steam_id":85568392924470002,"keywords":["cp","nocrits","nodmgspread","uncletopia"],"game_id":440,"stv_port":27026,"stv_name":"Uncletopia | Sydney | 2 | All Maps | STV","players":null},{"server_id":395,"name":"Uncletopia | Sydney | 3 | All Maps","name_short":"syd-3","host":"syd-1.au.uncletopia.com","port":27035,"enabled":true,"region":"au","cc":"au","latitude":-33.865143,"longitude":151.2099,"reserved":0,"last_update":"0001-01-01T00:00:00Z","name_a2s":"Uncletopia | Sydney | 3 | All Maps","protocol":17,"map":"pl_swiftwater_final1","folder":"tf","game":"Team Fortress","app_id":440,"player_count":0,"max_players":24,"Bots":0,"server_type":"Dedicated","server_os":"Linux","password":true,"vac":true,"version":"7757534","steam_id":85568392925194467,"keywords":["nocrits","nodmgspread","payload","uncletopia"],"game_id":440,"stv_port":27036,"stv_name":"Uncletopia | Sydney | 3 | All Maps | STV","players":null},{"server_id":396,"name":"Uncletopia | Sydney | 4 | All Maps","name_short":"syd-4","host":"syd-1.au.uncletopia.com","port":27045,"enabled":true,"region":"au","cc":"au","latitude":-33.865143,"longitude":151.2099,"reserved":0,"last_update":"0001-01-01T00:00:00Z","name_a2s":"Uncletopia | Sydney | 4 | All Maps","protocol":17,"map":"cp_altitude","folder":"tf","game":"Team Fortress","app_id":440,"player_count":0,"max_players":24,"Bots":0,"server_type":"Dedicated","server_os":"Linux","password":true,"vac":true,"version":"7757534","steam_id":85568392925397958,"keywords":["cp","nocrits","nodmgspread","uncletopia"],"game_id":440,"stv_port":27046,"stv_name":"Uncletopia | Sydney | 4 | All Maps | STV","players":null},{"server_id":58,"name":"Uncletopia | Sydney | 5 | Stopwatch Beta","name_short":"syd-5","host":"syd-1.au.uncletopia.com","port":27055,"enabled":true,"region":"au","cc":"au","latitude":-33.865143,"longitude":151.2099,"reserved":0,"last_update":"0001-01-01T00:00:00Z","name_a2s":"Uncletopia | Sydney | 5 | Stopwatch Beta","protocol":17,"map":"workshop/koth_ashville_final.ugc2130459942","folder":"tf","game":"Team Fortress","app_id":440,"player_count":0,"max_players":24,"Bots":0,"server_type":"Dedicated","server_os":"Linux","password":true,"vac":true,"version":"7757534","steam_id":85568392925397959,"keywords":["cp","nocrits","nodmgspread","uncletopia"],"game_id":440,"stv_port":27056,"stv_name":"Uncletopia | Sydney | 5 | Stopwatch Beta | STV","players":null},{"server_id":59,"name":"Uncletopia | Sydney | 6 | Community","name_short":"syd-6","host":"syd-1.au.uncletopia.com","port":27065,"enabled":true,"region":"au","cc":"au","latitude":-33.865143,"longitude":151.2099,"reserved":0,"last_update":"0001-01-01T00:00:00Z","name_a2s":"Uncletopia | Sydney | 6 | Community","protocol":17,"map":"workshop/pl_badwater_pro_v12.ugc2142942074","folder":"tf","game":"Team Fortress","app_id":440,"player_count":0,"max_players":24,"Bots":0,"server_type":"Dedicated","server_os":"Linux","password":true,"vac":true,"version":"7757534","steam_id":85568392925397960,"keywords":["nocrits","nodmgspread","payload","uncletopia"],"game_id":440,"stv_port":27066,"stv_name":"Uncletopia | Sydney | 6 | Community | STV","players":null},{"server_id":49,"name":"Uncletopia | Warsaw | 1 | All Maps","name_short":"waw-1","host":"waw-1.pl.uncletopia.com","port":27015,"enabled":true,"region":"eu","cc":"pl","latitude":52.2297,"longitude":21.017532,"reserved":0,"last_update":"0001-01-01T00:00:00Z","name_a2s":"","protocol":0,"map":"","folder":"","game":"","app_id":0,"player_count":0,"max_players":0,"Bots":0,"server_type":"","server_os":"","password":false,"vac":false,"version":"","steam_id":0,"keywords":null,"game_id":0,"stv_port":0,"stv_name":"","players":null},{"server_id":50,"name":"Uncletopia | Warsaw | 2 | All Maps","name_short":"waw-2","host":"waw-1.pl.uncletopia.com","port":27025,"enabled":true,"region":"eu","cc":"pl","latitude":52.2297,"longitude":21.017532,"reserved":0,"last_update":"0001-01-01T00:00:00Z","name_a2s":"Uncletopia | Warsaw | 2 | All Maps","protocol":17,"map":"koth_viaduct","folder":"tf","game":"Team Fortress","app_id":440,"player_count":0,"max_players":24,"Bots":0,"server_type":"Dedicated","server_os":"Linux","password":true,"vac":true,"version":"7757534","steam_id":85568392925397851,"keywords":["cp","nocrits","nodmgspread","uncletopia"],"game_id":440,"stv_port":27026,"stv_name":"Uncletopia | Warsaw | 2 | All Maps | STV","players":null},{"server_id":51,"name":"Uncletopia | Warsaw | 3 | All Maps","name_short":"waw-3","host":"waw-1.pl.uncletopia.com","port":27035,"enabled":true,"region":"eu","cc":"pl","latitude":52.2297,"longitude":21.017532,"reserved":0,"last_update":"0001-01-01T00:00:00Z","name_a2s":"Uncletopia | Warsaw | 3 | All Maps","protocol":17,"map":"pl_badwater","folder":"tf","game":"Team Fortress","app_id":440,"player_count":0,"max_players":24,"Bots":0,"server_type":"Dedicated","server_os":"Linux","password":true,"vac":true,"version":"7757534","steam_id":85568392925397852,"keywords":["nocrits","nodmgspread","payload","uncletopia"],"game_id":440,"stv_port":27036,"stv_name":"Uncletopia | Warsaw | 3 | All Maps | STV","players":null},{"server_id":52,"name":"Uncletopia | Warsaw | 4 | All Maps","name_short":"waw-4","host":"waw-1.pl.uncletopia.com","port":27045,"enabled":true,"region":"eu","cc":"pl","latitude":52.2297,"longitude":21.017532,"reserved":0,"last_update":"0001-01-01T00:00:00Z","name_a2s":"Uncletopia | Warsaw | 4 | All Maps","protocol":17,"map":"koth_lakeside_final","folder":"tf","game":"Team Fortress","app_id":440,"player_count":0,"max_players":24,"Bots":0,"server_type":"Dedicated","server_os":"Linux","password":true,"vac":true,"version":"7757534","steam_id":85568392925397853,"keywords":["cp","nocrits","nodmgspread","uncletopia"],"game_id":440,"stv_port":27046,"stv_name":"Uncletopia | Warsaw | 4 | All Maps | STV","players":null},{"server_id":53,"name":"Uncletopia | Warsaw | 5 | Stopwatch Beta","name_short":"waw-5","host":"waw-1.pl.uncletopia.com","port":27055,"enabled":true,"region":"eu","cc":"pl","latitude":52.2297,"longitude":21.017532,"reserved":0,"last_update":"0001-01-01T00:00:00Z","name_a2s":"Uncletopia | Warsaw | 5 | Stopwatch Beta","protocol":17,"map":"pl_borneo","folder":"tf","game":"Team Fortress","app_id":440,"player_count":0,"max_players":24,"Bots":0,"server_type":"Dedicated","server_os":"Linux","password":true,"vac":true,"version":"7757534","steam_id":85568392925397854,"keywords":["nocrits","nodmgspread","payload","uncletopia"],"game_id":440,"stv_port":27056,"stv_name":"Uncletopia | Warsaw | 5 | Stopwatch Beta | STV","players":null},{"server_id":54,"name":"Uncletopia | Warsaw | 6 | Community","name_short":"waw-6","host":"waw-1.pl.uncletopia.com","port":27065,"enabled":true,"region":"eu","cc":"pl","latitude":52.2297,"longitude":21.017532,"reserved":0,"last_update":"0001-01-01T00:00:00Z","name_a2s":"Uncletopia | Warsaw | 6 | Community","protocol":17,"map":"koth_lakeside_final","folder":"tf","game":"Team Fortress","app_id":440,"player_count":0,"max_players":24,"Bots":0,"server_type":"Dedicated","server_os":"Linux","password":true,"vac":true,"version":"7757534","steam_id":85568392925397856,"keywords":["cp","nocrits","nodmgspread","uncletopia"],"game_id":440,"stv_port":27066,"stv_name":"Uncletopia | Warsaw | 6 | Community | STV","players":null}]}