{"status":true,"message":"","result":[{"server_id":2,"name":"Uncletopia | Chicago | 1 | All Maps","name_short":"chi-1","host":"chi-1.us.uncletopia.com","port":27015,"enabled":true,"region":"us-central","cc":"us","latitude":41.881832,"longitude":-87.62318,"reserved":0,"last_update":"0001-01-01T00:00:00Z","name_a2s":"Uncletopia | Chicago | 1 | All Maps","protocol":17,"map":"cp_snakewater_final1","folder":"tf","game":"Team Fortress","app_id":440,"player_count":24,"max_players":24,"Bots":0,"server_type":"Dedicated","server_os":"Linux","password":true,"vac":true,"version":"7961495","steam_id":85568392924469984,"keywords":["cp","nocrits","nodmgspread","uncletopia"],"game_id":440,"stv_port":27016,"stv_name":"Uncletopia | Chicago | 1 | All Maps | STV","players":[{"user_id":182,"name":"TF2C | fac -AA-","steam_id":76561198009818412,"connected_time":4517000000000,"state":"active","ping":64},{"user_id":199,"name":"NeonBean","steam_id":76561198088335827,"connected_time":2595000000000,"state":"active","ping":89},{"user_id":214,"name":"phantom","steam_id":76561197963860777,"connected_time":1104000000000,"state":"active","ping":56},{"user_id":202,"name":"Ojen","steam_id":76561197998414482,"connected_time":2511000000000,"state":"active","ping":59},{"user_id":179,"name":"Eviscerator","steam_id":76561197980073637,"connected_time":4562000000000,"state":"active","ping":70},{"user_id":160,"name":"Cooksandcleans™","steam_id":76561198049696128,"connected_time":6065000000000,"state":"active","ping":73},{"user_id":144,"name":"leesh","steam_id":76561198079603938,"connected_time":7244000000000,"state":"active","ping":63},{"user_id":138,"name":"NAHBUTLIKE???","steam_id":76561199471794973,"connected_time":7426000000000,"state":"active","ping":105},{"user_id":203,"name":"◢◤ Joker ◢◤","steam_id":76561198038325384,"connected_time":2302000000000,"state":"active","ping":134},{"user_id":204,"name":"THE FLUMPSTER","steam_id":76561198060911025,"connected_time":2267000000000,"state":"active","ping":42},{"user_id":194,"name":"Frisbee","steam_id":76561197962808987,"connected_time":3505000000000,"state":"active","ping":60},{"user_id":210,"name":"Baconator","steam_id":76561198941700660,"connected_time":1885000000000,"state":"active","ping":89},{"user_id":215,"name":"St. Michael","steam_id":76561198037611052,"connected_time":853000000000,"state":"active","ping":70},{"user_id":228,"name":"creeeeeee","steam_id":76561198392539722,"connected_time":366000000000,"state":"active","ping":78},{"user_id":164,"name":"suzuya #meowment","steam_id":76561199207991492,"connected_time":5812000000000,"state":"active","ping":65},{"user_id":224,"name":"flaccid","steam_id":76561198299241777,"connected_time":641000000000,"state":"active","ping":99},{"user_id":225,"name":"artixes","steam_id":76561198379574232,"connected_time":526000000000,"state":"active","ping":59},{"user_id":217,"name":"YourFriendJessie","steam_id":76561198176883097,"connected_time":695000000000,"state":"active","ping":60},{"user_id":230,"name":"¯\\_(ツ)_/¯","steam_id":76561198962943635,"connected_time":344000000000,"state":"active","ping":76},{"user_id":167,"name":"Joker","steam_id":76561198341537452,"connected_time":5794000000000,"state":"active","ping":78},{"user_id":216,"name":"ṽ⧉ cookie","steam_id":76561197998884823,"connected_time":842000000000,"state":"active","ping":75},{"user_id":197,"name":"NikoOS (NO SOUND)","steam_id":76561198180020521,"connected_time":3467000000000,"state":"active","ping":139},{"user_id":220,"name":"CF-TF2","steam_id":76561198145893044,"connected_time":681000000000,"state":"active","ping":77}]},{"server_id":106,"name":"Uncletopia | Chicago | 2 | All Maps","name_short":"chi-2","host":"chi-1.us.uncletopia.com","port":27025,"enabled":true,"region":"us-central","cc":"us","latitude":41.881832,"longitude":-87.62318,"reserved":0,"last_update":"0001-01-01T00:00:00Z","name_a2s":"Uncletopia | Chicago | 2 | All Maps","protocol":17,"map":"pl_snowycoast","folder":"tf","game":"Team Fortress","app_id":440,"player_count":24,"max_players":24,"Bots":0,"server_type":"Dedicated","server_os":"Linux","password":true,"vac":true,"version":"7961495","steam_id":85568392924469985,"keywords":["nocrits","nodmgspread","payload","uncletopia"],"game_id":440,"stv_port":27026,"stv_name":"Uncletopia | Chicago | 2 | All Maps | STV","players":[{"user_id":136,"name":"my mom","steam_id":76561199225201569,"connected_time":942000000000,"state":"active","ping":68},{"user_id":134,"name":"ThePatheticMedic","steam_id":76561198873083105,"connected_time":962000000000,"state":"active","ping":55},{"user_id":146,"name":"Evaporated_373k","steam_id":76561199435266743,"connected_time":687000000000,"state":"active","ping":96},{"user_id":135,"name":"Andrew","steam_id":76561198070615190,"connected_time":959000000000,"state":"active","ping":59},{"user_id":147,"name":"Zanartan","steam_id":76561198050528902,"connected_time":657000000000,"state":"active","ping":183},{"user_id":148,"name":"Mr Happy","steam_id":76561198067689328,"connected_time":652000000000,"state":"active","ping":54},{"user_id":138,"name":"Angstrom Boli","steam_id":76561198025670585,"connected_time":934000000000,"state":"active","ping":62},{"user_id":139,"name":"caberknight tf2  (f2p-ish)","steam_id":76561199273882768,"connected_time":921000000000,"state":"active","ping":78},{"user_id":103,"name":"Jroticus","steam_id":76561198139511958,"connected_time":4587000000000,"state":"active","ping":65},{"user_id":140,"name":"Razorblade166","steam_id":76561198035303249,"connected_time":918000000000,"state":"active","ping":109},{"user_id":127,"name":"Pneumo.","steam_id":76561197987911883,"connected_time":1668000000000,"state":"active","ping":134},{"user_id":141,"name":"izzydex","steam_id":76561199101531034,"connected_time":885000000000,"state":"active","ping":59},{"user_id":145,"name":"milwaukee pasta bandit","steam_id":76561198417793830,"connected_time":748000000000,"state":"active","ping":76},{"user_id":107,"name":"SneakySneak","steam_id":76561198064847921,"connected_time":4070000000000,"state":"active","ping":70},{"user_id":130,"name":"big steve","steam_id":76561199037050183,"connected_time":1545000000000,"state":"active","ping":91},{"user_id":131,"name":"Draconic Ballad","steam_id":76561198027191515,"connected_time":1381000000000,"state":"active","ping":51},{"user_id":144,"name":"Steve Jobs' cousin Hand Jobs","steam_id":76561198282766831,"connected_time":783000000000,"state":"active","ping":52},{"user_id":76,"name":"señora","steam_id":76561199353185652,"connected_time":6178000000000,"state":"active","ping":116},{"user_id":149,"name":"fazaness","steam_id":76561198851525394,"connected_time":429000000000,"state":"active","ping":84},{"user_id":121,"name":"|WS| Don't_Taze_Me_Bro","steam_id":76561198043289495,"connected_time":2866000000000,"state":"active","ping":73},{"user_id":83,"name":"coffee bagel","steam_id":76561198141198352,"connected_time":5429000000000,"state":"active","ping":45},{"user_id":153,"name":"Kid named download","steam_id":76561199192074448,"connected_time":78000000000,"state":"active","ping":81},{"user_id":151,"name":"Something funny idk","steam_id":76561199470441954,"connected_time":382000000000,"state":"active","ping":101},{"user_id":125,"name":"Alexgo","steam_id":76561198044430542,"connected_time":2032000000000,"state":"active","ping":93}]},{"server_id":402,"name":"Uncletopia | Chicago | 3 | All Maps","name_short":"chi-3","host":"chi-1.us.uncletopia.com","port":27035,"enabled":true,"region":"us-central","cc":"us","latitude":41.881832,"longitude":-87.62318,"reserved":0,"last_update":"0001-01-01T00:00:00Z","name_a2s":"Uncletopia | Chicago | 3 | All Maps","protocol":17,"map":"pl_upward","folder":"tf","game":"Team Fortress","app_id":440,"player_count":23,"max_players":24,"Bots":0,"server_type":"Dedicated","server_os":"Linux","password":true,"vac":true,"version":"7961495","steam_id":85568392924515191,"keywords":["nocrits","nodmgspread","payload","uncletopia"],"game_id":440,"stv_port":27036,"stv_name":"Uncletopia | Chicago | 3 | All Maps | STV","players":[{"user_id":4,"name":"Smile from God","steam_id":76561198032663494,"connected_time":2190000000000,"state":"active","ping":65},{"user_id":6,"name":"Saggy Haggis Balls","steam_id":76561198047845399,"connected_time":1907000000000,"state":"active","ping":70},{"user_id":63,"name":"GotYourNose","steam_id":76561198803527852,"connected_time":485000000000,"state":"active","ping":66},{"user_id":8,"name":"snubcube","steam_id":76561198135880806,"connected_time":1239000000000,"state":"active","ping":64},{"user_id":67,"name":"Ventastega","steam_id":76561197999366317,"connected_time":324000000000,"state":"active","ping":80},{"user_id":59,"name":"Puke Skyfucker","steam_id":76561198012846213,"connected_time":522000000000,"state":"active","ping":70},{"user_id":71,"name":"abolish the federal reserve","steam_id":76561198047796437,"connected_time":177000000000,"state":"active","ping":106},{"user_id":74,"name":"suns","steam_id":76561198079583278,"connected_time":15000000000,"state":"active","ping":53},{"user_id":13,"name":"Vostopulous","steam_id":76561198040190843,"connected_time":1136000000000,"state":"active","ping":86},{"user_id":14,"name":"silly willy","steam_id":76561198035231743,"connected_time":1113000000000,"state":"active","ping":65},{"user_id":15,"name":"Moxxie","steam_id":76561198156606370,"connected_time":1058000000000,"state":"active","ping":93},{"user_id":47,"name":"Lunk","steam_id":76561198083037471,"connected_time":814000000000,"state":"active","ping":30},{"user_id":50,"name":"Meat Mans Meat","steam_id":76561198062149455,"connected_time":616000000000,"state":"active","ping":68},{"user_id":19,"name":"Bluedemon","steam_id":76561199212058684,"connected_time":1017000000000,"state":"active","ping":104},{"user_id":48,"name":"The Winger","steam_id":76561199130040210,"connected_time":701000000000,"state":"active","ping":72},{"user_id":69,"name":"Joe Family guy","steam_id":76561198065327106,"connected_time":253000000000,"state":"active","ping":68},{"user_id":70,"name":"JamesBlakeFan11","steam_id":76561198440539769,"connected_time":197000000000,"state":"active","ping":98},{"user_id":73,"name":"Laptop","steam_id":76561198431402952,"connected_time":35000000000,"state":"active","ping":49},{"user_id":52,"name":"carrot cake","steam_id":76561198055174915,"connected_time":598000000000,"state":"active","ping":63},{"user_id":54,"name":"Jelqing Table","steam_id":76561198051373750,"connected_time":569000000000,"state":"active","ping":72},{"user_id":56,"name":"shadow6","steam_id":76561197979807910,"connected_time":537000000000,"state":"active","ping":79},{"user_id":57,"name":"LORD CANTI","steam_id":76561198254479725,"connected_time":531000000000,"state":"active","ping":46},{"user_id":58,"name":"aetho","steam_id":76561198173567245,"connected_time":530000000000,"state":"active","ping":87}]},{"server_id":403,"name":"Uncletopia | Chicago | 4 | All Maps","name_short":"chi-4","host":"chi-1.us.uncletopia.com","port":27045,"enabled":true,"region":"us-central","cc":"us","latitude":41.881832,"longitude":-87.62318,"reserved":0,"last_update":"0001-01-01T00:00:00Z","name_a2s":"Uncletopia | Chicago | 4 | All Maps","protocol":17,"map":"koth_lakeside_final","folder":"tf","game":"Team Fortress","app_id":440,"player_count":0,"max_players":24,"Bots":0,"server_type":"Dedicated","server_os":"Linux","password":true,"vac":true,"version":"7961495","steam_id":85568392924515193,"keywords":["cp","nocrits","nodmgspread","uncletopia"],"game_id":440,"stv_port":27046,"stv_name":"Uncletopia | Chicago | 4 | All Maps | STV","players":null},{"server_id":36,"name":"Uncletopia | Chicago | 5 | All Maps","name_short":"chi-5","host":"chi-2.us.uncletopia.com","port":27015,"enabled":true,"region":"us-central","cc":"us","latitude":41.881832,"longitude":-87.62318,"reserved":0,"last_update":"0001-01-01T00:00:00Z","name_a2s":"Uncletopia | Chicago | 5 | All Maps","protocol":17,"map":"pl_badwater","folder":"tf","game":"Team Fortress","app_id":440,"player_count":24,"max_players":24,"Bots":0,"server_type":"Dedicated","server_os":"Linux","password":true,"vac":true,"version":"7961495","steam_id":85568392924866362,"keywords":["nocrits","nodmgspread","payload","uncletopia"],"game_id":440,"stv_port":27016,"stv_name":"Uncletopia | Chicago | 5 | All Maps | STV","players":[{"user_id":33,"name":"MilkMuncher","steam_id":76561198103055485,"connected_time":2418000000000,"state":"active","ping":46},{"user_id":38,"name":"The Sinister Potion","steam_id":76561198131280715,"connected_time":2066000000000,"state":"active","ping":68},{"user_id":8,"name":"Chin, Bruce Lee's Relative","steam_id":76561198240105522,"connected_time":3219000000000,"state":"active","ping":86},{"user_id":61,"name":"The Unfriendly Friendly","steam_id":76561199216559937,"connected_time":955000000000,"state":"active","ping":95},{"user_id":63,"name":"Grand Piano Tuna","steam_id":76561198135137213,"connected_time":11000000000,"state":"spawning","ping":49},{"user_id":47,"name":"78 78 78 78","steam_id":76561199238923581,"connected_time":1596000000000,"state":"active","ping":122},{"user_id":51,"name":"joddson63","steam_id":76561198124576125,"connected_time":1129000000000,"state":"active","ping":82},{"user_id":13,"name":"AddonFails","steam_id":76561199122241547,"connected_time":2950000000000,"state":"active","ping":60},{"user_id":57,"name":"sunny","steam_id":76561198069380992,"connected_time":1075000000000,"state":"active","ping":78},{"user_id":26,"name":"floofy","steam_id":76561198389769098,"connected_time":2527000000000,"state":"active","ping":77},{"user_id":50,"name":"Aeonspassed","steam_id":76561198014016451,"connected_time":1192000000000,"state":"active","ping":53},{"user_id":52,"name":"noel","steam_id":76561198128280883,"connected_time":1109000000000,"state":"active","ping":82},{"user_id":30,"name":"nitemares","steam_id":76561199475300499,"connected_time":2455000000000,"state":"active","ping":84},{"user_id":20,"name":"❤To Lazy❤","steam_id":76561198164211904,"connected_time":2721000000000,"state":"active","ping":110},{"user_id":48,"name":"J21","steam_id":76561198066590783,"connected_time":1549000000000,"state":"active","ping":70},{"user_id":24,"name":"sicko mode","steam_id":76561198929936926,"connected_time":2647000000000,"state":"active","ping":80},{"user_id":25,"name":"Zigadox","steam_id":76561198079813479,"connected_time":2588000000000,"state":"active","ping":86},{"user_id":49,"name":"Another Neko Weeb","steam_id":76561198051785884,"connected_time":1348000000000,"state":"active","ping":54},{"user_id":59,"name":"novu","steam_id":76561198886997024,"connected_time":1020000000000,"state":"active","ping":85},{"user_id":32,"name":"Yeezuz","steam_id":76561198448209430,"connected_time":2431000000000,"state":"active","ping":87},{"user_id":44,"name":"crayonnipple","steam_id":76561198070253331,"connected_time":2006000000000,"state":"active","ping":75},{"user_id":35,"name":"RedCo","steam_id":76561198335366889,"connected_time":2363000000000,"state":"active","ping":61},{"user_id":56,"name":"Yummy Kabobz","steam_id":76561198067661705,"connected_time":1084000000000,"state":"active","ping":66},{"user_id":60,"name":"HeavyMettleDick","steam_id":76561198001925087,"connected_time":1011000000000,"state":"active","ping":70}]},{"server_id":37,"name":"Uncletopia | Chicago | 6 | All Maps","name_short":"chi-6","host":"chi-2.us.uncletopia.com","port":27025,"enabled":true,"region":"us-central","cc":"us","latitude":41.881832,"longitude":-87.62318,"reserved":0,"last_update":"0001-01-01T00:00:00Z","name_a2s":"Uncletopia | Chicago | 6 | All Maps","protocol":17,"map":"cp_altitude","folder":"tf","game":"Team Fortress","app_id":440,"player_count":0,"max_players":24,"Bots":0,"server_type":"Dedicated","server_os":"Linux","password":true,"vac":true,"version":"7961495","steam_id":85568392924866363,"keywords":["cp","nocrits","nodmgspread","uncletopia"],"game_id":440,"stv_port":27026,"stv_name":"Uncletopia | Chicago | 6 | All Maps | STV","players":null},{"server_id":38,"name":"Uncletopia | Chicago | 7 | Stopwatch Beta","name_short":"chi-7","host":"chi-2.us.uncletopia.com","port":27035,"enabled":true,"region":"us-central","cc":"us","latitude":41.881832,"longitude":-87.62318,"reserved":0,"last_update":"0001-01-01T00:00:00Z","name_a2s":"Uncletopia | Chicago | 7 | Stopwatch Beta","protocol":17,"map":"cp_process_final","folder":"tf","game":"Team Fortress","app_id":440,"player_count":0,"max_players":24,"Bots":0,"server_type":"Dedicated","server_os":"Linux","password":true,"vac":true,"version":"7961495","steam_id":85568392924866364,"keywords":["cp","nocrits","nodmgspread","uncletopia"],"game_id":440,"stv_port":27036,"stv_name":"Uncletopia | Chicago | 7 | Stopwatch Beta | STV","players":null},{"server_id":39,"name":"Uncletopia | Chicago | 8 | Community","name_short":"chi-8","host":"chi-2.us.uncletopia.com","port":27045,"enabled":true,"region":"us-central","cc":"us","latitude":41.881832,"longitude":-87.62318,"reserved":0,"last_update":"0001-01-01T00:00:00Z","name_a2s":"Uncletopia | Chicago | 8 | Community","protocol":17,"map":"cp_snakewater_final1","folder":"tf","game":"Team Fortress","app_id":440,"player_count":0,"max_players":24,"Bots":0,"server_type":"Dedicated","server_os":"Linux","password":true,"vac":true,"version":"7961495","steam_id":85568392924866365,"keywords":["cp","nocrits","nodmgspread","uncletopia"],"game_id":440,"stv_port":27046,"stv_name":"Uncletopia | Chicago | 8 | Community | STV","players":null},{"server_id":8,"name":"Uncletopia | Dallas | 1 | All Maps","name_short":"dal-1","host":"dal-1.us.uncletopia.com","port":27015,"enabled":true,"region":"us-central","cc":"us","latitude":32.779167,"longitude":-96.80889,"reserved":0,"last_update":"0001-01-01T00:00:00Z","name_a2s":"Uncletopia | Dallas | 1 | All Maps","protocol":17,"map":"cp_mountainlab","folder":"tf","game":"Team Fortress","app_id":440,"player_count":24,"max_players":24,"Bots":0,"server_type":"Dedicated","server_os":"Linux","password":true,"vac":true,"version":"7961495","steam_id":85568392924469986,"keywords":["cp","nocrits","nodmgspread","uncletopia"],"game_id":440,"stv_port":27016,"stv_name":"Uncletopia | Dallas | 1 | All Maps | STV","players":[{"user_id":25,"name":"TheGuy101","steam_id":76561199201772624,"connected_time":2565000000000,"state":"active","ping":93},{"user_id":27,"name":"fasterbum","steam_id":76561198142577444,"connected_time":2232000000000,"state":"active","ping":74},{"user_id":50,"name":"happy man!!! :D!!!!","steam_id":76561198128468316,"connected_time":1055000000000,"state":"active","ping":60},{"user_id":63,"name":"ふわふわ毛布","steam_id":76561198088403016,"connected_time":375000000000,"state":"active","ping":180},{"user_id":33,"name":"Ankliosumos","steam_id":76561198106443757,"connected_time":1473000000000,"state":"active","ping":76},{"user_id":35,"name":"Sprit ♥","steam_id":76561198268780781,"connected_time":1404000000000,"state":"active","ping":64},{"user_id":36,"name":"watchfull","steam_id":76561198433266742,"connected_time":1399000000000,"state":"active","ping":153},{"user_id":37,"name":"Wheaty","steam_id":76561198003553412,"connected_time":1398000000000,"state":"active","ping":98},{"user_id":38,"name":"dingus","steam_id":76561198966767200,"connected_time":1305000000000,"state":"active","ping":84},{"user_id":61,"name":"MrMan","steam_id":76561198356376471,"connected_time":569000000000,"state":"active","ping":165},{"user_id":40,"name":"quinn","steam_id":76561198066386940,"connected_time":1180000000000,"state":"active","ping":50},{"user_id":62,"name":"Chicken Joe","steam_id":76561198278185182,"connected_time":502000000000,"state":"active","ping":88},{"user_id":64,"name":"pt","steam_id":76561198143023330,"connected_time":279000000000,"state":"active","ping":77},{"user_id":43,"name":"Phos","steam_id":76561198122339506,"connected_time":1134000000000,"state":"active","ping":71},{"user_id":60,"name":"Tuvok Shakur","steam_id":76561198018875334,"connected_time":618000000000,"state":"active","ping":65},{"user_id":45,"name":"(","steam_id":76561199051452654,"connected_time":1098000000000,"state":"active","ping":188},{"user_id":46,"name":"TheMtnDewback","steam_id":76561199468606424,"connected_time":1095000000000,"state":"active","ping":65},{"user_id":65,"name":"Per My Last Email","steam_id":76561197970096950,"connected_time":239000000000,"state":"active","ping":47},{"user_id":49,"name":"artichoke","steam_id":76561198980994364,"connected_time":1075000000000,"state":"active","ping":104},{"user_id":59,"name":"Panckakebro","steam_id":76561198106419992,"connected_time":658000000000,"state":"active","ping":58},{"user_id":52,"name":"thedittofemboy \u003c3","steam_id":76561199013129784,"connected_time":1021000000000,"state":"active","ping":58},{"user_id":56,"name":"xvr","steam_id":76561199466487733,"connected_time":853000000000,"state":"active","ping":51},{"user_id":66,"name":"Fuzzy","steam_id":76561199100612353,"connected_time":230000000000,"state":"active","ping":78},{"user_id":68,"name":"d4ngerd4n","steam_id":76561198043758735,"connected_time":12000000000,"state":"spawning","ping":79}]},{"server_id":108,"name":"Uncletopia | Dallas | 2 | All Maps","name_short":"dal-2","host":"dal-1.us.uncletopia.com","port":27025,"enabled":true,"region":"us-central","cc":"us","latitude":32.779167,"longitude":-96.80889,"reserved":0,"last_update":"0001-01-01T00:00:00Z","name_a2s":"Uncletopia | Dallas | 2 | All Maps","protocol":17,"map":"pl_borneo","folder":"tf","game":"Team Fortress","app_id":440,"player_count":22,"max_players":24,"Bots":0,"server_type":"Dedicated","server_os":"Linux","password":true,"vac":true,"version":"7961495","steam_id":85568392924469988,"keywords":["nocrits","nodmgspread","payload","uncletopia"],"game_id":440,"stv_port":27026,"stv_name":"Uncletopia | Dallas | 2 | All Maps | STV","players":[{"user_id":109,"name":"Neo Noire","steam_id":76561198222930860,"connected_time":1663000000000,"state":"active","ping":85},{"user_id":91,"name":"violent monkey porn","steam_id":76561199285074344,"connected_time":2331000000000,"state":"active","ping":89},{"user_id":120,"name":"spicy popeyes chicken sandwich","steam_id":76561198104086771,"connected_time":590000000000,"state":"active","ping":75},{"user_id":117,"name":"They could be starlings","steam_id":76561198441020995,"connected_time":815000000000,"state":"active","ping":97},{"user_id":112,"name":"Gimli","steam_id":76561198153729934,"connected_time":966000000000,"state":"active","ping":58},{"user_id":89,"name":"IlTrashPanda","steam_id":76561198447864095,"connected_time":2429000000000,"state":"active","ping":60},{"user_id":116,"name":"ZeroNull","steam_id":76561197969719675,"connected_time":901000000000,"state":"active","ping":53},{"user_id":70,"name":"DOPEam1ne","steam_id":76561198112204774,"connected_time":3651000000000,"state":"active","ping":77},{"user_id":118,"name":"J.G. Klaus","steam_id":76561198001111196,"connected_time":794000000000,"state":"active","ping":49},{"user_id":122,"name":"Void","steam_id":76561199186496740,"connected_time":580000000000,"state":"active","ping":114},{"user_id":110,"name":"mayhem","steam_id":76561199246637881,"connected_time":1242000000000,"state":"active","ping":44},{"user_id":123,"name":"coWolves","steam_id":76561198171921618,"connected_time":551000000000,"state":"active","ping":72},{"user_id":124,"name":"Mustang","steam_id":76561199189439456,"connected_time":542000000000,"state":"active","ping":73},{"user_id":126,"name":"Sophi","steam_id":76561198958125792,"connected_time":479000000000,"state":"active","ping":117},{"user_id":127,"name":"Toripollo","steam_id":76561198251665862,"connected_time":441000000000,"state":"active","ping":102},{"user_id":128,"name":"Indigolake","steam_id":76561198202215807,"connected_time":428000000000,"state":"active","ping":108},{"user_id":129,"name":"Meownsterhunter","steam_id":76561198319992602,"connected_time":422000000000,"state":"active","ping":57},{"user_id":131,"name":"yunk","steam_id":76561197961277967,"connected_time":378000000000,"state":"active","ping":59},{"user_id":130,"name":"pigfarmer.gov","steam_id":76561199071167548,"connected_time":394000000000,"state":"active","ping":84},{"user_id":63,"name":"Mellou","steam_id":76561198212048740,"connected_time":4421000000000,"state":"active","ping":47},{"user_id":108,"name":"GLG.Liz","steam_id":76561198021957956,"connected_time":1788000000000,"state":"active","ping":46},{"user_id":99,"name":"the gamer hermit crab","steam_id":76561198969402276,"connected_time":2147000000000,"state":"active","ping":59}]},{"server_id":5,"name":"Uncletopia | Frankfurt | 1 | All Maps","name_short":"frk-1","host":"frk-1.de.uncletopia.com","port":27015,"enabled":true,"region":"eu","cc":"de","latitude":50.110924,"longitude":8.682127,"reserved":0,"last_update":"0001-01-01T00:00:00Z","name_a2s":"Uncletopia | Frankfurt | 1 | All Maps","protocol":17,"map":"cp_well","folder":"tf","game":"Team Fortress","app_id":440,"player_count":12,"max_players":24,"Bots":0,"server_type":"Dedicated","server_os":"Linux","password":true,"vac":true,"version":"7961495","steam_id":85568392924469989,"keywords":["cp","nocrits","nodmgspread","uncletopia"],"game_id":440,"stv_port":27016,"stv_name":"Uncletopia | Frankfurt | 1 | All Maps | STV","players":[{"user_id":377,"name":"Sakari","steam_id":76561197997811299,"connected_time":2278000000000,"state":"spawning","ping":67},{"user_id":405,"name":"Burpman","steam_id":76561198022897937,"connected_time":33000000000,"state":"spawning","ping":64},{"user_id":397,"name":"_3tHeR_","steam_id":76561199109870743,"connected_time":785000000000,"state":"spawning","ping":55},{"user_id":366,"name":"Barak93","steam_id":76561198044585705,"connected_time":3224000000000,"state":"spawning","ping":70},{"user_id":376,"name":"Turbines/Pigs","steam_id":76561199064350902,"connected_time":2397000000000,"state":"spawning","ping":102},{"user_id":379,"name":"randompixel","steam_id":76561198003941207,"connected_time":2067000000000,"state":"spawning","ping":59},{"user_id":398,"name":"Maksivad","steam_id":76561198134394882,"connected_time":771000000000,"state":"spawning","ping":83},{"user_id":399,"name":"Angry English Kid","steam_id":76561198970762992,"connected_time":760000000000,"state":"spawning","ping":80},{"user_id":400,"name":"Kestrel","steam_id":76561198144033005,"connected_time":757000000000,"state":"spawning","ping":70},{"user_id":393,"name":"Wujek Cacek","steam_id":76561198010267943,"connected_time":1454000000000,"state":"spawning","ping":85},{"user_id":404,"name":"Drake theduck","steam_id":76561199182279601,"connected_time":508000000000,"state":"spawning","ping":105},{"user_id":402,"name":"ScudFXX","steam_id":76561198136603848,"connected_time":628000000000,"state":"spawning","ping":58}]},{"server_id":110,"name":"Uncletopia | Frankfurt | 2 | All Maps","name_short":"frk-2","host":"frk-1.de.uncletopia.com","port":27025,"enabled":true,"region":"eu","cc":"de","latitude":50.110924,"longitude":8.682127,"reserved":0,"last_update":"0001-01-01T00:00:00Z","name_a2s":"Uncletopia | Frankfurt | 2 | All Maps","protocol":17,"map":"pl_borneo","folder":"tf","game":"Team Fortress","app_id":440,"player_count":24,"max_players":24,"Bots":0,"server_type":"Dedicated","server_os":"Linux","password":true,"vac":true,"version":"7961495","steam_id":85568392924469990,"keywords":["nocrits","nodmgspread","payload","uncletopia"],"game_id":440,"stv_port":27026,"stv_name":"Uncletopia | Frankfurt | 2 | All Maps | STV","players":[{"user_id":306,"name":"Wattseyy","steam_id":76561198248567360,"connected_time":87000000000,"state":"active","ping":60},{"user_id":293,"name":"trash puppy","steam_id":76561198031498341,"connected_time":535000000000,"state":"active","ping":67},{"user_id":266,"name":"Paladin","steam_id":76561198042593027,"connected_time":2868000000000,"state":"active","ping":84},{"user_id":305,"name":"Doriian","steam_id":76561198071438810,"connected_time":255000000000,"state":"active","ping":80},{"user_id":308,"name":"r06u3","steam_id":76561198254099253,"connected_time":60000000000,"state":"active","ping":170},{"user_id":304,"name":"Tort","steam_id":76561198329646769,"connected_time":273000000000,"state":"active","ping":70},{"user_id":296,"name":"forest puppy","steam_id":76561198440195402,"connected_time":517000000000,"state":"active","ping":57},{"user_id":301,"name":"Ablativus","steam_id":76561198025698470,"connected_time":456000000000,"state":"active","ping":66},{"user_id":279,"name":"Mr.O #deletesniper","steam_id":76561198039567498,"connected_time":2446000000000,"state":"active","ping":60},{"user_id":240,"name":"Finn","steam_id":76561198179960193,"connected_time":5155000000000,"state":"active","ping":57},{"user_id":298,"name":"your lawyer","steam_id":76561199160703098,"connected_time":477000000000,"state":"active","ping":57},{"user_id":290,"name":"I drink 3D printer ink","steam_id":76561198056434693,"connected_time":1436000000000,"state":"active","ping":58},{"user_id":299,"name":"big poo","steam_id":76561198129157178,"connected_time":467000000000,"state":"active","ping":87},{"user_id":285,"name":"you like buff tf2 men don't you","steam_id":76561198837586838,"connected_time":2177000000000,"state":"active","ping":75},{"user_id":292,"name":"baker1","steam_id":76561199039990598,"connected_time":731000000000,"state":"active","ping":72},{"user_id":288,"name":"TheEventGuy","steam_id":76561197972797744,"connected_time":1932000000000,"state":"active","ping":61},{"user_id":294,"name":"finbar","steam_id":76561198056812396,"connected_time":534000000000,"state":"active","ping":77},{"user_id":241,"name":"sarii ☆","steam_id":76561199155102111,"connected_time":5138000000000,"state":"active","ping":83},{"user_id":307,"name":"tallen","steam_id":76561198061708595,"connected_time":73000000000,"state":"active","ping":105},{"user_id":300,"name":"SkyNet-","steam_id":76561199048059547,"connected_time":462000000000,"state":"active","ping":59},{"user_id":247,"name":"Qwerty","steam_id":76561198023525894,"connected_time":4317000000000,"state":"active","ping":91},{"user_id":302,"name":"Walmart Life Insurance","steam_id":76561198070137469,"connected_time":453000000000,"state":"active","ping":86},{"user_id":303,"name":"shrky - ♡ A ♡","steam_id":76561198413761084,"connected_time":451000000000,"state":"active","ping":76},{"user_id":295,"name":"khan","steam_id":76561198099245500,"connected_time":534000000000,"state":"active","ping":64}]},{"server_id":308,"name":"Uncletopia | Frankfurt | 3 | All Maps","name_short":"frk-3","host":"frk-1.de.uncletopia.com","port":27035,"enabled":true,"region":"eu","cc":"de","latitude":50.110924,"longitude":8.682127,"reserved":0,"last_update":"0001-01-01T00:00:00Z","name_a2s":"Uncletopia | Frankfurt | 3 | All Maps","protocol":17,"map":"cp_sunshine","folder":"tf","game":"Team Fortress","app_id":440,"player_count":24,"max_players":24,"Bots":0,"server_type":"Dedicated","server_os":"Linux","password":true,"vac":true,"version":"7961495","steam_id":85568392924504274,"keywords":["cp","nocrits","nodmgspread","uncletopia"],"game_id":440,"stv_port":27036,"stv_name":"Uncletopia | Frankfurt | 3 | All Maps | STV","players":[{"user_id":300,"name":"Mr. Mundy","steam_id":76561198132008918,"connected_time":236000000000,"state":"active","ping":74},{"user_id":301,"name":"[SQ UA] MartianDill","steam_id":76561198405382822,"connected_time":213000000000,"state":"active","ping":74},{"user_id":251,"name":"Tonne","steam_id":76561197970856766,"connected_time":3595000000000,"state":"active","ping":58},{"user_id":302,"name":"Drunk Demoman","steam_id":76561198955113575,"connected_time":186000000000,"state":"active","ping":56},{"user_id":289,"name":"fénix","steam_id":76561198083199151,"connected_time":1322000000000,"state":"active","ping":63},{"user_id":293,"name":"Optimist 50","steam_id":76561198039631442,"connected_time":1000000000000,"state":"active","ping":76},{"user_id":198,"name":"Muppburg","steam_id":76561198031070682,"connected_time":6926000000000,"state":"active","ping":69},{"user_id":292,"name":"Chucko Kokos","steam_id":76561198112553005,"connected_time":1142000000000,"state":"active","ping":63},{"user_id":256,"name":"n-ski","steam_id":76561198020550849,"connected_time":3501000000000,"state":"active","ping":75},{"user_id":285,"name":"Plop_","steam_id":76561198112567921,"connected_time":1747000000000,"state":"active","ping":45},{"user_id":257,"name":"Dunya","steam_id":76561198041371314,"connected_time":3496000000000,"state":"active","ping":133},{"user_id":249,"name":"LordTrap.exe","steam_id":76561198318089716,"connected_time":4001000000000,"state":"active","ping":60},{"user_id":303,"name":"W","steam_id":76561198273623211,"connected_time":175000000000,"state":"active","ping":86},{"user_id":304,"name":"Вадим Какашкин","steam_id":76561198383509320,"connected_time":142000000000,"state":"active","ping":71},{"user_id":266,"name":"KLAMA  ❤","steam_id":76561198351549661,"connected_time":3089000000000,"state":"active","ping":63},{"user_id":250,"name":"yatsuta","steam_id":76561198130968941,"connected_time":3799000000000,"state":"active","ping":80},{"user_id":306,"name":"Urfangonultasadana","steam_id":76561199389286151,"connected_time":14000000000,"state":"active","ping":111},{"user_id":247,"name":"Hexagon","steam_id":76561198151205758,"connected_time":4180000000000,"state":"active","ping":45},{"user_id":298,"name":"mimi","steam_id":76561198060648946,"connected_time":465000000000,"state":"active","ping":59},{"user_id":278,"name":"NEONPRIME.AXL","steam_id":76561198043791421,"connected_time":1870000000000,"state":"active","ping":67},{"user_id":305,"name":"kallerannar","steam_id":76561199095701143,"connected_time":116000000000,"state":"active","ping":73},{"user_id":283,"name":"vurtun","steam_id":76561198857395274,"connected_time":1770000000000,"state":"active","ping":49},{"user_id":294,"name":"LivEssense","steam_id":76561198052476979,"connected_time":827000000000,"state":"active","ping":75},{"user_id":276,"name":"Danipp","steam_id":76561198027147377,"connected_time":1986000000000,"state":"active","ping":74}]},{"server_id":309,"name":"Uncletopia | Frankfurt | 4 | All Maps","name_short":"frk-4","host":"frk-1.de.uncletopia.com","port":27045,"enabled":true,"region":"eu","cc":"de","latitude":50.110924,"longitude":8.682127,"reserved":0,"last_update":"0001-01-01T00:00:00Z","name_a2s":"Uncletopia | Frankfurt | 4 | All Maps","protocol":17,"map":"koth_highpass","folder":"tf","game":"Team Fortress","app_id":440,"player_count":24,"max_players":24,"Bots":0,"server_type":"Dedicated","server_os":"Linux","password":true,"vac":true,"version":"7961495","steam_id":85568392924504275,"keywords":["cp","nocrits","nodmgspread","uncletopia"],"game_id":440,"stv_port":27046,"stv_name":"Uncletopia | Frankfurt | 4 | All Maps | STV","players":[{"user_id":15,"name":"*rekt*noob master*rekt*","steam_id":76561198280324074,"connected_time":4410000000000,"state":"active","ping":78},{"user_id":107,"name":"Snd","steam_id":76561198010816408,"connected_time":198000000000,"state":"active","ping":89},{"user_id":93,"name":"The Third Degree collector","steam_id":76561199165355017,"connected_time":771000000000,"state":"active","ping":89},{"user_id":94,"name":"Ineluctable Sex Predator","steam_id":76561197995971061,"connected_time":715000000000,"state":"active","ping":84},{"user_id":101,"name":"Irme","steam_id":76561198161590299,"connected_time":387000000000,"state":"active","ping":68},{"user_id":87,"name":"lacurio","steam_id":76561198059701776,"connected_time":1395000000000,"state":"active","ping":48},{"user_id":97,"name":"Dr. Le Quack","steam_id":76561197995711176,"connected_time":616000000000,"state":"active","ping":81},{"user_id":102,"name":"-gunripp0r^be / Obelix^","steam_id":76561197999306879,"connected_time":348000000000,"state":"active","ping":104},{"user_id":108,"name":"BAPELIS","steam_id":76561198139157427,"connected_time":78000000000,"state":"active","ping":97},{"user_id":109,"name":"Squash Banana","steam_id":76561198055480280,"connected_time":51000000000,"state":"active","ping":93},{"user_id":110,"name":"frog appreciation","steam_id":76561198324365001,"connected_time":45000000000,"state":"active","ping":69},{"user_id":103,"name":"sunshine","steam_id":76561198084597975,"connected_time":334000000000,"state":"active","ping":51},{"user_id":80,"name":"Maneba","steam_id":76561198179908677,"connected_time":1652000000000,"state":"active","ping":172},{"user_id":96,"name":"TomNoSocks","steam_id":76561198114071046,"connected_time":684000000000,"state":"active","ping":75},{"user_id":83,"name":"Habimbi","steam_id":76561198047271252,"connected_time":1592000000000,"state":"active","ping":75},{"user_id":84,"name":"minn","steam_id":76561198099101232,"connected_time":1573000000000,"state":"active","ping":61},{"user_id":99,"name":"The Medic Bag","steam_id":76561198320345261,"connected_time":488000000000,"state":"active","ping":58},{"user_id":106,"name":"mixxxa_french","steam_id":76561198085098243,"connected_time":248000000000,"state":"active","ping":112},{"user_id":100,"name":"avarage_player","steam_id":76561199218677154,"connected_time":484000000000,"state":"active","ping":70},{"user_id":61,"name":"Princess Fuzz","steam_id":76561198025783000,"connected_time":2875000000000,"state":"active","ping":46},{"user_id":86,"name":"papaja","steam_id":76561199216208960,"connected_time":1554000000000,"state":"active","ping":73},{"user_id":111,"name":"rubberduck","steam_id":76561198278561932,"connected_time":38000000000,"state":"spawning","ping":102},{"user_id":105,"name":"lewytwa","steam_id":76561199088284199,"connected_time":265000000000,"state":"active","ping":61},{"user_id":91,"name":"svantezch","steam_id":76561198373831657,"connected_time":1134000000000,"state":"active","ping":74}]},{"server_id":310,"name":"Uncletopia | Frankfurt | 5 | All Maps","name_short":"frk-5","host":"frk-1.de.uncletopia.com","port":27055,"enabled":true,"region":"eu","cc":"de","latitude":50.110924,"longitude":8.682127,"reserved":0,"last_update":"0001-01-01T00:00:00Z","name_a2s":"Uncletopia | Frankfurt | 5 | All Maps","protocol":17,"map":"pl_goldrush","folder":"tf","game":"Team Fortress","app_id":440,"player_count":22,"max_players":24,"Bots":0,"server_type":"Dedicated","server_os":"Linux","password":true,"vac":true,"version":"7961495","steam_id":85568392924504277,"keywords":["nocrits","nodmgspread","payload","uncletopia"],"game_id":440,"stv_port":27056,"stv_name":"Uncletopia | Frankfurt | 5 | All Maps | STV","players":[{"user_id":131,"name":"willem dafoe fan","steam_id":76561198795590054,"connected_time":2126000000000,"state":"active","ping":85},{"user_id":125,"name":"Douglas MacDrip The Second","steam_id":76561198865364180,"connected_time":2310000000000,"state":"active","ping":59},{"user_id":163,"name":"I am on the TF2 Scoreboard...","steam_id":76561198043850884,"connected_time":1000000000,"state":"spawning","ping":50},{"user_id":139,"name":"Xx_ElprojugadorM4ri0Fornite09_x","steam_id":76561198275946276,"connected_time":1750000000000,"state":"active","ping":91},{"user_id":150,"name":"Nag","steam_id":76561197970488206,"connected_time":1509000000000,"state":"active","ping":86},{"user_id":140,"name":"Francis of the Filth","steam_id":76561198241794316,"connected_time":1733000000000,"state":"active","ping":83},{"user_id":156,"name":"Batman","steam_id":76561199041636597,"connected_time":1067000000000,"state":"active","ping":65},{"user_id":152,"name":"Boki","steam_id":76561198044553351,"connected_time":1435000000000,"state":"active","ping":69},{"user_id":124,"name":"Michal jordan","steam_id":76561199106262610,"connected_time":2363000000000,"state":"active","ping":59},{"user_id":111,"name":"sareena","steam_id":76561198810194062,"connected_time":4064000000000,"state":"active","ping":74},{"user_id":159,"name":"Andrea","steam_id":76561199487380678,"connected_time":774000000000,"state":"active","ping":92},{"user_id":151,"name":"[T]aKer","steam_id":76561198001778013,"connected_time":1489000000000,"state":"active","ping":45},{"user_id":119,"name":"Eqxd","steam_id":76561199055592635,"connected_time":3092000000000,"state":"active","ping":66},{"user_id":135,"name":"69JoséFortnite42 El Gamer777","steam_id":76561198435666326,"connected_time":1872000000000,"state":"active","ping":100},{"user_id":162,"name":"Dolcelatte","steam_id":76561198038501770,"connected_time":459000000000,"state":"active","ping":59},{"user_id":145,"name":"Michael","steam_id":76561198003146906,"connected_time":1661000000000,"state":"active","ping":54},{"user_id":157,"name":"Plow cheese","steam_id":76561198142478067,"connected_time":993000000000,"state":"active","ping":82},{"user_id":136,"name":"ʲᶠᵍ ✫","steam_id":76561199062437546,"connected_time":1851000000000,"state":"active","ping":48},{"user_id":146,"name":"muslim hatsune miku","steam_id":76561198258504847,"connected_time":1638000000000,"state":"active","ping":89},{"user_id":153,"name":"Der Herr Doktor","steam_id":76561198119476089,"connected_time":1412000000000,"state":"active","ping":71},{"user_id":148,"name":"Nornia","steam_id":76561198040509712,"connected_time":1626000000000,"state":"active","ping":60},{"user_id":158,"name":"Xepi","steam_id":76561199481038248,"connected_time":855000000000,"state":"active","ping":74}]},{"server_id":311,"name":"Uncletopia | Frankfurt | 6 | All Maps","name_short":"frk-6","host":"frk-1.de.uncletopia.com","port":27065,"enabled":true,"region":"eu","cc":"de","latitude":50.110924,"longitude":8.682127,"reserved":0,"last_update":"0001-01-01T00:00:00Z","name_a2s":"Uncletopia | Frankfurt | 6 | All Maps","protocol":17,"map":"pl_pier","folder":"tf","game":"Team Fortress","app_id":440,"player_count":22,"max_players":24,"Bots":0,"server_type":"Dedicated","server_os":"Linux","password":true,"vac":true,"version":"7961495","steam_id":85568392924504278,"keywords":["nocrits","nodmgspread","payload","uncletopia"],"game_id":440,"stv_port":27066,"stv_name":"Uncletopia | Frankfurt | 6 | All Maps | STV","players":[{"user_id":221,"name":"eva (gay)","steam_id":76561198054474684,"connected_time":5518000000000,"state":"active","ping":75},{"user_id":264,"name":"ᴄʟ./ Hallowasniet","steam_id":76561198168485956,"connected_time":2012000000000,"state":"active","ping":173},{"user_id":249,"name":"Parema","steam_id":76561198146477608,"connected_time":3190000000000,"state":"active","ping":60},{"user_id":288,"name":":)","steam_id":76561198039964082,"connected_time":720000000000,"state":"active","ping":63},{"user_id":271,"name":"Sipsu","steam_id":76561198059424107,"connected_time":1378000000000,"state":"active","ping":77},{"user_id":297,"name":"Valdis","steam_id":76561198057340489,"connected_time":57000000000,"state":"active","ping":61},{"user_id":291,"name":"Streaker","steam_id":76561198859213547,"connected_time":503000000000,"state":"active","ping":101},{"user_id":296,"name":"0xDEADBEEF","steam_id":76561199075416111,"connected_time":66000000000,"state":"connecting","ping":97},{"user_id":300,"name":"swueuws","steam_id":76561198020716743,"connected_time":4000000000,"state":"spawning","ping":49},{"user_id":298,"name":"GodzillaDylan","steam_id":76561199087992885,"connected_time":22000000000,"state":"spawning","ping":201},{"user_id":299,"name":"TKN_Paps997","steam_id":76561198419868465,"connected_time":15000000000,"state":"spawning","ping":74},{"user_id":256,"name":"Tails8521","steam_id":76561198051747164,"connected_time":3034000000000,"state":"active","ping":46},{"user_id":301,"name":"Syd","steam_id":76561198020515027,"connected_time":1000000000,"state":"spawning","ping":15},{"user_id":289,"name":"woof","steam_id":76561198233092760,"connected_time":667000000000,"state":"active","ping":59},{"user_id":290,"name":"78 :3","steam_id":76561198208328357,"connected_time":617000000000,"state":"active","ping":74},{"user_id":233,"name":"REN","steam_id":76561198000596385,"connected_time":4594000000000,"state":"active","ping":90},{"user_id":265,"name":"MoeruKurowassan","steam_id":76561198319349647,"connected_time":1978000000000,"state":"active","ping":76},{"user_id":295,"name":"t0ast","steam_id":76561198141722573,"connected_time":272000000000,"state":"active","ping":46},{"user_id":293,"name":"bean","steam_id":76561198161013815,"connected_time":491000000000,"state":"active","ping":60},{"user_id":254,"name":"night.s","steam_id":76561198326287823,"connected_time":3117000000000,"state":"active","ping":77},{"user_id":244,"name":"Mébh Óg MacTíre","steam_id":76561198346399624,"connected_time":3510000000000,"state":"active","ping":71},{"user_id":218,"name":"kryhu","steam_id":76561198293327713,"connected_time":5823000000000,"state":"active","ping":72}]},{"server_id":23,"name":"Uncletopia | Frankfurt | 7 | Stopwatch Beta","name_short":"frk-7","host":"frk-1.de.uncletopia.com","port":27075,"enabled":true,"region":"eu","cc":"de","latitude":50.110924,"longitude":8.682127,"reserved":0,"last_update":"0001-01-01T00:00:00Z","name_a2s":"Uncletopia | Frankfurt | 7 | Stopwatch Beta","protocol":17,"map":"workshop/koth_ashville_final.ugc2130459942","folder":"tf","game":"Team Fortress","app_id":440,"player_count":0,"max_players":24,"Bots":0,"server_type":"Dedicated","server_os":"Linux","password":true,"vac":true,"version":"7961495","steam_id":85568392924742827,"keywords":["cp","nocrits","nodmgspread","uncletopia"],"game_id":440,"stv_port":27076,"stv_name":"Uncletopia | Frankfurt | 7 | Stopwatch Beta | STV","players":null},{"server_id":24,"name":"Uncletopia | Frankfurt | 8 | Community","name_short":"frk-8","host":"frk-1.de.uncletopia.com","port":27085,"enabled":true,"region":"eu","cc":"de","latitude":50.110924,"longitude":8.682127,"reserved":0,"last_update":"0001-01-01T00:00:00Z","name_a2s":"Uncletopia | Frankfurt | 8 | Community","protocol":17,"map":"workshop/koth_trenchfoot_b1a.ugc731436616","folder":"tf","game":"Team Fortress","app_id":440,"player_count":0,"max_players":24,"Bots":0,"server_type":"Dedicated","server_os":"Linux","password":true,"vac":true,"version":"7961495","steam_id":85568392924742828,"keywords":["cp","nocrits","nodmgspread","uncletopia"],"game_id":440,"stv_port":27086,"stv_name":"Uncletopia | Frankfurt | 8 | Community | STV","players":null},{"server_id":202,"name":"Uncletopia | Hong Kong | 1 | All Maps","name_short":"hgk-1","host":"hgk-1.hk.uncletopia.com","port":27015,"enabled":true,"region":"asia","cc":"hk","latitude":22.302711,"longitude":114.177216,"reserved":0,"last_update":"0001-01-01T00:00:00Z","name_a2s":"Uncletopia | Hong Kong | 1 | All Maps","protocol":17,"map":"cp_steel","folder":"tf","game":"Team Fortress","app_id":440,"player_count":24,"max_players":24,"Bots":0,"server_type":"Dedicated","server_os":"Linux","password":true,"vac":true,"version":"7961495","steam_id":85568392924494504,"keywords":["cp","nocrits","nodmgspread","uncletopia"],"game_id":440,"stv_port":27016,"stv_name":"Uncletopia | Hong Kong | 1 | All Maps | STV","players":[{"user_id":448,"name":"The Estate Sale","steam_id":76561198074339034,"connected_time":4998000000000,"state":"active","ping":74},{"user_id":452,"name":"Rephex","steam_id":76561198308185574,"connected_time":4827000000000,"state":"active","ping":74},{"user_id":460,"name":"\"SKS\"","steam_id":76561198187995386,"connected_time":3509000000000,"state":"active","ping":86},{"user_id":449,"name":"AmaiToxic","steam_id":76561199122491157,"connected_time":4965000000000,"state":"active","ping":83},{"user_id":477,"name":"쿠키","steam_id":76561197997220367,"connected_time":893000000000,"state":"active","ping":56},{"user_id":462,"name":"SICSIN","steam_id":76561198083923462,"connected_time":2672000000000,"state":"active","ping":122},{"user_id":471,"name":"NOPE","steam_id":76561199244543572,"connected_time":1447000000000,"state":"active","ping":63},{"user_id":446,"name":"spinach (old mouse)","steam_id":76561198042539541,"connected_time":5268000000000,"state":"active","ping":85},{"user_id":480,"name":"tiden2000","steam_id":76561198092969425,"connected_time":637000000000,"state":"active","ping":106},{"user_id":475,"name":"Digit","steam_id":76561198330335763,"connected_time":981000000000,"state":"active","ping":67},{"user_id":385,"name":"Samoyed","steam_id":76561198299150410,"connected_time":10213000000000,"state":"active","ping":79},{"user_id":461,"name":"Hay","steam_id":76561199438952901,"connected_time":3365000000000,"state":"active","ping":57},{"user_id":437,"name":"master 2go delivery driver","steam_id":76561198069402937,"connected_time":6068000000000,"state":"active","ping":73},{"user_id":357,"name":"Stewb","steam_id":76561198131423270,"connected_time":11743000000000,"state":"active","ping":103},{"user_id":465,"name":"Mango And WaterMelon ทำไ","steam_id":76561198833898177,"connected_time":1716000000000,"state":"active","ping":98},{"user_id":469,"name":"PanDorA The Radioman","steam_id":76561198864942478,"connected_time":1453000000000,"state":"active","ping":105},{"user_id":455,"name":"荃灣墜天地獄獸","steam_id":76561198321885643,"connected_time":4652000000000,"state":"active","ping":44},{"user_id":459,"name":"Starry","steam_id":76561198329126870,"connected_time":4468000000000,"state":"active","ping":44},{"user_id":445,"name":"clori墮天地獄獸","steam_id":76561199146847474,"connected_time":5423000000000,"state":"active","ping":52},{"user_id":409,"name":"we ball","steam_id":76561199480939609,"connected_time":8542000000000,"state":"active","ping":75},{"user_id":417,"name":"U・♀・U kitty","steam_id":76561198149684436,"connected_time":8060000000000,"state":"active","ping":41},{"user_id":478,"name":"Headmouth","steam_id":76561198019789855,"connected_time":752000000000,"state":"active","ping":132},{"user_id":427,"name":"anderis.41","steam_id":76561199107596818,"connected_time":6438000000000,"state":"active","ping":123},{"user_id":431,"name":"母の肉団子@hao123.com","steam_id":76561198069561896,"connected_time":6390000000000,"state":"active","ping":47}]},{"server_id":1,"name":"Uncletopia | Los Angeles | 1 | All Maps","name_short":"lax-1","host":"lax-1.us.uncletopia.com","port":27015,"enabled":true,"region":"us-west","cc":"us","latitude":33.94279,"longitude":-118.41004,"reserved":0,"last_update":"0001-01-01T00:00:00Z","name_a2s":"Uncletopia | Los Angeles | 1 | All Maps","protocol":17,"map":"koth_lakeside_final","folder":"tf","game":"Team Fortress","app_id":440,"player_count":0,"max_players":24,"Bots":0,"server_type":"Dedicated","server_os":"Linux","password":true,"vac":true,"version":"7961495","steam_id":85568392924469991,"keywords":["cp","nocrits","nodmgspread","uncletopia"],"game_id":440,"stv_port":27016,"stv_name":"Uncletopia | Los Angeles | 1 | All Maps | STV","players":null},{"server_id":112,"name":"Uncletopia | Los Angeles | 2 | All Maps","name_short":"lax-2","host":"lax-1.us.uncletopia.com","port":27025,"enabled":true,"region":"us-west","cc":"us","latitude":33.94279,"longitude":-118.41004,"reserved":0,"last_update":"0001-01-01T00:00:00Z","name_a2s":"Uncletopia | Los Angeles | 2 | All Maps","protocol":17,"map":"pl_swiftwater_final1","folder":"tf","game":"Team Fortress","app_id":440,"player_count":0,"max_players":24,"Bots":0,"server_type":"Dedicated","server_os":"Linux","password":true,"vac":true,"version":"7961495","steam_id":85568392924469992,"keywords":["nocrits","nodmgspread","payload","uncletopia"],"game_id":440,"stv_port":27026,"stv_name":"Uncletopia | Los Angeles | 2 | All Maps | STV","players":null},{"server_id":324,"name":"Uncletopia | Los Angeles | 3 | All Maps","name_short":"lax-3","host":"lax-1.us.uncletopia.com","port":27035,"enabled":true,"region":"us-west","cc":"us","latitude":33.94279,"longitude":-118.41004,"reserved":0,"last_update":"0001-01-01T00:00:00Z","name_a2s":"Uncletopia | Los Angeles | 3 | All Maps","protocol":17,"map":"pl_pier","folder":"tf","game":"Team Fortress","app_id":440,"player_count":0,"max_players":24,"Bots":0,"server_type":"Dedicated","server_os":"Linux","password":true,"vac":true,"version":"7961495","steam_id":85568392924510198,"keywords":["nocrits","nodmgspread","payload","uncletopia"],"game_id":440,"stv_port":27036,"stv_name":"Uncletopia | Los Angeles | 3 | All Maps | STV","players":null},{"server_id":25,"name":"Uncletopia | Los Angeles | 4 | Stopwatch Beta","name_short":"lax-4","host":"lax-1.us.uncletopia.com","port":27045,"enabled":true,"region":"us-west","cc":"us","latitude":33.94279,"longitude":-118.41004,"reserved":0,"last_update":"0001-01-01T00:00:00Z","name_a2s":"Uncletopia | Los Angeles | 4 | Stopwatch Beta","protocol":17,"map":"pl_frontier_final","folder":"tf","game":"Team Fortress","app_id":440,"player_count":0,"max_players":24,"Bots":0,"server_type":"Dedicated","server_os":"Linux","password":true,"vac":true,"version":"7961495","steam_id":85568392924510199,"keywords":["nocrits","nodmgspread","payload","uncletopia"],"game_id":440,"stv_port":27046,"stv_name":"Uncletopia | Los Angeles | 4 | Stopwatch Beta | STV","players":null},{"server_id":11,"name":"Uncletopia | London | 1 | All Maps","name_short":"lon-1","host":"lon-1.uk.uncletopia.com","port":27015,"enabled":true,"region":"eu","cc":"gb","latitude":51.509865,"longitude":-0.118092,"reserved":0,"last_update":"0001-01-01T00:00:00Z","name_a2s":"Uncletopia | London | 1 | All Maps","protocol":17,"map":"pl_pier","folder":"tf","game":"Team Fortress","app_id":440,"player_count":24,"max_players":24,"Bots":0,"server_type":"Dedicated","server_os":"Linux","password":true,"vac":true,"version":"7961495","steam_id":85568392924367362,"keywords":["nocrits","nodmgspread","payload","uncletopia"],"game_id":440,"stv_port":27016,"stv_name":"Uncletopia | London | 1 | All Maps | STV","players":[{"user_id":505,"name":"ShewKehtt","steam_id":76561198189104628,"connected_time":44000000000,"state":"active","ping":51},{"user_id":474,"name":"TheReeferGriefer98","steam_id":76561198061701905,"connected_time":3816000000000,"state":"active","ping":136},{"user_id":507,"name":"Noob_with_source","steam_id":76561198870362103,"connected_time":21000000000,"state":"active","ping":57},{"user_id":502,"name":"jawA","steam_id":76561198070341774,"connected_time":895000000000,"state":"active","ping":76},{"user_id":500,"name":"Artgrendadier","steam_id":76561198063305359,"connected_time":1288000000000,"state":"active","ping":138},{"user_id":487,"name":"cof","steam_id":76561199128417805,"connected_time":1970000000000,"state":"active","ping":53},{"user_id":467,"name":"protoss carrier","steam_id":76561198105978107,"connected_time":3952000000000,"state":"active","ping":90},{"user_id":488,"name":"I I","steam_id":76561199101935057,"connected_time":1959000000000,"state":"active","ping":105},{"user_id":459,"name":"Snake-chan","steam_id":76561199044755854,"connected_time":4608000000000,"state":"active","ping":96},{"user_id":466,"name":"Hukka","steam_id":76561198035505355,"connected_time":4048000000000,"state":"active","ping":92},{"user_id":506,"name":"Not A Fake Uncletopia Server","steam_id":76561198152871288,"connected_time":36000000000,"state":"active","ping":60},{"user_id":472,"name":"all g","steam_id":76561198139729249,"connected_time":3883000000000,"state":"active","ping":93},{"user_id":477,"name":"putku09","steam_id":76561199132212075,"connected_time":3446000000000,"state":"active","ping":115},{"user_id":375,"name":"JUST","steam_id":76561198069064885,"connected_time":9706000000000,"state":"active","ping":61},{"user_id":483,"name":"Dyfed","steam_id":76561198055389492,"connected_time":2614000000000,"state":"active","ping":36},{"user_id":498,"name":"PenGun","steam_id":76561198101254651,"connected_time":1394000000000,"state":"active","ping":48},{"user_id":492,"name":"Skittles","steam_id":76561198024077569,"connected_time":1648000000000,"state":"active","ping":54},{"user_id":484,"name":"RiX","steam_id":76561197969053733,"connected_time":2540000000000,"state":"active","ping":59},{"user_id":461,"name":"Angra Mainyu","steam_id":76561198401620047,"connected_time":4434000000000,"state":"active","ping":90},{"user_id":497,"name":"Portal2Player","steam_id":76561198062870114,"connected_time":1537000000000,"state":"active","ping":136},{"user_id":504,"name":"Wuffington","steam_id":76561198033762881,"connected_time":701000000000,"state":"active","ping":46},{"user_id":453,"name":"hmscole09","steam_id":76561198811362788,"connected_time":4821000000000,"state":"active","ping":56},{"user_id":458,"name":"free back real estate","steam_id":76561197999437155,"connected_time":4646000000000,"state":"active","ping":46},{"user_id":486,"name":"Chloemew","steam_id":76561198042071762,"connected_time":2364000000000,"state":"active","ping":43}]},{"server_id":114,"name":"Uncletopia | London | 2 | All Maps","name_short":"lon-2","host":"lon-1.uk.uncletopia.com","port":27025,"enabled":true,"region":"eu","cc":"gb","latitude":51.509865,"longitude":-0.118092,"reserved":0,"last_update":"0001-01-01T00:00:00Z","name_a2s":"Uncletopia | London | 2 | All Maps","protocol":17,"map":"pl_frontier_final","folder":"tf","game":"Team Fortress","app_id":440,"player_count":0,"max_players":24,"Bots":0,"server_type":"Dedicated","server_os":"Linux","password":true,"vac":true,"version":"7961495","steam_id":85568392924470941,"keywords":["nocrits","nodmgspread","payload","uncletopia"],"game_id":440,"stv_port":27026,"stv_name":"Uncletopia | London | 2 | All Maps | STV","players":null},{"server_id":320,"name":"Uncletopia | London | 3 | All Maps","name_short":"lon-3","host":"lon-1.uk.uncletopia.com","port":27035,"enabled":true,"region":"eu","cc":"gb","latitude":51.509865,"longitude":-0.118092,"reserved":0,"last_update":"0001-01-01T00:00:00Z","name_a2s":"Uncletopia | London | 3 | All Maps","protocol":17,"map":"pl_upward","folder":"tf","game":"Team Fortress","app_id":440,"player_count":24,"max_players":24,"Bots":0,"server_type":"Dedicated","server_os":"Linux","password":true,"vac":true,"version":"7961495","steam_id":85568392924510192,"keywords":["nocrits","nodmgspread","payload","uncletopia"],"game_id":440,"stv_port":27036,"stv_name":"Uncletopia | London | 3 | All Maps | STV","players":[{"user_id":365,"name":"Max","steam_id":76561198138959361,"connected_time":522000000000,"state":"active","ping":73},{"user_id":335,"name":"POU cherry","steam_id":76561199006915718,"connected_time":2261000000000,"state":"active","ping":64},{"user_id":314,"name":"Rustyunderscore","steam_id":76561198277177996,"connected_time":3501000000000,"state":"active","ping":58},{"user_id":316,"name":"HeyItsDrag","steam_id":76561199121801301,"connected_time":3286000000000,"state":"active","ping":69},{"user_id":357,"name":"Cheezer","steam_id":76561198153117396,"connected_time":1329000000000,"state":"active","ping":60},{"user_id":369,"name":"Sold your kid for a perc 64","steam_id":76561198823497252,"connected_time":168000000000,"state":"active","ping":60},{"user_id":329,"name":"Teksta","steam_id":76561198045087695,"connected_time":2621000000000,"state":"active","ping":74},{"user_id":320,"name":"MADAMADA","steam_id":76561198201035379,"connected_time":3193000000000,"state":"active","ping":76},{"user_id":364,"name":"Dr.Sees [F2P]","steam_id":76561199219233587,"connected_time":571000000000,"state":"active","ping":79},{"user_id":328,"name":"casual","steam_id":76561198196031775,"connected_time":2719000000000,"state":"active","ping":42},{"user_id":372,"name":"unmute me plz TwT","steam_id":76561198134378108,"connected_time":30000000000,"state":"active","ping":81},{"user_id":363,"name":"Chicken pot pie","steam_id":76561198084997090,"connected_time":581000000000,"state":"active","ping":31},{"user_id":358,"name":"Kruzma","steam_id":76561198998875641,"connected_time":1276000000000,"state":"active","ping":89},{"user_id":356,"name":"Bottle O' Scrumpy","steam_id":76561199244250562,"connected_time":1625000000000,"state":"active","ping":88},{"user_id":330,"name":"Suspicious Cabin","steam_id":76561198083261198,"connected_time":2606000000000,"state":"active","ping":46},{"user_id":354,"name":"engie?","steam_id":76561198331852832,"connected_time":1656000000000,"state":"active","ping":45},{"user_id":334,"name":"Philosophos_Alpha","steam_id":76561198951264580,"connected_time":2365000000000,"state":"active","ping":123},{"user_id":371,"name":"Mr. Enjoy da money","steam_id":76561198152681460,"connected_time":34000000000,"state":"active","ping":77},{"user_id":359,"name":"cryptidTD","steam_id":76561199094314945,"connected_time":1238000000000,"state":"active","ping":59},{"user_id":368,"name":"86","steam_id":76561199084186097,"connected_time":258000000000,"state":"active","ping":39},{"user_id":360,"name":"dRunk ScaryTree","steam_id":76561199384362833,"connected_time":1222000000000,"state":"active","ping":58},{"user_id":367,"name":"Lilypadio","steam_id":76561198090146457,"connected_time":382000000000,"state":"active","ping":39},{"user_id":352,"name":"Adrian666.proplayer.com","steam_id":76561198400631599,"connected_time":1818000000000,"state":"active","ping":60},{"user_id":370,"name":"JamesPepega","steam_id":76561198019156154,"connected_time":126000000000,"state":"active","ping":90}]},{"server_id":321,"name":"Uncletopia | London | 4 | All Maps","name_short":"lon-4","host":"lon-1.uk.uncletopia.com","port":27045,"enabled":true,"region":"eu","cc":"gb","latitude":51.509865,"longitude":-0.118092,"reserved":0,"last_update":"0001-01-01T00:00:00Z","name_a2s":"Uncletopia | London | 4 | All Maps","protocol":17,"map":"pl_upward","folder":"tf","game":"Team Fortress","app_id":440,"player_count":24,"max_players":24,"Bots":0,"server_type":"Dedicated","server_os":"Linux","password":true,"vac":true,"version":"7961495","steam_id":85568392924510193,"keywords":["nocrits","nodmgspread","payload","uncletopia"],"game_id":440,"stv_port":27046,"stv_name":"Uncletopia | London | 4 | All Maps | STV","players":[{"user_id":91,"name":"Dog","steam_id":76561198098493344,"connected_time":2683000000000,"state":"active","ping":64},{"user_id":96,"name":"Kaupsýslumaðurinn","steam_id":76561198070358944,"connected_time":2350000000000,"state":"active","ping":48},{"user_id":88,"name":"F2P Rights Activist","steam_id":76561199012786293,"connected_time":2836000000000,"state":"active","ping":171},{"user_id":122,"name":"sushii","steam_id":76561198297987372,"connected_time":249000000000,"state":"active","ping":53},{"user_id":104,"name":"luma","steam_id":76561198081649669,"connected_time":1501000000000,"state":"active","ping":72},{"user_id":74,"name":"m909","steam_id":76561198279621400,"connected_time":3541000000000,"state":"active","ping":98},{"user_id":100,"name":"Bassachusetts","steam_id":76561198073769916,"connected_time":1886000000000,"state":"active","ping":70},{"user_id":105,"name":"harper","steam_id":76561198188642265,"connected_time":1472000000000,"state":"active","ping":54},{"user_id":113,"name":"Na'vi Misato (by popular demand","steam_id":76561198130860698,"connected_time":911000000000,"state":"active","ping":58},{"user_id":111,"name":"Desmond","steam_id":76561198151053844,"connected_time":965000000000,"state":"active","ping":86},{"user_id":114,"name":"Fran","steam_id":76561199070516960,"connected_time":870000000000,"state":"active","ping":72},{"user_id":38,"name":":3","steam_id":76561198169471853,"connected_time":5775000000000,"state":"active","ping":49},{"user_id":116,"name":"N.","steam_id":76561198017274851,"connected_time":817000000000,"state":"active","ping":33},{"user_id":78,"name":"collin","steam_id":76561198067030681,"connected_time":3446000000000,"state":"active","ping":46},{"user_id":119,"name":"png.png","steam_id":76561198444446521,"connected_time":691000000000,"state":"active","ping":116},{"user_id":110,"name":"Nicholas Angel","steam_id":76561198434652604,"connected_time":970000000000,"state":"active","ping":87},{"user_id":115,"name":"Akisян","steam_id":76561198078706435,"connected_time":867000000000,"state":"active","ping":85},{"user_id":93,"name":"SnowShot","steam_id":76561198004766638,"connected_time":2585000000000,"state":"active","ping":74},{"user_id":108,"name":"Fiurius","steam_id":76561198151910950,"connected_time":1112000000000,"state":"active","ping":75},{"user_id":117,"name":"Geoff the Oracle","steam_id":76561198053759965,"connected_time":806000000000,"state":"active","ping":57},{"user_id":95,"name":"kluri","steam_id":76561198084518962,"connected_time":2548000000000,"state":"active","ping":75},{"user_id":118,"name":"Relon Frolik","steam_id":76561198106492874,"connected_time":791000000000,"state":"active","ping":73},{"user_id":87,"name":"RXQ","steam_id":76561199423258992,"connected_time":2898000000000,"state":"active","ping":181},{"user_id":121,"name":"Golden Boy","steam_id":76561198049072159,"connected_time":501000000000,"state":"active","ping":60}]},{"server_id":21,"name":"Uncletopia | London | 5 | All Maps","name_short":"lon-5","host":"lon-1.uk.uncletopia.com","port":27055,"enabled":true,"region":"eu","cc":"gb","latitude":51.509865,"longitude":-0.118092,"reserved":0,"last_update":"0001-01-01T00:00:00Z","name_a2s":"Uncletopia | London | 5 | All Maps","protocol":17,"map":"pl_snowycoast","folder":"tf","game":"Team Fortress","app_id":440,"player_count":24,"max_players":24,"Bots":0,"server_type":"Dedicated","server_os":"Linux","password":true,"vac":true,"version":"7961495","steam_id":85568392924742829,"keywords":["nocrits","nodmgspread","payload","uncletopia"],"game_id":440,"stv_port":27056,"stv_name":"Uncletopia | London | 5 | All Maps | STV","players":[{"user_id":219,"name":"Leland Palmer","steam_id":76561197988580782,"connected_time":294000000000,"state":"active","ping":52},{"user_id":207,"name":"Accident","steam_id":76561198037232641,"connected_time":1010000000000,"state":"active","ping":56},{"user_id":110,"name":"jill sandwich","steam_id":76561198075068529,"connected_time":7690000000000,"state":"active","ping":57},{"user_id":141,"name":"Ferlo","steam_id":76561198095561504,"connected_time":6082000000000,"state":"active","ping":57},{"user_id":148,"name":"Rune","steam_id":76561198066157645,"connected_time":5470000000000,"state":"active","ping":47},{"user_id":222,"name":"nitroglycerin","steam_id":76561199158447878,"connected_time":42000000000,"state":"active","ping":68},{"user_id":205,"name":"jermany","steam_id":76561198126599355,"connected_time":1406000000000,"state":"active","ping":43},{"user_id":221,"name":"mister squibward","steam_id":76561198718760200,"connected_time":99000000000,"state":"active","ping":46},{"user_id":142,"name":"Ark-e","steam_id":76561198261870909,"connected_time":5799000000000,"state":"active","ping":53},{"user_id":190,"name":"CarrierPigeon","steam_id":76561198143126135,"connected_time":1985000000000,"state":"active","ping":54},{"user_id":200,"name":"gramp","steam_id":76561198167294984,"connected_time":1773000000000,"state":"active","ping":70},{"user_id":194,"name":"meatsoupcube","steam_id":76561198276802249,"connected_time":1946000000000,"state":"active","ping":91},{"user_id":217,"name":"Male_07","steam_id":76561198079411460,"connected_time":327000000000,"state":"active","ping":52},{"user_id":201,"name":"Peri","steam_id":76561198255311543,"connected_time":1768000000000,"state":"active","ping":131},{"user_id":196,"name":"Acquiescence","steam_id":76561198127915191,"connected_time":1890000000000,"state":"active","ping":180},{"user_id":125,"name":"Puss in Boots","steam_id":76561198211599767,"connected_time":6781000000000,"state":"active","ping":61},{"user_id":218,"name":"Soya Suki","steam_id":76561197998106435,"connected_time":305000000000,"state":"active","ping":57},{"user_id":206,"name":"CerealKiller154","steam_id":76561198831177630,"connected_time":1067000000000,"state":"active","ping":101},{"user_id":197,"name":"Spinya","steam_id":76561198086653667,"connected_time":1831000000000,"state":"active","ping":54},{"user_id":199,"name":"tow fort?","steam_id":76561197972287320,"connected_time":1781000000000,"state":"active","ping":75},{"user_id":220,"name":"Zutter","steam_id":76561198283679782,"connected_time":225000000000,"state":"active","ping":70},{"user_id":203,"name":"john fortress","steam_id":76561198013237629,"connected_time":1763000000000,"state":"active","ping":95},{"user_id":212,"name":"soar","steam_id":76561198010662796,"connected_time":704000000000,"state":"active","ping":45},{"user_id":209,"name":"THE Grosser","steam_id":76561197995530666,"connected_time":976000000000,"state":"active","ping":61}]},{"server_id":22,"name":"Uncletopia | London | 6 | All Maps","name_short":"lon-6","host":"lon-1.uk.uncletopia.com","port":27065,"enabled":true,"region":"eu","cc":"gb","latitude":51.509865,"longitude":-0.118092,"reserved":0,"last_update":"0001-01-01T00:00:00Z","name_a2s":"Uncletopia | London | 6 | All Maps","protocol":17,"map":"pl_barnblitz","folder":"tf","game":"Team Fortress","app_id":440,"player_count":0,"max_players":24,"Bots":0,"server_type":"Dedicated","server_os":"Linux","password":true,"vac":true,"version":"7961495","steam_id":85568392924742830,"keywords":["nocrits","nodmgspread","payload","uncletopia"],"game_id":440,"stv_port":27066,"stv_name":"Uncletopia | London | 6 | All Maps | STV","players":null},{"server_id":40,"name":"Uncletopia | London | 7 | No Payload","name_short":"lon-7","host":"lon-1.uk.uncletopia.com","port":27075,"enabled":true,"region":"eu","cc":"gb","latitude":51.509865,"longitude":-0.118092,"reserved":0,"last_update":"0001-01-01T00:00:00Z","name_a2s":"Uncletopia | London | 7 | No Payload","protocol":17,"map":"pl_snowycoast","folder":"tf","game":"Team Fortress","app_id":440,"player_count":2,"max_players":24,"Bots":0,"server_type":"Dedicated","server_os":"Linux","password":true,"vac":true,"version":"7961495","steam_id":85568392924964314,"keywords":["nocrits","nodmgspread","payload","uncletopia"],"game_id":440,"stv_port":27076,"stv_name":"Uncletopia | London | 7 | No Payload | STV","players":[{"user_id":4,"name":"ran is running","steam_id":76561199443185667,"connected_time":190000000000,"state":"active","ping":127},{"user_id":5,"name":"piss man (real)","steam_id":76561198839843428,"connected_time":105000000000,"state":"active","ping":294}]},{"server_id":41,"name":"Uncletopia | London | 8 | Community","name_short":"lon-8","host":"lon-1.uk.uncletopia.com","port":27085,"enabled":true,"region":"eu","cc":"gb","latitude":51.509865,"longitude":-0.118092,"reserved":0,"last_update":"0001-01-01T00:00:00Z","name_a2s":"Uncletopia | London | 8 | Community","protocol":17,"map":"workshop/cp_reckoner_rc6.ugc674719999","folder":"tf","game":"Team Fortress","app_id":440,"player_count":2,"max_players":24,"Bots":0,"server_type":"Dedicated","server_os":"Linux","password":true,"vac":true,"version":"7961495","steam_id":85568392924964315,"keywords":["cp","nocrits","nodmgspread","uncletopia"],"game_id":440,"stv_port":27086,"stv_name":"Uncletopia | London | 8 | Community | STV","players":[{"user_id":8,"name":"efemert","steam_id":76561199479641254,"connected_time":1781000000000,"state":"active","ping":102},{"user_id":9,"name":"bread","steam_id":76561198077212595,"connected_time":1751000000000,"state":"active","ping":110}]},{"server_id":300,"name":"Uncletopia | Montréal | 1 | All Maps","name_short":"mtl-1","host":"mtl-1.ca.uncletopia.com","port":27015,"enabled":true,"region":"us-east","cc":"ca","latitude":45.50889,"longitude":-73.56167,"reserved":0,"last_update":"0001-01-01T00:00:00Z","name_a2s":"Uncletopia | Montréal | 1 | All Maps","protocol":17,"map":"koth_cascade","folder":"tf","game":"Team Fortress","app_id":440,"player_count":0,"max_players":24,"Bots":0,"server_type":"Dedicated","server_os":"Linux","password":true,"vac":true,"version":"7961495","steam_id":85568392924500087,"keywords":["cp","nocrits","nodmgspread","uncletopia"],"game_id":440,"stv_port":27016,"stv_name":"Uncletopia | Montréal | 1 | All Maps | STV","players":null},{"server_id":301,"name":"Uncletopia | Montréal | 2 | All Maps","name_short":"mtl-2","host":"mtl-1.ca.uncletopia.com","port":27025,"enabled":true,"region":"us-east","cc":"ca","latitude":45.50889,"longitude":-73.56167,"reserved":0,"last_update":"0001-01-01T00:00:00Z","name_a2s":"Uncletopia | Montréal | 2 | All Maps","protocol":17,"map":"koth_cascade","folder":"tf","game":"Team Fortress","app_id":440,"player_count":0,"max_players":24,"Bots":0,"server_type":"Dedicated","server_os":"Linux","password":true,"vac":true,"version":"7961495","steam_id":85568392924500088,"keywords":["cp","nocrits","nodmgspread","uncletopia"],"game_id":440,"stv_port":27026,"stv_name":"Uncletopia | Montréal | 2 | All Maps | STV","players":null},{"server_id":302,"name":"Uncletopia | Montréal | 3 | All Maps","name_short":"mtl-3","host":"mtl-1.ca.uncletopia.com","port":27035,"enabled":true,"region":"us-east","cc":"ca","latitude":45.50889,"longitude":-73.56167,"reserved":0,"last_update":"0001-01-01T00:00:00Z","name_a2s":"Uncletopia | Montréal | 3 | All Maps","protocol":17,"map":"cp_snakewater_final1","folder":"tf","game":"Team Fortress","app_id":440,"player_count":0,"max_players":24,"Bots":0,"server_type":"Dedicated","server_os":"Linux","password":true,"vac":true,"version":"7961495","steam_id":85568392924500089,"keywords":["cp","nocrits","nodmgspread","uncletopia"],"game_id":440,"stv_port":27036,"stv_name":"Uncletopia | Montréal | 3 | All Maps | STV","players":null},{"server_id":303,"name":"Uncletopia | Montréal | 4 | No Payload","name_short":"mtl-4","host":"mtl-1.ca.uncletopia.com","port":27045,"enabled":true,"region":"us-east","cc":"ca","latitude":45.50889,"longitude":-73.56167,"reserved":0,"last_update":"0001-01-01T00:00:00Z","name_a2s":"Uncletopia | Montréal | 4 | No Payload","protocol":17,"map":"cp_mountainlab","folder":"tf","game":"Team Fortress","app_id":440,"player_count":0,"max_players":24,"Bots":0,"server_type":"Dedicated","server_os":"Linux","password":true,"vac":true,"version":"7961495","steam_id":85568392924500090,"keywords":["cp","nocrits","nodmgspread","uncletopia"],"game_id":440,"stv_port":27046,"stv_name":"Uncletopia | Montréal | 4 | No Payload | STV","players":null},{"server_id":13,"name":"Uncletopia | New York City | 1 | All Maps","name_short":"nyc-1","host":"nyc-1.us.uncletopia.com","port":27015,"enabled":true,"region":"us-east","cc":"us","latitude":40.73061,"longitude":-73.93524,"reserved":0,"last_update":"0001-01-01T00:00:00Z","name_a2s":"Uncletopia | New York City | 1 | All Maps","protocol":17,"map":"pl_swiftwater_final1","folder":"tf","game":"Team Fortress","app_id":440,"player_count":24,"max_players":24,"Bots":0,"server_type":"Dedicated","server_os":"Linux","password":true,"vac":true,"version":"7961495","steam_id":85568392924469993,"keywords":["nocrits","nodmgspread","payload","uncletopia"],"game_id":440,"stv_port":27016,"stv_name":"Uncletopia | New York City | 1 | All Maps | STV","players":[{"user_id":129,"name":"DeepDive","steam_id":76561198140542184,"connected_time":1788000000000,"state":"active","ping":45},{"user_id":156,"name":"Error 4 Oh Four","steam_id":76561198121637567,"connected_time":312000000000,"state":"active","ping":73},{"user_id":160,"name":"Sully","steam_id":76561198055418425,"connected_time":211000000000,"state":"active","ping":56},{"user_id":157,"name":"sim-ˈpli-sə-tē","steam_id":76561199038423845,"connected_time":309000000000,"state":"active","ping":60},{"user_id":98,"name":"pieistasty14","steam_id":76561199049353948,"connected_time":3993000000000,"state":"active","ping":95},{"user_id":130,"name":"yer_nerd","steam_id":76561199435454093,"connected_time":1591000000000,"state":"active","ping":52},{"user_id":158,"name":"Nassu","steam_id":76561198147367577,"connected_time":284000000000,"state":"active","ping":83},{"user_id":161,"name":"Bio_Optical","steam_id":76561199128084374,"connected_time":199000000000,"state":"active","ping":78},{"user_id":100,"name":"You boys like Mexico?!","steam_id":76561198006569710,"connected_time":3880000000000,"state":"active","ping":73},{"user_id":119,"name":"Waltre Wite","steam_id":76561199092728848,"connected_time":2401000000000,"state":"active","ping":102},{"user_id":159,"name":"Idk","steam_id":76561198971629959,"connected_time":262000000000,"state":"active","ping":135},{"user_id":162,"name":"ビーナー","steam_id":76561199196918355,"connected_time":183000000000,"state":"active","ping":61},{"user_id":163,"name":"Ejaculation Zach","steam_id":76561198203765200,"connected_time":166000000000,"state":"active","ping":77},{"user_id":135,"name":"jerma enthusiast","steam_id":76561198359466264,"connected_time":1537000000000,"state":"active","ping":86},{"user_id":164,"name":"Candy Sparkles","steam_id":76561198126871264,"connected_time":160000000000,"state":"active","ping":76},{"user_id":165,"name":"marge","steam_id":76561198064823861,"connected_time":25000000000,"state":"active","ping":56},{"user_id":102,"name":"bear","steam_id":76561198301165813,"connected_time":3742000000000,"state":"active","ping":68},{"user_id":152,"name":"Mat3y","steam_id":76561199165262752,"connected_time":518000000000,"state":"active","ping":84},{"user_id":85,"name":"Iris","steam_id":76561198388271181,"connected_time":4946000000000,"state":"active","ping":76},{"user_id":154,"name":"SpectreBurn","steam_id":76561198163300780,"connected_time":438000000000,"state":"active","ping":69},{"user_id":112,"name":"ven the foreskin haver","steam_id":76561198880428283,"connected_time":2853000000000,"state":"active","ping":50},{"user_id":150,"name":"Cerabond","steam_id":76561199230915333,"connected_time":748000000000,"state":"active","ping":68},{"user_id":142,"name":"The Hose on Upward","steam_id":76561197965092192,"connected_time":1324000000000,"state":"active","ping":66},{"user_id":93,"name":"Sunshine","steam_id":76561198885528098,"connected_time":4752000000000,"state":"active","ping":60}]},{"server_id":14,"name":"Uncletopia | New York City | 2 | All Maps","name_short":"nyc-2","host":"nyc-1.us.uncletopia.com","port":27025,"enabled":true,"region":"us-east","cc":"us","latitude":40.73061,"longitude":-73.93524,"reserved":0,"last_update":"0001-01-01T00:00:00Z","name_a2s":"Uncletopia | New York City | 2 | All Maps","protocol":17,"map":"pl_barnblitz","folder":"tf","game":"Team Fortress","app_id":440,"player_count":24,"max_players":24,"Bots":0,"server_type":"Dedicated","server_os":"Linux","password":true,"vac":true,"version":"7961495","steam_id":85568392924469994,"keywords":["nocrits","nodmgspread","payload","uncletopia"],"game_id":440,"stv_port":27026,"stv_name":"Uncletopia | New York City | 2 | All Maps | STV","players":[{"user_id":121,"name":"SolmonFish","steam_id":76561198942169006,"connected_time":567000000000,"state":"active","ping":65},{"user_id":122,"name":"Bill Murray","steam_id":76561197997899786,"connected_time":478000000000,"state":"active","ping":69},{"user_id":10,"name":"Tyler\u0026Fingers","steam_id":76561198085154485,"connected_time":4661000000000,"state":"active","ping":79},{"user_id":71,"name":"Skipikip","steam_id":76561198125019458,"connected_time":2670000000000,"state":"active","ping":62},{"user_id":112,"name":"nav","steam_id":76561198872608266,"connected_time":1181000000000,"state":"active","ping":65},{"user_id":48,"name":"Butters495","steam_id":76561197998689042,"connected_time":3178000000000,"state":"active","ping":70},{"user_id":90,"name":"Chowdie","steam_id":76561198039605762,"connected_time":1842000000000,"state":"active","ping":44},{"user_id":123,"name":"femtofarad™","steam_id":76561198308583053,"connected_time":226000000000,"state":"active","ping":70},{"user_id":99,"name":"ArtoMeister","steam_id":76561198374963088,"connected_time":1679000000000,"state":"active","ping":100},{"user_id":42,"name":"Acro","steam_id":76561198092451804,"connected_time":3471000000000,"state":"active","ping":75},{"user_id":19,"name":"The Sydney Sleeper Itself","steam_id":76561198180251763,"connected_time":4224000000000,"state":"active","ping":90},{"user_id":110,"name":"Mythical Lag","steam_id":76561198347031281,"connected_time":1411000000000,"state":"active","ping":82},{"user_id":73,"name":"Shaky","steam_id":76561198104606714,"connected_time":2655000000000,"state":"active","ping":44},{"user_id":107,"name":"Engie Gayming","steam_id":76561199364725776,"connected_time":1466000000000,"state":"active","ping":75},{"user_id":118,"name":"Wan Shi Tong","steam_id":76561198076441225,"connected_time":641000000000,"state":"active","ping":49},{"user_id":85,"name":"EmptyM1nd","steam_id":76561198054390505,"connected_time":2140000000000,"state":"active","ping":78},{"user_id":29,"name":"awesomebrololo","steam_id":76561198374283489,"connected_time":4043000000000,"state":"active","ping":142},{"user_id":87,"name":"freddo.","steam_id":76561198203171349,"connected_time":2083000000000,"state":"active","ping":57},{"user_id":106,"name":"TRSRAFI","steam_id":76561198187500353,"connected_time":1542000000000,"state":"active","ping":162},{"user_id":117,"name":"fish.EXE","steam_id":76561198995564430,"connected_time":839000000000,"state":"active","ping":71},{"user_id":33,"name":"Jobius","steam_id":76561198145561348,"connected_time":3940000000000,"state":"active","ping":95},{"user_id":78,"name":"Framed","steam_id":76561199258610957,"connected_time":2572000000000,"state":"active","ping":36},{"user_id":101,"name":"walrus","steam_id":76561198057853319,"connected_time":1669000000000,"state":"active","ping":53},{"user_id":60,"name":"Mr. Durian","steam_id":76561198093813212,"connected_time":2922000000000,"state":"active","ping":66}]},{"server_id":15,"name":"Uncletopia | New York City | 3 | Stopwatch Beta","name_short":"nyc-3","host":"nyc-1.us.uncletopia.com","port":27035,"enabled":true,"region":"us-east","cc":"us","latitude":40.73061,"longitude":-73.93524,"reserved":0,"last_update":"0001-01-01T00:00:00Z","name_a2s":"Uncletopia | New York City | 3 | Stopwatch Beta","protocol":17,"map":"workshop/koth_ramjam_rc1.ugc459778887","folder":"tf","game":"Team Fortress","app_id":440,"player_count":0,"max_players":24,"Bots":0,"server_type":"Dedicated","server_os":"Linux","password":true,"vac":true,"version":"7961495","steam_id":85568392924742820,"keywords":["cp","nocrits","nodmgspread","uncletopia"],"game_id":440,"stv_port":27036,"stv_name":"Uncletopia | New York City | 3 | Stopwatch Beta | STV","players":null},{"server_id":16,"name":"Uncletopia | New York City | 4 | Community","name_short":"nyc-4","host":"nyc-1.us.uncletopia.com","port":27045,"enabled":true,"region":"us-east","cc":"us","latitude":40.73061,"longitude":-73.93524,"reserved":0,"last_update":"0001-01-01T00:00:00Z","name_a2s":"Uncletopia | New York City | 4 | Community","protocol":17,"map":"workshop/cp_glacier_rc6.ugc2905735376","folder":"tf","game":"Team Fortress","app_id":440,"player_count":0,"max_players":24,"Bots":0,"server_type":"Dedicated","server_os":"Linux","password":true,"vac":true,"version":"7961495","steam_id":85568392924742821,"keywords":["cp","nocrits","nodmgspread","uncletopia"],"game_id":440,"stv_port":27046,"stv_name":"Uncletopia | New York City | 4 | Community | STV","players":null},{"server_id":142,"name":"Uncletopia | São Paulo | 1 | All Maps","name_short":"sao-1","host":"sao-1.br.uncletopia.com","port":27015,"enabled":true,"region":"sa","cc":"br","latitude":-23.533773,"longitude":-46.62529,"reserved":0,"last_update":"0001-01-01T00:00:00Z","name_a2s":"Uncletopia | São Paulo | 1 | All Maps","protocol":17,"map":"pl_upward","folder":"tf","game":"Team Fortress","app_id":440,"player_count":0,"max_players":24,"Bots":0,"server_type":"Dedicated","server_os":"Linux","password":true,"vac":true,"version":"7961495","steam_id":85568392924469996,"keywords":["nocrits","nodmgspread","payload","uncletopia"],"game_id":440,"stv_port":27016,"stv_name":"Uncletopia | São Paulo | 1 | All Maps | STV","players":null},{"server_id":143,"name":"Uncletopia | São Paulo | 2 | All Maps","name_short":"sao-2","host":"sao-2.br.uncletopia.com","port":27015,"enabled":true,"region":"sa","cc":"br","latitude":-23.533773,"longitude":-46.62529,"reserved":0,"last_update":"0001-01-01T00:00:00Z","name_a2s":"Uncletopia | São Paulo | 2 | All Maps","protocol":17,"map":"cp_process_final","folder":"tf","game":"Team Fortress","app_id":440,"player_count":0,"max_players":24,"Bots":0,"server_type":"Dedicated","server_os":"Linux","password":true,"vac":true,"version":"7961495","steam_id":85568392924485349,"keywords":["cp","nocrits","nodmgspread","uncletopia"],"game_id":440,"stv_port":27016,"stv_name":"Uncletopia | São Paulo | 2 | All Maps | STV","players":null},{"server_id":7,"name":"Uncletopia | Seattle | 1 | All Maps","name_short":"sea-1","host":"sea-1.us.uncletopia.com","port":27015,"enabled":true,"region":"us-west","cc":"us","latitude":47.608013,"longitude":-122.33517,"reserved":0,"last_update":"0001-01-01T00:00:00Z","name_a2s":"Uncletopia | Seattle | 1 | All Maps","protocol":17,"map":"koth_cascade","folder":"tf","game":"Team Fortress","app_id":440,"player_count":0,"max_players":24,"Bots":0,"server_type":"Dedicated","server_os":"Linux","password":true,"vac":true,"version":"7961495","steam_id":85568392924469997,"keywords":["cp","nocrits","nodmgspread","uncletopia"],"game_id":440,"stv_port":27016,"stv_name":"Uncletopia | Seattle | 1 | All Maps | STV","players":null},{"server_id":119,"name":"Uncletopia | Seattle | 2 | All Maps","name_short":"sea-2","host":"sea-1.us.uncletopia.com","port":27025,"enabled":true,"region":"us-west","cc":"us","latitude":47.608013,"longitude":-122.33517,"reserved":0,"last_update":"0001-01-01T00:00:00Z","name_a2s":"Uncletopia | Seattle | 2 | All Maps","protocol":17,"map":"pl_barnblitz","folder":"tf","game":"Team Fortress","app_id":440,"player_count":0,"max_players":24,"Bots":0,"server_type":"Dedicated","server_os":"Linux","password":true,"vac":true,"version":"7961495","steam_id":85568392924469998,"keywords":["nocrits","nodmgspread","payload","uncletopia"],"game_id":440,"stv_port":27026,"stv_name":"Uncletopia | Seattle | 2 | All Maps | STV","players":null},{"server_id":406,"name":"Uncletopia | Seattle | 3 | Stopwatch Beta","name_short":"sea-3","host":"sea-1.us.uncletopia.com","port":27035,"enabled":true,"region":"us-west","cc":"us","latitude":47.608013,"longitude":-122.33517,"reserved":0,"last_update":"0001-01-01T00:00:00Z","name_a2s":"Uncletopia | Seattle | 3 | Stopwatch Beta","protocol":17,"map":"cp_mountainlab","folder":"tf","game":"Team Fortress","app_id":440,"player_count":0,"max_players":24,"Bots":0,"server_type":"Dedicated","server_os":"Linux","password":true,"vac":true,"version":"7961495","steam_id":85568392924515217,"keywords":["cp","nocrits","nodmgspread","uncletopia"],"game_id":440,"stv_port":27036,"stv_name":"Uncletopia | Seattle | 3 | Stopwatch Beta | STV","players":null},{"server_id":17,"name":"Uncletopia | San Francisco | 1 | All Maps","name_short":"sfo-1","host":"sfo-1.us.uncletopia.com","port":27015,"enabled":true,"region":"us-west","cc":"us","latitude":37.77397,"longitude":-122.4313,"reserved":0,"last_update":"0001-01-01T00:00:00Z","name_a2s":"Uncletopia | San Francisco | 1 | All Maps","protocol":17,"map":"pl_frontier_final","folder":"tf","game":"Team Fortress","app_id":440,"player_count":0,"max_players":24,"Bots":0,"server_type":"Dedicated","server_os":"Linux","password":true,"vac":true,"version":"7932396","steam_id":85568392924469999,"keywords":["nocrits","nodmgspread","payload","uncletopia"],"game_id":440,"stv_port":27016,"stv_name":"Uncletopia | San Francisco | 1 | All Maps | STV","players":null},{"server_id":18,"name":"Uncletopia | San Francisco | 2 | All Maps","name_short":"sfo-2","host":"sfo-1.us.uncletopia.com","port":27025,"enabled":true,"region":"us-west","cc":"us","latitude":37.77397,"longitude":-122.4313,"reserved":0,"last_update":"0001-01-01T00:00:00Z","name_a2s":"Uncletopia | San Francisco | 2 | All Maps","protocol":17,"map":"cp_snakewater_final1","folder":"tf","game":"Team Fortress","app_id":440,"player_count":0,"max_players":24,"Bots":0,"server_type":"Dedicated","server_os":"Linux","password":true,"vac":true,"version":"7932396","steam_id":85568392924470000,"keywords":["cp","nocrits","nodmgspread","uncletopia"],"game_id":440,"stv_port":27026,"stv_name":"Uncletopia | San Francisco | 2 | All Maps | STV","players":null},{"server_id":19,"name":"Uncletopia | San Francisco | 3 | Stopwatch Beta","name_short":"sfo-3","host":"sfo-1.us.uncletopia.com","port":27035,"enabled":true,"region":"us-west","cc":"us","latitude":37.77397,"longitude":-122.4313,"reserved":0,"last_update":"0001-01-01T00:00:00Z","name_a2s":"Uncletopia | San Francisco | 3 | Stopwatch Beta","protocol":17,"map":"koth_lakeside_final","folder":"tf","game":"Team Fortress","app_id":440,"player_count":0,"max_players":24,"Bots":0,"server_type":"Dedicated","server_os":"Linux","password":true,"vac":true,"version":"7932396","steam_id":85568392924742824,"keywords":["cp","nocrits","nodmgspread","uncletopia"],"game_id":440,"stv_port":27036,"stv_name":"Uncletopia | San Francisco | 3 | Stopwatch Beta | STV","players":null},{"server_id":20,"name":"Uncletopia | San Francisco | 4 | Community","name_short":"sfo-4","host":"sfo-1.us.uncletopia.com","port":27045,"enabled":true,"region":"us-west","cc":"us","latitude":37.77397,"longitude":-122.4313,"reserved":0,"last_update":"0001-01-01T00:00:00Z","name_a2s":"Uncletopia | San Francisco | 4 | Community","protocol":17,"map":"pl_borneo","folder":"tf","game":"Team Fortress","app_id":440,"player_count":0,"max_players":24,"Bots":0,"server_type":"Dedicated","server_os":"Linux","password":true,"vac":true,"version":"7932396","steam_id":85568392924742826,"keywords":["nocrits","nodmgspread","payload","uncletopia"],"game_id":440,"stv_port":27046,"stv_name":"Uncletopia | San Francisco | 4 | Community | STV","players":null},{"server_id":141,"name":"Uncletopia | Sydney | 1 | All Maps","name_short":"syd-1","host":"syd-1.au.uncletopia.com","port":27015,"enabled":true,"region":"au","cc":"au","latitude":-33.865143,"longitude":151.2099,"reserved":0,"last_update":"0001-01-01T00:00:00Z","name_a2s":"Uncletopia | Sydney | 1 | All Maps","protocol":17,"map":"cp_mountainlab","folder":"tf","game":"Team Fortress","app_id":440,"player_count":0,"max_players":24,"Bots":0,"server_type":"Dedicated","server_os":"Linux","password":true,"vac":true,"version":"7961495","steam_id":85568392924470001,"keywords":["cp","nocrits","nodmgspread","uncletopia"],"game_id":440,"stv_port":27016,"stv_name":"Uncletopia | Sydney | 1 | All Maps | STV","players":null},{"server_id":123,"name":"Uncletopia | Sydney | 2 | All Maps","name_short":"syd-2","host":"syd-1.au.uncletopia.com","port":27025,"enabled":true,"region":"au","cc":"au","latitude":-33.865143,"longitude":151.2099,"reserved":0,"last_update":"0001-01-01T00:00:00Z","name_a2s":"Uncletopia | Sydney | 2 | All Maps","protocol":17,"map":"cp_mountainlab","folder":"tf","game":"Team Fortress","app_id":440,"player_count":0,"max_players":24,"Bots":0,"server_type":"Dedicated","server_os":"Linux","password":true,"vac":true,"version":"7961495","steam_id":85568392924470002,"keywords":["cp","nocrits","nodmgspread","uncletopia"],"game_id":440,"stv_port":27026,"stv_name":"Uncletopia | Sydney | 2 | All Maps | STV","players":null},{"server_id":395,"name":"Uncletopia | Sydney | 3 | All Maps","name_short":"syd-3","host":"syd-1.au.uncletopia.com","port":27035,"enabled":true,"region":"au","cc":"au","latitude":-33.865143,"longitude":151.2099,"reserved":0,"last_update":"0001-01-01T00:00:00Z","name_a2s":"Uncletopia | Sydney | 3 | All Maps","protocol":17,"map":"koth_harvest_final","folder":"tf","game":"Team Fortress","app_id":440,"player_count":0,"max_players":24,"Bots":0,"server_type":"Dedicated","server_os":"Linux","password":true,"vac":true,"version":"7961495","steam_id":85568392925194467,"keywords":["cp","nocrits","nodmgspread","uncletopia"],"game_id":440,"stv_port":27036,"stv_name":"Uncletopia | Sydney | 3 | All Maps | STV","players":null},{"server_id":396,"name":"Uncletopia | Sydney | 4 | All Maps","name_short":"syd-4","host":"syd-1.au.uncletopia.com","port":27045,"enabled":true,"region":"au","cc":"au","latitude":-33.865143,"longitude":151.2099,"reserved":0,"last_update":"0001-01-01T00:00:00Z","name_a2s":"Uncletopia | Sydney | 4 | All Maps","protocol":17,"map":"koth_cascade","folder":"tf","game":"Team Fortress","app_id":440,"player_count":0,"max_players":24,"Bots":0,"server_type":"Dedicated","server_os":"Linux","password":true,"vac":true,"version":"7961495","steam_id":85568392925397958,"keywords":["cp","nocrits","nodmgspread","uncletopia"],"game_id":440,"stv_port":27046,"stv_name":"Uncletopia | Sydney | 4 | All Maps | STV","players":null},{"server_id":58,"name":"Uncletopia | Sydney | 5 | Stopwatch Beta","name_short":"syd-5","host":"syd-1.au.uncletopia.com","port":27055,"enabled":true,"region":"au","cc":"au","latitude":-33.865143,"longitude":151.2099,"reserved":0,"last_update":"0001-01-01T00:00:00Z","name_a2s":"Uncletopia | Sydney | 5 | Stopwatch Beta","protocol":17,"map":"koth_viaduct","folder":"tf","game":"Team Fortress","app_id":440,"player_count":0,"max_players":24,"Bots":0,"server_type":"Dedicated","server_os":"Linux","password":true,"vac":true,"version":"7961495","steam_id":85568392925397959,"keywords":["cp","nocrits","nodmgspread","uncletopia"],"game_id":440,"stv_port":27056,"stv_name":"Uncletopia | Sydney | 5 | Stopwatch Beta | STV","players":null},{"server_id":59,"name":"Uncletopia | Sydney | 6 | Community","name_short":"syd-6","host":"syd-1.au.uncletopia.com","port":27065,"enabled":true,"region":"au","cc":"au","latitude":-33.865143,"longitude":151.2099,"reserved":0,"last_update":"0001-01-01T00:00:00Z","name_a2s":"Uncletopia | Sydney | 6 | Community","protocol":17,"map":"workshop/koth_ramjam_rc1.ugc459778887","folder":"tf","game":"Team Fortress","app_id":440,"player_count":0,"max_players":24,"Bots":0,"server_type":"Dedicated","server_os":"Linux","password":true,"vac":true,"version":"7961495","steam_id":85568392925397960,"keywords":["cp","nocrits","nodmgspread","uncletopia"],"game_id":440,"stv_port":27066,"stv_name":"Uncletopia | Sydney | 6 | Community | STV","players":null},{"server_id":49,"name":"Uncletopia | Warsaw | 1 | All Maps","name_short":"waw-1","host":"waw-1.pl.uncletopia.com","port":27015,"enabled":true,"region":"eu","cc":"pl","latitude":52.2297,"longitude":21.017532,"reserved":0,"last_update":"0001-01-01T00:00:00Z","name_a2s":"","protocol":0,"map":"","folder":"","game":"","app_id":0,"player_count":0,"max_players":0,"Bots":0,"server_type":"","server_os":"","password":false,"vac":false,"version":"","steam_id":0,"keywords":null,"game_id":0,"stv_port":0,"stv_name":"","players":null},{"server_id":50,"name":"Uncletopia | Warsaw | 2 | All Maps","name_short":"waw-2","host":"waw-1.pl.uncletopia.com","port":27025,"enabled":true,"region":"eu","cc":"pl","latitude":52.2297,"longitude":21.017532,"reserved":0,"last_update":"0001-01-01T00:00:00Z","name_a2s":"Uncletopia | Warsaw | 2 | All Maps","protocol":17,"map":"pl_upward","folder":"tf","game":"Team Fortress","app_id":440,"player_count":7,"max_players":24,"Bots":0,"server_type":"Dedicated","server_os":"Linux","password":true,"vac":true,"version":"7961495","steam_id":85568392925397851,"keywords":["nocrits","nodmgspread","payload","uncletopia"],"game_id":440,"stv_port":27026,"stv_name":"Uncletopia | Warsaw | 2 | All Maps | STV","players":[{"user_id":4,"name":"Advokat","steam_id":76561198307121174,"connected_time":3303000000000,"state":"active","ping":46},{"user_id":5,"name":"Dizrak","steam_id":76561198814170957,"connected_time":3219000000000,"state":"active","ping":139},{"user_id":6,"name":"✭ Кусь Ли ✭","steam_id":76561198289474526,"connected_time":3210000000000,"state":"active","ping":94},{"user_id":13,"name":"__xx_DE4TH_Xx_2008_","steam_id":76561198376872392,"connected_time":180000000000,"state":"active","ping":46},{"user_id":8,"name":"slime boy","steam_id":76561199059769633,"connected_time":834000000000,"state":"active","ping":88},{"user_id":9,"name":"ARBUZ z murzynem","steam_id":76561198446272479,"connected_time":715000000000,"state":"active","ping":76},{"user_id":10,"name":"stefanbejenari","steam_id":76561199466718294,"connected_time":603000000000,"state":"active","ping":77}]},{"server_id":51,"name":"Uncletopia | Warsaw | 3 | All Maps","name_short":"waw-3","host":"waw-1.pl.uncletopia.com","port":27035,"enabled":true,"region":"eu","cc":"pl","latitude":52.2297,"longitude":21.017532,"reserved":0,"last_update":"0001-01-01T00:00:00Z","name_a2s":"Uncletopia | Warsaw | 3 | All Maps","protocol":17,"map":"koth_viaduct","folder":"tf","game":"Team Fortress","app_id":440,"player_count":4,"max_players":24,"Bots":0,"server_type":"Dedicated","server_os":"Linux","password":true,"vac":true,"version":"7961495","steam_id":85568392925397852,"keywords":["cp","nocrits","nodmgspread","uncletopia"],"game_id":440,"stv_port":27036,"stv_name":"Uncletopia | Warsaw | 3 | All Maps | STV","players":[{"user_id":22,"name":"SerMazay","steam_id":76561197988943954,"connected_time":2957000000000,"state":"active","ping":52},{"user_id":25,"name":"♥ D4C (LEMON)♥","steam_id":76561198016132644,"connected_time":1409000000000,"state":"active","ping":79},{"user_id":26,"name":"Invalid_pro_gaming_2014","steam_id":76561199110140856,"connected_time":1257000000000,"state":"active","ping":79},{"user_id":33,"name":"Dr. pootis","steam_id":76561198803421654,"connected_time":509000000000,"state":"active","ping":57}]},{"server_id":52,"name":"Uncletopia | Warsaw | 4 | All Maps","name_short":"waw-4","host":"waw-1.pl.uncletopia.com","port":27045,"enabled":true,"region":"eu","cc":"pl","latitude":52.2297,"longitude":21.017532,"reserved":0,"last_update":"0001-01-01T00:00:00Z","name_a2s":"Uncletopia | Warsaw | 4 | All Maps","protocol":17,"map":"cp_dustbowl","folder":"tf","game":"Team Fortress","app_id":440,"player_count":0,"max_players":24,"Bots":0,"server_type":"Dedicated","server_os":"Linux","password":true,"vac":true,"version":"7961495","steam_id":85568392925397853,"keywords":["cp","nocrits","nodmgspread","uncletopia"],"game_id":440,"stv_port":27046,"stv_name":"Uncletopia | Warsaw | 4 | All Maps | STV","players":null},{"server_id":53,"name":"Uncletopia | Warsaw | 5 | Stopwatch Beta","name_short":"waw-5","host":"waw-1.pl.uncletopia.com","port":27055,"enabled":true,"region":"eu","cc":"pl","latitude":52.2297,"longitude":21.017532,"reserved":0,"last_update":"0001-01-01T00:00:00Z","name_a2s":"Uncletopia | Warsaw | 5 | Stopwatch Beta","protocol":17,"map":"pl_snowycoast","folder":"tf","game":"Team Fortress","app_id":440,"player_count":0,"max_players":24,"Bots":0,"server_type":"Dedicated","server_os":"Linux","password":true,"vac":true,"version":"7961495","steam_id":85568392925397854,"keywords":["nocrits","nodmgspread","payload","uncletopia"],"game_id":440,"stv_port":27056,"stv_name":"Uncletopia | Warsaw | 5 | Stopwatch Beta | STV","players":null},{"server_id":54,"name":"Uncletopia | Warsaw | 6 | Community","name_short":"waw-6","host":"waw-1.pl.uncletopia.com","port":27065,"enabled":true,"region":"eu","cc":"pl","latitude":52.2297,"longitude":21.017532,"reserved":0,"last_update":"0001-01-01T00:00:00Z","name_a2s":"Uncletopia | Warsaw | 6 | Community","protocol":17,"map":"pl_borneo","folder":"tf","game":"Team Fortress","app_id":440,"player_count":0,"max_players":24,"Bots":0,"server_type":"Dedicated","server_os":"Linux","password":true,"vac":true,"version":"7961495","steam_id":85568392925397856,"keywords":["nocrits","nodmgspread","payload","uncletopia"],"game_id":440,"stv_port":27066,"stv_name":"Uncletopia | Warsaw | 6 | Community | STV","players":null}]}