{"status":true,"message":"","result":[{"server_id":9,"name":"Uncletopia | Atlanta | 1 | All Maps","name_short":"atl-1","host":"atl-1.us.uncletopia.com","port":27015,"enabled":true,"region":"us-east","cc":"us","latitude":33.753746,"longitude":-84.38633,"reserved":0,"last_update":"0001-01-01T00:00:00Z","name_a2s":"Uncletopia | Atlanta | 1 | All Maps","protocol":17,"map":"cp_process_final","folder":"tf","game":"Team Fortress","app_id":440,"player_count":24,"max_players":24,"Bots":0,"server_type":"Dedicated","server_os":"Linux","password":true,"vac":true,"version":"7961495","steam_id":85568392924469982,"keywords":["cp","nocrits","nodmgspread","uncletopia"],"game_id":440,"stv_port":27016,"stv_name":"Uncletopia | Atlanta | 1 | All Maps | STV","players":[{"user_id":59,"name":"Reflector","steam_id":76561198078999855,"connected_time":34000000000,"state":"active","ping":72},{"user_id":47,"name":"Wso","steam_id":76561198048040111,"connected_time":735000000000,"state":"active","ping":90},{"user_id":49,"name":"Rockstar Grill Operator","steam_id":76561199125789367,"connected_time":675000000000,"state":"active","ping":30},{"user_id":39,"name":"you","steam_id":76561198017228729,"connected_time":1658000000000,"state":"active","ping":74},{"user_id":40,"name":"Rain_OwO","steam_id":76561199007791341,"connected_time":1657000000000,"state":"active","ping":61},{"user_id":45,"name":"lu","steam_id":76561198080731872,"connected_time":937000000000,"state":"active","ping":75},{"user_id":25,"name":"Jeramosa","steam_id":76561198811000094,"connected_time":1817000000000,"state":"active","ping":91},{"user_id":15,"name":"SlowBisbalito","steam_id":76561199027366888,"connected_time":1962000000000,"state":"active","ping":128},{"user_id":42,"name":"Peter griffin","steam_id":76561198277602752,"connected_time":1576000000000,"state":"active","ping":159},{"user_id":43,"name":"MinimanC","steam_id":76561198071475084,"connected_time":1178000000000,"state":"active","ping":81},{"user_id":19,"name":"mdos","steam_id":76561198332133944,"connected_time":1879000000000,"state":"active","ping":74},{"user_id":57,"name":"nettles","steam_id":76561199238923581,"connected_time":88000000000,"state":"active","ping":122},{"user_id":50,"name":"Ok-Par","steam_id":76561199221067945,"connected_time":650000000000,"state":"active","ping":76},{"user_id":22,"name":"Oxygen User","steam_id":76561199111975528,"connected_time":1850000000000,"state":"active","ping":64},{"user_id":23,"name":"Definitely Gay :)","steam_id":76561198988396980,"connected_time":1845000000000,"state":"active","ping":70},{"user_id":26,"name":"Rutherford B. Shopping","steam_id":76561198080687598,"connected_time":1808000000000,"state":"active","ping":74},{"user_id":58,"name":"Za_Billy","steam_id":76561198141530923,"connected_time":87000000000,"state":"active","ping":65},{"user_id":46,"name":"Dim","steam_id":76561198061411324,"connected_time":925000000000,"state":"active","ping":54},{"user_id":29,"name":"Poppet","steam_id":76561198012301951,"connected_time":1799000000000,"state":"active","ping":89},{"user_id":51,"name":"Zaro","steam_id":76561198433849006,"connected_time":629000000000,"state":"active","ping":43},{"user_id":52,"name":"dipp","steam_id":76561198395577807,"connected_time":573000000000,"state":"active","ping":78},{"user_id":32,"name":"carly","steam_id":76561198094118479,"connected_time":1791000000000,"state":"active","ping":105},{"user_id":54,"name":"floppy muppet","steam_id":76561198003076261,"connected_time":338000000000,"state":"active","ping":74},{"user_id":36,"name":"Window Licker #pride","steam_id":76561198386717007,"connected_time":1722000000000,"state":"active","ping":75}]},{"server_id":104,"name":"Uncletopia | Atlanta | 2 | All Maps","name_short":"atl-2","host":"atl-1.us.uncletopia.com","port":27025,"enabled":true,"region":"us-east","cc":"us","latitude":33.753746,"longitude":-84.38633,"reserved":0,"last_update":"0001-01-01T00:00:00Z","name_a2s":"Uncletopia | Atlanta | 2 | All Maps","protocol":17,"map":"cp_snakewater_final1","folder":"tf","game":"Team Fortress","app_id":440,"player_count":0,"max_players":24,"Bots":0,"server_type":"Dedicated","server_os":"Linux","password":true,"vac":true,"version":"7961495","steam_id":85568392924469983,"keywords":["cp","nocrits","nodmgspread","uncletopia"],"game_id":440,"stv_port":27026,"stv_name":"Uncletopia | Atlanta | 2 | All Maps | STV","players":null},{"server_id":400,"name":"Uncletopia | Atlanta | 3 | Stopwatch","name_short":"atl-3","host":"atl-1.us.uncletopia.com","port":27035,"enabled":true,"region":"us-east","cc":"us","latitude":33.753746,"longitude":-84.38633,"reserved":0,"last_update":"0001-01-01T00:00:00Z","name_a2s":"Uncletopia | Atlanta | 3 | Stopwatch","protocol":17,"map":"workshop/pl_badwater_pro_v12.ugc2142942074","folder":"tf","game":"Team Fortress","app_id":440,"player_count":0,"max_players":24,"Bots":0,"server_type":"Dedicated","server_os":"Linux","password":true,"vac":true,"version":"7961495","steam_id":85568392924515187,"keywords":["nocrits","nodmgspread","payload","uncletopia"],"game_id":440,"stv_port":27036,"stv_name":"Uncletopia | Atlanta | 3 | Stopwatch | STV","players":null},{"server_id":401,"name":"Uncletopia | Atlanta | 4 | Community","name_short":"atl-4","host":"atl-1.us.uncletopia.com","port":27045,"enabled":true,"region":"us-east","cc":"us","latitude":33.753746,"longitude":-84.38633,"reserved":0,"last_update":"0001-01-01T00:00:00Z","name_a2s":"Uncletopia | Atlanta | 4 | Community","protocol":17,"map":"workshop/pl_phoenix_b4a.ugc2969509359","folder":"tf","game":"Team Fortress","app_id":440,"player_count":0,"max_players":24,"Bots":0,"server_type":"Dedicated","server_os":"Linux","password":true,"vac":true,"version":"7961495","steam_id":85568392924515188,"keywords":["nocrits","nodmgspread","payload","uncletopia"],"game_id":440,"stv_port":27046,"stv_name":"Uncletopia | Atlanta | 4 | Community | STV","players":null},{"server_id":2,"name":"Uncletopia | Chicago | 1 | All Maps","name_short":"chi-1","host":"chi-1.us.uncletopia.com","port":27015,"enabled":true,"region":"us-central","cc":"us","latitude":41.881832,"longitude":-87.62318,"reserved":0,"last_update":"0001-01-01T00:00:00Z","name_a2s":"Uncletopia | Chicago | 1 | All Maps","protocol":17,"map":"cp_dustbowl","folder":"tf","game":"Team Fortress","app_id":440,"player_count":24,"max_players":24,"Bots":0,"server_type":"Dedicated","server_os":"Linux","password":true,"vac":true,"version":"7961495","steam_id":85568392924469984,"keywords":["cp","nocrits","nodmgspread","uncletopia"],"game_id":440,"stv_port":27016,"stv_name":"Uncletopia | Chicago | 1 | All Maps | STV","players":[{"user_id":84,"name":"You","steam_id":76561198890201364,"connected_time":4622000000000,"state":"active","ping":79},{"user_id":118,"name":"epiczlolz","steam_id":76561198208369443,"connected_time":2308000000000,"state":"active","ping":54},{"user_id":111,"name":"okay","steam_id":76561198024973008,"connected_time":2685000000000,"state":"active","ping":74},{"user_id":134,"name":"Battalion's Backup","steam_id":76561198066153777,"connected_time":846000000000,"state":"active","ping":31},{"user_id":58,"name":"Rode hard, put away wet","steam_id":76561198062764039,"connected_time":6427000000000,"state":"active","ping":71},{"user_id":135,"name":"dc","steam_id":76561199478731858,"connected_time":813000000000,"state":"active","ping":78},{"user_id":136,"name":"Dr. Bodacious","steam_id":76561199122205825,"connected_time":806000000000,"state":"active","ping":69},{"user_id":137,"name":"dr. chungy ph.d","steam_id":76561198215559840,"connected_time":752000000000,"state":"active","ping":60},{"user_id":138,"name":"Bacchus","steam_id":76561199056815356,"connected_time":752000000000,"state":"active","ping":65},{"user_id":139,"name":"ZombieSlayer77","steam_id":76561199023974356,"connected_time":687000000000,"state":"active","ping":78},{"user_id":90,"name":"Nefy","steam_id":76561198030017316,"connected_time":3753000000000,"state":"active","ping":74},{"user_id":121,"name":"HansBanans","steam_id":76561198167894050,"connected_time":2274000000000,"state":"active","ping":72},{"user_id":104,"name":"Siz","steam_id":76561198072962154,"connected_time":3310000000000,"state":"active","ping":61},{"user_id":140,"name":"Starcadia","steam_id":76561198069591266,"connected_time":531000000000,"state":"active","ping":80},{"user_id":132,"name":"Slab civilnetworks.net","steam_id":76561198968032452,"connected_time":1542000000000,"state":"active","ping":85},{"user_id":141,"name":"chilis baby back ribs","steam_id":76561198813516435,"connected_time":526000000000,"state":"active","ping":94},{"user_id":73,"name":"joe_lemmons","steam_id":76561198441246401,"connected_time":5182000000000,"state":"active","ping":64},{"user_id":31,"name":"voltageG","steam_id":76561198107165710,"connected_time":7410000000000,"state":"active","ping":67},{"user_id":131,"name":"TOASTEngineer","steam_id":76561198004890916,"connected_time":1691000000000,"state":"active","ping":81},{"user_id":129,"name":"Distraction","steam_id":76561199445895882,"connected_time":1992000000000,"state":"active","ping":66},{"user_id":143,"name":"Scita","steam_id":76561198066861559,"connected_time":439000000000,"state":"active","ping":70},{"user_id":144,"name":"Enemy goblin","steam_id":76561198045793516,"connected_time":427000000000,"state":"active","ping":51},{"user_id":145,"name":"Fuegan Ra","steam_id":76561198287923849,"connected_time":414000000000,"state":"active","ping":64},{"user_id":119,"name":"Karrot","steam_id":76561198058970903,"connected_time":2308000000000,"state":"active","ping":75}]},{"server_id":106,"name":"Uncletopia | Chicago | 2 | All Maps","name_short":"chi-2","host":"chi-1.us.uncletopia.com","port":27025,"enabled":true,"region":"us-central","cc":"us","latitude":41.881832,"longitude":-87.62318,"reserved":0,"last_update":"0001-01-01T00:00:00Z","name_a2s":"Uncletopia | Chicago | 2 | All Maps","protocol":17,"map":"pl_upward","folder":"tf","game":"Team Fortress","app_id":440,"player_count":24,"max_players":24,"Bots":0,"server_type":"Dedicated","server_os":"Linux","password":true,"vac":true,"version":"7961495","steam_id":85568392924469985,"keywords":["nocrits","nodmgspread","payload","uncletopia"],"game_id":440,"stv_port":27026,"stv_name":"Uncletopia | Chicago | 2 | All Maps | STV","players":[{"user_id":241,"name":"corntent","steam_id":76561198824847948,"connected_time":556000000000,"state":"active","ping":59},{"user_id":218,"name":"NighttimeNap","steam_id":76561198149183514,"connected_time":2205000000000,"state":"active","ping":107},{"user_id":232,"name":"fawn covered in paint thinner","steam_id":76561198043684960,"connected_time":1129000000000,"state":"active","ping":74},{"user_id":6,"name":"daemon","steam_id":76561198001541433,"connected_time":21059000000000,"state":"active","ping":60},{"user_id":171,"name":"Brandino!","steam_id":76561198000446932,"connected_time":6635000000000,"state":"active","ping":75},{"user_id":245,"name":"ya ya breathe","steam_id":76561198075858067,"connected_time":25000000000,"state":"active","ping":66},{"user_id":215,"name":"Mr. Pink","steam_id":76561198065858172,"connected_time":2326000000000,"state":"active","ping":62},{"user_id":214,"name":"divingmule","steam_id":76561197966679724,"connected_time":2446000000000,"state":"active","ping":59},{"user_id":242,"name":"IsleBound","steam_id":76561198278451717,"connected_time":545000000000,"state":"active","ping":60},{"user_id":227,"name":"DenjiYui","steam_id":76561199081651988,"connected_time":1815000000000,"state":"active","ping":90},{"user_id":201,"name":"Demon's Eye","steam_id":76561198190614021,"connected_time":3321000000000,"state":"active","ping":85},{"user_id":193,"name":"JPSS","steam_id":76561199239530493,"connected_time":4546000000000,"state":"active","ping":81},{"user_id":190,"name":"Katastrophizing","steam_id":76561198024222445,"connected_time":4798000000000,"state":"active","ping":83},{"user_id":229,"name":"❋Pfc. BFS","steam_id":76561198326359972,"connected_time":1383000000000,"state":"active","ping":76},{"user_id":233,"name":"GuyGoom","steam_id":76561198254522178,"connected_time":1127000000000,"state":"active","ping":53},{"user_id":239,"name":"winneryay","steam_id":76561198078731479,"connected_time":812000000000,"state":"active","ping":64},{"user_id":230,"name":"Rein","steam_id":76561198300340427,"connected_time":1153000000000,"state":"active","ping":65},{"user_id":211,"name":"Fredrick","steam_id":76561197981419964,"connected_time":2741000000000,"state":"active","ping":76},{"user_id":213,"name":"1-800-GHOST-DANCE","steam_id":76561198835430429,"connected_time":2638000000000,"state":"active","ping":87},{"user_id":228,"name":"crab","steam_id":76561199094011002,"connected_time":1541000000000,"state":"active","ping":57},{"user_id":197,"name":"Blueseer","steam_id":76561198060326533,"connected_time":3635000000000,"state":"active","ping":61},{"user_id":236,"name":"Cutovercarp","steam_id":76561199065978512,"connected_time":1083000000000,"state":"active","ping":56},{"user_id":226,"name":"Lmnop","steam_id":76561198038458838,"connected_time":1914000000000,"state":"active","ping":57},{"user_id":244,"name":"totoro","steam_id":76561198210420871,"connected_time":209000000000,"state":"active","ping":46}]},{"server_id":402,"name":"Uncletopia | Chicago | 3 | All Maps","name_short":"chi-3","host":"chi-1.us.uncletopia.com","port":27035,"enabled":true,"region":"us-central","cc":"us","latitude":41.881832,"longitude":-87.62318,"reserved":0,"last_update":"0001-01-01T00:00:00Z","name_a2s":"Uncletopia | Chicago | 3 | All Maps","protocol":17,"map":"koth_viaduct","folder":"tf","game":"Team Fortress","app_id":440,"player_count":6,"max_players":24,"Bots":0,"server_type":"Dedicated","server_os":"Linux","password":true,"vac":true,"version":"7961495","steam_id":85568392924515191,"keywords":["cp","nocrits","nodmgspread","uncletopia"],"game_id":440,"stv_port":27036,"stv_name":"Uncletopia | Chicago | 3 | All Maps | STV","players":[{"user_id":7,"name":"doamgeo468","steam_id":76561199485287045,"connected_time":1421000000000,"state":"active","ping":62},{"user_id":8,"name":"dariusen1","steam_id":76561198930935285,"connected_time":1384000000000,"state":"active","ping":69},{"user_id":9,"name":"gillmore.samuel","steam_id":76561198109742336,"connected_time":1322000000000,"state":"active","ping":57},{"user_id":10,"name":"nfseskimo","steam_id":76561198078745666,"connected_time":531000000000,"state":"active","ping":76},{"user_id":14,"name":"Fresh Lychee","steam_id":76561198045399559,"connected_time":144000000000,"state":"active","ping":55},{"user_id":13,"name":"The World's Softest Sandwich","steam_id":76561198015577707,"connected_time":386000000000,"state":"active","ping":77}]},{"server_id":403,"name":"Uncletopia | Chicago | 4 | All Maps","name_short":"chi-4","host":"chi-1.us.uncletopia.com","port":27045,"enabled":true,"region":"us-central","cc":"us","latitude":41.881832,"longitude":-87.62318,"reserved":0,"last_update":"0001-01-01T00:00:00Z","name_a2s":"Uncletopia | Chicago | 4 | All Maps","protocol":17,"map":"pl_borneo","folder":"tf","game":"Team Fortress","app_id":440,"player_count":24,"max_players":24,"Bots":0,"server_type":"Dedicated","server_os":"Linux","password":true,"vac":true,"version":"7961495","steam_id":85568392924515193,"keywords":["nocrits","nodmgspread","payload","uncletopia"],"game_id":440,"stv_port":27046,"stv_name":"Uncletopia | Chicago | 4 | All Maps | STV","players":[{"user_id":38,"name":"EvilsConscience","steam_id":76561198073451760,"connected_time":2098000000000,"state":"active","ping":55},{"user_id":70,"name":"xxxsinpadres","steam_id":76561198366873419,"connected_time":622000000000,"state":"active","ping":47},{"user_id":52,"name":"Sinister Sandwich","steam_id":76561198142327400,"connected_time":1864000000000,"state":"active","ping":72},{"user_id":7,"name":"Whimsical Bruh","steam_id":76561199069973423,"connected_time":2804000000000,"state":"active","ping":54},{"user_id":71,"name":"Bewtee","steam_id":76561198146745998,"connected_time":608000000000,"state":"active","ping":71},{"user_id":78,"name":"indi","steam_id":76561198045917538,"connected_time":179000000000,"state":"active","ping":53},{"user_id":77,"name":"prehistoric gamer","steam_id":76561198069523062,"connected_time":225000000000,"state":"active","ping":105},{"user_id":56,"name":"Communist Killing Candy Cactus\ufffd","steam_id":76561198074980635,"connected_time":1548000000000,"state":"active","ping":125},{"user_id":40,"name":"Nukem","steam_id":76561198166236574,"connected_time":2030000000000,"state":"active","ping":82},{"user_id":47,"name":"Crabo Stabbo","steam_id":76561198061227228,"connected_time":1954000000000,"state":"active","ping":56},{"user_id":73,"name":"P.T. Barnum's Redemption Arc","steam_id":76561198136789464,"connected_time":312000000000,"state":"active","ping":65},{"user_id":79,"name":"Fisher","steam_id":76561199092708122,"connected_time":172000000000,"state":"active","ping":46},{"user_id":29,"name":"El Jackso","steam_id":76561198126121555,"connected_time":2275000000000,"state":"active","ping":46},{"user_id":19,"name":"Your Loyal Familiar","steam_id":76561198106476075,"connected_time":2396000000000,"state":"active","ping":80},{"user_id":20,"name":"Pledged","steam_id":76561198055445036,"connected_time":2385000000000,"state":"active","ping":66},{"user_id":42,"name":"Chelo Jengo","steam_id":76561198426191363,"connected_time":2016000000000,"state":"active","ping":64},{"user_id":49,"name":"Zeboto","steam_id":76561198078054459,"connected_time":1912000000000,"state":"active","ping":77},{"user_id":80,"name":"Kalioc","steam_id":76561198042557843,"connected_time":151000000000,"state":"active","ping":77},{"user_id":64,"name":"Morgster","steam_id":76561198131697761,"connected_time":1141000000000,"state":"active","ping":73},{"user_id":76,"name":"whitepharaohbustdown29","steam_id":76561198165899125,"connected_time":285000000000,"state":"active","ping":70},{"user_id":61,"name":"Styx","steam_id":76561198158334494,"connected_time":1449000000000,"state":"active","ping":52},{"user_id":50,"name":"smoothdaddy123","steam_id":76561198986553109,"connected_time":1906000000000,"state":"active","ping":51},{"user_id":62,"name":"Lenomon","steam_id":76561198287958321,"connected_time":1435000000000,"state":"active","ping":99},{"user_id":63,"name":"Houdini","steam_id":76561199118569153,"connected_time":1431000000000,"state":"active","ping":58}]},{"server_id":36,"name":"Uncletopia | Chicago | 5 | All Maps","name_short":"chi-5","host":"chi-2.us.uncletopia.com","port":27015,"enabled":true,"region":"us-central","cc":"us","latitude":41.881832,"longitude":-87.62318,"reserved":0,"last_update":"0001-01-01T00:00:00Z","name_a2s":"Uncletopia | Chicago | 5 | All Maps","protocol":17,"map":"cp_mountainlab","folder":"tf","game":"Team Fortress","app_id":440,"player_count":0,"max_players":24,"Bots":0,"server_type":"Dedicated","server_os":"Linux","password":true,"vac":true,"version":"7961495","steam_id":85568392924866362,"keywords":["cp","nocrits","nodmgspread","uncletopia"],"game_id":440,"stv_port":27016,"stv_name":"Uncletopia | Chicago | 5 | All Maps | STV","players":null},{"server_id":37,"name":"Uncletopia | Chicago | 6 | All Maps","name_short":"chi-6","host":"chi-2.us.uncletopia.com","port":27025,"enabled":true,"region":"us-central","cc":"us","latitude":41.881832,"longitude":-87.62318,"reserved":0,"last_update":"0001-01-01T00:00:00Z","name_a2s":"Uncletopia | Chicago | 6 | All Maps","protocol":17,"map":"pl_borneo","folder":"tf","game":"Team Fortress","app_id":440,"player_count":0,"max_players":24,"Bots":0,"server_type":"Dedicated","server_os":"Linux","password":true,"vac":true,"version":"7961495","steam_id":85568392924866363,"keywords":["nocrits","nodmgspread","payload","uncletopia"],"game_id":440,"stv_port":27026,"stv_name":"Uncletopia | Chicago | 6 | All Maps | STV","players":null},{"server_id":38,"name":"Uncletopia | Chicago | 7 | Stopwatch","name_short":"chi-7","host":"chi-2.us.uncletopia.com","port":27035,"enabled":true,"region":"us-central","cc":"us","latitude":41.881832,"longitude":-87.62318,"reserved":0,"last_update":"0001-01-01T00:00:00Z","name_a2s":"Uncletopia | Chicago | 7 | Stopwatch","protocol":17,"map":"workshop/koth_ashville_final.ugc2130459942","folder":"tf","game":"Team Fortress","app_id":440,"player_count":0,"max_players":24,"Bots":0,"server_type":"Dedicated","server_os":"Linux","password":true,"vac":true,"version":"7961495","steam_id":85568392924866364,"keywords":["cp","nocrits","nodmgspread","uncletopia"],"game_id":440,"stv_port":27036,"stv_name":"Uncletopia | Chicago | 7 | Stopwatch | STV","players":null},{"server_id":39,"name":"Uncletopia | Chicago | 8 | Community","name_short":"chi-8","host":"chi-2.us.uncletopia.com","port":27045,"enabled":true,"region":"us-central","cc":"us","latitude":41.881832,"longitude":-87.62318,"reserved":0,"last_update":"0001-01-01T00:00:00Z","name_a2s":"Uncletopia | Chicago | 8 | Community","protocol":17,"map":"workshop/cp_caldera_rc3.ugc2834196889","folder":"tf","game":"Team Fortress","app_id":440,"player_count":0,"max_players":24,"Bots":0,"server_type":"Dedicated","server_os":"Linux","password":true,"vac":true,"version":"7961495","steam_id":85568392924866365,"keywords":["cp","nocrits","nodmgspread","uncletopia"],"game_id":440,"stv_port":27046,"stv_name":"Uncletopia | Chicago | 8 | Community | STV","players":null},{"server_id":8,"name":"Uncletopia | Dallas | 1 | All Maps","name_short":"dal-1","host":"dal-1.us.uncletopia.com","port":27015,"enabled":true,"region":"us-central","cc":"us","latitude":32.779167,"longitude":-96.80889,"reserved":0,"last_update":"0001-01-01T00:00:00Z","name_a2s":"Uncletopia | Dallas | 1 | All Maps","protocol":17,"map":"cp_dustbowl","folder":"tf","game":"Team Fortress","app_id":440,"player_count":24,"max_players":24,"Bots":0,"server_type":"Dedicated","server_os":"Linux","password":true,"vac":true,"version":"7961495","steam_id":85568392924469986,"keywords":["cp","nocrits","nodmgspread","uncletopia"],"game_id":440,"stv_port":27016,"stv_name":"Uncletopia | Dallas | 1 | All Maps | STV","players":[{"user_id":149,"name":"Bennet","steam_id":76561198194582382,"connected_time":2065000000000,"state":"active","ping":71},{"user_id":165,"name":"wunderbrad","steam_id":76561198069445905,"connected_time":535000000000,"state":"active","ping":118},{"user_id":129,"name":"lampin","steam_id":76561197964367078,"connected_time":3399000000000,"state":"active","ping":67},{"user_id":158,"name":"UNIT 220","steam_id":76561198042243497,"connected_time":881000000000,"state":"active","ping":78},{"user_id":160,"name":"YOU WHAT?!","steam_id":76561198418679471,"connected_time":777000000000,"state":"active","ping":60},{"user_id":144,"name":"Jeiyo","steam_id":76561199070161957,"connected_time":2340000000000,"state":"active","ping":77},{"user_id":100,"name":"DMM","steam_id":76561198065426171,"connected_time":5770000000000,"state":"active","ping":52},{"user_id":127,"name":"Broadsword #LGM","steam_id":76561198011160411,"connected_time":3756000000000,"state":"active","ping":81},{"user_id":163,"name":"Dr. Han","steam_id":76561198811130843,"connected_time":730000000000,"state":"active","ping":108},{"user_id":147,"name":"zoom","steam_id":76561198036331926,"connected_time":2187000000000,"state":"active","ping":81},{"user_id":156,"name":"kaimann_25","steam_id":76561198867926098,"connected_time":1135000000000,"state":"active","ping":74},{"user_id":170,"name":"Pick","steam_id":76561198116251178,"connected_time":407000000000,"state":"active","ping":91},{"user_id":172,"name":"Rocky","steam_id":76561198048158539,"connected_time":85000000000,"state":"active","ping":105},{"user_id":166,"name":"5-MeO-DMT","steam_id":76561198089527768,"connected_time":515000000000,"state":"active","ping":63},{"user_id":141,"name":"dadgummit","steam_id":76561198005806915,"connected_time":2522000000000,"state":"active","ping":86},{"user_id":159,"name":"Op banana","steam_id":76561198303231451,"connected_time":872000000000,"state":"active","ping":45},{"user_id":167,"name":"tae","steam_id":76561198294360662,"connected_time":498000000000,"state":"active","ping":83},{"user_id":91,"name":"Uncle Danes Personal Catboy","steam_id":76561199043933182,"connected_time":6152000000000,"state":"active","ping":87},{"user_id":157,"name":"Sicko Mode (Chris Pratt Cover)","steam_id":76561198315786174,"connected_time":1037000000000,"state":"active","ping":121},{"user_id":101,"name":"Raizen","steam_id":76561199092445367,"connected_time":5753000000000,"state":"active","ping":74},{"user_id":169,"name":"Cloudy","steam_id":76561198059777671,"connected_time":443000000000,"state":"active","ping":53},{"user_id":171,"name":"ClutchSR","steam_id":76561199018366378,"connected_time":398000000000,"state":"active","ping":67},{"user_id":151,"name":"jaytheking05","steam_id":76561198856419769,"connected_time":1971000000000,"state":"active","ping":83},{"user_id":153,"name":"Rob","steam_id":76561199187786660,"connected_time":1262000000000,"state":"active","ping":44}]},{"server_id":108,"name":"Uncletopia | Dallas | 2 | All Maps","name_short":"dal-2","host":"dal-1.us.uncletopia.com","port":27025,"enabled":true,"region":"us-central","cc":"us","latitude":32.779167,"longitude":-96.80889,"reserved":0,"last_update":"0001-01-01T00:00:00Z","name_a2s":"Uncletopia | Dallas | 2 | All Maps","protocol":17,"map":"cp_snakewater_final1","folder":"tf","game":"Team Fortress","app_id":440,"player_count":0,"max_players":24,"Bots":0,"server_type":"Dedicated","server_os":"Linux","password":true,"vac":true,"version":"7961495","steam_id":85568392924469988,"keywords":["cp","nocrits","nodmgspread","uncletopia"],"game_id":440,"stv_port":27026,"stv_name":"Uncletopia | Dallas | 2 | All Maps | STV","players":null},{"server_id":404,"name":"Uncletopia | Dallas | 3 | All Maps","name_short":"dal-3","host":"dal-1.us.uncletopia.com","port":27035,"enabled":true,"region":"us-central","cc":"us","latitude":32.779167,"longitude":-96.80889,"reserved":0,"last_update":"0001-01-01T00:00:00Z","name_a2s":"Uncletopia | Dallas | 3 | All Maps","protocol":17,"map":"pl_frontier_final","folder":"tf","game":"Team Fortress","app_id":440,"player_count":22,"max_players":24,"Bots":0,"server_type":"Dedicated","server_os":"Linux","password":true,"vac":true,"version":"7961495","steam_id":85568392924515219,"keywords":["nocrits","nodmgspread","payload","uncletopia"],"game_id":440,"stv_port":27036,"stv_name":"Uncletopia | Dallas | 3 | All Maps | STV","players":[{"user_id":9,"name":"♥ Tomboy ♥","steam_id":76561198069881436,"connected_time":6257000000000,"state":"active","ping":74},{"user_id":61,"name":"Topaz Tom","steam_id":76561199214479904,"connected_time":1575000000000,"state":"active","ping":87},{"user_id":62,"name":"Ray","steam_id":76561198048011618,"connected_time":1563000000000,"state":"active","ping":82},{"user_id":73,"name":"transfem atsuko kagari","steam_id":76561198217402847,"connected_time":57000000000,"state":"active","ping":90},{"user_id":21,"name":"Tim Williams","steam_id":76561198177327059,"connected_time":3886000000000,"state":"active","ping":89},{"user_id":68,"name":"Voodo133","steam_id":76561198042670351,"connected_time":721000000000,"state":"active","ping":105},{"user_id":22,"name":"The Shoveler","steam_id":76561198839907239,"connected_time":3872000000000,"state":"active","ping":62},{"user_id":19,"name":"Cazadon","steam_id":76561198131331701,"connected_time":4147000000000,"state":"active","ping":52},{"user_id":20,"name":"Sammi The Hylir","steam_id":76561198129848053,"connected_time":4113000000000,"state":"active","ping":160},{"user_id":71,"name":"Cam","steam_id":76561198139174433,"connected_time":278000000000,"state":"active","ping":73},{"user_id":74,"name":"jax","steam_id":76561198414689286,"connected_time":30000000000,"state":"active","ping":92},{"user_id":52,"name":"Woods","steam_id":76561198440012069,"connected_time":2299000000000,"state":"active","ping":95},{"user_id":66,"name":"Certified Hood Classic","steam_id":76561199086159354,"connected_time":1157000000000,"state":"active","ping":57},{"user_id":33,"name":"ivel","steam_id":76561198288644172,"connected_time":3280000000000,"state":"active","ping":78},{"user_id":69,"name":"Dr. W0lv","steam_id":76561198129237487,"connected_time":548000000000,"state":"active","ping":55},{"user_id":38,"name":"noel","steam_id":76561198128280883,"connected_time":3149000000000,"state":"active","ping":100},{"user_id":59,"name":"Jesus","steam_id":76561198018890911,"connected_time":1625000000000,"state":"active","ping":47},{"user_id":70,"name":"nufyivuyda","steam_id":76561199499476489,"connected_time":327000000000,"state":"active","ping":89},{"user_id":72,"name":"euLA Skuba","steam_id":76561198157499812,"connected_time":170000000000,"state":"active","ping":79},{"user_id":43,"name":"Peluche Marisa","steam_id":76561199011452659,"connected_time":3000000000000,"state":"active","ping":109},{"user_id":45,"name":"Dr.Blunt","steam_id":76561198096333958,"connected_time":2746000000000,"state":"active","ping":73},{"user_id":60,"name":"Weegee","steam_id":76561198140095755,"connected_time":1625000000000,"state":"active","ping":88}]},{"server_id":405,"name":"Uncletopia | Dallas | 4 | Community","name_short":"dal-4","host":"dal-1.us.uncletopia.com","port":27045,"enabled":true,"region":"us-central","cc":"us","latitude":32.779167,"longitude":-96.80889,"reserved":0,"last_update":"0001-01-01T00:00:00Z","name_a2s":"Uncletopia | Dallas | 4 | Community","protocol":17,"map":"workshop/pl_vigil_rc10.ugc1266210012","folder":"tf","game":"Team Fortress","app_id":440,"player_count":0,"max_players":24,"Bots":0,"server_type":"Dedicated","server_os":"Linux","password":true,"vac":true,"version":"7961495","steam_id":85568392924515220,"keywords":["nocrits","nodmgspread","payload","uncletopia"],"game_id":440,"stv_port":27046,"stv_name":"Uncletopia | Dallas | 4 | Community | STV","players":null},{"server_id":5,"name":"Uncletopia | Frankfurt | 1 | All Maps","name_short":"frk-1","host":"frk-1.de.uncletopia.com","port":27015,"enabled":true,"region":"eu","cc":"de","latitude":50.110924,"longitude":8.682127,"reserved":0,"last_update":"0001-01-01T00:00:00Z","name_a2s":"Uncletopia | Frankfurt | 1 | All Maps","protocol":17,"map":"pl_swiftwater_final1","folder":"tf","game":"Team Fortress","app_id":440,"player_count":24,"max_players":24,"Bots":0,"server_type":"Dedicated","server_os":"Linux","password":true,"vac":true,"version":"7961495","steam_id":85568392924469989,"keywords":["nocrits","nodmgspread","payload","uncletopia"],"game_id":440,"stv_port":27016,"stv_name":"Uncletopia | Frankfurt | 1 | All Maps | STV","players":[{"user_id":458,"name":"watch thief","steam_id":76561198036730191,"connected_time":1279000000000,"state":"active","ping":58},{"user_id":471,"name":"LOBZIK","steam_id":76561198114830120,"connected_time":902000000000,"state":"active","ping":76},{"user_id":482,"name":"Vince","steam_id":76561199103000131,"connected_time":33000000000,"state":"active","ping":46},{"user_id":464,"name":"tealoverr.190","steam_id":76561199028497703,"connected_time":1069000000000,"state":"active","ping":100},{"user_id":463,"name":"Peskyplumber64","steam_id":76561198044458330,"connected_time":1102000000000,"state":"active","ping":67},{"user_id":468,"name":"Flashback","steam_id":76561197973978552,"connected_time":956000000000,"state":"active","ping":78},{"user_id":483,"name":"Pats (Gifted items Collector)","steam_id":76561198418538887,"connected_time":28000000000,"state":"active","ping":103},{"user_id":481,"name":"aless","steam_id":76561198941165698,"connected_time":40000000000,"state":"active","ping":52},{"user_id":435,"name":"Shlyk","steam_id":76561198333387103,"connected_time":2486000000000,"state":"active","ping":104},{"user_id":479,"name":"SCRAMMMBLED","steam_id":76561197998307746,"connected_time":264000000000,"state":"active","ping":64},{"user_id":465,"name":"Transcendence Fernando","steam_id":76561197987115316,"connected_time":1068000000000,"state":"active","ping":60},{"user_id":478,"name":"Philosophos_Alpha","steam_id":76561198951264580,"connected_time":691000000000,"state":"active","ping":93},{"user_id":470,"name":"(1) TSM Garp","steam_id":76561198261795972,"connected_time":921000000000,"state":"active","ping":75},{"user_id":452,"name":"AgentKerbal","steam_id":76561198146360194,"connected_time":1887000000000,"state":"active","ping":60},{"user_id":473,"name":"Burpman","steam_id":76561198022897937,"connected_time":899000000000,"state":"active","ping":50},{"user_id":474,"name":"mesλ","steam_id":76561198324582918,"connected_time":861000000000,"state":"active","ping":103},{"user_id":484,"name":"System","steam_id":76561199442503973,"connected_time":26000000000,"state":"active","ping":49},{"user_id":460,"name":",","steam_id":76561198347020945,"connected_time":1204000000000,"state":"active","ping":84},{"user_id":424,"name":"Frying Pan gaming","steam_id":76561199230315253,"connected_time":2874000000000,"state":"active","ping":78},{"user_id":485,"name":"Harold Manshaft, CEO","steam_id":76561198046563712,"connected_time":13000000000,"state":"spawning","ping":210},{"user_id":426,"name":"Charlie Brown","steam_id":76561199378865926,"connected_time":2847000000000,"state":"active","ping":80},{"user_id":453,"name":"MaxThoo","steam_id":76561198167904353,"connected_time":1878000000000,"state":"active","ping":79},{"user_id":480,"name":"VolcanicArts","steam_id":76561198063453246,"connected_time":61000000000,"state":"active","ping":60},{"user_id":429,"name":"simeswipe","steam_id":76561198188471097,"connected_time":2838000000000,"state":"active","ping":72}]},{"server_id":110,"name":"Uncletopia | Frankfurt | 2 | All Maps","name_short":"frk-2","host":"frk-1.de.uncletopia.com","port":27025,"enabled":true,"region":"eu","cc":"de","latitude":50.110924,"longitude":8.682127,"reserved":0,"last_update":"0001-01-01T00:00:00Z","name_a2s":"Uncletopia | Frankfurt | 2 | All Maps","protocol":17,"map":"pl_swiftwater_final1","folder":"tf","game":"Team Fortress","app_id":440,"player_count":24,"max_players":24,"Bots":0,"server_type":"Dedicated","server_os":"Linux","password":true,"vac":true,"version":"7961495","steam_id":85568392924469990,"keywords":["nocrits","nodmgspread","payload","uncletopia"],"game_id":440,"stv_port":27026,"stv_name":"Uncletopia | Frankfurt | 2 | All Maps | STV","players":[{"user_id":254,"name":"Zulik92","steam_id":76561198152442373,"connected_time":3026000000000,"state":"active","ping":52},{"user_id":269,"name":"Mancomb Seepgood","steam_id":76561197974116369,"connected_time":2080000000000,"state":"active","ping":49},{"user_id":251,"name":"night.s","steam_id":76561198326287823,"connected_time":3127000000000,"state":"active","ping":81},{"user_id":295,"name":"HopeDaGamer","steam_id":76561199487262348,"connected_time":733000000000,"state":"active","ping":93},{"user_id":301,"name":"ffmpreg","steam_id":76561198041960484,"connected_time":585000000000,"state":"active","ping":72},{"user_id":201,"name":"Gordon Birdman","steam_id":76561198013382324,"connected_time":6865000000000,"state":"active","ping":71},{"user_id":309,"name":"fungus bogs janitor","steam_id":76561199042470246,"connected_time":169000000000,"state":"active","ping":52},{"user_id":310,"name":"dakkafex","steam_id":76561198020254869,"connected_time":125000000000,"state":"active","ping":47},{"user_id":294,"name":"Grubb","steam_id":76561199016346473,"connected_time":796000000000,"state":"active","ping":48},{"user_id":287,"name":"I have no duck and I must quack","steam_id":76561198061920656,"connected_time":1007000000000,"state":"active","ping":72},{"user_id":296,"name":"marco","steam_id":76561197993272110,"connected_time":712000000000,"state":"active","ping":96},{"user_id":305,"name":"Bgm_","steam_id":76561198056452044,"connected_time":293000000000,"state":"active","ping":60},{"user_id":306,"name":"PrinzAnalFaust","steam_id":76561198136407626,"connected_time":277000000000,"state":"active","ping":64},{"user_id":302,"name":"jovi_","steam_id":76561198449280552,"connected_time":561000000000,"state":"active","ping":58},{"user_id":285,"name":"gavaris","steam_id":76561199053118731,"connected_time":1026000000000,"state":"active","ping":69},{"user_id":311,"name":"levap","steam_id":76561197987688539,"connected_time":123000000000,"state":"active","ping":77},{"user_id":312,"name":"точно проверено","steam_id":76561198005742337,"connected_time":120000000000,"state":"active","ping":51},{"user_id":231,"name":"Sicronici","steam_id":76561199054534566,"connected_time":5149000000000,"state":"active","ping":95},{"user_id":308,"name":"Kekka","steam_id":76561198068667960,"connected_time":247000000000,"state":"active","ping":59},{"user_id":300,"name":"Xx_LudZip_xX","steam_id":76561198321008764,"connected_time":660000000000,"state":"active","ping":55},{"user_id":307,"name":"Bobo","steam_id":76561198052308399,"connected_time":266000000000,"state":"active","ping":61},{"user_id":260,"name":"Snowy","steam_id":76561198169992461,"connected_time":2896000000000,"state":"active","ping":53},{"user_id":303,"name":"dongus","steam_id":76561198042774930,"connected_time":545000000000,"state":"active","ping":78},{"user_id":264,"name":"Einsamer_Keks","steam_id":76561198148828509,"connected_time":2594000000000,"state":"active","ping":56}]},{"server_id":308,"name":"Uncletopia | Frankfurt | 3 | All Maps","name_short":"frk-3","host":"frk-1.de.uncletopia.com","port":27035,"enabled":true,"region":"eu","cc":"de","latitude":50.110924,"longitude":8.682127,"reserved":0,"last_update":"0001-01-01T00:00:00Z","name_a2s":"Uncletopia | Frankfurt | 3 | All Maps","protocol":17,"map":"cp_sunshine","folder":"tf","game":"Team Fortress","app_id":440,"player_count":24,"max_players":24,"Bots":0,"server_type":"Dedicated","server_os":"Linux","password":true,"vac":true,"version":"7961495","steam_id":85568392924504274,"keywords":["cp","nocrits","nodmgspread","uncletopia"],"game_id":440,"stv_port":27036,"stv_name":"Uncletopia | Frankfurt | 3 | All Maps | STV","players":[{"user_id":178,"name":"Blackgdkcb","steam_id":76561199027950389,"connected_time":553000000000,"state":"active","ping":62},{"user_id":180,"name":"Generál Kiwi","steam_id":76561198255946537,"connected_time":437000000000,"state":"active","ping":41},{"user_id":171,"name":"Kugo","steam_id":76561197968465177,"connected_time":811000000000,"state":"active","ping":90},{"user_id":134,"name":"Pringles","steam_id":76561198120850843,"connected_time":2833000000000,"state":"active","ping":86},{"user_id":174,"name":"=Xal=","steam_id":76561198052622095,"connected_time":681000000000,"state":"active","ping":62},{"user_id":99,"name":"LivEssense","steam_id":76561198052476979,"connected_time":5425000000000,"state":"active","ping":75},{"user_id":181,"name":"Cock Enjoyer [ASS]","steam_id":76561198145150950,"connected_time":394000000000,"state":"active","ping":67},{"user_id":182,"name":"Shawty","steam_id":76561198256704286,"connected_time":259000000000,"state":"active","ping":65},{"user_id":183,"name":"Soulman25 (FIN)","steam_id":76561198103611974,"connected_time":242000000000,"state":"active","ping":92},{"user_id":153,"name":"tete","steam_id":76561198045222850,"connected_time":1845000000000,"state":"active","ping":74},{"user_id":123,"name":"Michalo","steam_id":76561198195021867,"connected_time":3594000000000,"state":"active","ping":88},{"user_id":130,"name":"morty","steam_id":76561199230137467,"connected_time":3067000000000,"state":"active","ping":144},{"user_id":175,"name":"JayK","steam_id":76561198046277492,"connected_time":642000000000,"state":"active","ping":82},{"user_id":177,"name":"Purrplehaze","steam_id":76561198297604298,"connected_time":618000000000,"state":"active","ping":60},{"user_id":162,"name":"shapeshifter","steam_id":76561198052898368,"connected_time":1460000000000,"state":"active","ping":69},{"user_id":167,"name":"Javier dorsaless","steam_id":76561198179324075,"connected_time":987000000000,"state":"active","ping":68},{"user_id":152,"name":"_Chelik_","steam_id":76561199076069284,"connected_time":1895000000000,"state":"active","ping":90},{"user_id":98,"name":"Optimist 50","steam_id":76561198039631442,"connected_time":5491000000000,"state":"active","ping":82},{"user_id":170,"name":"swag messiah","steam_id":76561199171950648,"connected_time":868000000000,"state":"active","ping":97},{"user_id":184,"name":"Skipper","steam_id":76561198156847466,"connected_time":135000000000,"state":"active","ping":47},{"user_id":95,"name":"Metagamermario","steam_id":76561199417190355,"connected_time":5587000000000,"state":"active","ping":148},{"user_id":163,"name":"btrayed","steam_id":76561199498456546,"connected_time":1455000000000,"state":"active","ping":60},{"user_id":131,"name":"Yuval","steam_id":76561198241802390,"connected_time":2943000000000,"state":"active","ping":100},{"user_id":185,"name":"Bimbo","steam_id":76561199185927300,"connected_time":133000000000,"state":"spawning","ping":143}]},{"server_id":309,"name":"Uncletopia | Frankfurt | 4 | All Maps","name_short":"frk-4","host":"frk-1.de.uncletopia.com","port":27045,"enabled":true,"region":"eu","cc":"de","latitude":50.110924,"longitude":8.682127,"reserved":0,"last_update":"0001-01-01T00:00:00Z","name_a2s":"Uncletopia | Frankfurt | 4 | All Maps","protocol":17,"map":"pl_pier","folder":"tf","game":"Team Fortress","app_id":440,"player_count":8,"max_players":24,"Bots":0,"server_type":"Dedicated","server_os":"Linux","password":true,"vac":true,"version":"7961495","steam_id":85568392924504275,"keywords":["nocrits","nodmgspread","payload","uncletopia"],"game_id":440,"stv_port":27046,"stv_name":"Uncletopia | Frankfurt | 4 | All Maps | STV","players":[{"user_id":236,"name":"РеДаНоВеЦ ^_^","steam_id":76561199032612973,"connected_time":539000000000,"state":"active","ping":64},{"user_id":237,"name":"theVad333","steam_id":76561199273469746,"connected_time":402000000000,"state":"active","ping":69},{"user_id":238,"name":"Nymph","steam_id":76561198042801329,"connected_time":167000000000,"state":"active","ping":55},{"user_id":233,"name":"The spit taster","steam_id":76561198338129578,"connected_time":1194000000000,"state":"active","ping":54},{"user_id":239,"name":"ChrisLuckycharm","steam_id":76561199490969322,"connected_time":15000000000,"state":"spawning","ping":75},{"user_id":214,"name":"alicheek_86","steam_id":76561198253553809,"connected_time":1967000000000,"state":"active","ping":69},{"user_id":205,"name":"wildfire in my sock drawer","steam_id":76561198095560087,"connected_time":2621000000000,"state":"active","ping":63},{"user_id":216,"name":"ChesseKnight","steam_id":76561198102476339,"connected_time":1962000000000,"state":"active","ping":72}]},{"server_id":310,"name":"Uncletopia | Frankfurt | 5 | All Maps","name_short":"frk-5","host":"frk-1.de.uncletopia.com","port":27055,"enabled":true,"region":"eu","cc":"de","latitude":50.110924,"longitude":8.682127,"reserved":0,"last_update":"0001-01-01T00:00:00Z","name_a2s":"Uncletopia | Frankfurt | 5 | All Maps","protocol":17,"map":"pl_snowycoast","folder":"tf","game":"Team Fortress","app_id":440,"player_count":24,"max_players":24,"Bots":0,"server_type":"Dedicated","server_os":"Linux","password":true,"vac":true,"version":"7961495","steam_id":85568392924504277,"keywords":["nocrits","nodmgspread","payload","uncletopia"],"game_id":440,"stv_port":27056,"stv_name":"Uncletopia | Frankfurt | 5 | All Maps | STV","players":[{"user_id":333,"name":"walter","steam_id":76561198021950957,"connected_time":11308000000000,"state":"active","ping":72},{"user_id":372,"name":"Scooty.","steam_id":76561198138990283,"connected_time":8807000000000,"state":"active","ping":137},{"user_id":475,"name":"Karabast","steam_id":76561198041208332,"connected_time":217000000000,"state":"active","ping":63},{"user_id":454,"name":"Sex Man TF2","steam_id":76561198798657045,"connected_time":988000000000,"state":"active","ping":75},{"user_id":447,"name":"below average medic player","steam_id":76561199095822539,"connected_time":1687000000000,"state":"active","ping":81},{"user_id":466,"name":"dongy","steam_id":76561198050319619,"connected_time":555000000000,"state":"active","ping":53},{"user_id":433,"name":"gracz.łatwy","steam_id":76561198850691862,"connected_time":2837000000000,"state":"active","ping":87},{"user_id":457,"name":"T/5. Cernuno [16th IR]","steam_id":76561197977897110,"connected_time":932000000000,"state":"active","ping":75},{"user_id":476,"name":"hgvgdwa","steam_id":76561198156499356,"connected_time":202000000000,"state":"active","ping":67},{"user_id":453,"name":"Tofu'","steam_id":76561197984621343,"connected_time":1057000000000,"state":"active","ping":45},{"user_id":458,"name":"Wardruna96","steam_id":76561199057083828,"connected_time":904000000000,"state":"active","ping":84},{"user_id":431,"name":"András","steam_id":76561198096947288,"connected_time":2874000000000,"state":"active","ping":59},{"user_id":479,"name":"the babadook","steam_id":76561198040168682,"connected_time":1000000000,"state":"spawning","ping":77},{"user_id":434,"name":"murderwow","steam_id":76561198024566944,"connected_time":2435000000000,"state":"active","ping":102},{"user_id":449,"name":"fernandobmwm355555","steam_id":76561198086609447,"connected_time":1441000000000,"state":"active","ping":50},{"user_id":464,"name":"nordstream bomber","steam_id":76561199401283123,"connected_time":764000000000,"state":"active","ping":59},{"user_id":469,"name":"Spajro","steam_id":76561198257383813,"connected_time":480000000000,"state":"active","ping":46},{"user_id":408,"name":"Nick","steam_id":76561198036109469,"connected_time":5589000000000,"state":"active","ping":79},{"user_id":465,"name":"hog","steam_id":76561198857396812,"connected_time":747000000000,"state":"active","ping":49},{"user_id":472,"name":"Mr. Mundy","steam_id":76561198132008918,"connected_time":425000000000,"state":"active","ping":72},{"user_id":443,"name":"pavel_mkd","steam_id":76561199088118112,"connected_time":1955000000000,"state":"active","ping":84},{"user_id":450,"name":"SCaELS [TF2 BLENDER ART COMMS]","steam_id":76561199111725372,"connected_time":1262000000000,"state":"active","ping":70},{"user_id":473,"name":"Mébh Óg MacTíre","steam_id":76561198346399624,"connected_time":424000000000,"state":"active","ping":71},{"user_id":478,"name":"Free medium ammo pack","steam_id":76561198256328990,"connected_time":28000000000,"state":"active","ping":94}]},{"server_id":311,"name":"Uncletopia | Frankfurt | 6 | All Maps","name_short":"frk-6","host":"frk-1.de.uncletopia.com","port":27065,"enabled":true,"region":"eu","cc":"de","latitude":50.110924,"longitude":8.682127,"reserved":0,"last_update":"0001-01-01T00:00:00Z","name_a2s":"Uncletopia | Frankfurt | 6 | All Maps","protocol":17,"map":"pl_upward","folder":"tf","game":"Team Fortress","app_id":440,"player_count":24,"max_players":24,"Bots":0,"server_type":"Dedicated","server_os":"Linux","password":true,"vac":true,"version":"7961495","steam_id":85568392924504278,"keywords":["nocrits","nodmgspread","payload","uncletopia"],"game_id":440,"stv_port":27066,"stv_name":"Uncletopia | Frankfurt | 6 | All Maps | STV","players":[{"user_id":282,"name":"Rei Ayanami","steam_id":76561198405980575,"connected_time":784000000000,"state":"active","ping":47},{"user_id":281,"name":"The Cool Ice Guy","steam_id":76561198146194820,"connected_time":844000000000,"state":"active","ping":50},{"user_id":225,"name":"Efter","steam_id":76561198302457901,"connected_time":4503000000000,"state":"active","ping":89},{"user_id":289,"name":"♂ Necronomico ♂","steam_id":76561198079272212,"connected_time":486000000000,"state":"active","ping":77},{"user_id":290,"name":"chonkster","steam_id":76561198316059681,"connected_time":469000000000,"state":"active","ping":53},{"user_id":268,"name":"skai -TA-","steam_id":76561198184881255,"connected_time":1599000000000,"state":"active","ping":71},{"user_id":257,"name":"Prawo Jazdy","steam_id":76561198121589024,"connected_time":2328000000000,"state":"active","ping":63},{"user_id":295,"name":"EEEEEH","steam_id":76561198126717413,"connected_time":325000000000,"state":"active","ping":77},{"user_id":287,"name":"ainme enjoyer","steam_id":76561198076613025,"connected_time":562000000000,"state":"active","ping":72},{"user_id":284,"name":"Sumbody","steam_id":76561198155371407,"connected_time":765000000000,"state":"active","ping":115},{"user_id":291,"name":"why rum gone","steam_id":76561198158484784,"connected_time":461000000000,"state":"active","ping":60},{"user_id":285,"name":"mieti minua mun piilossa","steam_id":76561198280507478,"connected_time":721000000000,"state":"active","ping":55},{"user_id":174,"name":"Waltism","steam_id":76561199447676489,"connected_time":6819000000000,"state":"active","ping":83},{"user_id":277,"name":"sex tf2","steam_id":76561198147874568,"connected_time":1034000000000,"state":"active","ping":94},{"user_id":269,"name":"Hacker Studios","steam_id":76561199209653826,"connected_time":1592000000000,"state":"active","ping":61},{"user_id":247,"name":"0\u003e0","steam_id":76561198049741238,"connected_time":2909000000000,"state":"active","ping":99},{"user_id":292,"name":"Late","steam_id":76561198343776759,"connected_time":455000000000,"state":"active","ping":88},{"user_id":293,"name":"deez","steam_id":76561198831476915,"connected_time":425000000000,"state":"active","ping":67},{"user_id":294,"name":"cult","steam_id":76561198188647690,"connected_time":401000000000,"state":"active","ping":67},{"user_id":288,"name":"sblorpo","steam_id":76561198846812546,"connected_time":513000000000,"state":"active","ping":68},{"user_id":275,"name":"Shireco","steam_id":76561198084899921,"connected_time":1237000000000,"state":"active","ping":113},{"user_id":296,"name":"post-nuke jerma","steam_id":76561198094268619,"connected_time":6000000000,"state":"spawning","ping":67},{"user_id":171,"name":"ggwp","steam_id":76561199141037141,"connected_time":6894000000000,"state":"active","ping":77},{"user_id":168,"name":"wavelength","steam_id":76561198154677956,"connected_time":6989000000000,"state":"active","ping":66}]},{"server_id":23,"name":"Uncletopia | Frankfurt | 7 | Stopwatch","name_short":"frk-7","host":"frk-1.de.uncletopia.com","port":27075,"enabled":true,"region":"eu","cc":"de","latitude":50.110924,"longitude":8.682127,"reserved":0,"last_update":"0001-01-01T00:00:00Z","name_a2s":"Uncletopia | Frankfurt | 7 | Stopwatch","protocol":17,"map":"workshop/koth_clearcut_b15.ugc2107050255","folder":"tf","game":"Team Fortress","app_id":440,"player_count":0,"max_players":24,"Bots":0,"server_type":"Dedicated","server_os":"Linux","password":true,"vac":true,"version":"7961495","steam_id":85568392924742827,"keywords":["cp","nocrits","nodmgspread","uncletopia"],"game_id":440,"stv_port":27076,"stv_name":"Uncletopia | Frankfurt | 7 | Stopwatch | STV","players":null},{"server_id":24,"name":"Uncletopia | Frankfurt | 8 | Community","name_short":"frk-8","host":"frk-1.de.uncletopia.com","port":27085,"enabled":true,"region":"eu","cc":"de","latitude":50.110924,"longitude":8.682127,"reserved":0,"last_update":"0001-01-01T00:00:00Z","name_a2s":"Uncletopia | Frankfurt | 8 | Community","protocol":17,"map":"workshop/koth_relic_rc3.ugc2965301326","folder":"tf","game":"Team Fortress","app_id":440,"player_count":0,"max_players":24,"Bots":0,"server_type":"Dedicated","server_os":"Linux","password":true,"vac":true,"version":"7961495","steam_id":85568392924742828,"keywords":["cp","nocrits","nodmgspread","uncletopia"],"game_id":440,"stv_port":27086,"stv_name":"Uncletopia | Frankfurt | 8 | Community | STV","players":null},{"server_id":202,"name":"Uncletopia | Hong Kong | 1 | All Maps","name_short":"hgk-1","host":"hgk-1.hk.uncletopia.com","port":27015,"enabled":true,"region":"asia","cc":"hk","latitude":22.302711,"longitude":114.177216,"reserved":0,"last_update":"0001-01-01T00:00:00Z","name_a2s":"Uncletopia | Hong Kong | 1 | All Maps","protocol":17,"map":"koth_cascade","folder":"tf","game":"Team Fortress","app_id":440,"player_count":2,"max_players":24,"Bots":0,"server_type":"Dedicated","server_os":"Linux","password":true,"vac":true,"version":"7961495","steam_id":85568392924494504,"keywords":["cp","nocrits","nodmgspread","uncletopia"],"game_id":440,"stv_port":27016,"stv_name":"Uncletopia | Hong Kong | 1 | All Maps | STV","players":[{"user_id":682,"name":"beepis","steam_id":76561198965473654,"connected_time":396000000000,"state":"active","ping":69},{"user_id":683,"name":"Django","steam_id":76561199183631944,"connected_time":387000000000,"state":"active","ping":146}]},{"server_id":1,"name":"Uncletopia | Los Angeles | 1 | All Maps","name_short":"lax-1","host":"lax-1.us.uncletopia.com","port":27015,"enabled":true,"region":"us-west","cc":"us","latitude":33.94279,"longitude":-118.41004,"reserved":0,"last_update":"0001-01-01T00:00:00Z","name_a2s":"Uncletopia | Los Angeles | 1 | All Maps","protocol":17,"map":"koth_lakeside_final","folder":"tf","game":"Team Fortress","app_id":440,"player_count":0,"max_players":24,"Bots":0,"server_type":"Dedicated","server_os":"Linux","password":true,"vac":true,"version":"7961495","steam_id":85568392924469991,"keywords":["cp","nocrits","nodmgspread","uncletopia"],"game_id":440,"stv_port":27016,"stv_name":"Uncletopia | Los Angeles | 1 | All Maps | STV","players":null},{"server_id":112,"name":"Uncletopia | Los Angeles | 2 | All Maps","name_short":"lax-2","host":"lax-1.us.uncletopia.com","port":27025,"enabled":true,"region":"us-west","cc":"us","latitude":33.94279,"longitude":-118.41004,"reserved":0,"last_update":"0001-01-01T00:00:00Z","name_a2s":"Uncletopia | Los Angeles | 2 | All Maps","protocol":17,"map":"koth_lazarus","folder":"tf","game":"Team Fortress","app_id":440,"player_count":0,"max_players":24,"Bots":0,"server_type":"Dedicated","server_os":"Linux","password":true,"vac":true,"version":"7961495","steam_id":85568392924469992,"keywords":["cp","nocrits","nodmgspread","uncletopia"],"game_id":440,"stv_port":27026,"stv_name":"Uncletopia | Los Angeles | 2 | All Maps | STV","players":null},{"server_id":324,"name":"Uncletopia | Los Angeles | 3 | All Maps","name_short":"lax-3","host":"lax-1.us.uncletopia.com","port":27035,"enabled":true,"region":"us-west","cc":"us","latitude":33.94279,"longitude":-118.41004,"reserved":0,"last_update":"0001-01-01T00:00:00Z","name_a2s":"Uncletopia | Los Angeles | 3 | All Maps","protocol":17,"map":"cp_powerhouse","folder":"tf","game":"Team Fortress","app_id":440,"player_count":23,"max_players":24,"Bots":0,"server_type":"Dedicated","server_os":"Linux","password":true,"vac":true,"version":"7961495","steam_id":85568392924510198,"keywords":["cp","nocrits","nodmgspread","uncletopia"],"game_id":440,"stv_port":27036,"stv_name":"Uncletopia | Los Angeles | 3 | All Maps | STV","players":[{"user_id":3,"name":"Hectic_Puppy (bday in 3 DAYS)","steam_id":76561198111645213,"connected_time":9995000000000,"state":"active","ping":46},{"user_id":114,"name":"airbudetc","steam_id":76561199125415611,"connected_time":1075000000000,"state":"active","ping":68},{"user_id":116,"name":"put fentanyl back in pepsi","steam_id":76561198238592900,"connected_time":582000000000,"state":"active","ping":104},{"user_id":117,"name":"Kazoo","steam_id":76561199229748300,"connected_time":568000000000,"state":"active","ping":58},{"user_id":104,"name":"The Squid Gamer™","steam_id":76561198340621517,"connected_time":1512000000000,"state":"active","ping":81},{"user_id":79,"name":"Drinkable Milk","steam_id":76561199418706430,"connected_time":3221000000000,"state":"active","ping":76},{"user_id":123,"name":"Insomniac","steam_id":76561199180653046,"connected_time":25000000000,"state":"active","ping":152},{"user_id":50,"name":"ReDeMpTioN","steam_id":76561197963635567,"connected_time":4933000000000,"state":"active","ping":45},{"user_id":121,"name":"Penne","steam_id":76561198982393756,"connected_time":184000000000,"state":"active","ping":106},{"user_id":16,"name":"BrainlezBrainiac","steam_id":76561199193942805,"connected_time":7004000000000,"state":"active","ping":89},{"user_id":106,"name":"The Great Eagle Scourge of 1822","steam_id":76561198325086209,"connected_time":1394000000000,"state":"active","ping":63},{"user_id":122,"name":"An00bis","steam_id":76561198044084508,"connected_time":129000000000,"state":"active","ping":55},{"user_id":118,"name":"Sergeant Snowflake","steam_id":76561198041474489,"connected_time":566000000000,"state":"active","ping":114},{"user_id":119,"name":"Cuno Doesn't Care!","steam_id":76561198007372782,"connected_time":522000000000,"state":"active","ping":60},{"user_id":103,"name":"rmbl","steam_id":76561198150137369,"connected_time":1581000000000,"state":"active","ping":46},{"user_id":105,"name":"rad killl raccoon","steam_id":76561198980975595,"connected_time":1485000000000,"state":"active","ping":86},{"user_id":23,"name":"Alkimia","steam_id":76561198385763137,"connected_time":6473000000000,"state":"active","ping":96},{"user_id":87,"name":"ToonRandom","steam_id":76561198208689031,"connected_time":2687000000000,"state":"active","ping":36},{"user_id":90,"name":"BLU3","steam_id":76561198059652670,"connected_time":2248000000000,"state":"active","ping":66},{"user_id":120,"name":"Scorpianswag","steam_id":76561198260651036,"connected_time":472000000000,"state":"active","ping":35},{"user_id":112,"name":"ORANGE","steam_id":76561198000401769,"connected_time":1114000000000,"state":"active","ping":74},{"user_id":99,"name":"carson","steam_id":76561198273784854,"connected_time":1987000000000,"state":"active","ping":106},{"user_id":100,"name":"᠌","steam_id":76561198013782244,"connected_time":1987000000000,"state":"active","ping":52}]},{"server_id":25,"name":"Uncletopia | Los Angeles | 4 | Stopwatch","name_short":"lax-4","host":"lax-1.us.uncletopia.com","port":27045,"enabled":true,"region":"us-west","cc":"us","latitude":33.94279,"longitude":-118.41004,"reserved":0,"last_update":"0001-01-01T00:00:00Z","name_a2s":"Uncletopia | Los Angeles | 4 | Stopwatch","protocol":17,"map":"workshop/koth_product_final.ugc454272353","folder":"tf","game":"Team Fortress","app_id":440,"player_count":0,"max_players":24,"Bots":0,"server_type":"Dedicated","server_os":"Linux","password":true,"vac":true,"version":"7961495","steam_id":85568392924510199,"keywords":["cp","nocrits","nodmgspread","uncletopia"],"game_id":440,"stv_port":27046,"stv_name":"Uncletopia | Los Angeles | 4 | Stopwatch | STV","players":null},{"server_id":11,"name":"Uncletopia | London | 1 | All Maps","name_short":"lon-1","host":"lon-1.uk.uncletopia.com","port":27015,"enabled":true,"region":"eu","cc":"gb","latitude":51.509865,"longitude":-0.118092,"reserved":0,"last_update":"0001-01-01T00:00:00Z","name_a2s":"Uncletopia | London | 1 | All Maps","protocol":17,"map":"pl_snowycoast","folder":"tf","game":"Team Fortress","app_id":440,"player_count":24,"max_players":24,"Bots":0,"server_type":"Dedicated","server_os":"Linux","password":true,"vac":true,"version":"7961495","steam_id":85568392924367362,"keywords":["nocrits","nodmgspread","payload","uncletopia"],"game_id":440,"stv_port":27016,"stv_name":"Uncletopia | London | 1 | All Maps | STV","players":[{"user_id":439,"name":"Zed","steam_id":76561198188643754,"connected_time":3412000000000,"state":"active","ping":79},{"user_id":466,"name":"Summer ♥","steam_id":76561198047723907,"connected_time":1225000000000,"state":"active","ping":34},{"user_id":417,"name":"chocy milk addict","steam_id":76561199042178118,"connected_time":5611000000000,"state":"active","ping":76},{"user_id":457,"name":"That hamster has been dead for ","steam_id":76561198346638308,"connected_time":2448000000000,"state":"active","ping":51},{"user_id":446,"name":"Haha?","steam_id":76561198056882245,"connected_time":2794000000000,"state":"active","ping":39},{"user_id":453,"name":"A Monkey?","steam_id":76561198047600058,"connected_time":2574000000000,"state":"active","ping":62},{"user_id":447,"name":"Enda","steam_id":76561198202980164,"connected_time":2792000000000,"state":"active","ping":84},{"user_id":468,"name":"Your honor Freebird was playing","steam_id":76561198017513012,"connected_time":1211000000000,"state":"active","ping":63},{"user_id":465,"name":"hmscole09","steam_id":76561198811362788,"connected_time":1259000000000,"state":"active","ping":49},{"user_id":467,"name":"simpleaspossible","steam_id":76561198044827000,"connected_time":1213000000000,"state":"active","ping":45},{"user_id":431,"name":"ABSOLUTE UNIT","steam_id":76561197972287320,"connected_time":4772000000000,"state":"active","ping":58},{"user_id":464,"name":"bright","steam_id":76561198323945338,"connected_time":1742000000000,"state":"active","ping":127},{"user_id":364,"name":"Speed-Dial","steam_id":76561198012428315,"connected_time":10127000000000,"state":"active","ping":54},{"user_id":469,"name":"Haghehog","steam_id":76561198075729793,"connected_time":1208000000000,"state":"active","ping":123},{"user_id":470,"name":"❖ RazzorBee","steam_id":76561198092493838,"connected_time":1206000000000,"state":"active","ping":109},{"user_id":477,"name":"lillunya ♡","steam_id":76561198330418866,"connected_time":888000000000,"state":"active","ping":67},{"user_id":473,"name":"Falafel","steam_id":76561198043344845,"connected_time":1190000000000,"state":"active","ping":57},{"user_id":474,"name":"MARKO","steam_id":76561198065127504,"connected_time":1166000000000,"state":"active","ping":69},{"user_id":444,"name":"beef","steam_id":76561199047686063,"connected_time":3043000000000,"state":"active","ping":68},{"user_id":377,"name":"clunk","steam_id":76561198836460767,"connected_time":8819000000000,"state":"active","ping":63},{"user_id":479,"name":"Woman (Real)","steam_id":76561199151823932,"connected_time":544000000000,"state":"active","ping":85},{"user_id":475,"name":"slippin jimmy","steam_id":76561198090788590,"connected_time":1080000000000,"state":"active","ping":39},{"user_id":459,"name":"❤Luna Bee❤","steam_id":76561199230209215,"connected_time":2222000000000,"state":"active","ping":57},{"user_id":481,"name":"ein","steam_id":76561198152162834,"connected_time":182000000000,"state":"active","ping":105}]},{"server_id":114,"name":"Uncletopia | London | 2 | All Maps","name_short":"lon-2","host":"lon-1.uk.uncletopia.com","port":27025,"enabled":true,"region":"eu","cc":"gb","latitude":51.509865,"longitude":-0.118092,"reserved":0,"last_update":"0001-01-01T00:00:00Z","name_a2s":"Uncletopia | London | 2 | All Maps","protocol":17,"map":"cp_snakewater_final1","folder":"tf","game":"Team Fortress","app_id":440,"player_count":23,"max_players":24,"Bots":0,"server_type":"Dedicated","server_os":"Linux","password":true,"vac":true,"version":"7961495","steam_id":85568392924470941,"keywords":["cp","nocrits","nodmgspread","uncletopia"],"game_id":440,"stv_port":27026,"stv_name":"Uncletopia | London | 2 | All Maps | STV","players":[{"user_id":167,"name":"Dr. Sus","steam_id":76561198344435644,"connected_time":707000000000,"state":"active","ping":75},{"user_id":154,"name":"fwench fwy","steam_id":76561198058432834,"connected_time":1026000000000,"state":"active","ping":49},{"user_id":138,"name":"Raymus","steam_id":76561198021330407,"connected_time":1773000000000,"state":"active","ping":59},{"user_id":144,"name":"Bladi","steam_id":76561198083358434,"connected_time":1357000000000,"state":"active","ping":89},{"user_id":180,"name":"King Sunshine","steam_id":76561198802723642,"connected_time":2000000000,"state":"spawning","ping":36},{"user_id":172,"name":"ⓅⓁⓈ | Pink Panther","steam_id":76561198046434381,"connected_time":456000000000,"state":"active","ping":54},{"user_id":126,"name":"The Nurse from Team Fortress 2","steam_id":76561198236833426,"connected_time":2223000000000,"state":"active","ping":86},{"user_id":83,"name":"Ullr","steam_id":76561198140547483,"connected_time":4892000000000,"state":"active","ping":39},{"user_id":155,"name":"Froenzi","steam_id":76561198168841723,"connected_time":977000000000,"state":"active","ping":47},{"user_id":175,"name":"Bags.","steam_id":76561198045708372,"connected_time":97000000000,"state":"active","ping":60},{"user_id":160,"name":"Rodia","steam_id":76561197968293161,"connected_time":793000000000,"state":"active","ping":74},{"user_id":170,"name":"lawn","steam_id":76561198001243486,"connected_time":484000000000,"state":"active","ping":44},{"user_id":173,"name":"heddwch","steam_id":76561198076097983,"connected_time":280000000000,"state":"active","ping":73},{"user_id":135,"name":"Estyle","steam_id":76561198157804700,"connected_time":2048000000000,"state":"active","ping":100},{"user_id":171,"name":"Andy","steam_id":76561198046918834,"connected_time":476000000000,"state":"active","ping":64},{"user_id":177,"name":"YEAH BUDDDYYYYY!!","steam_id":76561197988733568,"connected_time":77000000000,"state":"active","ping":65},{"user_id":178,"name":"hardstuck blubber last","steam_id":76561198963378933,"connected_time":76000000000,"state":"active","ping":45},{"user_id":179,"name":"TheBeardedM1G","steam_id":76561198040208946,"connected_time":71000000000,"state":"active","ping":44},{"user_id":113,"name":"Zamorocian","steam_id":76561198076604017,"connected_time":2939000000000,"state":"active","ping":40},{"user_id":148,"name":"pijacka","steam_id":76561198103899658,"connected_time":1307000000000,"state":"active","ping":74},{"user_id":158,"name":"After8","steam_id":76561198090750865,"connected_time":964000000000,"state":"active","ping":71},{"user_id":163,"name":"Олексій | UA","steam_id":76561198802594676,"connected_time":759000000000,"state":"active","ping":62},{"user_id":115,"name":"Ned Ludd","steam_id":76561198104610203,"connected_time":2924000000000,"state":"active","ping":75}]},{"server_id":320,"name":"Uncletopia | London | 3 | All Maps","name_short":"lon-3","host":"lon-1.uk.uncletopia.com","port":27035,"enabled":true,"region":"eu","cc":"gb","latitude":51.509865,"longitude":-0.118092,"reserved":0,"last_update":"0001-01-01T00:00:00Z","name_a2s":"Uncletopia | London | 3 | All Maps","protocol":17,"map":"cp_sunshine","folder":"tf","game":"Team Fortress","app_id":440,"player_count":15,"max_players":24,"Bots":0,"server_type":"Dedicated","server_os":"Linux","password":true,"vac":true,"version":"7961495","steam_id":85568392924510192,"keywords":["cp","nocrits","nodmgspread","uncletopia"],"game_id":440,"stv_port":27036,"stv_name":"Uncletopia | London | 3 | All Maps | STV","players":[{"user_id":473,"name":"LeMustang","steam_id":76561198143497834,"connected_time":2385000000000,"state":"active","ping":43},{"user_id":515,"name":"kaiser463","steam_id":76561198885395444,"connected_time":882000000000,"state":"active","ping":70},{"user_id":454,"name":"Deez nuts","steam_id":76561199429562693,"connected_time":2567000000000,"state":"active","ping":62},{"user_id":536,"name":"Joe","steam_id":76561198061717026,"connected_time":55000000000,"state":"active","ping":45},{"user_id":537,"name":"Bobirulez","steam_id":76561198009125458,"connected_time":18000000000,"state":"active","ping":61},{"user_id":528,"name":"ybot23","steam_id":76561199142521512,"connected_time":562000000000,"state":"active","ping":30},{"user_id":443,"name":"Petight","steam_id":76561197999438798,"connected_time":2998000000000,"state":"active","ping":31},{"user_id":510,"name":"Vamp_Moira_TTV","steam_id":76561198206111420,"connected_time":1133000000000,"state":"active","ping":79},{"user_id":512,"name":"78","steam_id":76561198159465404,"connected_time":1009000000000,"state":"active","ping":131},{"user_id":520,"name":"Mucho Texto","steam_id":76561198117199068,"connected_time":708000000000,"state":"active","ping":73},{"user_id":494,"name":"abra-kablam","steam_id":76561198195857751,"connected_time":2062000000000,"state":"active","ping":61},{"user_id":529,"name":"Assassin+","steam_id":76561197994310420,"connected_time":539000000000,"state":"active","ping":70},{"user_id":531,"name":"Kenny Savage","steam_id":76561199049383900,"connected_time":355000000000,"state":"active","ping":74},{"user_id":533,"name":"Jethro Tull","steam_id":76561199034041634,"connected_time":289000000000,"state":"active","ping":66},{"user_id":505,"name":"Kenny_killer_69","steam_id":76561199465207725,"connected_time":1491000000000,"state":"active","ping":63}]},{"server_id":321,"name":"Uncletopia | London | 4 | All Maps","name_short":"lon-4","host":"lon-1.uk.uncletopia.com","port":27045,"enabled":true,"region":"eu","cc":"gb","latitude":51.509865,"longitude":-0.118092,"reserved":0,"last_update":"0001-01-01T00:00:00Z","name_a2s":"Uncletopia | London | 4 | All Maps","protocol":17,"map":"cp_process_final","folder":"tf","game":"Team Fortress","app_id":440,"player_count":0,"max_players":24,"Bots":0,"server_type":"Dedicated","server_os":"Linux","password":true,"vac":true,"version":"7961495","steam_id":85568392924510193,"keywords":["cp","nocrits","nodmgspread","uncletopia"],"game_id":440,"stv_port":27046,"stv_name":"Uncletopia | London | 4 | All Maps | STV","players":null},{"server_id":21,"name":"Uncletopia | London | 5 | All Maps","name_short":"lon-5","host":"lon-1.uk.uncletopia.com","port":27055,"enabled":true,"region":"eu","cc":"gb","latitude":51.509865,"longitude":-0.118092,"reserved":0,"last_update":"0001-01-01T00:00:00Z","name_a2s":"Uncletopia | London | 5 | All Maps","protocol":17,"map":"pl_badwater","folder":"tf","game":"Team Fortress","app_id":440,"player_count":24,"max_players":24,"Bots":0,"server_type":"Dedicated","server_os":"Linux","password":true,"vac":true,"version":"7961495","steam_id":85568392924742829,"keywords":["nocrits","nodmgspread","payload","uncletopia"],"game_id":440,"stv_port":27056,"stv_name":"Uncletopia | London | 5 | All Maps | STV","players":[{"user_id":319,"name":"Fran","steam_id":76561199070516960,"connected_time":7810000000000,"state":"active","ping":71},{"user_id":413,"name":"CalzoneCarl456","steam_id":76561198846982793,"connected_time":1880000000000,"state":"active","ping":53},{"user_id":424,"name":"I am on the TF2 Scoreboard...","steam_id":76561198043850884,"connected_time":534000000000,"state":"active","ping":59},{"user_id":394,"name":"Reomk","steam_id":76561198309314129,"connected_time":2961000000000,"state":"active","ping":79},{"user_id":391,"name":"Edsuedi","steam_id":76561198074722832,"connected_time":3035000000000,"state":"active","ping":60},{"user_id":427,"name":"faccboi","steam_id":76561198137816642,"connected_time":414000000000,"state":"active","ping":57},{"user_id":414,"name":"Minus-Abinus","steam_id":76561199383437138,"connected_time":1567000000000,"state":"active","ping":131},{"user_id":392,"name":"static","steam_id":76561198836825741,"connected_time":3024000000000,"state":"active","ping":43},{"user_id":387,"name":"sareena","steam_id":76561198810194062,"connected_time":3164000000000,"state":"active","ping":73},{"user_id":423,"name":"Bajas","steam_id":76561198179339326,"connected_time":571000000000,"state":"active","ping":84},{"user_id":390,"name":"RAT BASTARD","steam_id":76561199195985387,"connected_time":3053000000000,"state":"active","ping":91},{"user_id":353,"name":"Lux","steam_id":76561198060417740,"connected_time":5668000000000,"state":"active","ping":52},{"user_id":281,"name":"fence_","steam_id":76561198150386379,"connected_time":10094000000000,"state":"active","ping":48},{"user_id":428,"name":"Chambersite the Wizard","steam_id":76561198197022399,"connected_time":366000000000,"state":"active","ping":81},{"user_id":411,"name":"medick","steam_id":76561199380849468,"connected_time":2110000000000,"state":"active","ping":65},{"user_id":425,"name":"Akisян","steam_id":76561198078706435,"connected_time":504000000000,"state":"active","ping":76},{"user_id":398,"name":"Bob D","steam_id":76561198026375630,"connected_time":2824000000000,"state":"active","ping":59},{"user_id":373,"name":"TranvesTito","steam_id":76561198140034262,"connected_time":4079000000000,"state":"active","ping":76},{"user_id":223,"name":"The Subway Scientist","steam_id":76561198193757646,"connected_time":11708000000000,"state":"active","ping":48},{"user_id":399,"name":"Supercoxylac","steam_id":76561198376300138,"connected_time":2799000000000,"state":"active","ping":64},{"user_id":389,"name":"*Stare*","steam_id":76561199072209884,"connected_time":3108000000000,"state":"active","ping":47},{"user_id":407,"name":"Protector.CZ","steam_id":76561197972341084,"connected_time":2537000000000,"state":"active","ping":80},{"user_id":419,"name":"azzy","steam_id":76561198061293740,"connected_time":1013000000000,"state":"active","ping":80},{"user_id":426,"name":"fl1p","steam_id":76561198148565659,"connected_time":497000000000,"state":"active","ping":79}]},{"server_id":22,"name":"Uncletopia | London | 6 | All Maps","name_short":"lon-6","host":"lon-1.uk.uncletopia.com","port":27065,"enabled":true,"region":"eu","cc":"gb","latitude":51.509865,"longitude":-0.118092,"reserved":0,"last_update":"0001-01-01T00:00:00Z","name_a2s":"Uncletopia | London | 6 | All Maps","protocol":17,"map":"cp_gorge","folder":"tf","game":"Team Fortress","app_id":440,"player_count":24,"max_players":24,"Bots":0,"server_type":"Dedicated","server_os":"Linux","password":true,"vac":true,"version":"7961495","steam_id":85568392924742830,"keywords":["cp","nocrits","nodmgspread","uncletopia"],"game_id":440,"stv_port":27066,"stv_name":"Uncletopia | London | 6 | All Maps | STV","players":[{"user_id":83,"name":"You","steam_id":76561199022242155,"connected_time":998000000000,"state":"active","ping":89},{"user_id":78,"name":"Space","steam_id":76561198378357559,"connected_time":1141000000000,"state":"active","ping":44},{"user_id":101,"name":"skilltissues","steam_id":76561198025828664,"connected_time":132000000000,"state":"active","ping":55},{"user_id":97,"name":"Eyy_Cucasi","steam_id":76561198271767632,"connected_time":361000000000,"state":"active","ping":96},{"user_id":96,"name":"gαвє ησëℓ","steam_id":76561198067342352,"connected_time":506000000000,"state":"active","ping":59},{"user_id":99,"name":"MeBandae","steam_id":76561198910770432,"connected_time":211000000000,"state":"active","ping":60},{"user_id":81,"name":"scungo","steam_id":76561198316654855,"connected_time":1038000000000,"state":"active","ping":160},{"user_id":94,"name":"kolio","steam_id":76561199113932585,"connected_time":722000000000,"state":"active","ping":97},{"user_id":39,"name":"lordd2647","steam_id":76561199433534405,"connected_time":2006000000000,"state":"active","ping":69},{"user_id":66,"name":"TheMytant","steam_id":76561198407880855,"connected_time":1521000000000,"state":"active","ping":135},{"user_id":40,"name":"The legendery balls","steam_id":76561199139344747,"connected_time":1978000000000,"state":"active","ping":126},{"user_id":98,"name":"Jughead","steam_id":76561198000355410,"connected_time":278000000000,"state":"active","ping":42},{"user_id":100,"name":"Dan Dan the Furious","steam_id":76561198091032527,"connected_time":201000000000,"state":"active","ping":48},{"user_id":70,"name":"asu","steam_id":76561197994492154,"connected_time":1336000000000,"state":"active","ping":75},{"user_id":61,"name":"Ransu","steam_id":76561198211750823,"connected_time":1671000000000,"state":"active","ping":77},{"user_id":102,"name":"aaaaaa","steam_id":76561198086304421,"connected_time":104000000000,"state":"active","ping":86},{"user_id":87,"name":"noah","steam_id":76561198099457089,"connected_time":964000000000,"state":"active","ping":66},{"user_id":103,"name":"Wattseyy","steam_id":76561198248567360,"connected_time":86000000000,"state":"active","ping":45},{"user_id":50,"name":"dima_gorgon","steam_id":76561198205824409,"connected_time":1859000000000,"state":"active","ping":73},{"user_id":56,"name":"るるち","steam_id":76561198311570846,"connected_time":1780000000000,"state":"active","ping":48},{"user_id":104,"name":"iktb","steam_id":76561199011496812,"connected_time":82000000000,"state":"active","ping":105},{"user_id":105,"name":"PROFILE NAME","steam_id":76561198180056982,"connected_time":76000000000,"state":"active","ping":59},{"user_id":54,"name":"googoo ginga gagaga googoo gaga","steam_id":76561198349648942,"connected_time":1833000000000,"state":"active","ping":75},{"user_id":76,"name":"Anabolic minion","steam_id":76561198377533237,"connected_time":1247000000000,"state":"active","ping":67}]},{"server_id":40,"name":"Uncletopia | London | 7 | Stopwatch","name_short":"lon-7","host":"lon-1.uk.uncletopia.com","port":27075,"enabled":true,"region":"eu","cc":"gb","latitude":51.509865,"longitude":-0.118092,"reserved":0,"last_update":"0001-01-01T00:00:00Z","name_a2s":"Uncletopia | London | 7 | Stopwatch","protocol":17,"map":"workshop/pl_vigil_rc10.ugc1266210012","folder":"tf","game":"Team Fortress","app_id":440,"player_count":0,"max_players":24,"Bots":0,"server_type":"Dedicated","server_os":"Linux","password":true,"vac":true,"version":"7961495","steam_id":85568392924964314,"keywords":["nocrits","nodmgspread","payload","uncletopia"],"game_id":440,"stv_port":27076,"stv_name":"Uncletopia | London | 7 | Stopwatch | STV","players":null},{"server_id":41,"name":"Uncletopia | London | 8 | Community","name_short":"lon-8","host":"lon-1.uk.uncletopia.com","port":27085,"enabled":true,"region":"eu","cc":"gb","latitude":51.509865,"longitude":-0.118092,"reserved":0,"last_update":"0001-01-01T00:00:00Z","name_a2s":"Uncletopia | London | 8 | Community","protocol":17,"map":"workshop/rd_asteroid_redux_b1.ugc2154902912","folder":"tf","game":"Team Fortress","app_id":440,"player_count":3,"max_players":24,"Bots":0,"server_type":"Dedicated","server_os":"Linux","password":true,"vac":true,"version":"7961495","steam_id":85568392924964315,"keywords":["beta","nocrits","nodmgspread","rd","uncletopia"],"game_id":440,"stv_port":27086,"stv_name":"Uncletopia | London | 8 | Community | STV","players":[{"user_id":12,"name":"red texan","steam_id":76561199193957264,"connected_time":1586000000000,"state":"active","ping":46},{"user_id":13,"name":"Boba Swaggins","steam_id":76561199112380997,"connected_time":1476000000000,"state":"active","ping":71},{"user_id":14,"name":"breadbear \u003c3","steam_id":76561198036895007,"connected_time":1372000000000,"state":"active","ping":89}]},{"server_id":300,"name":"Uncletopia | Montréal | 1 | One Thousand Uncles","name_short":"mtl-1","host":"mtl-1.ca.uncletopia.com","port":27015,"enabled":true,"region":"us-east","cc":"ca","latitude":45.50889,"longitude":-73.56167,"reserved":0,"last_update":"0001-01-01T00:00:00Z","name_a2s":"Uncletopia | Montréal | 1 | One Thousand Uncles","protocol":17,"map":"pl_thundermountain","folder":"tf","game":"Team Fortress","app_id":440,"player_count":24,"max_players":32,"Bots":20,"server_type":"Dedicated","server_os":"Linux","password":true,"vac":true,"version":"7961495","steam_id":85568392924500087,"keywords":["alltalk","bots","danepve","increased_maxplayers","norespawntime","payload","uncletopia"],"game_id":440,"stv_port":0,"stv_name":"","players":[{"user_id":156,"name":"puffy","steam_id":76561198411347037,"connected_time":700000000000,"state":"active","ping":59},{"user_id":157,"name":"zmanvic","steam_id":76561198008389885,"connected_time":79000000000,"state":"active","ping":65},{"user_id":134,"name":"Captaindux","steam_id":76561198045390541,"connected_time":1263000000000,"state":"active","ping":47},{"user_id":105,"name":"Soviet Hoovy™","steam_id":76561198367792271,"connected_time":2261000000000,"state":"active","ping":61}]},{"server_id":301,"name":"Uncletopia | Montréal | 2 | One Thousand Uncles","name_short":"mtl-2","host":"mtl-1.ca.uncletopia.com","port":27025,"enabled":true,"region":"us-east","cc":"ca","latitude":45.50889,"longitude":-73.56167,"reserved":0,"last_update":"0001-01-01T00:00:00Z","name_a2s":"Uncletopia | Montréal | 2 | One Thousand Uncles","protocol":17,"map":"cp_mossrock","folder":"tf","game":"Team Fortress","app_id":440,"player_count":0,"max_players":32,"Bots":0,"server_type":"Dedicated","server_os":"Linux","password":true,"vac":true,"version":"7961495","steam_id":85568392924500088,"keywords":["alltalk","cp","danepve","increased_maxplayers","norespawntime","uncletopia"],"game_id":440,"stv_port":0,"stv_name":"","players":null},{"server_id":302,"name":"Uncletopia | Montréal | 3 | One Thousand Uncles","name_short":"mtl-3","host":"mtl-1.ca.uncletopia.com","port":27035,"enabled":true,"region":"us-east","cc":"ca","latitude":45.50889,"longitude":-73.56167,"reserved":0,"last_update":"0001-01-01T00:00:00Z","name_a2s":"Uncletopia | Montréal | 3 | One Thousand Uncles","protocol":17,"map":"pl_pier","folder":"tf","game":"Team Fortress","app_id":440,"player_count":0,"max_players":32,"Bots":0,"server_type":"Dedicated","server_os":"Linux","password":true,"vac":true,"version":"7961495","steam_id":85568392924500089,"keywords":["alltalk","danepve","increased_maxplayers","norespawntime","payload","uncletopia"],"game_id":440,"stv_port":0,"stv_name":"","players":null},{"server_id":13,"name":"Uncletopia | New York City | 1 | All Maps","name_short":"nyc-1","host":"nyc-1.us.uncletopia.com","port":27015,"enabled":true,"region":"us-east","cc":"us","latitude":40.73061,"longitude":-73.93524,"reserved":0,"last_update":"0001-01-01T00:00:00Z","name_a2s":"Uncletopia | New York City | 1 | All Maps","protocol":17,"map":"pl_thundermountain","folder":"tf","game":"Team Fortress","app_id":440,"player_count":24,"max_players":24,"Bots":0,"server_type":"Dedicated","server_os":"Linux","password":true,"vac":true,"version":"7961495","steam_id":85568392924469993,"keywords":["nocrits","nodmgspread","payload","uncletopia"],"game_id":440,"stv_port":27016,"stv_name":"Uncletopia | New York City | 1 | All Maps | STV","players":[{"user_id":192,"name":"Mocha","steam_id":76561198368999744,"connected_time":2664000000000,"state":"active","ping":53},{"user_id":219,"name":"Havel The Rock","steam_id":76561198086844531,"connected_time":1009000000000,"state":"active","ping":99},{"user_id":225,"name":"12 INCH TGIRL SCHLONG","steam_id":76561198122059018,"connected_time":814000000000,"state":"active","ping":71},{"user_id":229,"name":"Strange Child","steam_id":76561198082523009,"connected_time":2000000000,"state":"spawning","ping":35},{"user_id":211,"name":"tommy","steam_id":76561198111753974,"connected_time":1707000000000,"state":"active","ping":36},{"user_id":194,"name":"Local Eliksni Enjoyer","steam_id":76561198122725834,"connected_time":2636000000000,"state":"active","ping":56},{"user_id":227,"name":"wahooka","steam_id":76561197981211922,"connected_time":472000000000,"state":"active","ping":48},{"user_id":217,"name":"Sean","steam_id":76561198023624342,"connected_time":1235000000000,"state":"active","ping":68},{"user_id":156,"name":"b4rry","steam_id":76561198365887154,"connected_time":5532000000000,"state":"active","ping":48},{"user_id":216,"name":"1000 Gigglebytes of clown girls","steam_id":76561198290719848,"connected_time":1433000000000,"state":"active","ping":95},{"user_id":222,"name":"Tori","steam_id":76561198188021354,"connected_time":940000000000,"state":"active","ping":58},{"user_id":206,"name":"SmiGuy","steam_id":76561198058474433,"connected_time":2088000000000,"state":"active","ping":51},{"user_id":224,"name":"Nickname","steam_id":76561197982841838,"connected_time":849000000000,"state":"active","ping":69},{"user_id":155,"name":"OdysseyTen","steam_id":76561198133082665,"connected_time":5568000000000,"state":"active","ping":46},{"user_id":175,"name":"totalhipstercrusher","steam_id":76561198061738700,"connected_time":4486000000000,"state":"active","ping":60},{"user_id":187,"name":"Nuclear Toaster Oven","steam_id":76561199121752841,"connected_time":3107000000000,"state":"active","ping":65},{"user_id":212,"name":"LordZ19","steam_id":76561198401058967,"connected_time":1691000000000,"state":"active","ping":50},{"user_id":208,"name":"Nabsin","steam_id":76561198208345304,"connected_time":2066000000000,"state":"active","ping":61},{"user_id":109,"name":"pea ttv/peabeanz","steam_id":76561198119551968,"connected_time":9140000000000,"state":"active","ping":64},{"user_id":193,"name":"UberDog","steam_id":76561198978172607,"connected_time":2657000000000,"state":"active","ping":70},{"user_id":199,"name":"QuackRick","steam_id":76561198005514341,"connected_time":2463000000000,"state":"active","ping":64},{"user_id":213,"name":"TheRamenYouAteYesterday","steam_id":76561199474398508,"connected_time":1649000000000,"state":"active","ping":72},{"user_id":228,"name":"The Notorious RBG","steam_id":76561198014275148,"connected_time":295000000000,"state":"active","ping":57},{"user_id":215,"name":"the keebler","steam_id":76561199486326945,"connected_time":1609000000000,"state":"active","ping":75}]},{"server_id":14,"name":"Uncletopia | New York City | 2 | All Maps","name_short":"nyc-2","host":"nyc-1.us.uncletopia.com","port":27025,"enabled":true,"region":"us-east","cc":"us","latitude":40.73061,"longitude":-73.93524,"reserved":0,"last_update":"0001-01-01T00:00:00Z","name_a2s":"Uncletopia | New York City | 2 | All Maps","protocol":17,"map":"koth_lakeside_final","folder":"tf","game":"Team Fortress","app_id":440,"player_count":20,"max_players":24,"Bots":0,"server_type":"Dedicated","server_os":"Linux","password":true,"vac":true,"version":"7961495","steam_id":85568392924469994,"keywords":["cp","nocrits","nodmgspread","uncletopia"],"game_id":440,"stv_port":27026,"stv_name":"Uncletopia | New York City | 2 | All Maps | STV","players":[{"user_id":183,"name":"Chucklenuts (F2P) | trade.tf","steam_id":76561199180340440,"connected_time":503000000000,"state":"active","ping":163},{"user_id":196,"name":"The Hose on Upward","steam_id":76561197965092192,"connected_time":6000000000,"state":"spawning","ping":59},{"user_id":184,"name":"Camrione","steam_id":76561198085405219,"connected_time":468000000000,"state":"active","ping":116},{"user_id":185,"name":"cyrus!","steam_id":76561198344500089,"connected_time":408000000000,"state":"active","ping":65},{"user_id":132,"name":"No","steam_id":76561199064277946,"connected_time":4302000000000,"state":"active","ping":61},{"user_id":191,"name":"Butters495","steam_id":76561197998689042,"connected_time":191000000000,"state":"active","ping":74},{"user_id":186,"name":"OrzaRound","steam_id":76561198246208014,"connected_time":391000000000,"state":"active","ping":48},{"user_id":138,"name":"TRIPLE AAARON","steam_id":76561198066835150,"connected_time":3443000000000,"state":"active","ping":40},{"user_id":193,"name":"elephantofdoom","steam_id":76561198062436835,"connected_time":136000000000,"state":"active","ping":44},{"user_id":187,"name":"the grunch","steam_id":76561199013160273,"connected_time":360000000000,"state":"active","ping":67},{"user_id":188,"name":"Top Frog","steam_id":76561198072793446,"connected_time":339000000000,"state":"active","ping":60},{"user_id":164,"name":"OKAY","steam_id":76561198091980659,"connected_time":1225000000000,"state":"active","ping":59},{"user_id":194,"name":"Xx_gam3rberg_xX","steam_id":76561199035781025,"connected_time":103000000000,"state":"active","ping":61},{"user_id":47,"name":"Cellus","steam_id":76561198067204847,"connected_time":11078000000000,"state":"active","ping":60},{"user_id":165,"name":"Baron von Whoopsie","steam_id":76561197996691013,"connected_time":1153000000000,"state":"active","ping":60},{"user_id":190,"name":"Nallone","steam_id":76561197990033803,"connected_time":263000000000,"state":"active","ping":183},{"user_id":160,"name":"emotional suppport e-cigarette","steam_id":76561198172120615,"connected_time":1453000000000,"state":"active","ping":39},{"user_id":171,"name":"HAT-WEARING™ Maggot Gamer Cat","steam_id":76561197973992705,"connected_time":1043000000000,"state":"active","ping":110},{"user_id":177,"name":"Smooth - Santana ft. Rob Thomas","steam_id":76561198145283389,"connected_time":752000000000,"state":"active","ping":51},{"user_id":179,"name":"Alexthegreat","steam_id":76561197996796222,"connected_time":719000000000,"state":"active","ping":47}]},{"server_id":15,"name":"Uncletopia | New York City | 3 | Stopwatch","name_short":"nyc-3","host":"nyc-1.us.uncletopia.com","port":27035,"enabled":true,"region":"us-east","cc":"us","latitude":40.73061,"longitude":-73.93524,"reserved":0,"last_update":"0001-01-01T00:00:00Z","name_a2s":"Uncletopia | New York City | 3 | Stopwatch","protocol":17,"map":"pl_upward","folder":"tf","game":"Team Fortress","app_id":440,"player_count":0,"max_players":24,"Bots":0,"server_type":"Dedicated","server_os":"Linux","password":true,"vac":true,"version":"7961495","steam_id":85568392924742820,"keywords":["nocrits","nodmgspread","payload","uncletopia"],"game_id":440,"stv_port":27036,"stv_name":"Uncletopia | New York City | 3 | Stopwatch | STV","players":null},{"server_id":16,"name":"Uncletopia | New York City | 4 | Community","name_short":"nyc-4","host":"nyc-1.us.uncletopia.com","port":27045,"enabled":true,"region":"us-east","cc":"us","latitude":40.73061,"longitude":-73.93524,"reserved":0,"last_update":"0001-01-01T00:00:00Z","name_a2s":"Uncletopia | New York City | 4 | Community","protocol":17,"map":"workshop/pl_shoreleave_rc2.ugc1238849347","folder":"tf","game":"Team Fortress","app_id":440,"player_count":0,"max_players":24,"Bots":0,"server_type":"Dedicated","server_os":"Linux","password":true,"vac":true,"version":"7961495","steam_id":85568392924742821,"keywords":["nocrits","nodmgspread","payload","uncletopia"],"game_id":440,"stv_port":27046,"stv_name":"Uncletopia | New York City | 4 | Community | STV","players":null},{"server_id":142,"name":"Uncletopia | São Paulo | 1 | All Maps","name_short":"sao-1","host":"sao-1.br.uncletopia.com","port":27015,"enabled":true,"region":"sa","cc":"br","latitude":-23.533773,"longitude":-46.62529,"reserved":0,"last_update":"0001-01-01T00:00:00Z","name_a2s":"Uncletopia | São Paulo | 1 | All Maps","protocol":17,"map":"cp_dustbowl","folder":"tf","game":"Team Fortress","app_id":440,"player_count":2,"max_players":24,"Bots":0,"server_type":"Dedicated","server_os":"Linux","password":true,"vac":true,"version":"7961495","steam_id":85568392924469996,"keywords":["cp","nocrits","nodmgspread","uncletopia"],"game_id":440,"stv_port":27016,"stv_name":"Uncletopia | São Paulo | 1 | All Maps | STV","players":[{"user_id":61,"name":"Yurisito","steam_id":76561198802280654,"connected_time":312000000000,"state":"active","ping":53},{"user_id":62,"name":"Psycoshobob","steam_id":76561198452576650,"connected_time":90000000000,"state":"active","ping":90}]},{"server_id":143,"name":"Uncletopia | São Paulo | 2 | Community","name_short":"sao-2","host":"sao-2.br.uncletopia.com","port":27015,"enabled":true,"region":"sa","cc":"br","latitude":-23.533773,"longitude":-46.62529,"reserved":0,"last_update":"0001-01-01T00:00:00Z","name_a2s":"Uncletopia | São Paulo | 2 | Community","protocol":17,"map":"workshop/koth_slaughter_rc1.ugc1712845210","folder":"tf","game":"Team Fortress","app_id":440,"player_count":2,"max_players":24,"Bots":0,"server_type":"Dedicated","server_os":"Linux","password":true,"vac":true,"version":"7961495","steam_id":85568392924485349,"keywords":["cp","nocrits","nodmgspread","uncletopia"],"game_id":440,"stv_port":27016,"stv_name":"Uncletopia | São Paulo | 2 | Community | STV","players":[{"user_id":6,"name":"SmoggySkewball","steam_id":76561198428665466,"connected_time":813000000000,"state":"active","ping":90},{"user_id":7,"name":"twistedVodka","steam_id":76561199429163241,"connected_time":714000000000,"state":"active","ping":75}]},{"server_id":7,"name":"Uncletopia | Seattle | 1 | All Maps","name_short":"sea-1","host":"sea-1.us.uncletopia.com","port":27015,"enabled":true,"region":"us-west","cc":"us","latitude":47.608013,"longitude":-122.33517,"reserved":0,"last_update":"0001-01-01T00:00:00Z","name_a2s":"Uncletopia | Seattle | 1 | All Maps","protocol":17,"map":"koth_lakeside_final","folder":"tf","game":"Team Fortress","app_id":440,"player_count":0,"max_players":24,"Bots":0,"server_type":"Dedicated","server_os":"Linux","password":true,"vac":true,"version":"7961495","steam_id":85568392924469997,"keywords":["cp","nocrits","nodmgspread","uncletopia"],"game_id":440,"stv_port":27016,"stv_name":"Uncletopia | Seattle | 1 | All Maps | STV","players":null},{"server_id":119,"name":"Uncletopia | Seattle | 2 | All Maps","name_short":"sea-2","host":"sea-1.us.uncletopia.com","port":27025,"enabled":true,"region":"us-west","cc":"us","latitude":47.608013,"longitude":-122.33517,"reserved":0,"last_update":"0001-01-01T00:00:00Z","name_a2s":"Uncletopia | Seattle | 2 | All Maps","protocol":17,"map":"cp_mountainlab","folder":"tf","game":"Team Fortress","app_id":440,"player_count":0,"max_players":24,"Bots":0,"server_type":"Dedicated","server_os":"Linux","password":true,"vac":true,"version":"7961495","steam_id":85568392924469998,"keywords":["cp","nocrits","nodmgspread","uncletopia"],"game_id":440,"stv_port":27026,"stv_name":"Uncletopia | Seattle | 2 | All Maps | STV","players":null},{"server_id":406,"name":"Uncletopia | Seattle | 3 | Stopwatch","name_short":"sea-3","host":"sea-1.us.uncletopia.com","port":27035,"enabled":true,"region":"us-west","cc":"us","latitude":47.608013,"longitude":-122.33517,"reserved":0,"last_update":"0001-01-01T00:00:00Z","name_a2s":"Uncletopia | Seattle | 3 | Stopwatch","protocol":17,"map":"cp_gullywash_final1","folder":"tf","game":"Team Fortress","app_id":440,"player_count":0,"max_players":24,"Bots":0,"server_type":"Dedicated","server_os":"Linux","password":true,"vac":true,"version":"7961495","steam_id":85568392924515217,"keywords":["cp","nocrits","nodmgspread","uncletopia"],"game_id":440,"stv_port":27036,"stv_name":"Uncletopia | Seattle | 3 | Stopwatch | STV","players":null},{"server_id":17,"name":"Uncletopia | San Francisco | 1 | All Maps","name_short":"sfo-1","host":"sfo-1.us.uncletopia.com","port":27015,"enabled":true,"region":"us-west","cc":"us","latitude":37.77397,"longitude":-122.4313,"reserved":0,"last_update":"0001-01-01T00:00:00Z","name_a2s":"Uncletopia | San Francisco | 1 | All Maps","protocol":17,"map":"cp_dustbowl","folder":"tf","game":"Team Fortress","app_id":440,"player_count":0,"max_players":24,"Bots":0,"server_type":"Dedicated","server_os":"Linux","password":true,"vac":true,"version":"7961495","steam_id":85568392924469999,"keywords":["cp","nocrits","nodmgspread","uncletopia"],"game_id":440,"stv_port":27016,"stv_name":"Uncletopia | San Francisco | 1 | All Maps | STV","players":null},{"server_id":18,"name":"Uncletopia | San Francisco | 2 | All Maps","name_short":"sfo-2","host":"sfo-1.us.uncletopia.com","port":27025,"enabled":true,"region":"us-west","cc":"us","latitude":37.77397,"longitude":-122.4313,"reserved":0,"last_update":"0001-01-01T00:00:00Z","name_a2s":"Uncletopia | San Francisco | 2 | All Maps","protocol":17,"map":"pl_hoodoo_final","folder":"tf","game":"Team Fortress","app_id":440,"player_count":0,"max_players":24,"Bots":0,"server_type":"Dedicated","server_os":"Linux","password":true,"vac":true,"version":"7961495","steam_id":85568392924470000,"keywords":["nocrits","nodmgspread","payload","uncletopia"],"game_id":440,"stv_port":27026,"stv_name":"Uncletopia | San Francisco | 2 | All Maps | STV","players":null},{"server_id":19,"name":"Uncletopia | San Francisco | 3 | Stopwatch","name_short":"sfo-3","host":"sfo-1.us.uncletopia.com","port":27035,"enabled":true,"region":"us-west","cc":"us","latitude":37.77397,"longitude":-122.4313,"reserved":0,"last_update":"0001-01-01T00:00:00Z","name_a2s":"Uncletopia | San Francisco | 3 | Stopwatch","protocol":17,"map":"workshop/koth_clearcut_b15.ugc2107050255","folder":"tf","game":"Team Fortress","app_id":440,"player_count":0,"max_players":24,"Bots":0,"server_type":"Dedicated","server_os":"Linux","password":true,"vac":true,"version":"7961495","steam_id":85568392924742824,"keywords":["cp","nocrits","nodmgspread","uncletopia"],"game_id":440,"stv_port":27036,"stv_name":"Uncletopia | San Francisco | 3 | Stopwatch | STV","players":null},{"server_id":20,"name":"Uncletopia | San Francisco | 4 | Community","name_short":"sfo-4","host":"sfo-1.us.uncletopia.com","port":27045,"enabled":true,"region":"us-west","cc":"us","latitude":37.77397,"longitude":-122.4313,"reserved":0,"last_update":"0001-01-01T00:00:00Z","name_a2s":"Uncletopia | San Francisco | 4 | Community","protocol":17,"map":"workshop/pl_vigil_rc10.ugc1266210012","folder":"tf","game":"Team Fortress","app_id":440,"player_count":0,"max_players":24,"Bots":0,"server_type":"Dedicated","server_os":"Linux","password":true,"vac":true,"version":"7961495","steam_id":85568392924742826,"keywords":["nocrits","nodmgspread","payload","uncletopia"],"game_id":440,"stv_port":27046,"stv_name":"Uncletopia | San Francisco | 4 | Community | STV","players":null},{"server_id":141,"name":"Uncletopia | Sydney | 1 | All Maps","name_short":"syd-1","host":"syd-1.au.uncletopia.com","port":27015,"enabled":true,"region":"au","cc":"au","latitude":-33.865143,"longitude":151.2099,"reserved":0,"last_update":"0001-01-01T00:00:00Z","name_a2s":"Uncletopia | Sydney | 1 | All Maps","protocol":17,"map":"cp_altitude","folder":"tf","game":"Team Fortress","app_id":440,"player_count":0,"max_players":24,"Bots":0,"server_type":"Dedicated","server_os":"Linux","password":true,"vac":true,"version":"7961495","steam_id":85568392924470001,"keywords":["cp","nocrits","nodmgspread","uncletopia"],"game_id":440,"stv_port":27016,"stv_name":"Uncletopia | Sydney | 1 | All Maps | STV","players":null},{"server_id":123,"name":"Uncletopia | Sydney | 2 | All Maps","name_short":"syd-2","host":"syd-1.au.uncletopia.com","port":27025,"enabled":true,"region":"au","cc":"au","latitude":-33.865143,"longitude":151.2099,"reserved":0,"last_update":"0001-01-01T00:00:00Z","name_a2s":"Uncletopia | Sydney | 2 | All Maps","protocol":17,"map":"pl_swiftwater_final1","folder":"tf","game":"Team Fortress","app_id":440,"player_count":0,"max_players":24,"Bots":0,"server_type":"Dedicated","server_os":"Linux","password":true,"vac":true,"version":"7961495","steam_id":85568392924470002,"keywords":["nocrits","nodmgspread","payload","uncletopia"],"game_id":440,"stv_port":27026,"stv_name":"Uncletopia | Sydney | 2 | All Maps | STV","players":null},{"server_id":395,"name":"Uncletopia | Sydney | 3 | All Maps","name_short":"syd-3","host":"syd-1.au.uncletopia.com","port":27035,"enabled":true,"region":"au","cc":"au","latitude":-33.865143,"longitude":151.2099,"reserved":0,"last_update":"0001-01-01T00:00:00Z","name_a2s":"Uncletopia | Sydney | 3 | All Maps","protocol":17,"map":"koth_highpass","folder":"tf","game":"Team Fortress","app_id":440,"player_count":0,"max_players":24,"Bots":0,"server_type":"Dedicated","server_os":"Linux","password":true,"vac":true,"version":"7961495","steam_id":85568392925194467,"keywords":["cp","nocrits","nodmgspread","uncletopia"],"game_id":440,"stv_port":27036,"stv_name":"Uncletopia | Sydney | 3 | All Maps | STV","players":null},{"server_id":396,"name":"Uncletopia | Sydney | 4 | All Maps","name_short":"syd-4","host":"syd-1.au.uncletopia.com","port":27045,"enabled":true,"region":"au","cc":"au","latitude":-33.865143,"longitude":151.2099,"reserved":0,"last_update":"0001-01-01T00:00:00Z","name_a2s":"Uncletopia | Sydney | 4 | All Maps","protocol":17,"map":"koth_cascade","folder":"tf","game":"Team Fortress","app_id":440,"player_count":0,"max_players":24,"Bots":0,"server_type":"Dedicated","server_os":"Linux","password":true,"vac":true,"version":"7961495","steam_id":85568392925397958,"keywords":["cp","nocrits","nodmgspread","uncletopia"],"game_id":440,"stv_port":27046,"stv_name":"Uncletopia | Sydney | 4 | All Maps | STV","players":null},{"server_id":58,"name":"Uncletopia | Sydney | 5 | Stopwatch","name_short":"syd-5","host":"syd-1.au.uncletopia.com","port":27055,"enabled":true,"region":"au","cc":"au","latitude":-33.865143,"longitude":151.2099,"reserved":0,"last_update":"0001-01-01T00:00:00Z","name_a2s":"Uncletopia | Sydney | 5 | Stopwatch","protocol":17,"map":"workshop/koth_product_final.ugc454272353","folder":"tf","game":"Team Fortress","app_id":440,"player_count":0,"max_players":24,"Bots":0,"server_type":"Dedicated","server_os":"Linux","password":true,"vac":true,"version":"7961495","steam_id":85568392925397959,"keywords":["cp","nocrits","nodmgspread","uncletopia"],"game_id":440,"stv_port":27056,"stv_name":"Uncletopia | Sydney | 5 | Stopwatch | STV","players":null},{"server_id":59,"name":"Uncletopia | Sydney | 6 | Community","name_short":"syd-6","host":"syd-1.au.uncletopia.com","port":27065,"enabled":true,"region":"au","cc":"au","latitude":-33.865143,"longitude":151.2099,"reserved":0,"last_update":"0001-01-01T00:00:00Z","name_a2s":"Uncletopia | Sydney | 6 | Community","protocol":17,"map":"workshop/cp_mannbase_rc2a.ugc1900737467","folder":"tf","game":"Team Fortress","app_id":440,"player_count":0,"max_players":24,"Bots":0,"server_type":"Dedicated","server_os":"Linux","password":true,"vac":true,"version":"7961495","steam_id":85568392925397960,"keywords":["cp","nocrits","nodmgspread","uncletopia"],"game_id":440,"stv_port":27066,"stv_name":"Uncletopia | Sydney | 6 | Community | STV","players":null},{"server_id":49,"name":"Uncletopia | Warsaw | 1 | One Thousand Uncles","name_short":"waw-1","host":"waw-1.pl.uncletopia.com","port":27015,"enabled":true,"region":"eu","cc":"pl","latitude":52.2297,"longitude":21.017532,"reserved":0,"last_update":"0001-01-01T00:00:00Z","name_a2s":"Uncletopia | Warsaw | 1 | One Thousand Uncles","protocol":17,"map":"cp_dustbowl","folder":"tf","game":"Team Fortress","app_id":440,"player_count":0,"max_players":32,"Bots":0,"server_type":"Dedicated","server_os":"Linux","password":true,"vac":true,"version":"7961495","steam_id":85568392925397850,"keywords":["alltalk","cp","danepve","increased_maxplayers","norespawntime","uncletopia"],"game_id":440,"stv_port":0,"stv_name":"","players":null},{"server_id":50,"name":"Uncletopia | Warsaw | 2 | One Thousand Uncles","name_short":"waw-2","host":"waw-1.pl.uncletopia.com","port":27025,"enabled":true,"region":"eu","cc":"pl","latitude":52.2297,"longitude":21.017532,"reserved":0,"last_update":"0001-01-01T00:00:00Z","name_a2s":"Uncletopia | Warsaw | 2 | One Thousand Uncles","protocol":17,"map":"pl_upward","folder":"tf","game":"Team Fortress","app_id":440,"player_count":32,"max_players":32,"Bots":20,"server_type":"Dedicated","server_os":"Linux","password":true,"vac":true,"version":"7961495","steam_id":85568392925397851,"keywords":["alltalk","bots","danepve","increased_maxplayers","norespawntime","payload","uncletopia"],"game_id":440,"stv_port":0,"stv_name":"","players":[{"user_id":509,"name":"Galzra87","steam_id":76561198063414443,"connected_time":1062000000000,"state":"active","ping":98},{"user_id":511,"name":"facetious dog","steam_id":76561198095289436,"connected_time":943000000000,"state":"active","ping":61},{"user_id":494,"name":"Squidiot","steam_id":76561198042754907,"connected_time":1767000000000,"state":"active","ping":80},{"user_id":503,"name":"The one True Mads","steam_id":76561197999204692,"connected_time":1348000000000,"state":"active","ping":73},{"user_id":499,"name":"CEO of Autism","steam_id":76561198073687587,"connected_time":1698000000000,"state":"active","ping":59},{"user_id":513,"name":"cold","steam_id":76561199017901552,"connected_time":56000000000,"state":"active","ping":174},{"user_id":504,"name":"cof","steam_id":76561199128417805,"connected_time":1298000000000,"state":"active","ping":77},{"user_id":501,"name":"Leo","steam_id":76561199487278056,"connected_time":1689000000000,"state":"active","ping":81},{"user_id":514,"name":"pomson gaming","steam_id":76561199149216429,"connected_time":34000000000,"state":"active","ping":88},{"user_id":507,"name":"Gandhi36","steam_id":76561198863280994,"connected_time":1160000000000,"state":"active","ping":80},{"user_id":512,"name":"AnalBypass1989","steam_id":76561198052356557,"connected_time":911000000000,"state":"active","ping":129},{"user_id":515,"name":"Bordt258","steam_id":76561199038280717,"connected_time":30000000000,"state":"spawning","ping":54}]},{"server_id":51,"name":"Uncletopia | Warsaw | 3 | All Maps","name_short":"waw-3","host":"waw-1.pl.uncletopia.com","port":27035,"enabled":true,"region":"eu","cc":"pl","latitude":52.2297,"longitude":21.017532,"reserved":0,"last_update":"0001-01-01T00:00:00Z","name_a2s":"Uncletopia | Warsaw | 3 | All Maps","protocol":17,"map":"cp_process_final","folder":"tf","game":"Team Fortress","app_id":440,"player_count":0,"max_players":24,"Bots":0,"server_type":"Dedicated","server_os":"Linux","password":true,"vac":true,"version":"7961495","steam_id":85568392925397852,"keywords":["cp","nocrits","nodmgspread","uncletopia"],"game_id":440,"stv_port":27036,"stv_name":"Uncletopia | Warsaw | 3 | All Maps | STV","players":null},{"server_id":52,"name":"Uncletopia | Warsaw | 4 | All Maps","name_short":"waw-4","host":"waw-1.pl.uncletopia.com","port":27045,"enabled":true,"region":"eu","cc":"pl","latitude":52.2297,"longitude":21.017532,"reserved":0,"last_update":"0001-01-01T00:00:00Z","name_a2s":"Uncletopia | Warsaw | 4 | All Maps","protocol":17,"map":"koth_viaduct","folder":"tf","game":"Team Fortress","app_id":440,"player_count":0,"max_players":24,"Bots":0,"server_type":"Dedicated","server_os":"Linux","password":true,"vac":true,"version":"7961495","steam_id":85568392925397853,"keywords":["cp","nocrits","nodmgspread","uncletopia"],"game_id":440,"stv_port":27046,"stv_name":"Uncletopia | Warsaw | 4 | All Maps | STV","players":null},{"server_id":53,"name":"Uncletopia | Warsaw | 5 | Stopwatch","name_short":"waw-5","host":"waw-1.pl.uncletopia.com","port":27055,"enabled":true,"region":"eu","cc":"pl","latitude":52.2297,"longitude":21.017532,"reserved":0,"last_update":"0001-01-01T00:00:00Z","name_a2s":"Uncletopia | Warsaw | 5 | Stopwatch","protocol":17,"map":"workshop/koth_product_final.ugc454272353","folder":"tf","game":"Team Fortress","app_id":440,"player_count":0,"max_players":24,"Bots":0,"server_type":"Dedicated","server_os":"Linux","password":true,"vac":true,"version":"7961495","steam_id":85568392925397854,"keywords":["cp","nocrits","nodmgspread","uncletopia"],"game_id":440,"stv_port":27056,"stv_name":"Uncletopia | Warsaw | 5 | Stopwatch | STV","players":null},{"server_id":54,"name":"Uncletopia | Warsaw | 6 | Community","name_short":"waw-6","host":"waw-1.pl.uncletopia.com","port":27065,"enabled":true,"region":"eu","cc":"pl","latitude":52.2297,"longitude":21.017532,"reserved":0,"last_update":"0001-01-01T00:00:00Z","name_a2s":"Uncletopia | Warsaw | 6 | Community","protocol":17,"map":"workshop/cp_fulgur_rc2a.ugc2068252300","folder":"tf","game":"Team Fortress","app_id":440,"player_count":0,"max_players":24,"Bots":0,"server_type":"Dedicated","server_os":"Linux","password":true,"vac":true,"version":"7961495","steam_id":85568392925397856,"keywords":["cp","nocrits","nodmgspread","uncletopia"],"game_id":440,"stv_port":27066,"stv_name":"Uncletopia | Warsaw | 6 | Community | STV","players":null}]}