{"status":true,"message":"","result":[{"server_id":9,"name":"Uncletopia | Atlanta | 1 | All Maps","name_short":"atl-1","host":"atl-1.us.uncletopia.com","port":27015,"enabled":true,"region":"us-east","cc":"us","latitude":33.753746,"longitude":-84.38633,"reserved":0,"last_update":"0001-01-01T00:00:00Z","name_a2s":"Uncletopia | Atlanta | 1 | All Maps","protocol":17,"map":"pl_frontier_final","folder":"tf","game":"Team Fortress","app_id":440,"player_count":24,"max_players":24,"Bots":0,"server_type":"Dedicated","server_os":"Linux","password":true,"vac":true,"version":"7961495","steam_id":85568392924469982,"keywords":["nocrits","nodmgspread","payload","uncletopia"],"game_id":440,"stv_port":27016,"stv_name":"Uncletopia | Atlanta | 1 | All Maps | STV","players":null},{"server_id":104,"name":"Uncletopia | Atlanta | 2 | All Maps","name_short":"atl-2","host":"atl-1.us.uncletopia.com","port":27025,"enabled":true,"region":"us-east","cc":"us","latitude":33.753746,"longitude":-84.38633,"reserved":0,"last_update":"0001-01-01T00:00:00Z","name_a2s":"Uncletopia | Atlanta | 2 | All Maps","protocol":17,"map":"pl_thundermountain","folder":"tf","game":"Team Fortress","app_id":440,"player_count":24,"max_players":24,"Bots":0,"server_type":"Dedicated","server_os":"Linux","password":true,"vac":true,"version":"7961495","steam_id":85568392924469983,"keywords":["nocrits","nodmgspread","payload","uncletopia"],"game_id":440,"stv_port":27026,"stv_name":"Uncletopia | Atlanta | 2 | All Maps | STV","players":null},{"server_id":400,"name":"Uncletopia | Atlanta | 3 | Stopwatch","name_short":"atl-3","host":"atl-1.us.uncletopia.com","port":27035,"enabled":true,"region":"us-east","cc":"us","latitude":33.753746,"longitude":-84.38633,"reserved":0,"last_update":"0001-01-01T00:00:00Z","name_a2s":"Uncletopia | Atlanta | 3 | Stopwatch","protocol":17,"map":"pl_borneo","folder":"tf","game":"Team Fortress","app_id":440,"player_count":2,"max_players":24,"Bots":0,"server_type":"Dedicated","server_os":"Linux","password":true,"vac":true,"version":"7961495","steam_id":85568392924515187,"keywords":["nocrits","nodmgspread","payload","uncletopia"],"game_id":440,"stv_port":27036,"stv_name":"Uncletopia | Atlanta | 3 | Stopwatch | STV","players":null},{"server_id":401,"name":"Uncletopia | Atlanta | 4 | Community","name_short":"atl-4","host":"atl-1.us.uncletopia.com","port":27045,"enabled":true,"region":"us-east","cc":"us","latitude":33.753746,"longitude":-84.38633,"reserved":0,"last_update":"0001-01-01T00:00:00Z","name_a2s":"Uncletopia | Atlanta | 4 | Community","protocol":17,"map":"koth_ramjam_rc1","folder":"tf","game":"Team Fortress","app_id":440,"player_count":0,"max_players":24,"Bots":0,"server_type":"Dedicated","server_os":"Linux","password":true,"vac":true,"version":"7961495","steam_id":85568392924515188,"keywords":["cp","nocrits","nodmgspread","uncletopia"],"game_id":440,"stv_port":27046,"stv_name":"Uncletopia | Atlanta | 4 | Community | STV","players":null},{"server_id":2,"name":"Uncletopia | Chicago | 1 | All Maps","name_short":"chi-1","host":"chi-1.us.uncletopia.com","port":27015,"enabled":true,"region":"us-central","cc":"us","latitude":41.881832,"longitude":-87.62318,"reserved":0,"last_update":"0001-01-01T00:00:00Z","name_a2s":"Uncletopia | Chicago | 1 | All Maps","protocol":17,"map":"koth_harvest_final","folder":"tf","game":"Team Fortress","app_id":440,"player_count":24,"max_players":24,"Bots":0,"server_type":"Dedicated","server_os":"Linux","password":true,"vac":true,"version":"7961495","steam_id":85568392924469984,"keywords":["cp","nocrits","nodmgspread","uncletopia"],"game_id":440,"stv_port":27016,"stv_name":"Uncletopia | Chicago | 1 | All Maps | STV","players":[{"user_id":673,"name":"my friend can take 5guys anyday","steam_id":76561198144766439,"connected_time":2278000000000,"state":"active","ping":44},{"user_id":693,"name":"Hidden Phantom","steam_id":76561198115531799,"connected_time":505000000000,"state":"active","ping":76},{"user_id":687,"name":"Valenhart","steam_id":76561198354036240,"connected_time":718000000000,"state":"active","ping":77},{"user_id":686,"name":"GiraffeMan","steam_id":76561198042104084,"connected_time":876000000000,"state":"active","ping":65},{"user_id":666,"name":"arm ●","steam_id":76561198999217575,"connected_time":2632000000000,"state":"active","ping":72},{"user_id":618,"name":"REALLINUSJEWTIP.","steam_id":76561198056647983,"connected_time":5849000000000,"state":"active","ping":60},{"user_id":694,"name":"Punsequence64","steam_id":76561199201885917,"connected_time":497000000000,"state":"active","ping":66},{"user_id":616,"name":"Bookmenot","steam_id":76561198153442084,"connected_time":5920000000000,"state":"active","ping":55},{"user_id":685,"name":"i suffer from ligma","steam_id":76561199158496518,"connected_time":1018000000000,"state":"active","ping":141},{"user_id":682,"name":"177013","steam_id":76561198072303290,"connected_time":1415000000000,"state":"active","ping":60},{"user_id":695,"name":"big body bitch","steam_id":76561198136642793,"connected_time":494000000000,"state":"active","ping":79},{"user_id":678,"name":"ESRI Shapefile","steam_id":76561197999829638,"connected_time":1829000000000,"state":"active","ping":48},{"user_id":671,"name":"ThatOneKnight","steam_id":76561198388583650,"connected_time":2396000000000,"state":"active","ping":149},{"user_id":619,"name":"pai-sano","steam_id":76561198065575472,"connected_time":5843000000000,"state":"active","ping":62},{"user_id":696,"name":"rainyfish","steam_id":76561198313734266,"connected_time":488000000000,"state":"active","ping":57},{"user_id":679,"name":"man of the hour","steam_id":76561198264601809,"connected_time":1699000000000,"state":"active","ping":74},{"user_id":691,"name":"Porky Minch","steam_id":76561198116168773,"connected_time":534000000000,"state":"active","ping":47},{"user_id":689,"name":"Acolyte of Goatse","steam_id":76561198046526036,"connected_time":612000000000,"state":"active","ping":98},{"user_id":654,"name":"Blargh","steam_id":76561198044095816,"connected_time":3297000000000,"state":"active","ping":60},{"user_id":644,"name":"Leadwolf","steam_id":76561198308533122,"connected_time":3738000000000,"state":"active","ping":84},{"user_id":649,"name":"Kreld","steam_id":76561198047794615,"connected_time":3540000000000,"state":"active","ping":164},{"user_id":639,"name":"ChromeAlum","steam_id":76561198072363631,"connected_time":4467000000000,"state":"active","ping":91},{"user_id":646,"name":"DjBallBag","steam_id":76561198118551080,"connected_time":3624000000000,"state":"active","ping":87},{"user_id":661,"name":"Your Local Queer Librarian","steam_id":76561198013077080,"connected_time":2937000000000,"state":"active","ping":58}]},{"server_id":106,"name":"Uncletopia | Chicago | 2 | All Maps","name_short":"chi-2","host":"chi-1.us.uncletopia.com","port":27025,"enabled":true,"region":"us-central","cc":"us","latitude":41.881832,"longitude":-87.62318,"reserved":0,"last_update":"0001-01-01T00:00:00Z","name_a2s":"Uncletopia | Chicago | 2 | All Maps","protocol":17,"map":"pl_borneo","folder":"tf","game":"Team Fortress","app_id":440,"player_count":24,"max_players":24,"Bots":0,"server_type":"Dedicated","server_os":"Linux","password":true,"vac":true,"version":"7961495","steam_id":85568392924469985,"keywords":["nocrits","nodmgspread","payload","uncletopia"],"game_id":440,"stv_port":27026,"stv_name":"Uncletopia | Chicago | 2 | All Maps | STV","players":[{"user_id":486,"name":"Some_Arse","steam_id":76561198039095394,"connected_time":3907000000000,"state":"active","ping":64},{"user_id":546,"name":"SoldMyKidneyForCollege","steam_id":76561198096329559,"connected_time":227000000000,"state":"active","ping":68},{"user_id":525,"name":"cwaggs76","steam_id":76561199013048778,"connected_time":1612000000000,"state":"active","ping":72},{"user_id":545,"name":"Fiendish Frog","steam_id":76561198029478821,"connected_time":231000000000,"state":"active","ping":96},{"user_id":476,"name":"eloressa","steam_id":76561198120330867,"connected_time":5741000000000,"state":"active","ping":45},{"user_id":547,"name":"deadpixel","steam_id":76561198150249843,"connected_time":90000000000,"state":"active","ping":54},{"user_id":522,"name":"A_NegativeDan","steam_id":76561198078993041,"connected_time":1913000000000,"state":"active","ping":59},{"user_id":493,"name":"sppmorris","steam_id":76561199055512312,"connected_time":3674000000000,"state":"active","ping":66},{"user_id":480,"name":"Zipf","steam_id":76561198174424443,"connected_time":5095000000000,"state":"active","ping":67},{"user_id":538,"name":"Thumbs","steam_id":76561199065890132,"connected_time":798000000000,"state":"active","ping":59},{"user_id":495,"name":"Ostrich","steam_id":76561198068553779,"connected_time":3632000000000,"state":"active","ping":75},{"user_id":539,"name":"Nobody","steam_id":76561198085808754,"connected_time":764000000000,"state":"active","ping":92},{"user_id":544,"name":"merk","steam_id":76561198434609353,"connected_time":249000000000,"state":"active","ping":90},{"user_id":537,"name":"cotton candy ghooost","steam_id":76561198058998371,"connected_time":803000000000,"state":"active","ping":68},{"user_id":498,"name":"Atlas","steam_id":76561198127975050,"connected_time":3579000000000,"state":"active","ping":73},{"user_id":535,"name":"boffo","steam_id":76561198096978718,"connected_time":935000000000,"state":"active","ping":87},{"user_id":540,"name":"NERV","steam_id":76561198111023744,"connected_time":718000000000,"state":"active","ping":73},{"user_id":529,"name":"dunk","steam_id":76561198132476501,"connected_time":1396000000000,"state":"active","ping":43},{"user_id":543,"name":"The Great Karizma!","steam_id":76561198346191193,"connected_time":590000000000,"state":"active","ping":102},{"user_id":527,"name":"Mal0","steam_id":76561198129584634,"connected_time":1607000000000,"state":"active","ping":73},{"user_id":442,"name":"HundchenTanque","steam_id":76561198122692754,"connected_time":7451000000000,"state":"active","ping":57},{"user_id":516,"name":"Predicta","steam_id":76561198017630616,"connected_time":2527000000000,"state":"active","ping":47},{"user_id":531,"name":"Kuddly Kay (She/Her)","steam_id":76561198353432576,"connected_time":1308000000000,"state":"active","ping":66},{"user_id":473,"name":"meat.","steam_id":76561198256154493,"connected_time":5833000000000,"state":"active","ping":66}]},{"server_id":402,"name":"Uncletopia | Chicago | 3 | All Maps","name_short":"chi-3","host":"chi-1.us.uncletopia.com","port":27035,"enabled":true,"region":"us-central","cc":"us","latitude":41.881832,"longitude":-87.62318,"reserved":0,"last_update":"0001-01-01T00:00:00Z","name_a2s":"Uncletopia | Chicago | 3 | All Maps","protocol":17,"map":"pl_frontier_final","folder":"tf","game":"Team Fortress","app_id":440,"player_count":22,"max_players":24,"Bots":0,"server_type":"Dedicated","server_os":"Linux","password":true,"vac":true,"version":"7961495","steam_id":85568392924515191,"keywords":["nocrits","nodmgspread","payload","uncletopia"],"game_id":440,"stv_port":27036,"stv_name":"Uncletopia | Chicago | 3 | All Maps | STV","players":[{"user_id":207,"name":"gl0nk","steam_id":76561198374594236,"connected_time":71000000000,"state":"active","ping":58},{"user_id":206,"name":"PTR","steam_id":76561198237253772,"connected_time":108000000000,"state":"active","ping":56},{"user_id":180,"name":"Macro","steam_id":76561199442846226,"connected_time":3088000000000,"state":"active","ping":76},{"user_id":208,"name":"Silverkeys","steam_id":76561197986012496,"connected_time":58000000000,"state":"active","ping":63},{"user_id":191,"name":"Bone Daddy","steam_id":76561198061376445,"connected_time":2381000000000,"state":"active","ping":64},{"user_id":209,"name":"RusticCarp42989","steam_id":76561198361151865,"connected_time":19000000000,"state":"spawning","ping":109},{"user_id":210,"name":"fazecumshot69","steam_id":76561199248475270,"connected_time":0,"state":"spawning","ping":26},{"user_id":146,"name":"guy","steam_id":76561198079925551,"connected_time":5323000000000,"state":"active","ping":61},{"user_id":197,"name":"Amoxicilina","steam_id":76561198168486429,"connected_time":1191000000000,"state":"active","ping":115},{"user_id":198,"name":"kid named weezer","steam_id":76561198813566335,"connected_time":1139000000000,"state":"active","ping":80},{"user_id":110,"name":"The strongest ⑨ ball","steam_id":76561198126760743,"connected_time":7624000000000,"state":"active","ping":78},{"user_id":194,"name":"Streetwise","steam_id":76561197971684268,"connected_time":2117000000000,"state":"active","ping":93},{"user_id":184,"name":"Natsuki the Scunt","steam_id":76561199175922684,"connected_time":3047000000000,"state":"active","ping":102},{"user_id":205,"name":"card carrying member","steam_id":76561198043558709,"connected_time":623000000000,"state":"active","ping":90},{"user_id":195,"name":"SiltyStar85","steam_id":76561198309175923,"connected_time":2098000000000,"state":"active","ping":77},{"user_id":185,"name":"Paddy","steam_id":76561198037001457,"connected_time":3045000000000,"state":"active","ping":74},{"user_id":186,"name":"Pasta E Fagioli","steam_id":76561198043920604,"connected_time":3026000000000,"state":"active","ping":71},{"user_id":190,"name":"ERASERHEAD","steam_id":76561198025171709,"connected_time":2519000000000,"state":"active","ping":67},{"user_id":189,"name":"Spiro Agnew","steam_id":76561198047195799,"connected_time":2944000000000,"state":"active","ping":54},{"user_id":106,"name":"Uwu Micster","steam_id":76561198843890616,"connected_time":7998000000000,"state":"active","ping":83},{"user_id":204,"name":"DZ-7","steam_id":76561198418183516,"connected_time":647000000000,"state":"active","ping":172},{"user_id":169,"name":"RexCreeper456","steam_id":76561199319578396,"connected_time":4301000000000,"state":"active","ping":57}]},{"server_id":403,"name":"Uncletopia | Chicago | 4 | All Maps","name_short":"chi-4","host":"chi-1.us.uncletopia.com","port":27045,"enabled":true,"region":"us-central","cc":"us","latitude":41.881832,"longitude":-87.62318,"reserved":0,"last_update":"0001-01-01T00:00:00Z","name_a2s":"Uncletopia | Chicago | 4 | All Maps","protocol":17,"map":"pl_barnblitz","folder":"tf","game":"Team Fortress","app_id":440,"player_count":24,"max_players":24,"Bots":0,"server_type":"Dedicated","server_os":"Linux","password":true,"vac":true,"version":"7961495","steam_id":85568392924515193,"keywords":["nocrits","nodmgspread","payload","uncletopia"],"game_id":440,"stv_port":27046,"stv_name":"Uncletopia | Chicago | 4 | All Maps | STV","players":[{"user_id":242,"name":"The Notorious RBG","steam_id":76561198014275148,"connected_time":453000000000,"state":"active","ping":73},{"user_id":230,"name":"BillTheBober","steam_id":76561198350152969,"connected_time":958000000000,"state":"active","ping":76},{"user_id":213,"name":"wafflehamster2000","steam_id":76561198849161820,"connected_time":1756000000000,"state":"active","ping":70},{"user_id":212,"name":"Melon Keller","steam_id":76561198127426615,"connected_time":1774000000000,"state":"active","ping":104},{"user_id":243,"name":"A Friendly Engie","steam_id":76561198840761529,"connected_time":259000000000,"state":"active","ping":68},{"user_id":245,"name":"MedRed™ #IATAH","steam_id":76561198002962970,"connected_time":150000000000,"state":"active","ping":100},{"user_id":151,"name":"Swash","steam_id":76561197969421355,"connected_time":10169000000000,"state":"active","ping":60},{"user_id":197,"name":"Runny Eggs","steam_id":76561198006785882,"connected_time":4687000000000,"state":"active","ping":74},{"user_id":238,"name":"mr doo doo farty","steam_id":76561198256886614,"connected_time":531000000000,"state":"active","ping":112},{"user_id":240,"name":"MonkyBoo","steam_id":76561198304371716,"connected_time":520000000000,"state":"active","ping":66},{"user_id":210,"name":"playr","steam_id":76561198354622099,"connected_time":1880000000000,"state":"active","ping":76},{"user_id":193,"name":"sam","steam_id":76561198088504281,"connected_time":5320000000000,"state":"active","ping":71},{"user_id":223,"name":"TruffShuff","steam_id":76561198055869160,"connected_time":1581000000000,"state":"active","ping":57},{"user_id":232,"name":"TF2C | fac -AA-","steam_id":76561198009818412,"connected_time":903000000000,"state":"active","ping":69},{"user_id":244,"name":"Stapler","steam_id":76561198099295077,"connected_time":213000000000,"state":"active","ping":100},{"user_id":211,"name":"local man","steam_id":76561198074946673,"connected_time":1808000000000,"state":"active","ping":60},{"user_id":221,"name":"Bombsgamer","steam_id":76561198350009050,"connected_time":1596000000000,"state":"active","ping":81},{"user_id":233,"name":"Wang of Wall St","steam_id":76561198047460598,"connected_time":891000000000,"state":"active","ping":87},{"user_id":235,"name":"Strangelove","steam_id":76561198353773611,"connected_time":803000000000,"state":"active","ping":87},{"user_id":217,"name":"coffee bagel","steam_id":76561198141198352,"connected_time":1674000000000,"state":"active","ping":46},{"user_id":241,"name":"my name jeff","steam_id":76561198179816898,"connected_time":519000000000,"state":"active","ping":81},{"user_id":236,"name":"Løst","steam_id":76561198035677801,"connected_time":723000000000,"state":"active","ping":73},{"user_id":220,"name":"YunKoツ","steam_id":76561199107366261,"connected_time":1651000000000,"state":"active","ping":85},{"user_id":106,"name":"Lia_Rein","steam_id":76561198151569597,"connected_time":13345000000000,"state":"active","ping":137}]},{"server_id":36,"name":"Uncletopia | Chicago | 5 | All Maps","name_short":"chi-5","host":"chi-2.us.uncletopia.com","port":27015,"enabled":true,"region":"us-central","cc":"us","latitude":41.881832,"longitude":-87.62318,"reserved":0,"last_update":"0001-01-01T00:00:00Z","name_a2s":"Uncletopia | Chicago | 5 | All Maps","protocol":17,"map":"pl_badwater","folder":"tf","game":"Team Fortress","app_id":440,"player_count":24,"max_players":24,"Bots":0,"server_type":"Dedicated","server_os":"Linux","password":true,"vac":true,"version":"7961495","steam_id":85568392924866362,"keywords":["nocrits","nodmgspread","payload","uncletopia"],"game_id":440,"stv_port":27016,"stv_name":"Uncletopia | Chicago | 5 | All Maps | STV","players":[{"user_id":360,"name":"Epha","steam_id":76561198079379951,"connected_time":2084000000000,"state":"active","ping":60},{"user_id":370,"name":"chiswola","steam_id":76561198046920142,"connected_time":661000000000,"state":"active","ping":75},{"user_id":369,"name":"banned from r/gooncaves","steam_id":76561198079405234,"connected_time":702000000000,"state":"active","ping":60},{"user_id":343,"name":"Kent C Straight","steam_id":76561198056190259,"connected_time":2658000000000,"state":"active","ping":62},{"user_id":358,"name":"sensible","steam_id":76561198072216373,"connected_time":2223000000000,"state":"active","ping":82},{"user_id":364,"name":"Skink","steam_id":76561198343428818,"connected_time":1446000000000,"state":"active","ping":92},{"user_id":375,"name":"󠀡󠀡","steam_id":76561198057884377,"connected_time":347000000000,"state":"active","ping":55},{"user_id":361,"name":"F R O G","steam_id":76561198166604331,"connected_time":2029000000000,"state":"active","ping":89},{"user_id":363,"name":"Mr.Pwesident","steam_id":76561198058114703,"connected_time":1848000000000,"state":"active","ping":95},{"user_id":336,"name":"Tree45","steam_id":76561198143698408,"connected_time":3141000000000,"state":"active","ping":71},{"user_id":339,"name":"Maeve","steam_id":76561198798176670,"connected_time":2841000000000,"state":"active","ping":56},{"user_id":354,"name":"Cash MoneyBlue","steam_id":76561198934825927,"connected_time":2390000000000,"state":"active","ping":59},{"user_id":346,"name":"dicksnip","steam_id":76561198356515396,"connected_time":2446000000000,"state":"active","ping":72},{"user_id":376,"name":"Fake Hero","steam_id":76561198169177822,"connected_time":326000000000,"state":"active","ping":119},{"user_id":325,"name":"Homosexual Warmachine","steam_id":76561198040425096,"connected_time":3989000000000,"state":"active","ping":66},{"user_id":368,"name":"Kent C Gay","steam_id":76561198418178297,"connected_time":713000000000,"state":"active","ping":48},{"user_id":371,"name":"Mongoose88","steam_id":76561197961442445,"connected_time":583000000000,"state":"active","ping":68},{"user_id":345,"name":"thecal","steam_id":76561198307893384,"connected_time":2568000000000,"state":"active","ping":50},{"user_id":347,"name":"Crisp","steam_id":76561198132644084,"connected_time":2434000000000,"state":"active","ping":72},{"user_id":365,"name":"Space⭐Taffy","steam_id":76561198002271720,"connected_time":1433000000000,"state":"active","ping":69},{"user_id":366,"name":"on that zaza?","steam_id":76561198038713198,"connected_time":1244000000000,"state":"active","ping":70},{"user_id":378,"name":"Ninetees","steam_id":76561198119483989,"connected_time":306000000000,"state":"active","ping":84},{"user_id":349,"name":"Phi","steam_id":76561198808932522,"connected_time":2429000000000,"state":"active","ping":71},{"user_id":377,"name":"Duke Spruce","steam_id":76561199231296521,"connected_time":309000000000,"state":"active","ping":69}]},{"server_id":37,"name":"Uncletopia | Chicago | 6 | All Maps","name_short":"chi-6","host":"chi-2.us.uncletopia.com","port":27025,"enabled":true,"region":"us-central","cc":"us","latitude":41.881832,"longitude":-87.62318,"reserved":0,"last_update":"0001-01-01T00:00:00Z","name_a2s":"Uncletopia | Chicago | 6 | All Maps","protocol":17,"map":"pl_badwater","folder":"tf","game":"Team Fortress","app_id":440,"player_count":24,"max_players":24,"Bots":0,"server_type":"Dedicated","server_os":"Linux","password":true,"vac":true,"version":"7961495","steam_id":85568392924866363,"keywords":["nocrits","nodmgspread","payload","uncletopia"],"game_id":440,"stv_port":27026,"stv_name":"Uncletopia | Chicago | 6 | All Maps | STV","players":[{"user_id":36,"name":"saturn eating his own ass","steam_id":76561198016826181,"connected_time":2429000000000,"state":"active","ping":76},{"user_id":37,"name":"canofspaghettios","steam_id":76561198124204246,"connected_time":2057000000000,"state":"active","ping":57},{"user_id":39,"name":"shakoiwa","steam_id":76561199059441773,"connected_time":1557000000000,"state":"active","ping":138},{"user_id":40,"name":"DarthMalvos","steam_id":76561198163859298,"connected_time":1211000000000,"state":"active","ping":66},{"user_id":41,"name":"JollyRood","steam_id":76561199076088278,"connected_time":1192000000000,"state":"active","ping":85},{"user_id":42,"name":"the worst player ever","steam_id":76561198027487285,"connected_time":1125000000000,"state":"active","ping":122},{"user_id":43,"name":"JOEBOSS218","steam_id":76561198071655931,"connected_time":1056000000000,"state":"active","ping":90},{"user_id":44,"name":"WheelockWarlock","steam_id":76561198171456553,"connected_time":1032000000000,"state":"active","ping":86},{"user_id":45,"name":"Combez","steam_id":76561198215028184,"connected_time":865000000000,"state":"active","ping":77},{"user_id":53,"name":"Gas Can","steam_id":76561198162853003,"connected_time":212000000000,"state":"active","ping":73},{"user_id":54,"name":"TwoScore","steam_id":76561198024412148,"connected_time":207000000000,"state":"active","ping":94},{"user_id":55,"name":"BobRossDaMobBoss","steam_id":76561198799262066,"connected_time":207000000000,"state":"active","ping":82},{"user_id":50,"name":"Saiki K.","steam_id":76561199187226776,"connected_time":305000000000,"state":"active","ping":76},{"user_id":56,"name":"bigtrucker55649","steam_id":76561198288604502,"connected_time":182000000000,"state":"active","ping":85},{"user_id":57,"name":"Takeover","steam_id":76561197996081461,"connected_time":170000000000,"state":"active","ping":60},{"user_id":58,"name":"Kirby Knight tf2","steam_id":76561199070864271,"connected_time":170000000000,"state":"active","ping":60},{"user_id":59,"name":"Jolly","steam_id":76561198064214000,"connected_time":153000000000,"state":"active","ping":68},{"user_id":60,"name":"frank n furter","steam_id":76561198308883028,"connected_time":134000000000,"state":"active","ping":112},{"user_id":61,"name":"XeroDollars","steam_id":76561198137858047,"connected_time":127000000000,"state":"active","ping":67},{"user_id":62,"name":"The Wave","steam_id":76561198268225109,"connected_time":115000000000,"state":"active","ping":86},{"user_id":63,"name":"WinterGoBrrr","steam_id":76561198848292257,"connected_time":84000000000,"state":"active","ping":90},{"user_id":67,"name":"ImmortalProphet","steam_id":76561198012352477,"connected_time":1000000000,"state":"spawning","ping":32},{"user_id":65,"name":"Tohru","steam_id":76561198139393876,"connected_time":58000000000,"state":"active","ping":75},{"user_id":66,"name":"Ibrahim","steam_id":76561198028320625,"connected_time":38000000000,"state":"active","ping":72}]},{"server_id":38,"name":"Uncletopia | Chicago | 7 | Stopwatch","name_short":"chi-7","host":"chi-2.us.uncletopia.com","port":27035,"enabled":true,"region":"us-central","cc":"us","latitude":41.881832,"longitude":-87.62318,"reserved":0,"last_update":"0001-01-01T00:00:00Z","name_a2s":"Uncletopia | Chicago | 7 | Stopwatch","protocol":17,"map":"pl_swiftwater_final1","folder":"tf","game":"Team Fortress","app_id":440,"player_count":0,"max_players":24,"Bots":0,"server_type":"Dedicated","server_os":"Linux","password":true,"vac":true,"version":"7961495","steam_id":85568392924866364,"keywords":["nocrits","nodmgspread","payload","uncletopia"],"game_id":440,"stv_port":27036,"stv_name":"Uncletopia | Chicago | 7 | Stopwatch | STV","players":null},{"server_id":39,"name":"Uncletopia | Chicago | 8 | Community","name_short":"chi-8","host":"chi-2.us.uncletopia.com","port":27045,"enabled":true,"region":"us-central","cc":"us","latitude":41.881832,"longitude":-87.62318,"reserved":0,"last_update":"0001-01-01T00:00:00Z","name_a2s":"Uncletopia | Chicago | 8 | Community","protocol":17,"map":"workshop/pl_vigil_rc10.ugc1266210012","folder":"tf","game":"Team Fortress","app_id":440,"player_count":21,"max_players":24,"Bots":0,"server_type":"Dedicated","server_os":"Linux","password":true,"vac":true,"version":"7961495","steam_id":85568392924866365,"keywords":["nocrits","nodmgspread","payload","uncletopia"],"game_id":440,"stv_port":27046,"stv_name":"Uncletopia | Chicago | 8 | Community | STV","players":[{"user_id":113,"name":"I keep it halal bro","steam_id":76561198076163949,"connected_time":1034000000000,"state":"active","ping":60},{"user_id":130,"name":"Post-It Paige","steam_id":76561198294059159,"connected_time":398000000000,"state":"active","ping":85},{"user_id":127,"name":"ElephantHydrogen4277882","steam_id":76561198175741741,"connected_time":443000000000,"state":"active","ping":77},{"user_id":73,"name":"Minus-Abinus","steam_id":76561199080630632,"connected_time":3737000000000,"state":"active","ping":94},{"user_id":119,"name":"stampdawg","steam_id":76561198050500060,"connected_time":733000000000,"state":"active","ping":75},{"user_id":69,"name":"Chimpo","steam_id":76561198066228209,"connected_time":4267000000000,"state":"active","ping":77},{"user_id":99,"name":"machina'","steam_id":76561198359132531,"connected_time":1948000000000,"state":"active","ping":139},{"user_id":132,"name":"she be jon-ing on my arbuckle","steam_id":76561198986534519,"connected_time":317000000000,"state":"active","ping":91},{"user_id":133,"name":"Asanez3","steam_id":76561198037381436,"connected_time":223000000000,"state":"active","ping":161},{"user_id":110,"name":"Thequirka","steam_id":76561198968058652,"connected_time":1347000000000,"state":"active","ping":93},{"user_id":136,"name":"freeze9","steam_id":76561198062856371,"connected_time":59000000000,"state":"active","ping":167},{"user_id":129,"name":"VinnyTheG","steam_id":76561198862202293,"connected_time":433000000000,"state":"active","ping":90},{"user_id":120,"name":"pup","steam_id":76561198145921847,"connected_time":721000000000,"state":"active","ping":63},{"user_id":134,"name":"sc67","steam_id":76561199302471485,"connected_time":177000000000,"state":"active","ping":41},{"user_id":96,"name":"Renegade Radish","steam_id":76561198868344346,"connected_time":2239000000000,"state":"active","ping":62},{"user_id":126,"name":"wanderer","steam_id":76561197962607364,"connected_time":488000000000,"state":"active","ping":72},{"user_id":74,"name":"DR. DOOM","steam_id":76561198107899101,"connected_time":3584000000000,"state":"active","ping":78},{"user_id":103,"name":"Pr0bl3m","steam_id":76561198880501195,"connected_time":1775000000000,"state":"active","ping":55},{"user_id":135,"name":"Theo","steam_id":76561198000991724,"connected_time":104000000000,"state":"active","ping":76},{"user_id":112,"name":"t.tv/FamilyGuyFunnyMoments277","steam_id":76561198416047580,"connected_time":1230000000000,"state":"active","ping":66},{"user_id":43,"name":"Captain Chicken","steam_id":76561198047767530,"connected_time":7198000000000,"state":"active","ping":114}]},{"server_id":8,"name":"Uncletopia | Dallas | 1 | All Maps","name_short":"dal-1","host":"dal-1.us.uncletopia.com","port":27015,"enabled":true,"region":"us-central","cc":"us","latitude":32.779167,"longitude":-96.80889,"reserved":0,"last_update":"0001-01-01T00:00:00Z","name_a2s":"Uncletopia | Dallas | 1 | All Maps","protocol":17,"map":"cp_steel","folder":"tf","game":"Team Fortress","app_id":440,"player_count":23,"max_players":24,"Bots":0,"server_type":"Dedicated","server_os":"Linux","password":true,"vac":true,"version":"7961495","steam_id":85568392924469986,"keywords":["cp","nocrits","nodmgspread","uncletopia"],"game_id":440,"stv_port":27016,"stv_name":"Uncletopia | Dallas | 1 | All Maps | STV","players":[{"user_id":537,"name":"Bogey","steam_id":76561198096227944,"connected_time":1128000000000,"state":"active","ping":50},{"user_id":538,"name":"dumbest girl alive","steam_id":76561198062263639,"connected_time":1124000000000,"state":"active","ping":52},{"user_id":484,"name":"Bacon","steam_id":76561199078407152,"connected_time":4775000000000,"state":"active","ping":77},{"user_id":550,"name":"gnarlyslutt","steam_id":76561199383496552,"connected_time":817000000000,"state":"active","ping":87},{"user_id":552,"name":"Withered Bonnie (Real)","steam_id":76561198423310113,"connected_time":685000000000,"state":"active","ping":51},{"user_id":487,"name":"ReDiculous22","steam_id":76561198038391383,"connected_time":4731000000000,"state":"active","ping":42},{"user_id":553,"name":"Moostis","steam_id":76561198977909811,"connected_time":655000000000,"state":"active","ping":80},{"user_id":547,"name":"Rami✿","steam_id":76561198993652475,"connected_time":887000000000,"state":"active","ping":50},{"user_id":554,"name":"The destroyer of foreskin","steam_id":76561198135275966,"connected_time":639000000000,"state":"active","ping":61},{"user_id":490,"name":"DeckofDragons","steam_id":76561198057398213,"connected_time":4564000000000,"state":"active","ping":73},{"user_id":548,"name":"Pipnirsian","steam_id":76561198380976416,"connected_time":839000000000,"state":"active","ping":85},{"user_id":545,"name":"wlnecro1","steam_id":76561199157418402,"connected_time":1026000000000,"state":"active","ping":51},{"user_id":502,"name":"flippercurve","steam_id":76561199238295034,"connected_time":4134000000000,"state":"active","ping":71},{"user_id":549,"name":"Jim","steam_id":76561198998398262,"connected_time":835000000000,"state":"active","ping":74},{"user_id":479,"name":"Ballista","steam_id":76561197983182562,"connected_time":5122000000000,"state":"active","ping":58},{"user_id":543,"name":"anipe10","steam_id":76561199084698417,"connected_time":1075000000000,"state":"active","ping":84},{"user_id":556,"name":"Herbal.T.73","steam_id":76561198012745038,"connected_time":209000000000,"state":"active","ping":115},{"user_id":544,"name":"LampMan","steam_id":76561198079857527,"connected_time":1068000000000,"state":"active","ping":61},{"user_id":529,"name":"Fever Dreams","steam_id":76561198116614620,"connected_time":2095000000000,"state":"active","ping":80},{"user_id":518,"name":"Moonflower ✦","steam_id":76561198191782483,"connected_time":3381000000000,"state":"active","ping":53},{"user_id":505,"name":"PROtagonist","steam_id":76561198120631837,"connected_time":3945000000000,"state":"active","ping":88},{"user_id":535,"name":"Barmy","steam_id":76561198111626352,"connected_time":1926000000000,"state":"active","ping":87},{"user_id":513,"name":"TOKENLIZARD","steam_id":76561198218765205,"connected_time":3616000000000,"state":"active","ping":69}]},{"server_id":108,"name":"Uncletopia | Dallas | 2 | All Maps","name_short":"dal-2","host":"dal-1.us.uncletopia.com","port":27025,"enabled":true,"region":"us-central","cc":"us","latitude":32.779167,"longitude":-96.80889,"reserved":0,"last_update":"0001-01-01T00:00:00Z","name_a2s":"Uncletopia | Dallas | 2 | All Maps","protocol":17,"map":"pl_pier","folder":"tf","game":"Team Fortress","app_id":440,"player_count":24,"max_players":24,"Bots":0,"server_type":"Dedicated","server_os":"Linux","password":true,"vac":true,"version":"7961495","steam_id":85568392924469988,"keywords":["nocrits","nodmgspread","payload","uncletopia"],"game_id":440,"stv_port":27026,"stv_name":"Uncletopia | Dallas | 2 | All Maps | STV","players":[{"user_id":329,"name":"hart","steam_id":76561198094780633,"connected_time":3147000000000,"state":"active","ping":71},{"user_id":349,"name":"Alfonso Molestro","steam_id":76561197998677099,"connected_time":1421000000000,"state":"active","ping":110},{"user_id":340,"name":"Lain","steam_id":76561198029303534,"connected_time":2145000000000,"state":"active","ping":67},{"user_id":364,"name":"ronny","steam_id":76561197994180230,"connected_time":132000000000,"state":"active","ping":60},{"user_id":353,"name":"Jill","steam_id":76561198097398193,"connected_time":1156000000000,"state":"active","ping":88},{"user_id":362,"name":"blåhaj enjoyer","steam_id":76561198132803810,"connected_time":156000000000,"state":"active","ping":60},{"user_id":348,"name":"Michaelpc1","steam_id":76561198088365519,"connected_time":1622000000000,"state":"active","ping":84},{"user_id":326,"name":"SpunkyNuggs","steam_id":76561198046401833,"connected_time":3181000000000,"state":"active","ping":73},{"user_id":327,"name":"B R O W N","steam_id":76561198047340813,"connected_time":3170000000000,"state":"active","ping":76},{"user_id":365,"name":"Gavilán","steam_id":76561198285212453,"connected_time":117000000000,"state":"active","ping":77},{"user_id":301,"name":"CUSTOMA ON THA GRILL","steam_id":76561198165303806,"connected_time":5223000000000,"state":"active","ping":70},{"user_id":345,"name":"JellyParrot","steam_id":76561199190990163,"connected_time":2014000000000,"state":"active","ping":71},{"user_id":307,"name":"skegeton","steam_id":76561198095581099,"connected_time":4759000000000,"state":"active","ping":61},{"user_id":361,"name":"mid IT guy","steam_id":76561198061552103,"connected_time":167000000000,"state":"active","ping":60},{"user_id":366,"name":"JohnnyGitGud","steam_id":76561198401455467,"connected_time":95000000000,"state":"active","ping":108},{"user_id":367,"name":"miguel","steam_id":76561198158054484,"connected_time":85000000000,"state":"active","ping":64},{"user_id":343,"name":"heartware","steam_id":76561198061714868,"connected_time":2059000000000,"state":"active","ping":97},{"user_id":360,"name":"shitass (Reaping and Sowing)","steam_id":76561198210572481,"connected_time":292000000000,"state":"active","ping":61},{"user_id":358,"name":"-L","steam_id":76561198046074220,"connected_time":831000000000,"state":"active","ping":76},{"user_id":338,"name":"CreativeName","steam_id":76561198853344895,"connected_time":2226000000000,"state":"active","ping":101},{"user_id":346,"name":"steady","steam_id":76561198210433363,"connected_time":2009000000000,"state":"active","ping":67},{"user_id":363,"name":"Qwefti","steam_id":76561198123261072,"connected_time":156000000000,"state":"active","ping":87},{"user_id":208,"name":"Mellou","steam_id":76561198212048740,"connected_time":13434000000000,"state":"active","ping":47},{"user_id":359,"name":"Jeremy","steam_id":76561198283977979,"connected_time":686000000000,"state":"active","ping":88}]},{"server_id":404,"name":"Uncletopia | Dallas | 3 | All Maps","name_short":"dal-3","host":"dal-1.us.uncletopia.com","port":27035,"enabled":true,"region":"us-central","cc":"us","latitude":32.779167,"longitude":-96.80889,"reserved":0,"last_update":"0001-01-01T00:00:00Z","name_a2s":"Uncletopia | Dallas | 3 | All Maps","protocol":17,"map":"pl_snowycoast","folder":"tf","game":"Team Fortress","app_id":440,"player_count":24,"max_players":24,"Bots":0,"server_type":"Dedicated","server_os":"Linux","password":true,"vac":true,"version":"7961495","steam_id":85568392924515219,"keywords":["nocrits","nodmgspread","payload","uncletopia"],"game_id":440,"stv_port":27036,"stv_name":"Uncletopia | Dallas | 3 | All Maps | STV","players":[{"user_id":321,"name":"Argon","steam_id":76561199254804349,"connected_time":207000000000,"state":"active","ping":82},{"user_id":312,"name":"Kuyumiester","steam_id":76561198126835302,"connected_time":672000000000,"state":"active","ping":60},{"user_id":323,"name":"Orca?","steam_id":76561198164341099,"connected_time":192000000000,"state":"active","ping":110},{"user_id":319,"name":"Scut","steam_id":76561198973734291,"connected_time":221000000000,"state":"active","ping":90},{"user_id":286,"name":"Gwando","steam_id":76561198294629124,"connected_time":2829000000000,"state":"active","ping":46},{"user_id":324,"name":"hazelsnail","steam_id":76561198862764679,"connected_time":187000000000,"state":"active","ping":72},{"user_id":288,"name":"Jimmy McGill","steam_id":76561198135137213,"connected_time":2279000000000,"state":"active","ping":54},{"user_id":329,"name":"king sir glorious","steam_id":76561198115676070,"connected_time":123000000000,"state":"active","ping":99},{"user_id":217,"name":"Da Policia","steam_id":76561198012762789,"connected_time":8246000000000,"state":"active","ping":45},{"user_id":294,"name":"kim wexler","steam_id":76561199199795741,"connected_time":1169000000000,"state":"active","ping":73},{"user_id":297,"name":"Stryder","steam_id":76561199387418697,"connected_time":1119000000000,"state":"active","ping":73},{"user_id":313,"name":"Bard","steam_id":76561198088940932,"connected_time":646000000000,"state":"active","ping":61},{"user_id":300,"name":"D","steam_id":76561198292908619,"connected_time":994000000000,"state":"active","ping":103},{"user_id":314,"name":"Klip","steam_id":76561198316254429,"connected_time":552000000000,"state":"active","ping":55},{"user_id":325,"name":"Grandpa 1MinecraftEmpire","steam_id":76561198069046338,"connected_time":184000000000,"state":"active","ping":69},{"user_id":316,"name":"-W3E- grim10465","steam_id":76561198045698581,"connected_time":540000000000,"state":"active","ping":75},{"user_id":326,"name":"Si1entSn1pa","steam_id":76561198170095479,"connected_time":179000000000,"state":"active","ping":95},{"user_id":304,"name":"The Assistant Regional Manager","steam_id":76561199221484936,"connected_time":947000000000,"state":"active","ping":91},{"user_id":327,"name":"NightGhost1400","steam_id":76561198810730471,"connected_time":171000000000,"state":"active","ping":108},{"user_id":308,"name":"BehindYou","steam_id":76561198987222560,"connected_time":895000000000,"state":"active","ping":72},{"user_id":328,"name":"KingGizzardluvr69420","steam_id":76561198059925499,"connected_time":168000000000,"state":"active","ping":64},{"user_id":285,"name":"scaring the hoes","steam_id":76561198332519926,"connected_time":2893000000000,"state":"active","ping":84},{"user_id":269,"name":"Carne Asada?","steam_id":76561198157252638,"connected_time":3849000000000,"state":"active","ping":61},{"user_id":272,"name":"damiankiller1243","steam_id":76561198868885090,"connected_time":3310000000000,"state":"active","ping":69}]},{"server_id":405,"name":"Uncletopia | Dallas | 4 | Community","name_short":"dal-4","host":"dal-1.us.uncletopia.com","port":27045,"enabled":true,"region":"us-central","cc":"us","latitude":32.779167,"longitude":-96.80889,"reserved":0,"last_update":"0001-01-01T00:00:00Z","name_a2s":"Uncletopia | Dallas | 4 | Community","protocol":17,"map":"workshop/rd_asteroid_redux_b1.ugc2154902912","folder":"tf","game":"Team Fortress","app_id":440,"player_count":13,"max_players":24,"Bots":0,"server_type":"Dedicated","server_os":"Linux","password":true,"vac":true,"version":"7961495","steam_id":85568392924515220,"keywords":["beta","nocrits","nodmgspread","rd","uncletopia"],"game_id":440,"stv_port":27046,"stv_name":"Uncletopia | Dallas | 4 | Community | STV","players":[{"user_id":102,"name":"ognuker","steam_id":76561198044114346,"connected_time":925000000000,"state":"active","ping":104},{"user_id":105,"name":"Goobl","steam_id":76561198452046978,"connected_time":150000000000,"state":"active","ping":289},{"user_id":106,"name":"Foghorn Leghorn","steam_id":76561198321453473,"connected_time":145000000000,"state":"active","ping":97},{"user_id":79,"name":"Hoxatron","steam_id":76561198136288818,"connected_time":2971000000000,"state":"active","ping":44},{"user_id":80,"name":"Nexus","steam_id":76561199092072822,"connected_time":2971000000000,"state":"active","ping":65},{"user_id":81,"name":"mothsprings","steam_id":76561198928604937,"connected_time":2968000000000,"state":"active","ping":86},{"user_id":53,"name":"GuyGuy","steam_id":76561198237817232,"connected_time":5269000000000,"state":"active","ping":92},{"user_id":92,"name":"FerventRobin935","steam_id":76561198440135297,"connected_time":2143000000000,"state":"active","ping":74},{"user_id":67,"name":"Imagine being trash at Medic","steam_id":76561197986530028,"connected_time":3988000000000,"state":"active","ping":100},{"user_id":89,"name":"SmeagolDaRegal","steam_id":76561198095029807,"connected_time":2507000000000,"state":"active","ping":151},{"user_id":88,"name":"Kaiser_will","steam_id":76561198198680293,"connected_time":2525000000000,"state":"active","ping":70},{"user_id":42,"name":"Sardine","steam_id":76561198257139257,"connected_time":6384000000000,"state":"active","ping":86},{"user_id":44,"name":"player","steam_id":76561198191881433,"connected_time":6357000000000,"state":"active","ping":91}]},{"server_id":5,"name":"Uncletopia | Frankfurt | 1 | All Maps","name_short":"frk-1","host":"frk-1.de.uncletopia.com","port":27015,"enabled":true,"region":"eu","cc":"de","latitude":50.110924,"longitude":8.682127,"reserved":0,"last_update":"0001-01-01T00:00:00Z","name_a2s":"Uncletopia | Frankfurt | 1 | All Maps","protocol":17,"map":"pl_barnblitz","folder":"tf","game":"Team Fortress","app_id":440,"player_count":0,"max_players":24,"Bots":0,"server_type":"Dedicated","server_os":"Linux","password":true,"vac":true,"version":"7961495","steam_id":85568392924469989,"keywords":["nocrits","nodmgspread","payload","uncletopia"],"game_id":440,"stv_port":27016,"stv_name":"Uncletopia | Frankfurt | 1 | All Maps | STV","players":null},{"server_id":110,"name":"Uncletopia | Frankfurt | 2 | All Maps","name_short":"frk-2","host":"frk-1.de.uncletopia.com","port":27025,"enabled":true,"region":"eu","cc":"de","latitude":50.110924,"longitude":8.682127,"reserved":0,"last_update":"0001-01-01T00:00:00Z","name_a2s":"Uncletopia | Frankfurt | 2 | All Maps","protocol":17,"map":"cp_sunshine","folder":"tf","game":"Team Fortress","app_id":440,"player_count":0,"max_players":24,"Bots":0,"server_type":"Dedicated","server_os":"Linux","password":true,"vac":true,"version":"7961495","steam_id":85568392924469990,"keywords":["cp","nocrits","nodmgspread","uncletopia"],"game_id":440,"stv_port":27026,"stv_name":"Uncletopia | Frankfurt | 2 | All Maps | STV","players":null},{"server_id":308,"name":"Uncletopia | Frankfurt | 3 | All Maps","name_short":"frk-3","host":"frk-1.de.uncletopia.com","port":27035,"enabled":true,"region":"eu","cc":"de","latitude":50.110924,"longitude":8.682127,"reserved":0,"last_update":"0001-01-01T00:00:00Z","name_a2s":"Uncletopia | Frankfurt | 3 | All Maps","protocol":17,"map":"pl_swiftwater_final1","folder":"tf","game":"Team Fortress","app_id":440,"player_count":0,"max_players":24,"Bots":0,"server_type":"Dedicated","server_os":"Linux","password":true,"vac":true,"version":"7961495","steam_id":85568392924504274,"keywords":["nocrits","nodmgspread","payload","uncletopia"],"game_id":440,"stv_port":27036,"stv_name":"Uncletopia | Frankfurt | 3 | All Maps | STV","players":null},{"server_id":309,"name":"Uncletopia | Frankfurt | 4 | All Maps","name_short":"frk-4","host":"frk-1.de.uncletopia.com","port":27045,"enabled":true,"region":"eu","cc":"de","latitude":50.110924,"longitude":8.682127,"reserved":0,"last_update":"0001-01-01T00:00:00Z","name_a2s":"Uncletopia | Frankfurt | 4 | All Maps","protocol":17,"map":"koth_viaduct","folder":"tf","game":"Team Fortress","app_id":440,"player_count":0,"max_players":24,"Bots":0,"server_type":"Dedicated","server_os":"Linux","password":true,"vac":true,"version":"7961495","steam_id":85568392924504275,"keywords":["cp","nocrits","nodmgspread","uncletopia"],"game_id":440,"stv_port":27046,"stv_name":"Uncletopia | Frankfurt | 4 | All Maps | STV","players":null},{"server_id":310,"name":"Uncletopia | Frankfurt | 5 | All Maps","name_short":"frk-5","host":"frk-1.de.uncletopia.com","port":27055,"enabled":true,"region":"eu","cc":"de","latitude":50.110924,"longitude":8.682127,"reserved":0,"last_update":"0001-01-01T00:00:00Z","name_a2s":"Uncletopia | Frankfurt | 5 | All Maps","protocol":17,"map":"pl_barnblitz","folder":"tf","game":"Team Fortress","app_id":440,"player_count":0,"max_players":24,"Bots":0,"server_type":"Dedicated","server_os":"Linux","password":true,"vac":true,"version":"7961495","steam_id":85568392924504277,"keywords":["nocrits","nodmgspread","payload","uncletopia"],"game_id":440,"stv_port":27056,"stv_name":"Uncletopia | Frankfurt | 5 | All Maps | STV","players":null},{"server_id":311,"name":"Uncletopia | Frankfurt | 6 | All Maps","name_short":"frk-6","host":"frk-1.de.uncletopia.com","port":27065,"enabled":true,"region":"eu","cc":"de","latitude":50.110924,"longitude":8.682127,"reserved":0,"last_update":"0001-01-01T00:00:00Z","name_a2s":"Uncletopia | Frankfurt | 6 | All Maps","protocol":17,"map":"koth_cascade","folder":"tf","game":"Team Fortress","app_id":440,"player_count":0,"max_players":24,"Bots":0,"server_type":"Dedicated","server_os":"Linux","password":true,"vac":true,"version":"7961495","steam_id":85568392924504278,"keywords":["cp","nocrits","nodmgspread","uncletopia"],"game_id":440,"stv_port":27066,"stv_name":"Uncletopia | Frankfurt | 6 | All Maps | STV","players":null},{"server_id":23,"name":"Uncletopia | Frankfurt | 7 | Stopwatch","name_short":"frk-7","host":"frk-1.de.uncletopia.com","port":27075,"enabled":true,"region":"eu","cc":"de","latitude":50.110924,"longitude":8.682127,"reserved":0,"last_update":"0001-01-01T00:00:00Z","name_a2s":"Uncletopia | Frankfurt | 7 | Stopwatch","protocol":17,"map":"pl_frontier_final","folder":"tf","game":"Team Fortress","app_id":440,"player_count":0,"max_players":24,"Bots":0,"server_type":"Dedicated","server_os":"Linux","password":true,"vac":true,"version":"7961495","steam_id":85568392924742827,"keywords":["nocrits","nodmgspread","payload","uncletopia"],"game_id":440,"stv_port":27076,"stv_name":"Uncletopia | Frankfurt | 7 | Stopwatch | STV","players":null},{"server_id":24,"name":"Uncletopia | Frankfurt | 8 | Community","name_short":"frk-8","host":"frk-1.de.uncletopia.com","port":27085,"enabled":true,"region":"eu","cc":"de","latitude":50.110924,"longitude":8.682127,"reserved":0,"last_update":"0001-01-01T00:00:00Z","name_a2s":"Uncletopia | Frankfurt | 8 | Community","protocol":17,"map":"workshop/rd_asteroid_redux_b1.ugc2154902912","folder":"tf","game":"Team Fortress","app_id":440,"player_count":0,"max_players":24,"Bots":0,"server_type":"Dedicated","server_os":"Linux","password":true,"vac":true,"version":"7961495","steam_id":85568392924742828,"keywords":["beta","nocrits","nodmgspread","rd","uncletopia"],"game_id":440,"stv_port":27086,"stv_name":"Uncletopia | Frankfurt | 8 | Community | STV","players":null},{"server_id":202,"name":"Uncletopia | Hong Kong | 1 | All Maps","name_short":"hgk-1","host":"hgk-1.hk.uncletopia.com","port":27015,"enabled":true,"region":"asia","cc":"hk","latitude":22.302711,"longitude":114.177216,"reserved":0,"last_update":"0001-01-01T00:00:00Z","name_a2s":"Uncletopia | Hong Kong | 1 | All Maps","protocol":17,"map":"cp_snakewater_final1","folder":"tf","game":"Team Fortress","app_id":440,"player_count":0,"max_players":24,"Bots":0,"server_type":"Dedicated","server_os":"Linux","password":true,"vac":true,"version":"7961495","steam_id":85568392924494504,"keywords":["cp","nocrits","nodmgspread","uncletopia"],"game_id":440,"stv_port":27016,"stv_name":"Uncletopia | Hong Kong | 1 | All Maps | STV","players":null},{"server_id":1,"name":"Uncletopia | Los Angeles | 1 | All Maps","name_short":"lax-1","host":"lax-1.us.uncletopia.com","port":27015,"enabled":true,"region":"us-west","cc":"us","latitude":33.94279,"longitude":-118.41004,"reserved":0,"last_update":"0001-01-01T00:00:00Z","name_a2s":"Uncletopia | Los Angeles | 1 | All Maps","protocol":17,"map":"ctf_turbine","folder":"tf","game":"Team Fortress","app_id":440,"player_count":23,"max_players":24,"Bots":0,"server_type":"Dedicated","server_os":"Linux","password":true,"vac":true,"version":"7961495","steam_id":85568392924469991,"keywords":["ctf","nocrits","nodmgspread","uncletopia"],"game_id":440,"stv_port":27016,"stv_name":"Uncletopia | Los Angeles | 1 | All Maps | STV","players":[{"user_id":14,"name":"werolat","steam_id":76561197960544784,"connected_time":9750000000000,"state":"active","ping":53},{"user_id":65,"name":"Exusiai","steam_id":76561198348354629,"connected_time":3536000000000,"state":"active","ping":51},{"user_id":101,"name":"Ian","steam_id":76561198159334435,"connected_time":185000000000,"state":"active","ping":165},{"user_id":51,"name":"Hugs","steam_id":76561198214584133,"connected_time":4250000000000,"state":"active","ping":60},{"user_id":84,"name":"Seshreb","steam_id":76561198846614634,"connected_time":1900000000000,"state":"active","ping":55},{"user_id":66,"name":"a","steam_id":76561198040561757,"connected_time":3431000000000,"state":"active","ping":96},{"user_id":91,"name":"Danoman47","steam_id":76561199377565865,"connected_time":937000000000,"state":"active","ping":90},{"user_id":92,"name":"small meth pouch","steam_id":76561198130412963,"connected_time":937000000000,"state":"active","ping":80},{"user_id":96,"name":"ROTTINGGIRL","steam_id":76561198051445358,"connected_time":866000000000,"state":"active","ping":44},{"user_id":93,"name":"Skeleop","steam_id":76561198981106464,"connected_time":920000000000,"state":"active","ping":56},{"user_id":75,"name":"Hound From Heck","steam_id":76561198087764017,"connected_time":3153000000000,"state":"active","ping":66},{"user_id":41,"name":"Master of Golfcarts™","steam_id":76561198071033195,"connected_time":4707000000000,"state":"active","ping":59},{"user_id":42,"name":"Booba Feet","steam_id":76561198072094942,"connected_time":4687000000000,"state":"active","ping":86},{"user_id":89,"name":"roach","steam_id":76561198354811369,"connected_time":1142000000000,"state":"active","ping":48},{"user_id":99,"name":"Johnora","steam_id":76561198220495936,"connected_time":583000000000,"state":"active","ping":88},{"user_id":88,"name":"McDonald","steam_id":76561199028533497,"connected_time":1343000000000,"state":"active","ping":55},{"user_id":81,"name":"mmmmmmmmmmmmmmmmmm","steam_id":76561199267742979,"connected_time":2342000000000,"state":"active","ping":62},{"user_id":69,"name":"john.","steam_id":76561198982939658,"connected_time":3318000000000,"state":"active","ping":66},{"user_id":79,"name":"Squirrel","steam_id":76561198026605788,"connected_time":2577000000000,"state":"active","ping":67},{"user_id":100,"name":"Slime","steam_id":76561198121138382,"connected_time":320000000000,"state":"active","ping":66},{"user_id":82,"name":"Gerbias","steam_id":76561198001002427,"connected_time":2326000000000,"state":"active","ping":65},{"user_id":85,"name":"GLXy","steam_id":76561198207551544,"connected_time":1873000000000,"state":"active","ping":73},{"user_id":97,"name":"fallingtree123","steam_id":76561198937414442,"connected_time":834000000000,"state":"active","ping":143}]},{"server_id":112,"name":"Uncletopia | Los Angeles | 2 | All Maps","name_short":"lax-2","host":"lax-1.us.uncletopia.com","port":27025,"enabled":true,"region":"us-west","cc":"us","latitude":33.94279,"longitude":-118.41004,"reserved":0,"last_update":"0001-01-01T00:00:00Z","name_a2s":"Uncletopia | Los Angeles | 2 | All Maps","protocol":17,"map":"koth_lakeside_final","folder":"tf","game":"Team Fortress","app_id":440,"player_count":0,"max_players":24,"Bots":0,"server_type":"Dedicated","server_os":"Linux","password":true,"vac":true,"version":"7961495","steam_id":85568392924469992,"keywords":["cp","nocrits","nodmgspread","uncletopia"],"game_id":440,"stv_port":27026,"stv_name":"Uncletopia | Los Angeles | 2 | All Maps | STV","players":null},{"server_id":324,"name":"Uncletopia | Los Angeles | 3 | All Maps","name_short":"lax-3","host":"lax-1.us.uncletopia.com","port":27035,"enabled":true,"region":"us-west","cc":"us","latitude":33.94279,"longitude":-118.41004,"reserved":0,"last_update":"0001-01-01T00:00:00Z","name_a2s":"Uncletopia | Los Angeles | 3 | All Maps","protocol":17,"map":"cp_metalworks","folder":"tf","game":"Team Fortress","app_id":440,"player_count":22,"max_players":24,"Bots":0,"server_type":"Dedicated","server_os":"Linux","password":true,"vac":true,"version":"7961495","steam_id":85568392924510198,"keywords":["cp","nocrits","nodmgspread","uncletopia"],"game_id":440,"stv_port":27036,"stv_name":"Uncletopia | Los Angeles | 3 | All Maps | STV","players":[{"user_id":170,"name":"❤ Ashley ❤","steam_id":76561198056428303,"connected_time":1163000000000,"state":"active","ping":44},{"user_id":189,"name":"MonkeyMage101","steam_id":76561198354192200,"connected_time":68000000000,"state":"active","ping":53},{"user_id":171,"name":"cielael","steam_id":76561198043971956,"connected_time":1154000000000,"state":"active","ping":50},{"user_id":155,"name":"Do cOck","steam_id":76561198132755619,"connected_time":2153000000000,"state":"active","ping":39},{"user_id":156,"name":"Your Favorite Fearless Hero","steam_id":76561199127590316,"connected_time":2123000000000,"state":"active","ping":57},{"user_id":179,"name":"Kazoo","steam_id":76561199229748300,"connected_time":835000000000,"state":"active","ping":60},{"user_id":181,"name":"freyja","steam_id":76561198012480197,"connected_time":778000000000,"state":"active","ping":51},{"user_id":130,"name":"iFunny user","steam_id":76561198988499660,"connected_time":3168000000000,"state":"active","ping":67},{"user_id":186,"name":"MayKaye","steam_id":76561199016092265,"connected_time":198000000000,"state":"active","ping":68},{"user_id":157,"name":"fartstreaks employed","steam_id":76561198046073848,"connected_time":2084000000000,"state":"active","ping":66},{"user_id":153,"name":"elephant thumb","steam_id":76561198118859752,"connected_time":2331000000000,"state":"active","ping":69},{"user_id":190,"name":"fluffytail309","steam_id":76561199491688974,"connected_time":62000000000,"state":"active","ping":99},{"user_id":159,"name":"Wutzitmatter","steam_id":76561198067140513,"connected_time":1962000000000,"state":"active","ping":63},{"user_id":166,"name":"VoodooPapa","steam_id":76561199160439066,"connected_time":1376000000000,"state":"active","ping":58},{"user_id":163,"name":"depeche","steam_id":76561199497603020,"connected_time":1539000000000,"state":"active","ping":45},{"user_id":183,"name":"walrooos","steam_id":76561198024521839,"connected_time":212000000000,"state":"active","ping":46},{"user_id":177,"name":"Frank Accardi","steam_id":76561198017275707,"connected_time":918000000000,"state":"active","ping":66},{"user_id":167,"name":"self sufficient kitten","steam_id":76561197960592612,"connected_time":1274000000000,"state":"active","ping":75},{"user_id":184,"name":"Cebula33","steam_id":76561197984964095,"connected_time":210000000000,"state":"active","ping":56},{"user_id":191,"name":"Joseph M. Mother.","steam_id":76561199098519324,"connected_time":57000000000,"state":"active","ping":123},{"user_id":188,"name":"weed lesbian","steam_id":76561198042263805,"connected_time":129000000000,"state":"active","ping":77},{"user_id":152,"name":"FaZe hyaz (like to meow.. ALOT)","steam_id":76561199100342013,"connected_time":2473000000000,"state":"active","ping":46}]},{"server_id":25,"name":"Uncletopia | Los Angeles | 4 | Stopwatch","name_short":"lax-4","host":"lax-1.us.uncletopia.com","port":27045,"enabled":true,"region":"us-west","cc":"us","latitude":33.94279,"longitude":-118.41004,"reserved":0,"last_update":"0001-01-01T00:00:00Z","name_a2s":"Uncletopia | Los Angeles | 4 | Stopwatch","protocol":17,"map":"pl_barnblitz","folder":"tf","game":"Team Fortress","app_id":440,"player_count":0,"max_players":24,"Bots":0,"server_type":"Dedicated","server_os":"Linux","password":true,"vac":true,"version":"7961495","steam_id":85568392924510199,"keywords":["nocrits","nodmgspread","payload","uncletopia"],"game_id":440,"stv_port":27046,"stv_name":"Uncletopia | Los Angeles | 4 | Stopwatch | STV","players":null},{"server_id":11,"name":"Uncletopia | London | 1 | All Maps","name_short":"lon-1","host":"lon-1.uk.uncletopia.com","port":27015,"enabled":true,"region":"eu","cc":"gb","latitude":51.509865,"longitude":-0.118092,"reserved":0,"last_update":"0001-01-01T00:00:00Z","name_a2s":"Uncletopia | London | 1 | All Maps","protocol":17,"map":"koth_cascade","folder":"tf","game":"Team Fortress","app_id":440,"player_count":1,"max_players":24,"Bots":0,"server_type":"Dedicated","server_os":"Linux","password":true,"vac":true,"version":"7961495","steam_id":85568392924367362,"keywords":["cp","nocrits","nodmgspread","uncletopia"],"game_id":440,"stv_port":27016,"stv_name":"Uncletopia | London | 1 | All Maps | STV","players":[{"user_id":821,"name":"Tryborya","steam_id":76561199009620947,"connected_time":1636000000000,"state":"active","ping":69}]},{"server_id":114,"name":"Uncletopia | London | 2 | All Maps","name_short":"lon-2","host":"lon-1.uk.uncletopia.com","port":27025,"enabled":true,"region":"eu","cc":"gb","latitude":51.509865,"longitude":-0.118092,"reserved":0,"last_update":"0001-01-01T00:00:00Z","name_a2s":"Uncletopia | London | 2 | All Maps","protocol":17,"map":"cp_dustbowl","folder":"tf","game":"Team Fortress","app_id":440,"player_count":0,"max_players":24,"Bots":0,"server_type":"Dedicated","server_os":"Linux","password":true,"vac":true,"version":"7961495","steam_id":85568392924470941,"keywords":["cp","nocrits","nodmgspread","uncletopia"],"game_id":440,"stv_port":27026,"stv_name":"Uncletopia | London | 2 | All Maps | STV","players":null},{"server_id":320,"name":"Uncletopia | London | 3 | All Maps","name_short":"lon-3","host":"lon-1.uk.uncletopia.com","port":27035,"enabled":true,"region":"eu","cc":"gb","latitude":51.509865,"longitude":-0.118092,"reserved":0,"last_update":"0001-01-01T00:00:00Z","name_a2s":"Uncletopia | London | 3 | All Maps","protocol":17,"map":"cp_mountainlab","folder":"tf","game":"Team Fortress","app_id":440,"player_count":0,"max_players":24,"Bots":0,"server_type":"Dedicated","server_os":"Linux","password":true,"vac":true,"version":"7961495","steam_id":85568392924510192,"keywords":["cp","nocrits","nodmgspread","uncletopia"],"game_id":440,"stv_port":27036,"stv_name":"Uncletopia | London | 3 | All Maps | STV","players":null},{"server_id":321,"name":"Uncletopia | London | 4 | All Maps","name_short":"lon-4","host":"lon-1.uk.uncletopia.com","port":27045,"enabled":true,"region":"eu","cc":"gb","latitude":51.509865,"longitude":-0.118092,"reserved":0,"last_update":"0001-01-01T00:00:00Z","name_a2s":"Uncletopia | London | 4 | All Maps","protocol":17,"map":"koth_cascade","folder":"tf","game":"Team Fortress","app_id":440,"player_count":0,"max_players":24,"Bots":0,"server_type":"Dedicated","server_os":"Linux","password":true,"vac":true,"version":"7961495","steam_id":85568392924510193,"keywords":["cp","nocrits","nodmgspread","uncletopia"],"game_id":440,"stv_port":27046,"stv_name":"Uncletopia | London | 4 | All Maps | STV","players":null},{"server_id":21,"name":"Uncletopia | London | 5 | All Maps","name_short":"lon-5","host":"lon-1.uk.uncletopia.com","port":27055,"enabled":true,"region":"eu","cc":"gb","latitude":51.509865,"longitude":-0.118092,"reserved":0,"last_update":"0001-01-01T00:00:00Z","name_a2s":"Uncletopia | London | 5 | All Maps","protocol":17,"map":"koth_highpass","folder":"tf","game":"Team Fortress","app_id":440,"player_count":0,"max_players":24,"Bots":0,"server_type":"Dedicated","server_os":"Linux","password":true,"vac":true,"version":"7961495","steam_id":85568392924742829,"keywords":["cp","nocrits","nodmgspread","uncletopia"],"game_id":440,"stv_port":27056,"stv_name":"Uncletopia | London | 5 | All Maps | STV","players":null},{"server_id":22,"name":"Uncletopia | London | 6 | All Maps","name_short":"lon-6","host":"lon-1.uk.uncletopia.com","port":27065,"enabled":true,"region":"eu","cc":"gb","latitude":51.509865,"longitude":-0.118092,"reserved":0,"last_update":"0001-01-01T00:00:00Z","name_a2s":"Uncletopia | London | 6 | All Maps","protocol":17,"map":"cp_snakewater_final1","folder":"tf","game":"Team Fortress","app_id":440,"player_count":0,"max_players":24,"Bots":0,"server_type":"Dedicated","server_os":"Linux","password":true,"vac":true,"version":"7961495","steam_id":85568392924742830,"keywords":["cp","nocrits","nodmgspread","uncletopia"],"game_id":440,"stv_port":27066,"stv_name":"Uncletopia | London | 6 | All Maps | STV","players":null},{"server_id":40,"name":"Uncletopia | London | 7 | Stopwatch","name_short":"lon-7","host":"lon-1.uk.uncletopia.com","port":27075,"enabled":true,"region":"eu","cc":"gb","latitude":51.509865,"longitude":-0.118092,"reserved":0,"last_update":"0001-01-01T00:00:00Z","name_a2s":"Uncletopia | London | 7 | Stopwatch","protocol":17,"map":"workshop/koth_ashville_final.ugc2130459942","folder":"tf","game":"Team Fortress","app_id":440,"player_count":0,"max_players":24,"Bots":0,"server_type":"Dedicated","server_os":"Linux","password":true,"vac":true,"version":"7961495","steam_id":85568392924964314,"keywords":["cp","nocrits","nodmgspread","uncletopia"],"game_id":440,"stv_port":27076,"stv_name":"Uncletopia | London | 7 | Stopwatch | STV","players":null},{"server_id":41,"name":"Uncletopia | London | 8 | Community","name_short":"lon-8","host":"lon-1.uk.uncletopia.com","port":27085,"enabled":true,"region":"eu","cc":"gb","latitude":51.509865,"longitude":-0.118092,"reserved":0,"last_update":"0001-01-01T00:00:00Z","name_a2s":"Uncletopia | London | 8 | Community","protocol":17,"map":"workshop/koth_product_final.ugc454272353","folder":"tf","game":"Team Fortress","app_id":440,"player_count":0,"max_players":24,"Bots":0,"server_type":"Dedicated","server_os":"Linux","password":true,"vac":true,"version":"7961495","steam_id":85568392924964315,"keywords":["cp","nocrits","nodmgspread","uncletopia"],"game_id":440,"stv_port":27086,"stv_name":"Uncletopia | London | 8 | Community | STV","players":null},{"server_id":300,"name":"Uncletopia | Montréal | 1 | One Thousand Uncles","name_short":"mtl-1","host":"mtl-1.ca.uncletopia.com","port":27015,"enabled":true,"region":"us-east","cc":"ca","latitude":45.50889,"longitude":-73.56167,"reserved":0,"last_update":"0001-01-01T00:00:00Z","name_a2s":"","protocol":0,"map":"","folder":"","game":"","app_id":0,"player_count":14,"max_players":0,"Bots":0,"server_type":"","server_os":"","password":false,"vac":false,"version":"","steam_id":0,"keywords":null,"game_id":0,"stv_port":0,"stv_name":"","players":[{"user_id":167,"name":"ExplosiveGamer21","steam_id":76561198132370955,"connected_time":1925000000000,"state":"active","ping":120},{"user_id":194,"name":"Wilbur","steam_id":76561198341220433,"connected_time":564000000000,"state":"active","ping":141},{"user_id":213,"name":"Mr.Roko","steam_id":76561198297223309,"connected_time":116000000000,"state":"active","ping":119},{"user_id":166,"name":"walterfishing_17","steam_id":76561198976904099,"connected_time":2098000000000,"state":"active","ping":83},{"user_id":115,"name":"Joe Nathan","steam_id":76561198041030399,"connected_time":4053000000000,"state":"active","ping":90},{"user_id":55,"name":"hashmap","steam_id":76561198043794014,"connected_time":6854000000000,"state":"active","ping":45},{"user_id":215,"name":"BrotchaDoor","steam_id":76561198317474583,"connected_time":38000000000,"state":"active","ping":73},{"user_id":168,"name":"Hoxton","steam_id":76561198129209505,"connected_time":1796000000000,"state":"active","ping":159},{"user_id":113,"name":"Brison","steam_id":76561198051370524,"connected_time":4182000000000,"state":"active","ping":104},{"user_id":109,"name":"Congcrab","steam_id":76561198078687685,"connected_time":4740000000000,"state":"active","ping":91},{"user_id":172,"name":"1-800-GHOST-DANCE","steam_id":76561198835430429,"connected_time":1334000000000,"state":"active","ping":90},{"user_id":170,"name":"TPScout","steam_id":76561198353808504,"connected_time":1590000000000,"state":"active","ping":74},{"user_id":67,"name":"Tom Crúaich","steam_id":76561197999439911,"connected_time":6166000000000,"state":"active","ping":93},{"user_id":171,"name":"rabidhyperfocus","steam_id":76561198101495169,"connected_time":1488000000000,"state":"active","ping":86}]},{"server_id":301,"name":"Uncletopia | Montréal | 2 | One Thousand Uncles","name_short":"mtl-2","host":"mtl-1.ca.uncletopia.com","port":27025,"enabled":true,"region":"us-east","cc":"ca","latitude":45.50889,"longitude":-73.56167,"reserved":0,"last_update":"0001-01-01T00:00:00Z","name_a2s":"","protocol":0,"map":"","folder":"","game":"","app_id":0,"player_count":10,"max_players":0,"Bots":0,"server_type":"","server_os":"","password":false,"vac":false,"version":"","steam_id":0,"keywords":null,"game_id":0,"stv_port":0,"stv_name":"","players":[{"user_id":24,"name":"Engineer Gaming Live","steam_id":76561198045914603,"connected_time":7104000000000,"state":"active","ping":89},{"user_id":42,"name":"SirParker135","steam_id":76561198450302639,"connected_time":7076000000000,"state":"active","ping":141},{"user_id":137,"name":"ACrispSlimJim","steam_id":76561198145913920,"connected_time":606000000000,"state":"active","ping":79},{"user_id":138,"name":"Critkey","steam_id":76561198450820435,"connected_time":537000000000,"state":"active","ping":108},{"user_id":45,"name":"The Engineer is Engiqueer","steam_id":76561198177310341,"connected_time":6947000000000,"state":"active","ping":116},{"user_id":140,"name":"skrill issue","steam_id":76561198104086771,"connected_time":230000000000,"state":"active","ping":114},{"user_id":104,"name":"RacoonGamer","steam_id":76561198100907657,"connected_time":2822000000000,"state":"active","ping":45},{"user_id":115,"name":"๖ۣۜSimonۣۜ๖","steam_id":76561198055958749,"connected_time":1297000000000,"state":"active","ping":92},{"user_id":113,"name":"MDL (real)","steam_id":76561198203256620,"connected_time":1354000000000,"state":"active","ping":137},{"user_id":75,"name":"Hawkuro","steam_id":76561198252194838,"connected_time":4882000000000,"state":"active","ping":135}]},{"server_id":302,"name":"Uncletopia | Montréal | 3 | One Thousand Uncles","name_short":"mtl-3","host":"mtl-1.ca.uncletopia.com","port":27035,"enabled":true,"region":"us-east","cc":"ca","latitude":45.50889,"longitude":-73.56167,"reserved":0,"last_update":"0001-01-01T00:00:00Z","name_a2s":"","protocol":0,"map":"","folder":"","game":"","app_id":0,"player_count":0,"max_players":0,"Bots":0,"server_type":"","server_os":"","password":false,"vac":false,"version":"","steam_id":0,"keywords":null,"game_id":0,"stv_port":0,"stv_name":"","players":null},{"server_id":13,"name":"Uncletopia | New York City | 1 | All Maps","name_short":"nyc-1","host":"nyc-1.us.uncletopia.com","port":27015,"enabled":true,"region":"us-east","cc":"us","latitude":40.73061,"longitude":-73.93524,"reserved":0,"last_update":"0001-01-01T00:00:00Z","name_a2s":"Uncletopia | New York City | 1 | All Maps","protocol":17,"map":"cp_process_final","folder":"tf","game":"Team Fortress","app_id":440,"player_count":23,"max_players":24,"Bots":0,"server_type":"Dedicated","server_os":"Linux","password":true,"vac":true,"version":"7961495","steam_id":85568392924469993,"keywords":["cp","nocrits","nodmgspread","uncletopia"],"game_id":440,"stv_port":27016,"stv_name":"Uncletopia | New York City | 1 | All Maps | STV","players":[{"user_id":521,"name":"It's FoolMoon","steam_id":76561198153344375,"connected_time":2233000000000,"state":"active","ping":33},{"user_id":555,"name":"hambone fakenamington","steam_id":76561197973249427,"connected_time":18000000000,"state":"active","ping":71},{"user_id":539,"name":"murdering mood","steam_id":76561198088384838,"connected_time":1305000000000,"state":"active","ping":58},{"user_id":506,"name":"taigaxx","steam_id":76561198202669250,"connected_time":4293000000000,"state":"active","ping":65},{"user_id":553,"name":"soof","steam_id":76561198043762955,"connected_time":216000000000,"state":"active","ping":48},{"user_id":512,"name":"Marc Antony","steam_id":76561198011366517,"connected_time":3308000000000,"state":"active","ping":45},{"user_id":544,"name":"xhon (got the puter back!!!!!)","steam_id":76561198089691679,"connected_time":973000000000,"state":"active","ping":50},{"user_id":513,"name":"Scoob","steam_id":76561198078633301,"connected_time":2922000000000,"state":"active","ping":50},{"user_id":545,"name":"Astoriae!","steam_id":76561199090168858,"connected_time":899000000000,"state":"active","ping":52},{"user_id":535,"name":"Great","steam_id":76561198895516433,"connected_time":1813000000000,"state":"active","ping":65},{"user_id":546,"name":"Mr. Call You Back","steam_id":76561198025172811,"connected_time":887000000000,"state":"active","ping":41},{"user_id":538,"name":"Feces","steam_id":76561198380219187,"connected_time":1382000000000,"state":"active","ping":67},{"user_id":537,"name":"squaggles!","steam_id":76561197994995011,"connected_time":1571000000000,"state":"active","ping":59},{"user_id":554,"name":"sonikro","steam_id":76561197989428692,"connected_time":58000000000,"state":"active","ping":60},{"user_id":518,"name":"yoshido","steam_id":76561198846313229,"connected_time":2458000000000,"state":"active","ping":60},{"user_id":541,"name":"Ras","steam_id":76561198123546775,"connected_time":1036000000000,"state":"active","ping":80},{"user_id":550,"name":"Brian Family","steam_id":76561199129969202,"connected_time":371000000000,"state":"active","ping":85},{"user_id":402,"name":"Zoey Cakes","steam_id":76561198080247936,"connected_time":12915000000000,"state":"active","ping":90},{"user_id":531,"name":"toastman","steam_id":76561198207073088,"connected_time":2158000000000,"state":"active","ping":91},{"user_id":465,"name":"Byte","steam_id":76561197995281363,"connected_time":7428000000000,"state":"active","ping":100},{"user_id":536,"name":"Rambly Dambly","steam_id":76561198844496567,"connected_time":1810000000000,"state":"active","ping":32},{"user_id":548,"name":"ed cook","steam_id":76561198043987486,"connected_time":690000000000,"state":"active","ping":43},{"user_id":549,"name":"Suck Her Dick Sunday","steam_id":76561198029274581,"connected_time":652000000000,"state":"active","ping":70}]},{"server_id":14,"name":"Uncletopia | New York City | 2 | All Maps","name_short":"nyc-2","host":"nyc-1.us.uncletopia.com","port":27025,"enabled":true,"region":"us-east","cc":"us","latitude":40.73061,"longitude":-73.93524,"reserved":0,"last_update":"0001-01-01T00:00:00Z","name_a2s":"Uncletopia | New York City | 2 | All Maps","protocol":17,"map":"pl_pier","folder":"tf","game":"Team Fortress","app_id":440,"player_count":24,"max_players":24,"Bots":0,"server_type":"Dedicated","server_os":"Linux","password":true,"vac":true,"version":"7961495","steam_id":85568392924469994,"keywords":["nocrits","nodmgspread","payload","uncletopia"],"game_id":440,"stv_port":27026,"stv_name":"Uncletopia | New York City | 2 | All Maps | STV","players":[{"user_id":482,"name":"Psychosis","steam_id":76561198078659070,"connected_time":46000000000,"state":"active","ping":74},{"user_id":398,"name":"Braamklauw","steam_id":76561198283287697,"connected_time":4996000000000,"state":"active","ping":144},{"user_id":449,"name":"Maragi (ace defective)","steam_id":76561198051372868,"connected_time":2283000000000,"state":"active","ping":31},{"user_id":428,"name":"St. Bobson Q Dugnutt III Esq Sr","steam_id":76561197993459985,"connected_time":3829000000000,"state":"active","ping":58},{"user_id":437,"name":"ndvr","steam_id":76561199379200102,"connected_time":2924000000000,"state":"active","ping":43},{"user_id":458,"name":"emily nymph","steam_id":76561199249569889,"connected_time":1723000000000,"state":"active","ping":134},{"user_id":433,"name":"boo_thefeared","steam_id":76561198127967685,"connected_time":3346000000000,"state":"active","ping":124},{"user_id":413,"name":"Sir Quacksalot","steam_id":76561198048942777,"connected_time":4437000000000,"state":"active","ping":94},{"user_id":480,"name":"FUSION","steam_id":76561197972659738,"connected_time":228000000000,"state":"active","ping":31},{"user_id":396,"name":"greepfan","steam_id":76561198064359644,"connected_time":5248000000000,"state":"active","ping":47},{"user_id":381,"name":"Spiral Mountain","steam_id":76561198058683715,"connected_time":6718000000000,"state":"active","ping":68},{"user_id":476,"name":"totally not a pile of beans","steam_id":76561198119851931,"connected_time":718000000000,"state":"active","ping":62},{"user_id":470,"name":"soltuno","steam_id":76561198074430565,"connected_time":1004000000000,"state":"active","ping":125},{"user_id":481,"name":"tell me your favorite dinosaur","steam_id":76561198080310253,"connected_time":160000000000,"state":"active","ping":117},{"user_id":467,"name":"Christian Bonnie","steam_id":76561199194702127,"connected_time":1360000000000,"state":"active","ping":109},{"user_id":369,"name":"Trusty","steam_id":76561198035444237,"connected_time":7361000000000,"state":"active","ping":51},{"user_id":432,"name":"Bee_Pirate","steam_id":76561199000599111,"connected_time":3527000000000,"state":"active","ping":60},{"user_id":389,"name":"Bert.","steam_id":76561198140666346,"connected_time":5859000000000,"state":"active","ping":49},{"user_id":459,"name":"LordOfTheNoobs","steam_id":76561197962697523,"connected_time":1707000000000,"state":"active","ping":78},{"user_id":473,"name":"Justinbk","steam_id":76561198076047549,"connected_time":876000000000,"state":"active","ping":62},{"user_id":474,"name":"Dan","steam_id":76561199236719411,"connected_time":792000000000,"state":"active","ping":88},{"user_id":472,"name":"she's Ricking on my Pickle","steam_id":76561198043907258,"connected_time":948000000000,"state":"active","ping":68},{"user_id":477,"name":"DeanAdamFry","steam_id":76561198054153160,"connected_time":718000000000,"state":"active","ping":118},{"user_id":447,"name":"High School Nudical","steam_id":76561198172120615,"connected_time":2383000000000,"state":"active","ping":40}]},{"server_id":15,"name":"Uncletopia | New York City | 3 | Stopwatch","name_short":"nyc-3","host":"nyc-1.us.uncletopia.com","port":27035,"enabled":true,"region":"us-east","cc":"us","latitude":40.73061,"longitude":-73.93524,"reserved":0,"last_update":"0001-01-01T00:00:00Z","name_a2s":"Uncletopia | New York City | 3 | Stopwatch","protocol":17,"map":"workshop/koth_clearcut_b15.ugc2107050255","folder":"tf","game":"Team Fortress","app_id":440,"player_count":0,"max_players":24,"Bots":0,"server_type":"Dedicated","server_os":"Linux","password":true,"vac":true,"version":"7961495","steam_id":85568392924742820,"keywords":["cp","nocrits","nodmgspread","uncletopia"],"game_id":440,"stv_port":27036,"stv_name":"Uncletopia | New York City | 3 | Stopwatch | STV","players":null},{"server_id":16,"name":"Uncletopia | New York City | 4 | Community","name_short":"nyc-4","host":"nyc-1.us.uncletopia.com","port":27045,"enabled":true,"region":"us-east","cc":"us","latitude":40.73061,"longitude":-73.93524,"reserved":0,"last_update":"0001-01-01T00:00:00Z","name_a2s":"Uncletopia | New York City | 4 | Community","protocol":17,"map":"workshop/rd_asteroid_redux_b1.ugc2154902912","folder":"tf","game":"Team Fortress","app_id":440,"player_count":0,"max_players":24,"Bots":0,"server_type":"Dedicated","server_os":"Linux","password":true,"vac":true,"version":"7961495","steam_id":85568392924742821,"keywords":["beta","nocrits","nodmgspread","rd","uncletopia"],"game_id":440,"stv_port":27046,"stv_name":"Uncletopia | New York City | 4 | Community | STV","players":null},{"server_id":142,"name":"Uncletopia | São Paulo | 1 | All Maps","name_short":"sao-1","host":"sao-1.br.uncletopia.com","port":27015,"enabled":true,"region":"sa","cc":"br","latitude":-23.533773,"longitude":-46.62529,"reserved":0,"last_update":"0001-01-01T00:00:00Z","name_a2s":"Uncletopia | São Paulo | 1 | All Maps","protocol":17,"map":"koth_highpass","folder":"tf","game":"Team Fortress","app_id":440,"player_count":0,"max_players":24,"Bots":0,"server_type":"Dedicated","server_os":"Linux","password":true,"vac":true,"version":"7961495","steam_id":85568392924469996,"keywords":["cp","nocrits","nodmgspread","uncletopia"],"game_id":440,"stv_port":27016,"stv_name":"Uncletopia | São Paulo | 1 | All Maps | STV","players":null},{"server_id":143,"name":"Uncletopia | São Paulo | 2 | Community","name_short":"sao-2","host":"sao-2.br.uncletopia.com","port":27015,"enabled":true,"region":"sa","cc":"br","latitude":-23.533773,"longitude":-46.62529,"reserved":0,"last_update":"0001-01-01T00:00:00Z","name_a2s":"Uncletopia | São Paulo | 2 | Community","protocol":17,"map":"workshop/koth_ramjam_rc1.ugc459778887","folder":"tf","game":"Team Fortress","app_id":440,"player_count":0,"max_players":24,"Bots":0,"server_type":"Dedicated","server_os":"Linux","password":true,"vac":true,"version":"7961495","steam_id":85568392924485349,"keywords":["cp","nocrits","nodmgspread","uncletopia"],"game_id":440,"stv_port":27016,"stv_name":"Uncletopia | São Paulo | 2 | Community | STV","players":null},{"server_id":7,"name":"Uncletopia | Seattle | 1 | All Maps","name_short":"sea-1","host":"sea-1.us.uncletopia.com","port":27015,"enabled":true,"region":"us-west","cc":"us","latitude":47.608013,"longitude":-122.33517,"reserved":0,"last_update":"0001-01-01T00:00:00Z","name_a2s":"Uncletopia | Seattle | 1 | All Maps","protocol":17,"map":"pl_borneo","folder":"tf","game":"Team Fortress","app_id":440,"player_count":23,"max_players":24,"Bots":0,"server_type":"Dedicated","server_os":"Linux","password":true,"vac":true,"version":"7961495","steam_id":85568392924469997,"keywords":["nocrits","nodmgspread","payload","uncletopia"],"game_id":440,"stv_port":27016,"stv_name":"Uncletopia | Seattle | 1 | All Maps | STV","players":[{"user_id":697,"name":"pop-lo","steam_id":76561199309961848,"connected_time":854000000000,"state":"spawning","ping":111},{"user_id":683,"name":"Level 3 hotdog enjoyer","steam_id":76561198870649125,"connected_time":1483000000000,"state":"active","ping":84},{"user_id":702,"name":"a cat plushie","steam_id":76561198080046542,"connected_time":58000000000,"state":"active","ping":80},{"user_id":687,"name":"[72Vs] James Yeetoe","steam_id":76561198314789145,"connected_time":1336000000000,"state":"active","ping":52},{"user_id":633,"name":"COOL master_9","steam_id":76561198073041151,"connected_time":5833000000000,"state":"active","ping":102},{"user_id":637,"name":"squart guy","steam_id":76561199411560141,"connected_time":5703000000000,"state":"active","ping":62},{"user_id":688,"name":"I am the pinnacle of funny","steam_id":76561198306393090,"connected_time":1295000000000,"state":"active","ping":93},{"user_id":676,"name":"steezy","steam_id":76561198263134652,"connected_time":1577000000000,"state":"active","ping":63},{"user_id":694,"name":"jayeskae","steam_id":76561198144220801,"connected_time":981000000000,"state":"active","ping":52},{"user_id":691,"name":"SmallErection","steam_id":76561198071770147,"connected_time":1185000000000,"state":"active","ping":79},{"user_id":698,"name":"bear","steam_id":76561198848119263,"connected_time":809000000000,"state":"active","ping":155},{"user_id":636,"name":"BlueSlugcat","steam_id":76561198153004590,"connected_time":5764000000000,"state":"active","ping":100},{"user_id":700,"name":"ilun","steam_id":76561198042913843,"connected_time":221000000000,"state":"active","ping":55},{"user_id":693,"name":"Cyber","steam_id":76561198323298672,"connected_time":1031000000000,"state":"spawning","ping":49},{"user_id":678,"name":"scallop pigeon","steam_id":76561199488457138,"connected_time":1555000000000,"state":"active","ping":53},{"user_id":641,"name":"Gwen","steam_id":76561198276385778,"connected_time":5290000000000,"state":"active","ping":59},{"user_id":695,"name":"Steve","steam_id":76561198352805460,"connected_time":915000000000,"state":"active","ping":96},{"user_id":686,"name":"Seriously Bruh","steam_id":76561198070408485,"connected_time":1464000000000,"state":"active","ping":50},{"user_id":655,"name":"Tom Skirrett","steam_id":76561198014600788,"connected_time":3483000000000,"state":"active","ping":66},{"user_id":656,"name":"=Silver=","steam_id":76561198292307127,"connected_time":3468000000000,"state":"active","ping":98},{"user_id":701,"name":"[72Vs] Far_Beyond_Liber-tea","steam_id":76561198070649733,"connected_time":66000000000,"state":"active","ping":51},{"user_id":685,"name":"rat with allergies","steam_id":76561198062451648,"connected_time":1478000000000,"state":"active","ping":88},{"user_id":671,"name":"Elbow Joint","steam_id":76561198072149974,"connected_time":2341000000000,"state":"active","ping":89}]},{"server_id":119,"name":"Uncletopia | Seattle | 2 | All Maps","name_short":"sea-2","host":"sea-1.us.uncletopia.com","port":27025,"enabled":true,"region":"us-west","cc":"us","latitude":47.608013,"longitude":-122.33517,"reserved":0,"last_update":"0001-01-01T00:00:00Z","name_a2s":"Uncletopia | Seattle | 2 | All Maps","protocol":17,"map":"pl_frontier_final","folder":"tf","game":"Team Fortress","app_id":440,"player_count":24,"max_players":24,"Bots":0,"server_type":"Dedicated","server_os":"Linux","password":true,"vac":true,"version":"7961495","steam_id":85568392924469998,"keywords":["nocrits","nodmgspread","payload","uncletopia"],"game_id":440,"stv_port":27026,"stv_name":"Uncletopia | Seattle | 2 | All Maps | STV","players":[{"user_id":372,"name":"Chap","steam_id":76561198294226443,"connected_time":1621000000000,"state":"active","ping":75},{"user_id":305,"name":"Mr. DeLarge","steam_id":76561198336820066,"connected_time":5109000000000,"state":"active","ping":50},{"user_id":383,"name":"trackpad gaming | f2p","steam_id":76561198840414371,"connected_time":581000000000,"state":"active","ping":47},{"user_id":389,"name":"A UsedNom","steam_id":76561198402832756,"connected_time":300000000000,"state":"active","ping":57},{"user_id":344,"name":"Kañul","steam_id":76561198977359464,"connected_time":2945000000000,"state":"active","ping":170},{"user_id":269,"name":"Dongus","steam_id":76561197979056451,"connected_time":7066000000000,"state":"active","ping":51},{"user_id":378,"name":":)","steam_id":76561198210322871,"connected_time":949000000000,"state":"active","ping":88},{"user_id":339,"name":"aisu","steam_id":76561198043768507,"connected_time":3339000000000,"state":"active","ping":90},{"user_id":385,"name":"prime example of furry L","steam_id":76561198097745857,"connected_time":384000000000,"state":"active","ping":53},{"user_id":359,"name":"Eric4bz","steam_id":76561198054439606,"connected_time":2029000000000,"state":"active","ping":54},{"user_id":376,"name":"Dextersbrain","steam_id":76561198011831579,"connected_time":1282000000000,"state":"active","ping":51},{"user_id":380,"name":"General Fisticuffs","steam_id":76561198255721392,"connected_time":822000000000,"state":"active","ping":108},{"user_id":382,"name":"SorenMaximus","steam_id":76561198962936832,"connected_time":631000000000,"state":"active","ping":49},{"user_id":311,"name":"I AM A DINOSAUR","steam_id":76561198039814201,"connected_time":4851000000000,"state":"active","ping":55},{"user_id":390,"name":"dirty30","steam_id":76561198021226566,"connected_time":155000000000,"state":"active","ping":50},{"user_id":379,"name":"orbisg","steam_id":76561198004133638,"connected_time":915000000000,"state":"active","ping":71},{"user_id":333,"name":"silverspark","steam_id":76561198277421732,"connected_time":3445000000000,"state":"active","ping":77},{"user_id":349,"name":"a festive sooley","steam_id":76561198134500189,"connected_time":2764000000000,"state":"active","ping":103},{"user_id":388,"name":"Qas","steam_id":76561198067564482,"connected_time":360000000000,"state":"active","ping":84},{"user_id":371,"name":"Wheaty","steam_id":76561198003553412,"connected_time":1640000000000,"state":"active","ping":51},{"user_id":357,"name":"Eraser cat","steam_id":76561199045570463,"connected_time":2146000000000,"state":"active","ping":49},{"user_id":336,"name":"DodoBird","steam_id":76561198136880364,"connected_time":3429000000000,"state":"active","ping":122},{"user_id":373,"name":"yowhatupitk","steam_id":76561199224530901,"connected_time":1613000000000,"state":"active","ping":50},{"user_id":386,"name":"Bendidy","steam_id":76561198041964300,"connected_time":384000000000,"state":"active","ping":64}]},{"server_id":406,"name":"Uncletopia | Seattle | 3 | Stopwatch","name_short":"sea-3","host":"sea-1.us.uncletopia.com","port":27035,"enabled":true,"region":"us-west","cc":"us","latitude":47.608013,"longitude":-122.33517,"reserved":0,"last_update":"0001-01-01T00:00:00Z","name_a2s":"Uncletopia | Seattle | 3 | Stopwatch","protocol":17,"map":"koth_highpass","folder":"tf","game":"Team Fortress","app_id":440,"player_count":0,"max_players":24,"Bots":0,"server_type":"Dedicated","server_os":"Linux","password":true,"vac":true,"version":"7961495","steam_id":85568392924515217,"keywords":["cp","nocrits","nodmgspread","uncletopia"],"game_id":440,"stv_port":27036,"stv_name":"Uncletopia | Seattle | 3 | Stopwatch | STV","players":null},{"server_id":17,"name":"Uncletopia | San Francisco | 1 | All Maps","name_short":"sfo-1","host":"sfo-1.us.uncletopia.com","port":27015,"enabled":true,"region":"us-west","cc":"us","latitude":37.77397,"longitude":-122.4313,"reserved":0,"last_update":"0001-01-01T00:00:00Z","name_a2s":"Uncletopia | San Francisco | 1 | All Maps","protocol":17,"map":"pl_barnblitz","folder":"tf","game":"Team Fortress","app_id":440,"player_count":17,"max_players":24,"Bots":0,"server_type":"Dedicated","server_os":"Linux","password":true,"vac":true,"version":"7961495","steam_id":85568392924469999,"keywords":["nocrits","nodmgspread","payload","uncletopia"],"game_id":440,"stv_port":27016,"stv_name":"Uncletopia | San Francisco | 1 | All Maps | STV","players":[{"user_id":218,"name":"JDizzle","steam_id":76561199122696841,"connected_time":1672000000000,"state":"connecting","ping":103},{"user_id":235,"name":"OniSlays","steam_id":76561198043875292,"connected_time":371000000000,"state":"connecting","ping":81},{"user_id":238,"name":"rose","steam_id":76561197995200743,"connected_time":219000000000,"state":"connecting","ping":60},{"user_id":187,"name":"chocky","steam_id":76561198057491296,"connected_time":4042000000000,"state":"connecting","ping":76},{"user_id":233,"name":"Cheesed Burger","steam_id":76561198066425198,"connected_time":457000000000,"state":"connecting","ping":75},{"user_id":234,"name":"TeriyakiDynamite","steam_id":76561198050049346,"connected_time":395000000000,"state":"spawning","ping":80},{"user_id":206,"name":"Nova Academy of Salmon Action","steam_id":76561198021842526,"connected_time":2155000000000,"state":"connecting","ping":59},{"user_id":237,"name":"DBosch","steam_id":76561198064290290,"connected_time":317000000000,"state":"connecting","ping":91},{"user_id":188,"name":"Low IQ Specimen","steam_id":76561198169309768,"connected_time":3989000000000,"state":"connecting","ping":75},{"user_id":211,"name":"Madcows","steam_id":76561198021695614,"connected_time":1952000000000,"state":"connecting","ping":66},{"user_id":213,"name":"Jack Horner in a F-16","steam_id":76561198062438923,"connected_time":1817000000000,"state":"connecting","ping":107},{"user_id":239,"name":"Drapph","steam_id":76561199384213314,"connected_time":143000000000,"state":"connecting","ping":124},{"user_id":214,"name":"for eel? on cod? no carp?","steam_id":76561198095121758,"connected_time":1763000000000,"state":"connecting","ping":60},{"user_id":208,"name":"TheMagicMrWaffle","steam_id":76561198104357256,"connected_time":2028000000000,"state":"connecting","ping":66},{"user_id":240,"name":"El Super Monkey Ball","steam_id":76561198135634819,"connected_time":89000000000,"state":"connecting","ping":70},{"user_id":230,"name":"Drilly22","steam_id":76561198068838338,"connected_time":662000000000,"state":"connecting","ping":109},{"user_id":195,"name":"Igrium","steam_id":76561198119549811,"connected_time":3687000000000,"state":"connecting","ping":69}]},{"server_id":18,"name":"Uncletopia | San Francisco | 2 | All Maps","name_short":"sfo-2","host":"sfo-1.us.uncletopia.com","port":27025,"enabled":true,"region":"us-west","cc":"us","latitude":37.77397,"longitude":-122.4313,"reserved":0,"last_update":"0001-01-01T00:00:00Z","name_a2s":"Uncletopia | San Francisco | 2 | All Maps","protocol":17,"map":"plr_hightower","folder":"tf","game":"Team Fortress","app_id":440,"player_count":24,"max_players":24,"Bots":0,"server_type":"Dedicated","server_os":"Linux","password":true,"vac":true,"version":"7961495","steam_id":85568392924470000,"keywords":["nocrits","nodmgspread","payload","uncletopia"],"game_id":440,"stv_port":27026,"stv_name":"Uncletopia | San Francisco | 2 | All Maps | STV","players":[{"user_id":115,"name":"Bappo","steam_id":76561199110482906,"connected_time":348000000000,"state":"active","ping":79},{"user_id":89,"name":"GoldtoothFour","steam_id":76561198055529332,"connected_time":2475000000000,"state":"active","ping":100},{"user_id":107,"name":"sheep man shaun","steam_id":76561198994349483,"connected_time":754000000000,"state":"active","ping":51},{"user_id":101,"name":"hog cranker","steam_id":76561198073587145,"connected_time":1026000000000,"state":"active","ping":98},{"user_id":63,"name":"♦♣Quadric♥♠","steam_id":76561198061003853,"connected_time":4484000000000,"state":"active","ping":118},{"user_id":112,"name":"Decuplets","steam_id":76561198080661586,"connected_time":549000000000,"state":"active","ping":103},{"user_id":103,"name":"Buswolley","steam_id":76561197995205571,"connected_time":850000000000,"state":"active","ping":46},{"user_id":116,"name":"tqman","steam_id":76561199031963925,"connected_time":334000000000,"state":"active","ping":66},{"user_id":106,"name":"Krustytoepaste","steam_id":76561198320265524,"connected_time":756000000000,"state":"active","ping":72},{"user_id":100,"name":"theProfessor [no PhD]","steam_id":76561198142243867,"connected_time":1210000000000,"state":"active","ping":70},{"user_id":114,"name":"cozmo","steam_id":76561198043167542,"connected_time":468000000000,"state":"active","ping":58},{"user_id":110,"name":"Jpxfred","steam_id":76561199414783749,"connected_time":634000000000,"state":"active","ping":71},{"user_id":35,"name":"kirbo","steam_id":76561199404157971,"connected_time":6025000000000,"state":"active","ping":101},{"user_id":51,"name":"Hero Smasher","steam_id":76561198150681669,"connected_time":5332000000000,"state":"active","ping":51},{"user_id":82,"name":"a_lilypup","steam_id":76561198163640324,"connected_time":3050000000000,"state":"active","ping":54},{"user_id":109,"name":"CPTforever","steam_id":76561198237767198,"connected_time":717000000000,"state":"active","ping":45},{"user_id":92,"name":"aaaahhhhhhh","steam_id":76561198131360063,"connected_time":2234000000000,"state":"active","ping":80},{"user_id":80,"name":"XxDragon4321xX","steam_id":76561198046705735,"connected_time":3318000000000,"state":"active","ping":79},{"user_id":111,"name":"Fajita Master","steam_id":76561198329150962,"connected_time":572000000000,"state":"active","ping":100},{"user_id":72,"name":"Karg","steam_id":76561198091387866,"connected_time":3783000000000,"state":"active","ping":60},{"user_id":45,"name":"habanero chilli pepper","steam_id":76561197970371943,"connected_time":5740000000000,"state":"active","ping":160},{"user_id":97,"name":"Tuna!","steam_id":76561198354590331,"connected_time":1483000000000,"state":"active","ping":74},{"user_id":98,"name":"Alchemist","steam_id":76561198094238189,"connected_time":1457000000000,"state":"active","ping":72},{"user_id":113,"name":"Trouser Snivy","steam_id":76561198073788829,"connected_time":533000000000,"state":"active","ping":91}]},{"server_id":19,"name":"Uncletopia | San Francisco | 3 | Stopwatch","name_short":"sfo-3","host":"sfo-1.us.uncletopia.com","port":27035,"enabled":true,"region":"us-west","cc":"us","latitude":37.77397,"longitude":-122.4313,"reserved":0,"last_update":"0001-01-01T00:00:00Z","name_a2s":"Uncletopia | San Francisco | 3 | Stopwatch","protocol":17,"map":"workshop/koth_product_final.ugc454272353","folder":"tf","game":"Team Fortress","app_id":440,"player_count":3,"max_players":24,"Bots":0,"server_type":"Dedicated","server_os":"Linux","password":true,"vac":true,"version":"7961495","steam_id":85568392924742824,"keywords":["cp","nocrits","nodmgspread","uncletopia"],"game_id":440,"stv_port":27036,"stv_name":"Uncletopia | San Francisco | 3 | Stopwatch | STV","players":[{"user_id":12,"name":"Blake","steam_id":76561198884871311,"connected_time":451000000000,"state":"active","ping":78},{"user_id":13,"name":"NotAToaster","steam_id":76561198349938357,"connected_time":375000000000,"state":"active","ping":95},{"user_id":14,"name":"Slylonewolf47","steam_id":76561198866163330,"connected_time":363000000000,"state":"active","ping":47}]},{"server_id":20,"name":"Uncletopia | San Francisco | 4 | Community","name_short":"sfo-4","host":"sfo-1.us.uncletopia.com","port":27045,"enabled":true,"region":"us-west","cc":"us","latitude":37.77397,"longitude":-122.4313,"reserved":0,"last_update":"0001-01-01T00:00:00Z","name_a2s":"Uncletopia | San Francisco | 4 | Community","protocol":17,"map":"workshop/cp_glacier_rc6.ugc2905735376","folder":"tf","game":"Team Fortress","app_id":440,"player_count":0,"max_players":24,"Bots":0,"server_type":"Dedicated","server_os":"Linux","password":true,"vac":true,"version":"7961495","steam_id":85568392924742826,"keywords":["cp","nocrits","nodmgspread","uncletopia"],"game_id":440,"stv_port":27046,"stv_name":"Uncletopia | San Francisco | 4 | Community | STV","players":null},{"server_id":141,"name":"Uncletopia | Sydney | 1 | All Maps","name_short":"syd-1","host":"syd-1.au.uncletopia.com","port":27015,"enabled":true,"region":"au","cc":"au","latitude":-33.865143,"longitude":151.2099,"reserved":0,"last_update":"0001-01-01T00:00:00Z","name_a2s":"Uncletopia | Sydney | 1 | All Maps","protocol":17,"map":"cp_dustbowl","folder":"tf","game":"Team Fortress","app_id":440,"player_count":13,"max_players":24,"Bots":0,"server_type":"Dedicated","server_os":"Linux","password":true,"vac":true,"version":"7961495","steam_id":85568392924470001,"keywords":["cp","nocrits","nodmgspread","uncletopia"],"game_id":440,"stv_port":27016,"stv_name":"Uncletopia | Sydney | 1 | All Maps | STV","players":[{"user_id":38,"name":"Mayonnaise","steam_id":76561199001871472,"connected_time":349000000000,"state":"active","ping":55},{"user_id":42,"name":"E.T (ʘ‿ʘ)つ","steam_id":76561198037009287,"connected_time":63000000000,"state":"active","ping":51},{"user_id":30,"name":"Blondie","steam_id":76561198046977058,"connected_time":1285000000000,"state":"active","ping":63},{"user_id":32,"name":"human696982","steam_id":76561199496222946,"connected_time":1081000000000,"state":"active","ping":172},{"user_id":40,"name":"speed bomb","steam_id":76561198277363788,"connected_time":240000000000,"state":"active","ping":66},{"user_id":27,"name":"💢MsLisbeth💢","steam_id":76561198178151759,"connected_time":1709000000000,"state":"active","ping":51},{"user_id":44,"name":"Skulls","steam_id":76561197985470159,"connected_time":41000000000,"state":"active","ping":58},{"user_id":18,"name":"Aben","steam_id":76561198028555097,"connected_time":2003000000000,"state":"active","ping":75},{"user_id":19,"name":"The observer","steam_id":76561199257116847,"connected_time":1924000000000,"state":"active","ping":54},{"user_id":21,"name":"Sliced Toast","steam_id":76561199220276252,"connected_time":1875000000000,"state":"active","ping":69},{"user_id":37,"name":"Max","steam_id":76561198088406066,"connected_time":430000000000,"state":"active","ping":115},{"user_id":45,"name":"LancerAnimates","steam_id":76561199446896562,"connected_time":37000000000,"state":"active","ping":64},{"user_id":35,"name":"boy23967","steam_id":76561199218124837,"connected_time":845000000000,"state":"active","ping":54}]},{"server_id":123,"name":"Uncletopia | Sydney | 2 | All Maps","name_short":"syd-2","host":"syd-1.au.uncletopia.com","port":27025,"enabled":true,"region":"au","cc":"au","latitude":-33.865143,"longitude":151.2099,"reserved":0,"last_update":"0001-01-01T00:00:00Z","name_a2s":"Uncletopia | Sydney | 2 | All Maps","protocol":17,"map":"koth_lakeside_final","folder":"tf","game":"Team Fortress","app_id":440,"player_count":0,"max_players":24,"Bots":0,"server_type":"Dedicated","server_os":"Linux","password":true,"vac":true,"version":"7961495","steam_id":85568392924470002,"keywords":["cp","nocrits","nodmgspread","uncletopia"],"game_id":440,"stv_port":27026,"stv_name":"Uncletopia | Sydney | 2 | All Maps | STV","players":null},{"server_id":395,"name":"Uncletopia | Sydney | 3 | All Maps","name_short":"syd-3","host":"syd-1.au.uncletopia.com","port":27035,"enabled":true,"region":"au","cc":"au","latitude":-33.865143,"longitude":151.2099,"reserved":0,"last_update":"0001-01-01T00:00:00Z","name_a2s":"Uncletopia | Sydney | 3 | All Maps","protocol":17,"map":"pl_frontier_final","folder":"tf","game":"Team Fortress","app_id":440,"player_count":4,"max_players":24,"Bots":0,"server_type":"Dedicated","server_os":"Linux","password":true,"vac":true,"version":"7961495","steam_id":85568392925194467,"keywords":["nocrits","nodmgspread","payload","uncletopia"],"game_id":440,"stv_port":27036,"stv_name":"Uncletopia | Sydney | 3 | All Maps | STV","players":[{"user_id":3,"name":"Banana factory","steam_id":76561199112055933,"connected_time":141000000000,"state":"active","ping":73},{"user_id":4,"name":"Marrow","steam_id":76561199137552723,"connected_time":134000000000,"state":"active","ping":69},{"user_id":5,"name":"Rico McDragon","steam_id":76561199252363831,"connected_time":128000000000,"state":"active","ping":71},{"user_id":6,"name":"Shikaku_Rei","steam_id":76561198302607316,"connected_time":120000000000,"state":"active","ping":68}]},{"server_id":396,"name":"Uncletopia | Sydney | 4 | All Maps","name_short":"syd-4","host":"syd-1.au.uncletopia.com","port":27045,"enabled":true,"region":"au","cc":"au","latitude":-33.865143,"longitude":151.2099,"reserved":0,"last_update":"0001-01-01T00:00:00Z","name_a2s":"Uncletopia | Sydney | 4 | All Maps","protocol":17,"map":"cp_process_final","folder":"tf","game":"Team Fortress","app_id":440,"player_count":0,"max_players":24,"Bots":0,"server_type":"Dedicated","server_os":"Linux","password":true,"vac":true,"version":"7961495","steam_id":85568392925397958,"keywords":["cp","nocrits","nodmgspread","uncletopia"],"game_id":440,"stv_port":27046,"stv_name":"Uncletopia | Sydney | 4 | All Maps | STV","players":null},{"server_id":58,"name":"Uncletopia | Sydney | 5 | Stopwatch","name_short":"syd-5","host":"syd-1.au.uncletopia.com","port":27055,"enabled":true,"region":"au","cc":"au","latitude":-33.865143,"longitude":151.2099,"reserved":0,"last_update":"0001-01-01T00:00:00Z","name_a2s":"Uncletopia | Sydney | 5 | Stopwatch","protocol":17,"map":"pl_frontier_final","folder":"tf","game":"Team Fortress","app_id":440,"player_count":0,"max_players":24,"Bots":0,"server_type":"Dedicated","server_os":"Linux","password":true,"vac":true,"version":"7961495","steam_id":85568392925397959,"keywords":["nocrits","nodmgspread","payload","uncletopia"],"game_id":440,"stv_port":27056,"stv_name":"Uncletopia | Sydney | 5 | Stopwatch | STV","players":null},{"server_id":59,"name":"Uncletopia | Sydney | 6 | Community","name_short":"syd-6","host":"syd-1.au.uncletopia.com","port":27065,"enabled":true,"region":"au","cc":"au","latitude":-33.865143,"longitude":151.2099,"reserved":0,"last_update":"0001-01-01T00:00:00Z","name_a2s":"Uncletopia | Sydney | 6 | Community","protocol":17,"map":"workshop/koth_kemptown_rc1.ugc767410655","folder":"tf","game":"Team Fortress","app_id":440,"player_count":0,"max_players":24,"Bots":0,"server_type":"Dedicated","server_os":"Linux","password":true,"vac":true,"version":"7961495","steam_id":85568392925397960,"keywords":["cp","nocrits","nodmgspread","uncletopia"],"game_id":440,"stv_port":27066,"stv_name":"Uncletopia | Sydney | 6 | Community | STV","players":null},{"server_id":49,"name":"Uncletopia | Warsaw | 1 | One Thousand Uncles","name_short":"waw-1","host":"waw-1.pl.uncletopia.com","port":27015,"enabled":true,"region":"eu","cc":"pl","latitude":52.2297,"longitude":21.017532,"reserved":0,"last_update":"0001-01-01T00:00:00Z","name_a2s":"Uncletopia | Warsaw | 1 | One Thousand Uncles","protocol":17,"map":"pl_hoodoo_final","folder":"tf","game":"Team Fortress","app_id":440,"player_count":0,"max_players":32,"Bots":0,"server_type":"Dedicated","server_os":"Linux","password":true,"vac":true,"version":"7961495","steam_id":85568392925397850,"keywords":["alltalk","danepve","increased_maxplayers","nocrits","norespawntime","payload","uncletopia"],"game_id":440,"stv_port":0,"stv_name":"","players":null},{"server_id":50,"name":"Uncletopia | Warsaw | 2 | One Thousand Uncles","name_short":"waw-2","host":"waw-1.pl.uncletopia.com","port":27025,"enabled":true,"region":"eu","cc":"pl","latitude":52.2297,"longitude":21.017532,"reserved":0,"last_update":"0001-01-01T00:00:00Z","name_a2s":"Uncletopia | Warsaw | 2 | One Thousand Uncles","protocol":17,"map":"pl_upward","folder":"tf","game":"Team Fortress","app_id":440,"player_count":22,"max_players":32,"Bots":16,"server_type":"Dedicated","server_os":"Linux","password":true,"vac":true,"version":"7961495","steam_id":85568392925397851,"keywords":["alltalk","bots","danepve","increased_maxplayers","nocrits","norespawntime","payload","uncletopia"],"game_id":440,"stv_port":0,"stv_name":"","players":[{"user_id":908,"name":"Xeno","steam_id":76561198074667742,"connected_time":3902000000000,"state":"active","ping":61},{"user_id":927,"name":"Nome","steam_id":76561198867982828,"connected_time":3145000000000,"state":"active","ping":118},{"user_id":934,"name":"kaptainh","steam_id":76561198824852180,"connected_time":86000000000,"state":"active","ping":106},{"user_id":931,"name":"Crimson","steam_id":76561197987552332,"connected_time":726000000000,"state":"active","ping":60},{"user_id":932,"name":"trans werewolf","steam_id":76561198107235989,"connected_time":687000000000,"state":"active","ping":33},{"user_id":935,"name":"Retr0_","steam_id":76561198202178716,"connected_time":69000000000,"state":"active","ping":99}]},{"server_id":51,"name":"Uncletopia | Warsaw | 3 | All Maps","name_short":"waw-3","host":"waw-1.pl.uncletopia.com","port":27035,"enabled":true,"region":"eu","cc":"pl","latitude":52.2297,"longitude":21.017532,"reserved":0,"last_update":"0001-01-01T00:00:00Z","name_a2s":"Uncletopia | Warsaw | 3 | All Maps","protocol":17,"map":"koth_viaduct","folder":"tf","game":"Team Fortress","app_id":440,"player_count":0,"max_players":24,"Bots":0,"server_type":"Dedicated","server_os":"Linux","password":true,"vac":true,"version":"7961495","steam_id":85568392925397852,"keywords":["cp","nocrits","nodmgspread","uncletopia"],"game_id":440,"stv_port":27036,"stv_name":"Uncletopia | Warsaw | 3 | All Maps | STV","players":null},{"server_id":52,"name":"Uncletopia | Warsaw | 4 | All Maps","name_short":"waw-4","host":"waw-1.pl.uncletopia.com","port":27045,"enabled":true,"region":"eu","cc":"pl","latitude":52.2297,"longitude":21.017532,"reserved":0,"last_update":"0001-01-01T00:00:00Z","name_a2s":"Uncletopia | Warsaw | 4 | All Maps","protocol":17,"map":"pl_swiftwater_final1","folder":"tf","game":"Team Fortress","app_id":440,"player_count":0,"max_players":24,"Bots":0,"server_type":"Dedicated","server_os":"Linux","password":true,"vac":true,"version":"7961495","steam_id":85568392925397853,"keywords":["nocrits","nodmgspread","payload","uncletopia"],"game_id":440,"stv_port":27046,"stv_name":"Uncletopia | Warsaw | 4 | All Maps | STV","players":null},{"server_id":53,"name":"Uncletopia | Warsaw | 5 | Stopwatch","name_short":"waw-5","host":"waw-1.pl.uncletopia.com","port":27055,"enabled":true,"region":"eu","cc":"pl","latitude":52.2297,"longitude":21.017532,"reserved":0,"last_update":"0001-01-01T00:00:00Z","name_a2s":"Uncletopia | Warsaw | 5 | Stopwatch","protocol":17,"map":"workshop/koth_clearcut_b15.ugc2107050255","folder":"tf","game":"Team Fortress","app_id":440,"player_count":0,"max_players":24,"Bots":0,"server_type":"Dedicated","server_os":"Linux","password":true,"vac":true,"version":"7961495","steam_id":85568392925397854,"keywords":["cp","nocrits","nodmgspread","uncletopia"],"game_id":440,"stv_port":27056,"stv_name":"Uncletopia | Warsaw | 5 | Stopwatch | STV","players":null},{"server_id":54,"name":"Uncletopia | Warsaw | 6 | Community","name_short":"waw-6","host":"waw-1.pl.uncletopia.com","port":27065,"enabled":true,"region":"eu","cc":"pl","latitude":52.2297,"longitude":21.017532,"reserved":0,"last_update":"0001-01-01T00:00:00Z","name_a2s":"Uncletopia | Warsaw | 6 | Community","protocol":17,"map":"workshop/pl_badwater_pro_v12.ugc2142942074","folder":"tf","game":"Team Fortress","app_id":440,"player_count":0,"max_players":24,"Bots":0,"server_type":"Dedicated","server_os":"Linux","password":true,"vac":true,"version":"7961495","steam_id":85568392925397856,"keywords":["nocrits","nodmgspread","payload","uncletopia"],"game_id":440,"stv_port":27066,"stv_name":"Uncletopia | Warsaw | 6 | Community | STV","players":null}]}