{"status":true,"message":"","result":[{"server_id":9,"name":"Uncletopia | Atlanta | 1 | All Maps","name_short":"atl-1","host":"atl-1.us.uncletopia.com","port":27015,"enabled":true,"region":"us-east","cc":"us","latitude":33.753746,"longitude":-84.38633,"reserved":0,"last_update":"0001-01-01T00:00:00Z","name_a2s":"Uncletopia | Atlanta | 1 | All Maps","protocol":17,"map":"pl_badwater","folder":"tf","game":"Team Fortress","app_id":440,"player_count":24,"max_players":24,"Bots":0,"server_type":"Dedicated","server_os":"Linux","password":true,"vac":true,"version":"7961495","steam_id":85568392924469982,"keywords":["nocrits","nodmgspread","payload","uncletopia"],"game_id":440,"stv_port":27016,"stv_name":"Uncletopia | Atlanta | 1 | All Maps | STV","players":[{"user_id":499,"name":"Xavibite","steam_id":76561198209380493,"connected_time":6644000000000,"state":"active","ping":61},{"user_id":538,"name":"mangokip","steam_id":76561198156471516,"connected_time":1997000000000,"state":"active","ping":52},{"user_id":516,"name":"Rat","steam_id":76561198137925582,"connected_time":4834000000000,"state":"active","ping":61},{"user_id":523,"name":"Monkey Mode","steam_id":76561197961267543,"connected_time":4649000000000,"state":"active","ping":51},{"user_id":519,"name":"Jared","steam_id":76561198027210228,"connected_time":4821000000000,"state":"active","ping":79},{"user_id":542,"name":"com lag","steam_id":76561198019019392,"connected_time":1962000000000,"state":"active","ping":61},{"user_id":504,"name":"chexo4","steam_id":76561198150532531,"connected_time":6503000000000,"state":"active","ping":50},{"user_id":546,"name":"more espresso less depresso","steam_id":76561199074551864,"connected_time":1583000000000,"state":"active","ping":45},{"user_id":509,"name":"Maestro","steam_id":76561198157325020,"connected_time":5230000000000,"state":"active","ping":61},{"user_id":543,"name":"Onyx","steam_id":76561198275349640,"connected_time":1636000000000,"state":"active","ping":75},{"user_id":548,"name":"joe","steam_id":76561198045781320,"connected_time":1335000000000,"state":"active","ping":62},{"user_id":550,"name":"Tay1Qr","steam_id":76561198082809935,"connected_time":789000000000,"state":"active","ping":63},{"user_id":533,"name":"bkiller","steam_id":76561198029265697,"connected_time":2951000000000,"state":"active","ping":59},{"user_id":520,"name":"corviraptor!!!!!!","steam_id":76561198058284392,"connected_time":4816000000000,"state":"active","ping":79},{"user_id":547,"name":"rose","steam_id":76561198048882285,"connected_time":1416000000000,"state":"active","ping":61},{"user_id":518,"name":"ATL1 | to4st","steam_id":76561198981009008,"connected_time":4832000000000,"state":"active","ping":67},{"user_id":510,"name":"eish","steam_id":76561198089463603,"connected_time":5207000000000,"state":"active","ping":120},{"user_id":527,"name":"lil hog","steam_id":76561199230929836,"connected_time":3882000000000,"state":"active","ping":90},{"user_id":521,"name":"custodian","steam_id":76561198058793778,"connected_time":4800000000000,"state":"active","ping":90},{"user_id":549,"name":"BreatheWater","steam_id":76561199066460803,"connected_time":899000000000,"state":"active","ping":89},{"user_id":529,"name":"why","steam_id":76561199059732212,"connected_time":3486000000000,"state":"active","ping":57},{"user_id":541,"name":"kite","steam_id":76561198346516392,"connected_time":1985000000000,"state":"active","ping":90},{"user_id":506,"name":"ATL1 | Uganda #NEOTOKYO°","steam_id":76561199121276474,"connected_time":5922000000000,"state":"active","ping":78},{"user_id":531,"name":"Im High","steam_id":76561198049954886,"connected_time":3423000000000,"state":"active","ping":79}]},{"server_id":104,"name":"Uncletopia | Atlanta | 2 | All Maps","name_short":"atl-2","host":"atl-1.us.uncletopia.com","port":27025,"enabled":true,"region":"us-east","cc":"us","latitude":33.753746,"longitude":-84.38633,"reserved":0,"last_update":"0001-01-01T00:00:00Z","name_a2s":"Uncletopia | Atlanta | 2 | All Maps","protocol":17,"map":"pl_snowycoast","folder":"tf","game":"Team Fortress","app_id":440,"player_count":24,"max_players":24,"Bots":0,"server_type":"Dedicated","server_os":"Linux","password":true,"vac":true,"version":"7961495","steam_id":85568392924469983,"keywords":["nocrits","nodmgspread","payload","uncletopia"],"game_id":440,"stv_port":27026,"stv_name":"Uncletopia | Atlanta | 2 | All Maps | STV","players":[{"user_id":755,"name":"Soda","steam_id":76561198219209367,"connected_time":105000000000,"state":"active","ping":78},{"user_id":750,"name":"Mr. Luggy","steam_id":76561198072723392,"connected_time":391000000000,"state":"active","ping":86},{"user_id":691,"name":"Bunnyboy","steam_id":76561198298416058,"connected_time":5388000000000,"state":"active","ping":80},{"user_id":754,"name":"Catscr","steam_id":76561198076589280,"connected_time":126000000000,"state":"active","ping":57},{"user_id":710,"name":"Download a car","steam_id":76561198027174998,"connected_time":3523000000000,"state":"active","ping":85},{"user_id":727,"name":"T_is_for_Toenail","steam_id":76561198297066505,"connected_time":1970000000000,"state":"active","ping":78},{"user_id":684,"name":"MeMyBongusAndTheGreatOutdoors","steam_id":76561198097708978,"connected_time":5937000000000,"state":"active","ping":61},{"user_id":751,"name":"Barmy","steam_id":76561198111626352,"connected_time":275000000000,"state":"active","ping":81},{"user_id":729,"name":"elephantofdoom","steam_id":76561198062436835,"connected_time":1944000000000,"state":"active","ping":60},{"user_id":752,"name":"LazySushi","steam_id":76561198043802202,"connected_time":264000000000,"state":"active","ping":98},{"user_id":748,"name":"CHIKN","steam_id":76561198277792665,"connected_time":587000000000,"state":"active","ping":112},{"user_id":744,"name":"Jason","steam_id":76561198074589397,"connected_time":1122000000000,"state":"active","ping":62},{"user_id":725,"name":"femboy gaming","steam_id":76561199084226553,"connected_time":2095000000000,"state":"active","ping":54},{"user_id":739,"name":"ElElliot","steam_id":76561198842278840,"connected_time":1531000000000,"state":"active","ping":74},{"user_id":757,"name":"katacks+","steam_id":76561198103915348,"connected_time":52000000000,"state":"active","ping":76},{"user_id":741,"name":"REALLINUSJEWTIP.","steam_id":76561198056647983,"connected_time":1451000000000,"state":"active","ping":88},{"user_id":733,"name":"illious","steam_id":76561198169925494,"connected_time":1694000000000,"state":"active","ping":74},{"user_id":734,"name":"veno","steam_id":76561198110261781,"connected_time":1654000000000,"state":"active","ping":70},{"user_id":759,"name":"Shystie","steam_id":76561198025371440,"connected_time":30000000000,"state":"spawning","ping":160},{"user_id":705,"name":"howard-10973","steam_id":76561198449656454,"connected_time":4263000000000,"state":"active","ping":63},{"user_id":743,"name":"Wonderwall","steam_id":76561198080757197,"connected_time":1192000000000,"state":"active","ping":79},{"user_id":742,"name":"pai-sano","steam_id":76561198065575472,"connected_time":1448000000000,"state":"active","ping":59},{"user_id":749,"name":"my monitor is off","steam_id":76561198148905570,"connected_time":498000000000,"state":"active","ping":63},{"user_id":758,"name":"Resident Goober","steam_id":76561199205471969,"connected_time":46000000000,"state":"active","ping":92}]},{"server_id":400,"name":"Uncletopia | Atlanta | 3 | Stopwatch","name_short":"atl-3","host":"atl-1.us.uncletopia.com","port":27035,"enabled":true,"region":"us-east","cc":"us","latitude":33.753746,"longitude":-84.38633,"reserved":0,"last_update":"0001-01-01T00:00:00Z","name_a2s":"Uncletopia | Atlanta | 3 | Stopwatch","protocol":17,"map":"cp_process_final","folder":"tf","game":"Team Fortress","app_id":440,"player_count":0,"max_players":24,"Bots":0,"server_type":"Dedicated","server_os":"Linux","password":true,"vac":true,"version":"7961495","steam_id":85568392924515187,"keywords":["cp","nocrits","nodmgspread","uncletopia"],"game_id":440,"stv_port":27036,"stv_name":"Uncletopia | Atlanta | 3 | Stopwatch | STV","players":null},{"server_id":401,"name":"Uncletopia | Atlanta | 4 | Community","name_short":"atl-4","host":"atl-1.us.uncletopia.com","port":27045,"enabled":true,"region":"us-east","cc":"us","latitude":33.753746,"longitude":-84.38633,"reserved":0,"last_update":"0001-01-01T00:00:00Z","name_a2s":"Uncletopia | Atlanta | 4 | Community","protocol":17,"map":"workshop/pl_shoreleave_rc2.ugc1238849347","folder":"tf","game":"Team Fortress","app_id":440,"player_count":1,"max_players":24,"Bots":0,"server_type":"Dedicated","server_os":"Linux","password":true,"vac":true,"version":"7961495","steam_id":85568392924515188,"keywords":["nocrits","nodmgspread","payload","uncletopia"],"game_id":440,"stv_port":27046,"stv_name":"Uncletopia | Atlanta | 4 | Community | STV","players":null},{"server_id":2,"name":"Uncletopia | Chicago | 1 | All Maps","name_short":"chi-1","host":"chi-1.us.uncletopia.com","port":27015,"enabled":true,"region":"us-central","cc":"us","latitude":41.881832,"longitude":-87.62318,"reserved":0,"last_update":"0001-01-01T00:00:00Z","name_a2s":"Uncletopia | Chicago | 1 | All Maps","protocol":17,"map":"pl_barnblitz","folder":"tf","game":"Team Fortress","app_id":440,"player_count":21,"max_players":24,"Bots":0,"server_type":"Dedicated","server_os":"Linux","password":true,"vac":true,"version":"7961495","steam_id":85568392924469984,"keywords":["nocrits","nodmgspread","payload","uncletopia"],"game_id":440,"stv_port":27016,"stv_name":"Uncletopia | Chicago | 1 | All Maps | STV","players":[{"user_id":675,"name":"Tinaho","steam_id":76561198815585874,"connected_time":136000000000,"state":"active","ping":89},{"user_id":682,"name":"imperial guard","steam_id":76561198882986104,"connected_time":7000000000,"state":"spawning","ping":213},{"user_id":670,"name":"cotton candy testament","steam_id":76561198058998371,"connected_time":201000000000,"state":"active","ping":64},{"user_id":674,"name":"glizzy gameing","steam_id":76561198132227706,"connected_time":145000000000,"state":"active","ping":75},{"user_id":661,"name":"Der Krieger105","steam_id":76561197978384609,"connected_time":2678000000000,"state":"active","ping":89},{"user_id":508,"name":"vga cable","steam_id":76561198217402847,"connected_time":5166000000000,"state":"active","ping":110},{"user_id":669,"name":"psi","steam_id":76561198061497429,"connected_time":206000000000,"state":"active","ping":62},{"user_id":662,"name":"bird enthusiast","steam_id":76561198087661713,"connected_time":2618000000000,"state":"active","ping":67},{"user_id":672,"name":"Festive Conch Shell","steam_id":76561198042072993,"connected_time":188000000000,"state":"active","ping":61},{"user_id":679,"name":"cube","steam_id":76561199089730744,"connected_time":54000000000,"state":"active","ping":114},{"user_id":664,"name":"agless","steam_id":76561198045248344,"connected_time":2119000000000,"state":"active","ping":53},{"user_id":677,"name":"big boobs","steam_id":76561198151150175,"connected_time":92000000000,"state":"active","ping":48},{"user_id":673,"name":"Butteryback","steam_id":76561198049642485,"connected_time":177000000000,"state":"active","ping":59},{"user_id":678,"name":"Dr. House","steam_id":76561198052910702,"connected_time":86000000000,"state":"active","ping":50},{"user_id":680,"name":"Classic","steam_id":76561198215293509,"connected_time":37000000000,"state":"active","ping":63},{"user_id":507,"name":"ุ","steam_id":76561198170624701,"connected_time":5226000000000,"state":"active","ping":83},{"user_id":681,"name":"Gumi","steam_id":76561199128165746,"connected_time":36000000000,"state":"active","ping":72},{"user_id":668,"name":"Aztea","steam_id":76561198982089893,"connected_time":587000000000,"state":"active","ping":85},{"user_id":459,"name":"loser","steam_id":76561198259380127,"connected_time":9752000000000,"state":"active","ping":58},{"user_id":512,"name":"lobster","steam_id":76561198147417707,"connected_time":4735000000000,"state":"active","ping":77},{"user_id":671,"name":"dunk","steam_id":76561198132476501,"connected_time":193000000000,"state":"active","ping":45}]},{"server_id":106,"name":"Uncletopia | Chicago | 2 | All Maps","name_short":"chi-2","host":"chi-1.us.uncletopia.com","port":27025,"enabled":true,"region":"us-central","cc":"us","latitude":41.881832,"longitude":-87.62318,"reserved":0,"last_update":"0001-01-01T00:00:00Z","name_a2s":"Uncletopia | Chicago | 2 | All Maps","protocol":17,"map":"cp_sunshine","folder":"tf","game":"Team Fortress","app_id":440,"player_count":24,"max_players":24,"Bots":0,"server_type":"Dedicated","server_os":"Linux","password":true,"vac":true,"version":"7961495","steam_id":85568392924469985,"keywords":["cp","nocrits","nodmgspread","uncletopia"],"game_id":440,"stv_port":27026,"stv_name":"Uncletopia | Chicago | 2 | All Maps | STV","players":[{"user_id":257,"name":"Nevel Papperman","steam_id":76561198150567198,"connected_time":1056000000000,"state":"active","ping":60},{"user_id":277,"name":"TF2C | fac","steam_id":76561198009818412,"connected_time":178000000000,"state":"active","ping":68},{"user_id":248,"name":"Jambo","steam_id":76561198281754022,"connected_time":1283000000000,"state":"active","ping":48},{"user_id":210,"name":"AyeDuckDuck","steam_id":76561198244122486,"connected_time":3599000000000,"state":"active","ping":69},{"user_id":249,"name":"Goblin","steam_id":76561198338245497,"connected_time":1260000000000,"state":"active","ping":46},{"user_id":218,"name":"kiso","steam_id":76561198141026844,"connected_time":2731000000000,"state":"active","ping":135},{"user_id":266,"name":"FROYO donovin","steam_id":76561198045679387,"connected_time":433000000000,"state":"active","ping":45},{"user_id":250,"name":"cotton","steam_id":76561198018652890,"connected_time":1257000000000,"state":"active","ping":68},{"user_id":267,"name":"lebron bugleberry","steam_id":76561198060288611,"connected_time":382000000000,"state":"active","ping":60},{"user_id":268,"name":"Molotov","steam_id":76561198220055885,"connected_time":372000000000,"state":"active","ping":60},{"user_id":269,"name":"BurnN8or101","steam_id":76561198132668224,"connected_time":320000000000,"state":"active","ping":61},{"user_id":254,"name":"Some_Arse","steam_id":76561198039095394,"connected_time":1110000000000,"state":"active","ping":60},{"user_id":270,"name":"TheWorstSpeedRunner","steam_id":76561199075273861,"connected_time":319000000000,"state":"active","ping":70},{"user_id":271,"name":"Space Lizard","steam_id":76561198056798193,"connected_time":274000000000,"state":"active","ping":70},{"user_id":87,"name":"Sunshine","steam_id":76561198885528098,"connected_time":11313000000000,"state":"active","ping":67},{"user_id":260,"name":"All Tomorrow's Parties","steam_id":76561197995936212,"connected_time":764000000000,"state":"active","ping":45},{"user_id":272,"name":"Username","steam_id":76561198198918781,"connected_time":267000000000,"state":"active","ping":127},{"user_id":258,"name":"Copter_Boy","steam_id":76561198322921312,"connected_time":1044000000000,"state":"active","ping":71},{"user_id":89,"name":"magamum!","steam_id":76561198880304614,"connected_time":11275000000000,"state":"active","ping":56},{"user_id":273,"name":"Aristotle Voulton","steam_id":76561198100174923,"connected_time":255000000000,"state":"active","ping":89},{"user_id":278,"name":"Jest","steam_id":76561198170173062,"connected_time":126000000000,"state":"active","ping":106},{"user_id":275,"name":"Fightin Cow","steam_id":76561198080941486,"connected_time":237000000000,"state":"active","ping":74},{"user_id":276,"name":"Comic","steam_id":76561198268254154,"connected_time":222000000000,"state":"active","ping":83},{"user_id":227,"name":"Yackaboi","steam_id":76561199444911765,"connected_time":2483000000000,"state":"active","ping":97}]},{"server_id":402,"name":"Uncletopia | Chicago | 3 | All Maps","name_short":"chi-3","host":"chi-1.us.uncletopia.com","port":27035,"enabled":true,"region":"us-central","cc":"us","latitude":41.881832,"longitude":-87.62318,"reserved":0,"last_update":"0001-01-01T00:00:00Z","name_a2s":"Uncletopia | Chicago | 3 | All Maps","protocol":17,"map":"pl_badwater","folder":"tf","game":"Team Fortress","app_id":440,"player_count":24,"max_players":24,"Bots":0,"server_type":"Dedicated","server_os":"Linux","password":true,"vac":true,"version":"7961495","steam_id":85568392924515191,"keywords":["nocrits","nodmgspread","payload","uncletopia"],"game_id":440,"stv_port":27036,"stv_name":"Uncletopia | Chicago | 3 | All Maps | STV","players":[{"user_id":427,"name":"Soundbyte_","steam_id":76561198173284173,"connected_time":257000000000,"state":"active","ping":94},{"user_id":391,"name":"teleport goblin 2","steam_id":76561198882404753,"connected_time":2998000000000,"state":"active","ping":72},{"user_id":390,"name":"Strange Diplomat","steam_id":76561198428191920,"connected_time":3132000000000,"state":"active","ping":73},{"user_id":396,"name":"Ace Chromatica","steam_id":76561198042211131,"connected_time":2854000000000,"state":"active","ping":79},{"user_id":421,"name":"ʏᴜᴊɪ","steam_id":76561198401572620,"connected_time":702000000000,"state":"active","ping":65},{"user_id":389,"name":"Beebo, Son of Beebo","steam_id":76561198055948497,"connected_time":3855000000000,"state":"active","ping":55},{"user_id":430,"name":"a Salty Individual","steam_id":76561197979951077,"connected_time":144000000000,"state":"active","ping":135},{"user_id":407,"name":"Blaze","steam_id":76561198043797702,"connected_time":2080000000000,"state":"active","ping":73},{"user_id":366,"name":"black tar estrogen","steam_id":76561198043911582,"connected_time":5893000000000,"state":"active","ping":66},{"user_id":406,"name":"for the king","steam_id":76561197973488858,"connected_time":2169000000000,"state":"active","ping":56},{"user_id":412,"name":"The One True Luke","steam_id":76561198180891187,"connected_time":894000000000,"state":"active","ping":66},{"user_id":429,"name":"d-_-b","steam_id":76561198120725877,"connected_time":177000000000,"state":"active","ping":55},{"user_id":423,"name":"Gene Takovic","steam_id":76561198881039861,"connected_time":557000000000,"state":"active","ping":48},{"user_id":410,"name":"Sushibrain","steam_id":76561198041929555,"connected_time":1539000000000,"state":"active","ping":69},{"user_id":414,"name":"_copkilla.B1G$L1M€.zaddY_","steam_id":76561198283687382,"connected_time":834000000000,"state":"active","ping":75},{"user_id":415,"name":"gmaay","steam_id":76561199104911185,"connected_time":814000000000,"state":"active","ping":73},{"user_id":417,"name":"Joyous Jenny","steam_id":76561198127998866,"connected_time":753000000000,"state":"active","ping":79},{"user_id":418,"name":"TabbyCat","steam_id":76561198414125672,"connected_time":750000000000,"state":"active","ping":90},{"user_id":419,"name":"trackball triops","steam_id":76561198059041027,"connected_time":749000000000,"state":"active","ping":103},{"user_id":380,"name":"Coolcat","steam_id":76561198180933957,"connected_time":4789000000000,"state":"active","ping":60},{"user_id":368,"name":"CocoNelly the Cat","steam_id":76561198073176682,"connected_time":5581000000000,"state":"active","ping":62},{"user_id":420,"name":"chilis baby back ribs","steam_id":76561198813516435,"connected_time":741000000000,"state":"active","ping":100},{"user_id":432,"name":"firefish","steam_id":76561199135656474,"connected_time":66000000000,"state":"active","ping":90},{"user_id":431,"name":"EnderMaNN","steam_id":76561199499645083,"connected_time":136000000000,"state":"active","ping":77}]},{"server_id":403,"name":"Uncletopia | Chicago | 4 | All Maps","name_short":"chi-4","host":"chi-1.us.uncletopia.com","port":27045,"enabled":true,"region":"us-central","cc":"us","latitude":41.881832,"longitude":-87.62318,"reserved":0,"last_update":"0001-01-01T00:00:00Z","name_a2s":"Uncletopia | Chicago | 4 | All Maps","protocol":17,"map":"koth_viaduct","folder":"tf","game":"Team Fortress","app_id":440,"player_count":24,"max_players":24,"Bots":0,"server_type":"Dedicated","server_os":"Linux","password":true,"vac":true,"version":"7961495","steam_id":85568392924515193,"keywords":["cp","nocrits","nodmgspread","uncletopia"],"game_id":440,"stv_port":27046,"stv_name":"Uncletopia | Chicago | 4 | All Maps | STV","players":[{"user_id":546,"name":"Jey","steam_id":76561198110957641,"connected_time":1124000000000,"state":"active","ping":88},{"user_id":523,"name":"Poo Sniffy","steam_id":76561198089008523,"connected_time":1827000000000,"state":"active","ping":82},{"user_id":558,"name":"Phee","steam_id":76561198014317211,"connected_time":398000000000,"state":"active","ping":196},{"user_id":531,"name":"Reaganomics","steam_id":76561199106877333,"connected_time":1636000000000,"state":"active","ping":106},{"user_id":544,"name":"gps","steam_id":76561198067492304,"connected_time":1218000000000,"state":"active","ping":82},{"user_id":533,"name":"JakeK","steam_id":76561198149375504,"connected_time":1526000000000,"state":"active","ping":61},{"user_id":549,"name":"Prsm","steam_id":76561198053344995,"connected_time":929000000000,"state":"active","ping":59},{"user_id":555,"name":"[S]Mr. X [No Monitor]","steam_id":76561197963746035,"connected_time":480000000000,"state":"active","ping":124},{"user_id":497,"name":"Dragus","steam_id":76561198032967285,"connected_time":3547000000000,"state":"active","ping":49},{"user_id":559,"name":"pipikopf","steam_id":76561198064196489,"connected_time":386000000000,"state":"active","ping":85},{"user_id":535,"name":"gunna sayit","steam_id":76561198034339940,"connected_time":1480000000000,"state":"active","ping":59},{"user_id":389,"name":"Kantamoe","steam_id":76561198046661611,"connected_time":10681000000000,"state":"active","ping":87},{"user_id":524,"name":"mr.popo","steam_id":76561198070714735,"connected_time":1808000000000,"state":"active","ping":90},{"user_id":551,"name":"/dev/null","steam_id":76561198042144148,"connected_time":856000000000,"state":"active","ping":58},{"user_id":508,"name":"Your Local Jester","steam_id":76561199120223717,"connected_time":3388000000000,"state":"active","ping":74},{"user_id":556,"name":"Flyinglab","steam_id":76561198042161408,"connected_time":467000000000,"state":"active","ping":75},{"user_id":504,"name":"Mcfighter2","steam_id":76561198168073956,"connected_time":3464000000000,"state":"active","ping":56},{"user_id":525,"name":"Dr.StrangeGlove","steam_id":76561198286114229,"connected_time":1802000000000,"state":"active","ping":65},{"user_id":530,"name":"kukin2cm","steam_id":76561198848888973,"connected_time":1643000000000,"state":"active","ping":128},{"user_id":557,"name":"DethSQRL","steam_id":76561199149628610,"connected_time":456000000000,"state":"active","ping":82},{"user_id":515,"name":"dog","steam_id":76561198263873491,"connected_time":2664000000000,"state":"active","ping":45},{"user_id":550,"name":"Piyono","steam_id":76561197962188504,"connected_time":914000000000,"state":"active","ping":70},{"user_id":560,"name":"Metal Witch","steam_id":76561198138560080,"connected_time":299000000000,"state":"active","ping":93},{"user_id":542,"name":"Sonico167","steam_id":76561199135588265,"connected_time":1371000000000,"state":"active","ping":60}]},{"server_id":36,"name":"Uncletopia | Chicago | 5 | All Maps","name_short":"chi-5","host":"chi-2.us.uncletopia.com","port":27015,"enabled":true,"region":"us-central","cc":"us","latitude":41.881832,"longitude":-87.62318,"reserved":0,"last_update":"0001-01-01T00:00:00Z","name_a2s":"Uncletopia | Chicago | 5 | All Maps","protocol":17,"map":"cp_dustbowl","folder":"tf","game":"Team Fortress","app_id":440,"player_count":23,"max_players":24,"Bots":0,"server_type":"Dedicated","server_os":"Linux","password":true,"vac":true,"version":"7961495","steam_id":85568392924866362,"keywords":["cp","nocrits","nodmgspread","uncletopia"],"game_id":440,"stv_port":27016,"stv_name":"Uncletopia | Chicago | 5 | All Maps | STV","players":[{"user_id":257,"name":"TheBrocklobster","steam_id":76561198039682984,"connected_time":2202000000000,"state":"active","ping":106},{"user_id":243,"name":"Ninetees","steam_id":76561198119483989,"connected_time":3531000000000,"state":"active","ping":75},{"user_id":249,"name":"GasterDog","steam_id":76561198844423506,"connected_time":2958000000000,"state":"active","ping":97},{"user_id":279,"name":"Headshotsnake","steam_id":76561198067130248,"connected_time":341000000000,"state":"active","ping":56},{"user_id":271,"name":"Rein","steam_id":76561198300340427,"connected_time":1483000000000,"state":"active","ping":63},{"user_id":258,"name":"Obersteuermann","steam_id":76561198044468707,"connected_time":2149000000000,"state":"active","ping":97},{"user_id":238,"name":"Wiener Hole Paper Cut","steam_id":76561198000808203,"connected_time":3753000000000,"state":"active","ping":73},{"user_id":277,"name":"Dinosaur","steam_id":76561199079626189,"connected_time":694000000000,"state":"active","ping":62},{"user_id":274,"name":"squart guy","steam_id":76561199411560141,"connected_time":1218000000000,"state":"active","ping":93},{"user_id":275,"name":"Ampere","steam_id":76561198853751432,"connected_time":847000000000,"state":"active","ping":75},{"user_id":253,"name":"Chickenhalf21","steam_id":76561198966588372,"connected_time":2567000000000,"state":"active","ping":73},{"user_id":259,"name":"Duc 'cud' Pham","steam_id":76561198193156633,"connected_time":2107000000000,"state":"active","ping":92},{"user_id":260,"name":"UNAWARE","steam_id":76561198180951431,"connected_time":2098000000000,"state":"active","ping":62},{"user_id":261,"name":"sigmoodus hamoodus gardoodus","steam_id":76561198222776116,"connected_time":2097000000000,"state":"active","ping":51},{"user_id":262,"name":"Zanite","steam_id":76561198092418389,"connected_time":2091000000000,"state":"active","ping":67},{"user_id":237,"name":"c00kie","steam_id":76561198418178297,"connected_time":3996000000000,"state":"active","ping":50},{"user_id":268,"name":"dtnchicken","steam_id":76561198150305428,"connected_time":1901000000000,"state":"active","ping":75},{"user_id":278,"name":"Derugo","steam_id":76561197979898369,"connected_time":680000000000,"state":"active","ping":78},{"user_id":247,"name":"☑Juanaco is dead","steam_id":76561198029895630,"connected_time":3503000000000,"state":"active","ping":83},{"user_id":263,"name":"silver","steam_id":76561198140887655,"connected_time":2085000000000,"state":"active","ping":56},{"user_id":264,"name":"spingaskhan","steam_id":76561198099412571,"connected_time":2077000000000,"state":"active","ping":72},{"user_id":270,"name":"pro","steam_id":76561198844873462,"connected_time":1715000000000,"state":"active","ping":102},{"user_id":236,"name":"graham crackr","steam_id":76561199072720886,"connected_time":4159000000000,"state":"active","ping":66}]},{"server_id":37,"name":"Uncletopia | Chicago | 6 | All Maps","name_short":"chi-6","host":"chi-2.us.uncletopia.com","port":27025,"enabled":true,"region":"us-central","cc":"us","latitude":41.881832,"longitude":-87.62318,"reserved":0,"last_update":"0001-01-01T00:00:00Z","name_a2s":"Uncletopia | Chicago | 6 | All Maps","protocol":17,"map":"koth_highpass","folder":"tf","game":"Team Fortress","app_id":440,"player_count":0,"max_players":24,"Bots":0,"server_type":"Dedicated","server_os":"Linux","password":true,"vac":true,"version":"7961495","steam_id":85568392924866363,"keywords":["cp","nocrits","nodmgspread","uncletopia"],"game_id":440,"stv_port":27026,"stv_name":"Uncletopia | Chicago | 6 | All Maps | STV","players":null},{"server_id":38,"name":"Uncletopia | Chicago | 7 | Stopwatch","name_short":"chi-7","host":"chi-2.us.uncletopia.com","port":27035,"enabled":true,"region":"us-central","cc":"us","latitude":41.881832,"longitude":-87.62318,"reserved":0,"last_update":"0001-01-01T00:00:00Z","name_a2s":"Uncletopia | Chicago | 7 | Stopwatch","protocol":17,"map":"pl_badwater","folder":"tf","game":"Team Fortress","app_id":440,"player_count":0,"max_players":24,"Bots":0,"server_type":"Dedicated","server_os":"Linux","password":true,"vac":true,"version":"7961495","steam_id":85568392924866364,"keywords":["nocrits","nodmgspread","payload","uncletopia"],"game_id":440,"stv_port":27036,"stv_name":"Uncletopia | Chicago | 7 | Stopwatch | STV","players":null},{"server_id":39,"name":"Uncletopia | Chicago | 8 | Community","name_short":"chi-8","host":"chi-2.us.uncletopia.com","port":27045,"enabled":true,"region":"us-central","cc":"us","latitude":41.881832,"longitude":-87.62318,"reserved":0,"last_update":"0001-01-01T00:00:00Z","name_a2s":"Uncletopia | Chicago | 8 | Community","protocol":17,"map":"workshop/cp_overgrown_rc8.ugc503939302","folder":"tf","game":"Team Fortress","app_id":440,"player_count":20,"max_players":24,"Bots":0,"server_type":"Dedicated","server_os":"Linux","password":true,"vac":true,"version":"7961495","steam_id":85568392924866365,"keywords":["cp","nocrits","nodmgspread","uncletopia"],"game_id":440,"stv_port":27046,"stv_name":"Uncletopia | Chicago | 8 | Community | STV","players":[{"user_id":31,"name":"DaMultiversalist","steam_id":76561198239552412,"connected_time":9406000000000,"state":"spawning","ping":141},{"user_id":152,"name":"Fattened Dessert","steam_id":76561198351008375,"connected_time":2602000000000,"state":"active","ping":68},{"user_id":163,"name":"Menachem","steam_id":76561198041226420,"connected_time":1435000000000,"state":"spawning","ping":156},{"user_id":153,"name":"the pest","steam_id":76561198826298849,"connected_time":2558000000000,"state":"active","ping":91},{"user_id":168,"name":"mu","steam_id":76561197997530228,"connected_time":1312000000000,"state":"active","ping":210},{"user_id":180,"name":"Salt Dragon","steam_id":76561198331207987,"connected_time":466000000000,"state":"spawning","ping":220},{"user_id":58,"name":"canadian birds","steam_id":76561198059466588,"connected_time":8085000000000,"state":"spawning","ping":67},{"user_id":173,"name":"spybuster pyro","steam_id":76561198805603832,"connected_time":725000000000,"state":"spawning","ping":119},{"user_id":114,"name":"DeluDreamer","steam_id":76561198153821775,"connected_time":5147000000000,"state":"spawning","ping":120},{"user_id":135,"name":"gulch","steam_id":76561199227946025,"connected_time":3550000000000,"state":"active","ping":70},{"user_id":175,"name":"RectalExam","steam_id":76561197970502312,"connected_time":659000000000,"state":"active","ping":92},{"user_id":155,"name":"Epha","steam_id":76561198079379951,"connected_time":2513000000000,"state":"active","ping":62},{"user_id":177,"name":"GuyGoom","steam_id":76561198254522178,"connected_time":564000000000,"state":"active","ping":53},{"user_id":176,"name":"Cthulhu's Malewife","steam_id":76561198085888959,"connected_time":628000000000,"state":"spawning","ping":58},{"user_id":178,"name":"the.land.of.avalon","steam_id":76561198245431668,"connected_time":530000000000,"state":"active","ping":74},{"user_id":156,"name":"Bongjour","steam_id":76561198083851689,"connected_time":2511000000000,"state":"spawning","ping":114},{"user_id":144,"name":"Lee?","steam_id":76561199060892634,"connected_time":3256000000000,"state":"spawning","ping":178},{"user_id":181,"name":"evegioyidechadab","steam_id":76561198075991626,"connected_time":462000000000,"state":"spawning","ping":257},{"user_id":179,"name":"melo","steam_id":76561198356332389,"connected_time":491000000000,"state":"spawning","ping":139},{"user_id":171,"name":"PLATYPUS","steam_id":76561198255796625,"connected_time":992000000000,"state":"spawning","ping":267}]},{"server_id":8,"name":"Uncletopia | Dallas | 1 | All Maps","name_short":"dal-1","host":"dal-1.us.uncletopia.com","port":27015,"enabled":true,"region":"us-central","cc":"us","latitude":32.779167,"longitude":-96.80889,"reserved":0,"last_update":"0001-01-01T00:00:00Z","name_a2s":"Uncletopia | Dallas | 1 | All Maps","protocol":17,"map":"pl_upward","folder":"tf","game":"Team Fortress","app_id":440,"player_count":24,"max_players":24,"Bots":0,"server_type":"Dedicated","server_os":"Linux","password":true,"vac":true,"version":"7961495","steam_id":85568392924469986,"keywords":["nocrits","nodmgspread","payload","uncletopia"],"game_id":440,"stv_port":27016,"stv_name":"Uncletopia | Dallas | 1 | All Maps | STV","players":[{"user_id":458,"name":"7TH DOORDASH ORDER TODAY","steam_id":76561198042773724,"connected_time":1262000000000,"state":"active","ping":90},{"user_id":476,"name":"The Grim Heaper","steam_id":76561197987759101,"connected_time":44000000000,"state":"active","ping":110},{"user_id":421,"name":"Zykron","steam_id":76561199056400800,"connected_time":3564000000000,"state":"active","ping":83},{"user_id":469,"name":"PTR","steam_id":76561198237253772,"connected_time":600000000000,"state":"active","ping":45},{"user_id":470,"name":"Frost Paraselene","steam_id":76561198007332517,"connected_time":581000000000,"state":"active","ping":68},{"user_id":446,"name":"Vintage TV","steam_id":76561198800334545,"connected_time":1768000000000,"state":"active","ping":70},{"user_id":468,"name":"chrisd149","steam_id":76561198018710480,"connected_time":637000000000,"state":"active","ping":91},{"user_id":442,"name":"Kaylock","steam_id":76561197971437742,"connected_time":2251000000000,"state":"active","ping":76},{"user_id":422,"name":"errant","steam_id":76561197961758410,"connected_time":3150000000000,"state":"active","ping":45},{"user_id":447,"name":"chill good dm","steam_id":76561199061380038,"connected_time":1755000000000,"state":"active","ping":74},{"user_id":415,"name":"Bullwinkle J. Moose","steam_id":76561198075977196,"connected_time":4592000000000,"state":"active","ping":84},{"user_id":473,"name":"bengineer","steam_id":76561198171912174,"connected_time":400000000000,"state":"active","ping":107},{"user_id":376,"name":"{ST} Oxythemoron","steam_id":76561198060089965,"connected_time":6569000000000,"state":"active","ping":52},{"user_id":456,"name":"local man","steam_id":76561198074946673,"connected_time":1342000000000,"state":"active","ping":84},{"user_id":475,"name":"cook","steam_id":76561198073106278,"connected_time":104000000000,"state":"active","ping":61},{"user_id":464,"name":"[TRR/IO] Tangerine Baker","steam_id":76561199004774964,"connected_time":1175000000000,"state":"active","ping":104},{"user_id":453,"name":"Snoogs","steam_id":76561198444880931,"connected_time":1580000000000,"state":"active","ping":102},{"user_id":465,"name":"jus a lil dude","steam_id":76561198013326889,"connected_time":1150000000000,"state":"active","ping":85},{"user_id":425,"name":"schmuck","steam_id":76561198143789773,"connected_time":3119000000000,"state":"active","ping":48},{"user_id":445,"name":"certified boy lover","steam_id":76561199122281764,"connected_time":1830000000000,"state":"active","ping":79},{"user_id":474,"name":"shakoiwa","steam_id":76561199059441773,"connected_time":138000000000,"state":"active","ping":89},{"user_id":457,"name":"[UDG] kichi","steam_id":76561199227119514,"connected_time":1309000000000,"state":"active","ping":77},{"user_id":454,"name":"mccrispy","steam_id":76561198418172095,"connected_time":1554000000000,"state":"active","ping":92},{"user_id":472,"name":"BitPieStudios","steam_id":76561198059216393,"connected_time":495000000000,"state":"active","ping":86}]},{"server_id":108,"name":"Uncletopia | Dallas | 2 | All Maps","name_short":"dal-2","host":"dal-1.us.uncletopia.com","port":27025,"enabled":true,"region":"us-central","cc":"us","latitude":32.779167,"longitude":-96.80889,"reserved":0,"last_update":"0001-01-01T00:00:00Z","name_a2s":"Uncletopia | Dallas | 2 | All Maps","protocol":17,"map":"pl_frontier_final","folder":"tf","game":"Team Fortress","app_id":440,"player_count":24,"max_players":24,"Bots":0,"server_type":"Dedicated","server_os":"Linux","password":true,"vac":true,"version":"7961495","steam_id":85568392924469988,"keywords":["nocrits","nodmgspread","payload","uncletopia"],"game_id":440,"stv_port":27026,"stv_name":"Uncletopia | Dallas | 2 | All Maps | STV","players":[{"user_id":567,"name":"An Engineer","steam_id":76561198110381643,"connected_time":2190000000000,"state":"active","ping":45},{"user_id":578,"name":"DisDoodEatFood","steam_id":76561198360724348,"connected_time":1652000000000,"state":"active","ping":88},{"user_id":601,"name":"Smug","steam_id":76561198448205229,"connected_time":1168000000000,"state":"active","ping":78},{"user_id":602,"name":"Yippe!!!","steam_id":76561199151545966,"connected_time":1147000000000,"state":"active","ping":57},{"user_id":580,"name":"JustAnotherHuman","steam_id":76561199018122924,"connected_time":1634000000000,"state":"active","ping":114},{"user_id":610,"name":"Leon","steam_id":76561198950938712,"connected_time":553000000000,"state":"active","ping":117},{"user_id":604,"name":"Pickles","steam_id":76561198010609340,"connected_time":1081000000000,"state":"active","ping":74},{"user_id":591,"name":"Cervidé","steam_id":76561198098579497,"connected_time":1417000000000,"state":"active","ping":98},{"user_id":605,"name":"Super™ Classic Edition","steam_id":76561198171655735,"connected_time":1081000000000,"state":"active","ping":63},{"user_id":606,"name":"Drakon","steam_id":76561198078210822,"connected_time":1064000000000,"state":"active","ping":98},{"user_id":584,"name":"Volify","steam_id":76561198146648035,"connected_time":1601000000000,"state":"active","ping":70},{"user_id":609,"name":"Dragorf2010","steam_id":76561199238402270,"connected_time":799000000000,"state":"active","ping":69},{"user_id":607,"name":"Gian","steam_id":76561198041434512,"connected_time":1060000000000,"state":"active","ping":111},{"user_id":590,"name":"HeroOfTime","steam_id":76561199096218001,"connected_time":1460000000000,"state":"active","ping":86},{"user_id":587,"name":"Pilot Boy","steam_id":76561198090857288,"connected_time":1566000000000,"state":"active","ping":149},{"user_id":525,"name":"SAGE(सगे*)","steam_id":76561198811114074,"connected_time":5496000000000,"state":"active","ping":65},{"user_id":588,"name":"millerbv14","steam_id":76561198453908595,"connected_time":1552000000000,"state":"active","ping":79},{"user_id":593,"name":"Gnaash","steam_id":76561198940657194,"connected_time":1382000000000,"state":"active","ping":55},{"user_id":594,"name":"FiddyFoMike","steam_id":76561198057072581,"connected_time":1374000000000,"state":"active","ping":89},{"user_id":560,"name":"despicable gamer","steam_id":76561198312055294,"connected_time":2655000000000,"state":"active","ping":81},{"user_id":561,"name":"da goofy gamer! ^_^ \u003c3","steam_id":76561198832230598,"connected_time":2654000000000,"state":"active","ping":87},{"user_id":599,"name":"celestia ludenberg","steam_id":76561199196437823,"connected_time":1285000000000,"state":"active","ping":112},{"user_id":611,"name":"Casey","steam_id":76561198068810896,"connected_time":536000000000,"state":"active","ping":83},{"user_id":613,"name":"RAWRWAFL","steam_id":76561198032118386,"connected_time":290000000000,"state":"active","ping":70}]},{"server_id":404,"name":"Uncletopia | Dallas | 3 | All Maps","name_short":"dal-3","host":"dal-1.us.uncletopia.com","port":27035,"enabled":true,"region":"us-central","cc":"us","latitude":32.779167,"longitude":-96.80889,"reserved":0,"last_update":"0001-01-01T00:00:00Z","name_a2s":"Uncletopia | Dallas | 3 | All Maps","protocol":17,"map":"pl_upward","folder":"tf","game":"Team Fortress","app_id":440,"player_count":19,"max_players":24,"Bots":0,"server_type":"Dedicated","server_os":"Linux","password":true,"vac":true,"version":"7961495","steam_id":85568392924515219,"keywords":["cp","nocrits","nodmgspread","uncletopia"],"game_id":440,"stv_port":27036,"stv_name":"Uncletopia | Dallas | 3 | All Maps | STV","players":[{"user_id":156,"name":"Pistol Engie Monday","steam_id":76561198409907417,"connected_time":1261000000000,"state":"connecting","ping":103},{"user_id":173,"name":"Inflation Jumpscare","steam_id":76561198137862444,"connected_time":24000000000,"state":"connecting","ping":68},{"user_id":167,"name":"Femboy Wrangler","steam_id":76561199057899661,"connected_time":706000000000,"state":"connecting","ping":82},{"user_id":157,"name":"scrundlebundle","steam_id":76561199209883822,"connected_time":1041000000000,"state":"connecting","ping":109},{"user_id":149,"name":"Light-Work","steam_id":76561198084263001,"connected_time":1540000000000,"state":"connecting","ping":58},{"user_id":169,"name":"b","steam_id":76561198118211523,"connected_time":611000000000,"state":"connecting","ping":96},{"user_id":161,"name":"Gamerfan64","steam_id":76561198801410962,"connected_time":888000000000,"state":"connecting","ping":60},{"user_id":162,"name":"mrpineapple070","steam_id":76561199088278757,"connected_time":875000000000,"state":"connecting","ping":77},{"user_id":163,"name":"Hamlindigo Blue™","steam_id":76561198116337540,"connected_time":871000000000,"state":"connecting","ping":99},{"user_id":164,"name":"Engineering","steam_id":76561199077997794,"connected_time":838000000000,"state":"connecting","ping":84},{"user_id":165,"name":"Duncan","steam_id":76561198042148095,"connected_time":838000000000,"state":"connecting","ping":104},{"user_id":166,"name":"It's pronounced GIF.","steam_id":76561197993151595,"connected_time":832000000000,"state":"connecting","ping":100},{"user_id":117,"name":"V. G. Sunderland","steam_id":76561198161839980,"connected_time":4504000000000,"state":"connecting","ping":109},{"user_id":82,"name":"Jesse Bear","steam_id":76561198217075305,"connected_time":7473000000000,"state":"connecting","ping":102},{"user_id":170,"name":"J76_","steam_id":76561199224457967,"connected_time":594000000000,"state":"connecting","ping":107},{"user_id":151,"name":"my buddy Eric","steam_id":76561198297248469,"connected_time":1443000000000,"state":"connecting","ping":144},{"user_id":171,"name":"Dr Oshawott","steam_id":76561198042021629,"connected_time":550000000000,"state":"connecting","ping":88}]},{"server_id":405,"name":"Uncletopia | Dallas | 4 | Community","name_short":"dal-4","host":"dal-1.us.uncletopia.com","port":27045,"enabled":true,"region":"us-central","cc":"us","latitude":32.779167,"longitude":-96.80889,"reserved":0,"last_update":"0001-01-01T00:00:00Z","name_a2s":"Uncletopia | Dallas | 4 | Community","protocol":17,"map":"workshop/rd_asteroid_redux_b1.ugc2154902912","folder":"tf","game":"Team Fortress","app_id":440,"player_count":1,"max_players":24,"Bots":0,"server_type":"Dedicated","server_os":"Linux","password":true,"vac":true,"version":"7961495","steam_id":85568392924515220,"keywords":["beta","nocrits","nodmgspread","rd","uncletopia"],"game_id":440,"stv_port":27046,"stv_name":"Uncletopia | Dallas | 4 | Community | STV","players":[{"user_id":34,"name":"Lord_Dabbatron","steam_id":76561199058480985,"connected_time":339000000000,"state":"active","ping":50}]},{"server_id":5,"name":"Uncletopia | Frankfurt | 1 | All Maps","name_short":"frk-1","host":"frk-1.de.uncletopia.com","port":27015,"enabled":true,"region":"eu","cc":"de","latitude":50.110924,"longitude":8.682127,"reserved":0,"last_update":"0001-01-01T00:00:00Z","name_a2s":"Uncletopia | Frankfurt | 1 | All Maps","protocol":17,"map":"cp_process_final","folder":"tf","game":"Team Fortress","app_id":440,"player_count":0,"max_players":24,"Bots":0,"server_type":"Dedicated","server_os":"Linux","password":true,"vac":true,"version":"7961495","steam_id":85568392924469989,"keywords":["cp","nocrits","nodmgspread","uncletopia"],"game_id":440,"stv_port":27016,"stv_name":"Uncletopia | Frankfurt | 1 | All Maps | STV","players":null},{"server_id":110,"name":"Uncletopia | Frankfurt | 2 | All Maps","name_short":"frk-2","host":"frk-1.de.uncletopia.com","port":27025,"enabled":true,"region":"eu","cc":"de","latitude":50.110924,"longitude":8.682127,"reserved":0,"last_update":"0001-01-01T00:00:00Z","name_a2s":"Uncletopia | Frankfurt | 2 | All Maps","protocol":17,"map":"koth_lakeside_final","folder":"tf","game":"Team Fortress","app_id":440,"player_count":0,"max_players":24,"Bots":0,"server_type":"Dedicated","server_os":"Linux","password":true,"vac":true,"version":"7961495","steam_id":85568392924469990,"keywords":["cp","nocrits","nodmgspread","uncletopia"],"game_id":440,"stv_port":27026,"stv_name":"Uncletopia | Frankfurt | 2 | All Maps | STV","players":null},{"server_id":308,"name":"Uncletopia | Frankfurt | 3 | All Maps","name_short":"frk-3","host":"frk-1.de.uncletopia.com","port":27035,"enabled":true,"region":"eu","cc":"de","latitude":50.110924,"longitude":8.682127,"reserved":0,"last_update":"0001-01-01T00:00:00Z","name_a2s":"Uncletopia | Frankfurt | 3 | All Maps","protocol":17,"map":"koth_cascade","folder":"tf","game":"Team Fortress","app_id":440,"player_count":0,"max_players":24,"Bots":0,"server_type":"Dedicated","server_os":"Linux","password":true,"vac":true,"version":"7961495","steam_id":85568392924504274,"keywords":["cp","nocrits","nodmgspread","uncletopia"],"game_id":440,"stv_port":27036,"stv_name":"Uncletopia | Frankfurt | 3 | All Maps | STV","players":null},{"server_id":309,"name":"Uncletopia | Frankfurt | 4 | All Maps","name_short":"frk-4","host":"frk-1.de.uncletopia.com","port":27045,"enabled":true,"region":"eu","cc":"de","latitude":50.110924,"longitude":8.682127,"reserved":0,"last_update":"0001-01-01T00:00:00Z","name_a2s":"Uncletopia | Frankfurt | 4 | All Maps","protocol":17,"map":"cp_dustbowl","folder":"tf","game":"Team Fortress","app_id":440,"player_count":0,"max_players":24,"Bots":0,"server_type":"Dedicated","server_os":"Linux","password":true,"vac":true,"version":"7961495","steam_id":85568392924504275,"keywords":["cp","nocrits","nodmgspread","uncletopia"],"game_id":440,"stv_port":27046,"stv_name":"Uncletopia | Frankfurt | 4 | All Maps | STV","players":null},{"server_id":310,"name":"Uncletopia | Frankfurt | 5 | All Maps","name_short":"frk-5","host":"frk-1.de.uncletopia.com","port":27055,"enabled":true,"region":"eu","cc":"de","latitude":50.110924,"longitude":8.682127,"reserved":0,"last_update":"0001-01-01T00:00:00Z","name_a2s":"Uncletopia | Frankfurt | 5 | All Maps","protocol":17,"map":"cp_sunshine","folder":"tf","game":"Team Fortress","app_id":440,"player_count":0,"max_players":24,"Bots":0,"server_type":"Dedicated","server_os":"Linux","password":true,"vac":true,"version":"7961495","steam_id":85568392924504277,"keywords":["cp","nocrits","nodmgspread","uncletopia"],"game_id":440,"stv_port":27056,"stv_name":"Uncletopia | Frankfurt | 5 | All Maps | STV","players":null},{"server_id":311,"name":"Uncletopia | Frankfurt | 6 | All Maps","name_short":"frk-6","host":"frk-1.de.uncletopia.com","port":27065,"enabled":true,"region":"eu","cc":"de","latitude":50.110924,"longitude":8.682127,"reserved":0,"last_update":"0001-01-01T00:00:00Z","name_a2s":"Uncletopia | Frankfurt | 6 | All Maps","protocol":17,"map":"koth_lakeside_final","folder":"tf","game":"Team Fortress","app_id":440,"player_count":0,"max_players":24,"Bots":0,"server_type":"Dedicated","server_os":"Linux","password":true,"vac":true,"version":"7961495","steam_id":85568392924504278,"keywords":["cp","nocrits","nodmgspread","uncletopia"],"game_id":440,"stv_port":27066,"stv_name":"Uncletopia | Frankfurt | 6 | All Maps | STV","players":null},{"server_id":23,"name":"Uncletopia | Frankfurt | 7 | Stopwatch","name_short":"frk-7","host":"frk-1.de.uncletopia.com","port":27075,"enabled":true,"region":"eu","cc":"de","latitude":50.110924,"longitude":8.682127,"reserved":0,"last_update":"0001-01-01T00:00:00Z","name_a2s":"Uncletopia | Frankfurt | 7 | Stopwatch","protocol":17,"map":"workshop/koth_ramjam_rc1.ugc459778887","folder":"tf","game":"Team Fortress","app_id":440,"player_count":0,"max_players":24,"Bots":0,"server_type":"Dedicated","server_os":"Linux","password":true,"vac":true,"version":"7961495","steam_id":85568392924742827,"keywords":["cp","nocrits","nodmgspread","uncletopia"],"game_id":440,"stv_port":27076,"stv_name":"Uncletopia | Frankfurt | 7 | Stopwatch | STV","players":null},{"server_id":24,"name":"Uncletopia | Frankfurt | 8 | Community","name_short":"frk-8","host":"frk-1.de.uncletopia.com","port":27085,"enabled":true,"region":"eu","cc":"de","latitude":50.110924,"longitude":8.682127,"reserved":0,"last_update":"0001-01-01T00:00:00Z","name_a2s":"Uncletopia | Frankfurt | 8 | Community","protocol":17,"map":"workshop/koth_ramjam_rc1.ugc459778887","folder":"tf","game":"Team Fortress","app_id":440,"player_count":0,"max_players":24,"Bots":0,"server_type":"Dedicated","server_os":"Linux","password":true,"vac":true,"version":"7961495","steam_id":85568392924742828,"keywords":["cp","nocrits","nodmgspread","uncletopia"],"game_id":440,"stv_port":27086,"stv_name":"Uncletopia | Frankfurt | 8 | Community | STV","players":null},{"server_id":202,"name":"Uncletopia | Hong Kong | 1 | All Maps","name_short":"hgk-1","host":"hgk-1.hk.uncletopia.com","port":27015,"enabled":true,"region":"asia","cc":"hk","latitude":22.302711,"longitude":114.177216,"reserved":0,"last_update":"0001-01-01T00:00:00Z","name_a2s":"Uncletopia | Hong Kong | 1 | All Maps","protocol":17,"map":"pl_badwater","folder":"tf","game":"Team Fortress","app_id":440,"player_count":0,"max_players":24,"Bots":0,"server_type":"Dedicated","server_os":"Linux","password":true,"vac":true,"version":"7961495","steam_id":85568392924494504,"keywords":["nocrits","nodmgspread","payload","uncletopia"],"game_id":440,"stv_port":27016,"stv_name":"Uncletopia | Hong Kong | 1 | All Maps | STV","players":null},{"server_id":1,"name":"Uncletopia | Los Angeles | 1 | All Maps","name_short":"lax-1","host":"lax-1.us.uncletopia.com","port":27015,"enabled":true,"region":"us-west","cc":"us","latitude":33.94279,"longitude":-118.41004,"reserved":0,"last_update":"0001-01-01T00:00:00Z","name_a2s":"Uncletopia | Los Angeles | 1 | All Maps","protocol":17,"map":"cp_sunshine","folder":"tf","game":"Team Fortress","app_id":440,"player_count":5,"max_players":24,"Bots":0,"server_type":"Dedicated","server_os":"Linux","password":true,"vac":true,"version":"7961495","steam_id":85568392924469991,"keywords":["cp","nocrits","nodmgspread","uncletopia"],"game_id":440,"stv_port":27016,"stv_name":"Uncletopia | Los Angeles | 1 | All Maps | STV","players":[{"user_id":37,"name":"Eugene Thaddeus Hinkle V","steam_id":76561198821535846,"connected_time":1192000000000,"state":"active","ping":107},{"user_id":41,"name":"Mr. Noodle","steam_id":76561198025280658,"connected_time":232000000000,"state":"active","ping":46},{"user_id":39,"name":"Lysander Crow","steam_id":76561198214659356,"connected_time":485000000000,"state":"active","ping":59},{"user_id":42,"name":"Metalogic","steam_id":76561198049469629,"connected_time":230000000000,"state":"active","ping":83},{"user_id":43,"name":"nfseskimo","steam_id":76561198078745666,"connected_time":219000000000,"state":"active","ping":64}]},{"server_id":112,"name":"Uncletopia | Los Angeles | 2 | All Maps","name_short":"lax-2","host":"lax-1.us.uncletopia.com","port":27025,"enabled":true,"region":"us-west","cc":"us","latitude":33.94279,"longitude":-118.41004,"reserved":0,"last_update":"0001-01-01T00:00:00Z","name_a2s":"Uncletopia | Los Angeles | 2 | All Maps","protocol":17,"map":"koth_viaduct","folder":"tf","game":"Team Fortress","app_id":440,"player_count":0,"max_players":24,"Bots":0,"server_type":"Dedicated","server_os":"Linux","password":true,"vac":true,"version":"7961495","steam_id":85568392924469992,"keywords":["cp","nocrits","nodmgspread","uncletopia"],"game_id":440,"stv_port":27026,"stv_name":"Uncletopia | Los Angeles | 2 | All Maps | STV","players":null},{"server_id":324,"name":"Uncletopia | Los Angeles | 3 | All Maps","name_short":"lax-3","host":"lax-1.us.uncletopia.com","port":27035,"enabled":true,"region":"us-west","cc":"us","latitude":33.94279,"longitude":-118.41004,"reserved":0,"last_update":"0001-01-01T00:00:00Z","name_a2s":"Uncletopia | Los Angeles | 3 | All Maps","protocol":17,"map":"koth_viaduct","folder":"tf","game":"Team Fortress","app_id":440,"player_count":0,"max_players":24,"Bots":0,"server_type":"Dedicated","server_os":"Linux","password":true,"vac":true,"version":"7961495","steam_id":85568392924510198,"keywords":["cp","nocrits","nodmgspread","uncletopia"],"game_id":440,"stv_port":27036,"stv_name":"Uncletopia | Los Angeles | 3 | All Maps | STV","players":null},{"server_id":25,"name":"Uncletopia | Los Angeles | 4 | Stopwatch","name_short":"lax-4","host":"lax-1.us.uncletopia.com","port":27045,"enabled":true,"region":"us-west","cc":"us","latitude":33.94279,"longitude":-118.41004,"reserved":0,"last_update":"0001-01-01T00:00:00Z","name_a2s":"Uncletopia | Los Angeles | 4 | Stopwatch","protocol":17,"map":"cp_metalworks","folder":"tf","game":"Team Fortress","app_id":440,"player_count":0,"max_players":24,"Bots":0,"server_type":"Dedicated","server_os":"Linux","password":true,"vac":true,"version":"7961495","steam_id":85568392924510199,"keywords":["cp","nocrits","nodmgspread","uncletopia"],"game_id":440,"stv_port":27046,"stv_name":"Uncletopia | Los Angeles | 4 | Stopwatch | STV","players":null},{"server_id":11,"name":"Uncletopia | London | 1 | All Maps","name_short":"lon-1","host":"lon-1.uk.uncletopia.com","port":27015,"enabled":true,"region":"eu","cc":"gb","latitude":51.509865,"longitude":-0.118092,"reserved":0,"last_update":"0001-01-01T00:00:00Z","name_a2s":"Uncletopia | London | 1 | All Maps","protocol":17,"map":"pl_barnblitz","folder":"tf","game":"Team Fortress","app_id":440,"player_count":14,"max_players":24,"Bots":0,"server_type":"Dedicated","server_os":"Linux","password":true,"vac":true,"version":"7961495","steam_id":85568392924367362,"keywords":["nocrits","nodmgspread","payload","uncletopia"],"game_id":440,"stv_port":27016,"stv_name":"Uncletopia | London | 1 | All Maps | STV","players":[{"user_id":1094,"name":"SuperBob103","steam_id":76561199175360012,"connected_time":4479000000000,"state":"active","ping":45},{"user_id":1130,"name":"K","steam_id":76561198144604444,"connected_time":877000000000,"state":"active","ping":59},{"user_id":1118,"name":"Arkainiel Silver","steam_id":76561198188302519,"connected_time":2085000000000,"state":"active","ping":59},{"user_id":1135,"name":"H","steam_id":76561198158608309,"connected_time":113000000000,"state":"active","ping":54},{"user_id":1122,"name":"Eidolon","steam_id":76561198043919565,"connected_time":1514000000000,"state":"active","ping":52},{"user_id":1136,"name":"G_raff","steam_id":76561199048512726,"connected_time":18000000000,"state":"active","ping":101},{"user_id":1107,"name":"TomBradyKissesHisSonOnTheLips","steam_id":76561198272910051,"connected_time":2858000000000,"state":"active","ping":45},{"user_id":981,"name":"Peat","steam_id":76561197992168067,"connected_time":8431000000000,"state":"active","ping":68},{"user_id":1103,"name":"Morthunn","steam_id":76561198060062298,"connected_time":3328000000000,"state":"active","ping":56},{"user_id":1132,"name":"FurthestBen","steam_id":76561198056681239,"connected_time":583000000000,"state":"active","ping":60},{"user_id":1074,"name":"BlueBlueFox","steam_id":76561198053817230,"connected_time":6433000000000,"state":"active","ping":69},{"user_id":1093,"name":"BONK","steam_id":76561199120275042,"connected_time":5049000000000,"state":"active","ping":61},{"user_id":1133,"name":"FoxyTheFish","steam_id":76561199074190919,"connected_time":543000000000,"state":"active","ping":67},{"user_id":1128,"name":"DaisyTheCat","steam_id":76561198241732704,"connected_time":1108000000000,"state":"active","ping":48}]},{"server_id":114,"name":"Uncletopia | London | 2 | All Maps","name_short":"lon-2","host":"lon-1.uk.uncletopia.com","port":27025,"enabled":true,"region":"eu","cc":"gb","latitude":51.509865,"longitude":-0.118092,"reserved":0,"last_update":"0001-01-01T00:00:00Z","name_a2s":"Uncletopia | London | 2 | All Maps","protocol":17,"map":"koth_highpass","folder":"tf","game":"Team Fortress","app_id":440,"player_count":0,"max_players":24,"Bots":0,"server_type":"Dedicated","server_os":"Linux","password":true,"vac":true,"version":"7961495","steam_id":85568392924470941,"keywords":["cp","nocrits","nodmgspread","uncletopia"],"game_id":440,"stv_port":27026,"stv_name":"Uncletopia | London | 2 | All Maps | STV","players":null},{"server_id":320,"name":"Uncletopia | London | 3 | All Maps","name_short":"lon-3","host":"lon-1.uk.uncletopia.com","port":27035,"enabled":true,"region":"eu","cc":"gb","latitude":51.509865,"longitude":-0.118092,"reserved":0,"last_update":"0001-01-01T00:00:00Z","name_a2s":"Uncletopia | London | 3 | All Maps","protocol":17,"map":"koth_highpass","folder":"tf","game":"Team Fortress","app_id":440,"player_count":0,"max_players":24,"Bots":0,"server_type":"Dedicated","server_os":"Linux","password":true,"vac":true,"version":"7961495","steam_id":85568392924510192,"keywords":["cp","nocrits","nodmgspread","uncletopia"],"game_id":440,"stv_port":27036,"stv_name":"Uncletopia | London | 3 | All Maps | STV","players":null},{"server_id":321,"name":"Uncletopia | London | 4 | All Maps","name_short":"lon-4","host":"lon-1.uk.uncletopia.com","port":27045,"enabled":true,"region":"eu","cc":"gb","latitude":51.509865,"longitude":-0.118092,"reserved":0,"last_update":"0001-01-01T00:00:00Z","name_a2s":"Uncletopia | London | 4 | All Maps","protocol":17,"map":"cp_altitude","folder":"tf","game":"Team Fortress","app_id":440,"player_count":1,"max_players":24,"Bots":0,"server_type":"Dedicated","server_os":"Linux","password":true,"vac":true,"version":"7961495","steam_id":85568392924510193,"keywords":["cp","nocrits","nodmgspread","uncletopia"],"game_id":440,"stv_port":27046,"stv_name":"Uncletopia | London | 4 | All Maps | STV","players":[{"user_id":311,"name":"YoBoiJam140","steam_id":76561199014134685,"connected_time":213000000000,"state":"active","ping":149}]},{"server_id":21,"name":"Uncletopia | London | 5 | All Maps","name_short":"lon-5","host":"lon-1.uk.uncletopia.com","port":27055,"enabled":true,"region":"eu","cc":"gb","latitude":51.509865,"longitude":-0.118092,"reserved":0,"last_update":"0001-01-01T00:00:00Z","name_a2s":"Uncletopia | London | 5 | All Maps","protocol":17,"map":"plr_bananabay","folder":"tf","game":"Team Fortress","app_id":440,"player_count":0,"max_players":24,"Bots":0,"server_type":"Dedicated","server_os":"Linux","password":true,"vac":true,"version":"7961495","steam_id":85568392924742829,"keywords":["nocrits","nodmgspread","payload","uncletopia"],"game_id":440,"stv_port":27056,"stv_name":"Uncletopia | London | 5 | All Maps | STV","players":null},{"server_id":22,"name":"Uncletopia | London | 6 | All Maps","name_short":"lon-6","host":"lon-1.uk.uncletopia.com","port":27065,"enabled":true,"region":"eu","cc":"gb","latitude":51.509865,"longitude":-0.118092,"reserved":0,"last_update":"0001-01-01T00:00:00Z","name_a2s":"Uncletopia | London | 6 | All Maps","protocol":17,"map":"cp_process_final","folder":"tf","game":"Team Fortress","app_id":440,"player_count":0,"max_players":24,"Bots":0,"server_type":"Dedicated","server_os":"Linux","password":true,"vac":true,"version":"7961495","steam_id":85568392924742830,"keywords":["cp","nocrits","nodmgspread","uncletopia"],"game_id":440,"stv_port":27066,"stv_name":"Uncletopia | London | 6 | All Maps | STV","players":null},{"server_id":40,"name":"Uncletopia | London | 7 | Stopwatch","name_short":"lon-7","host":"lon-1.uk.uncletopia.com","port":27075,"enabled":true,"region":"eu","cc":"gb","latitude":51.509865,"longitude":-0.118092,"reserved":0,"last_update":"0001-01-01T00:00:00Z","name_a2s":"Uncletopia | London | 7 | Stopwatch","protocol":17,"map":"workshop/pl_vigil_rc10.ugc1266210012","folder":"tf","game":"Team Fortress","app_id":440,"player_count":0,"max_players":24,"Bots":0,"server_type":"Dedicated","server_os":"Linux","password":true,"vac":true,"version":"7961495","steam_id":85568392924964314,"keywords":["nocrits","nodmgspread","payload","uncletopia"],"game_id":440,"stv_port":27076,"stv_name":"Uncletopia | London | 7 | Stopwatch | STV","players":null},{"server_id":41,"name":"Uncletopia | London | 8 | Community","name_short":"lon-8","host":"lon-1.uk.uncletopia.com","port":27085,"enabled":true,"region":"eu","cc":"gb","latitude":51.509865,"longitude":-0.118092,"reserved":0,"last_update":"0001-01-01T00:00:00Z","name_a2s":"Uncletopia | London | 8 | Community","protocol":17,"map":"workshop/pl_cactuscanyon_redux_final2.ugc2579644293","folder":"tf","game":"Team Fortress","app_id":440,"player_count":0,"max_players":24,"Bots":0,"server_type":"Dedicated","server_os":"Linux","password":true,"vac":true,"version":"7961495","steam_id":85568392924964315,"keywords":["nocrits","nodmgspread","payload","uncletopia"],"game_id":440,"stv_port":27086,"stv_name":"Uncletopia | London | 8 | Community | STV","players":null},{"server_id":300,"name":"Uncletopia | Montréal | 1 | One Thousand Uncles","name_short":"mtl-1","host":"mtl-1.ca.uncletopia.com","port":27015,"enabled":true,"region":"us-east","cc":"ca","latitude":45.50889,"longitude":-73.56167,"reserved":0,"last_update":"0001-01-01T00:00:00Z","name_a2s":"","protocol":0,"map":"","folder":"","game":"","app_id":0,"player_count":0,"max_players":0,"Bots":0,"server_type":"","server_os":"","password":false,"vac":false,"version":"","steam_id":0,"keywords":null,"game_id":0,"stv_port":0,"stv_name":"","players":null},{"server_id":301,"name":"Uncletopia | Montréal | 2 | One Thousand Uncles","name_short":"mtl-2","host":"mtl-1.ca.uncletopia.com","port":27025,"enabled":true,"region":"us-east","cc":"ca","latitude":45.50889,"longitude":-73.56167,"reserved":0,"last_update":"0001-01-01T00:00:00Z","name_a2s":"","protocol":0,"map":"","folder":"","game":"","app_id":0,"player_count":0,"max_players":0,"Bots":0,"server_type":"","server_os":"","password":false,"vac":false,"version":"","steam_id":0,"keywords":null,"game_id":0,"stv_port":0,"stv_name":"","players":null},{"server_id":302,"name":"Uncletopia | Montréal | 3 | One Thousand Uncles","name_short":"mtl-3","host":"mtl-1.ca.uncletopia.com","port":27035,"enabled":true,"region":"us-east","cc":"ca","latitude":45.50889,"longitude":-73.56167,"reserved":0,"last_update":"0001-01-01T00:00:00Z","name_a2s":"","protocol":0,"map":"","folder":"","game":"","app_id":0,"player_count":0,"max_players":0,"Bots":0,"server_type":"","server_os":"","password":false,"vac":false,"version":"","steam_id":0,"keywords":null,"game_id":0,"stv_port":0,"stv_name":"","players":null},{"server_id":13,"name":"Uncletopia | New York City | 1 | All Maps","name_short":"nyc-1","host":"nyc-1.us.uncletopia.com","port":27015,"enabled":true,"region":"us-east","cc":"us","latitude":40.73061,"longitude":-73.93524,"reserved":0,"last_update":"0001-01-01T00:00:00Z","name_a2s":"Uncletopia | New York City | 1 | All Maps","protocol":17,"map":"cp_sunshine","folder":"tf","game":"Team Fortress","app_id":440,"player_count":20,"max_players":24,"Bots":0,"server_type":"Dedicated","server_os":"Linux","password":true,"vac":true,"version":"7961495","steam_id":85568392924469993,"keywords":["cp","nocrits","nodmgspread","uncletopia"],"game_id":440,"stv_port":27016,"stv_name":"Uncletopia | New York City | 1 | All Maps | STV","players":[{"user_id":432,"name":"corntent","steam_id":76561198824847948,"connected_time":1489000000000,"state":"active","ping":29},{"user_id":423,"name":"ctf_well","steam_id":76561198016826181,"connected_time":2235000000000,"state":"active","ping":58},{"user_id":449,"name":"Equinox","steam_id":76561198274279754,"connected_time":461000000000,"state":"active","ping":77},{"user_id":425,"name":"nerf me","steam_id":76561198310495200,"connected_time":2131000000000,"state":"active","ping":60},{"user_id":439,"name":"Werm","steam_id":76561198149601897,"connected_time":978000000000,"state":"active","ping":56},{"user_id":358,"name":"Brawns","steam_id":76561198045190199,"connected_time":6820000000000,"state":"active","ping":65},{"user_id":452,"name":"STANLEY","steam_id":76561198812086921,"connected_time":21000000000,"state":"active","ping":41},{"user_id":433,"name":"lfty","steam_id":76561198283841707,"connected_time":1357000000000,"state":"active","ping":54},{"user_id":436,"name":"batheman63","steam_id":76561198881818552,"connected_time":1295000000000,"state":"active","ping":67},{"user_id":438,"name":"BFro","steam_id":76561198102758681,"connected_time":990000000000,"state":"spawning","ping":50},{"user_id":451,"name":"Lumpy the Illegally Blind","steam_id":76561198053125768,"connected_time":31000000000,"state":"active","ping":199},{"user_id":403,"name":"lettuce, ground beef, tomatoes","steam_id":76561198046948758,"connected_time":3852000000000,"state":"active","ping":63},{"user_id":414,"name":"Mocha","steam_id":76561198368999744,"connected_time":3258000000000,"state":"active","ping":49},{"user_id":374,"name":"Yuzu","steam_id":76561198417913035,"connected_time":5777000000000,"state":"active","ping":67},{"user_id":440,"name":"Da Walrus","steam_id":76561198045190191,"connected_time":970000000000,"state":"active","ping":55},{"user_id":447,"name":"Tokyo_Timeshift_","steam_id":76561198048677523,"connected_time":654000000000,"state":"active","ping":60},{"user_id":392,"name":"Jeff","steam_id":76561197997564762,"connected_time":4402000000000,"state":"active","ping":81},{"user_id":434,"name":"Thunderous","steam_id":76561198192752793,"connected_time":1339000000000,"state":"active","ping":50},{"user_id":373,"name":"RealStanzy","steam_id":76561199060261003,"connected_time":5854000000000,"state":"active","ping":52},{"user_id":448,"name":"Sitting Duck","steam_id":76561197980506451,"connected_time":607000000000,"state":"active","ping":86}]},{"server_id":14,"name":"Uncletopia | New York City | 2 | All Maps","name_short":"nyc-2","host":"nyc-1.us.uncletopia.com","port":27025,"enabled":true,"region":"us-east","cc":"us","latitude":40.73061,"longitude":-73.93524,"reserved":0,"last_update":"0001-01-01T00:00:00Z","name_a2s":"Uncletopia | New York City | 2 | All Maps","protocol":17,"map":"pl_frontier_final","folder":"tf","game":"Team Fortress","app_id":440,"player_count":24,"max_players":24,"Bots":0,"server_type":"Dedicated","server_os":"Linux","password":true,"vac":true,"version":"7961495","steam_id":85568392924469994,"keywords":["nocrits","nodmgspread","payload","uncletopia"],"game_id":440,"stv_port":27026,"stv_name":"Uncletopia | New York City | 2 | All Maps | STV","players":[{"user_id":435,"name":"Darling","steam_id":76561198102959234,"connected_time":1013000000000,"state":"active","ping":92},{"user_id":427,"name":"Genn","steam_id":76561198070450699,"connected_time":2675000000000,"state":"active","ping":45},{"user_id":433,"name":"✪Type_Alpha","steam_id":76561198122780598,"connected_time":2340000000000,"state":"active","ping":60},{"user_id":444,"name":"the flying spoon","steam_id":76561199039152146,"connected_time":756000000000,"state":"active","ping":60},{"user_id":438,"name":"Fundy","steam_id":76561198044648667,"connected_time":983000000000,"state":"active","ping":88},{"user_id":443,"name":"Toxic Medic Main (he/they)","steam_id":76561198009314845,"connected_time":780000000000,"state":"active","ping":127},{"user_id":434,"name":"poke_ravi","steam_id":76561198006619886,"connected_time":2157000000000,"state":"active","ping":56},{"user_id":346,"name":"Havok","steam_id":76561198063455003,"connected_time":9006000000000,"state":"active","ping":63},{"user_id":426,"name":"River","steam_id":76561198137529294,"connected_time":2760000000000,"state":"active","ping":63},{"user_id":439,"name":"Hydroxianchaos","steam_id":76561198043786828,"connected_time":973000000000,"state":"active","ping":59},{"user_id":342,"name":"Femboy Medic Main","steam_id":76561198268225109,"connected_time":9398000000000,"state":"active","ping":85},{"user_id":432,"name":"Cave404","steam_id":76561198165788760,"connected_time":2515000000000,"state":"active","ping":83},{"user_id":419,"name":"Brook Prime","steam_id":76561198185126222,"connected_time":3698000000000,"state":"active","ping":114},{"user_id":445,"name":"Fish Fisherman","steam_id":76561198018656022,"connected_time":746000000000,"state":"active","ping":60},{"user_id":417,"name":"TheBoxWizard","steam_id":76561198447992832,"connected_time":4221000000000,"state":"active","ping":55},{"user_id":446,"name":"PurPle","steam_id":76561198050393396,"connected_time":738000000000,"state":"active","ping":73},{"user_id":374,"name":"Dragon-of-Kings","steam_id":76561198277395682,"connected_time":7133000000000,"state":"active","ping":72},{"user_id":436,"name":"Pink Dragon Express","steam_id":76561198119494277,"connected_time":998000000000,"state":"active","ping":61},{"user_id":376,"name":"Breadman","steam_id":76561198122782153,"connected_time":7068000000000,"state":"active","ping":84},{"user_id":447,"name":"ndvr (femboy (REAL))","steam_id":76561199379200102,"connected_time":729000000000,"state":"active","ping":52},{"user_id":388,"name":"Your Loyal Familiar","steam_id":76561198106476075,"connected_time":5871000000000,"state":"active","ping":74},{"user_id":449,"name":"Phattman","steam_id":76561198000896064,"connected_time":496000000000,"state":"active","ping":54},{"user_id":424,"name":"emotional suppport e-cigarette","steam_id":76561198172120615,"connected_time":3075000000000,"state":"active","ping":35},{"user_id":393,"name":"Farded and shidded","steam_id":76561198844270350,"connected_time":5625000000000,"state":"active","ping":81}]},{"server_id":15,"name":"Uncletopia | New York City | 3 | Stopwatch","name_short":"nyc-3","host":"nyc-1.us.uncletopia.com","port":27035,"enabled":true,"region":"us-east","cc":"us","latitude":40.73061,"longitude":-73.93524,"reserved":0,"last_update":"0001-01-01T00:00:00Z","name_a2s":"Uncletopia | New York City | 3 | Stopwatch","protocol":17,"map":"workshop/pl_summercoast_rc8e.ugc1761528829","folder":"tf","game":"Team Fortress","app_id":440,"player_count":24,"max_players":24,"Bots":0,"server_type":"Dedicated","server_os":"Linux","password":true,"vac":true,"version":"7961495","steam_id":85568392924742820,"keywords":["nocrits","nodmgspread","payload","uncletopia"],"game_id":440,"stv_port":27036,"stv_name":"Uncletopia | New York City | 3 | Stopwatch | STV","players":[{"user_id":250,"name":"Gumby","steam_id":76561198044364226,"connected_time":477000000000,"state":"active","ping":45},{"user_id":213,"name":"AQUΛRIA","steam_id":76561198065592204,"connected_time":2443000000000,"state":"active","ping":62},{"user_id":199,"name":"Lordofthekevins","steam_id":76561198169066956,"connected_time":4331000000000,"state":"active","ping":72},{"user_id":233,"name":"quack","steam_id":76561198138783216,"connected_time":1156000000000,"state":"active","ping":43},{"user_id":256,"name":"Krusader","steam_id":76561197995946856,"connected_time":221000000000,"state":"active","ping":138},{"user_id":165,"name":"Telomerase","steam_id":76561198095792685,"connected_time":6212000000000,"state":"active","ping":73},{"user_id":247,"name":"Miles-z-o","steam_id":76561198151115023,"connected_time":598000000000,"state":"active","ping":64},{"user_id":215,"name":"Goey Jangs","steam_id":76561198017027543,"connected_time":2432000000000,"state":"active","ping":51},{"user_id":241,"name":"Poopisviel Von Einzbern","steam_id":76561198259260433,"connected_time":778000000000,"state":"active","ping":85},{"user_id":236,"name":"Almonicus","steam_id":76561198044401351,"connected_time":974000000000,"state":"active","ping":84},{"user_id":255,"name":"kritik","steam_id":76561198075216115,"connected_time":334000000000,"state":"active","ping":171},{"user_id":242,"name":"GH578","steam_id":76561199493262585,"connected_time":740000000000,"state":"active","ping":103},{"user_id":245,"name":"Lemonty","steam_id":76561198163812778,"connected_time":628000000000,"state":"active","ping":60},{"user_id":239,"name":"TTV/YT hunter","steam_id":76561198115812405,"connected_time":806000000000,"state":"active","ping":71},{"user_id":179,"name":"Alpine","steam_id":76561198436177465,"connected_time":5202000000000,"state":"active","ping":51},{"user_id":216,"name":"Mecha","steam_id":76561198094531215,"connected_time":2428000000000,"state":"active","ping":68},{"user_id":186,"name":"Sentry Gun Main Man","steam_id":76561198327938247,"connected_time":4833000000000,"state":"active","ping":85},{"user_id":189,"name":"craven","steam_id":76561198088191503,"connected_time":4656000000000,"state":"active","ping":66},{"user_id":246,"name":"BroBama","steam_id":76561198203732587,"connected_time":624000000000,"state":"active","ping":95},{"user_id":253,"name":"GoodleShoes/ttv","steam_id":76561198030993521,"connected_time":429000000000,"state":"active","ping":77},{"user_id":227,"name":"Juan Pablo Gonzalez 2023","steam_id":76561199197961413,"connected_time":1503000000000,"state":"active","ping":42},{"user_id":254,"name":"Professor","steam_id":76561198097038169,"connected_time":386000000000,"state":"active","ping":76},{"user_id":226,"name":"Melonfrog","steam_id":76561198389885427,"connected_time":1679000000000,"state":"active","ping":110},{"user_id":225,"name":"the keebler","steam_id":76561199486326945,"connected_time":1804000000000,"state":"active","ping":76}]},{"server_id":16,"name":"Uncletopia | New York City | 4 | Community","name_short":"nyc-4","host":"nyc-1.us.uncletopia.com","port":27045,"enabled":true,"region":"us-east","cc":"us","latitude":40.73061,"longitude":-73.93524,"reserved":0,"last_update":"0001-01-01T00:00:00Z","name_a2s":"Uncletopia | New York City | 4 | Community","protocol":17,"map":"workshop/koth_product_final.ugc454272353","folder":"tf","game":"Team Fortress","app_id":440,"player_count":0,"max_players":24,"Bots":0,"server_type":"Dedicated","server_os":"Linux","password":true,"vac":true,"version":"7961495","steam_id":85568392924742821,"keywords":["cp","nocrits","nodmgspread","uncletopia"],"game_id":440,"stv_port":27046,"stv_name":"Uncletopia | New York City | 4 | Community | STV","players":null},{"server_id":142,"name":"Uncletopia | São Paulo | 1 | All Maps","name_short":"sao-1","host":"sao-1.br.uncletopia.com","port":27015,"enabled":true,"region":"sa","cc":"br","latitude":-23.533773,"longitude":-46.62529,"reserved":0,"last_update":"0001-01-01T00:00:00Z","name_a2s":"Uncletopia | São Paulo | 1 | All Maps","protocol":17,"map":"pl_frontier_final","folder":"tf","game":"Team Fortress","app_id":440,"player_count":0,"max_players":24,"Bots":0,"server_type":"Dedicated","server_os":"Linux","password":true,"vac":true,"version":"7961495","steam_id":85568392924469996,"keywords":["nocrits","nodmgspread","payload","uncletopia"],"game_id":440,"stv_port":27016,"stv_name":"Uncletopia | São Paulo | 1 | All Maps | STV","players":null},{"server_id":143,"name":"Uncletopia | São Paulo | 2 | Community","name_short":"sao-2","host":"sao-2.br.uncletopia.com","port":27015,"enabled":true,"region":"sa","cc":"br","latitude":-23.533773,"longitude":-46.62529,"reserved":0,"last_update":"0001-01-01T00:00:00Z","name_a2s":"Uncletopia | São Paulo | 2 | Community","protocol":17,"map":"workshop/koth_kemptown_rc1.ugc767410655","folder":"tf","game":"Team Fortress","app_id":440,"player_count":2,"max_players":24,"Bots":0,"server_type":"Dedicated","server_os":"Linux","password":true,"vac":true,"version":"7961495","steam_id":85568392924485349,"keywords":["cp","nocrits","nodmgspread","uncletopia"],"game_id":440,"stv_port":27016,"stv_name":"Uncletopia | São Paulo | 2 | Community | STV","players":[{"user_id":19,"name":"Spooqui","steam_id":76561198829748673,"connected_time":677000000000,"state":"active","ping":59},{"user_id":20,"name":"N00B","steam_id":76561199101427851,"connected_time":668000000000,"state":"active","ping":96}]},{"server_id":7,"name":"Uncletopia | Seattle | 1 | All Maps","name_short":"sea-1","host":"sea-1.us.uncletopia.com","port":27015,"enabled":true,"region":"us-west","cc":"us","latitude":47.608013,"longitude":-122.33517,"reserved":0,"last_update":"0001-01-01T00:00:00Z","name_a2s":"Uncletopia | Seattle | 1 | All Maps","protocol":17,"map":"pl_snowycoast","folder":"tf","game":"Team Fortress","app_id":440,"player_count":24,"max_players":24,"Bots":0,"server_type":"Dedicated","server_os":"Linux","password":true,"vac":true,"version":"7961495","steam_id":85568392924469997,"keywords":["nocrits","nodmgspread","payload","uncletopia"],"game_id":440,"stv_port":27016,"stv_name":"Uncletopia | Seattle | 1 | All Maps | STV","players":[{"user_id":362,"name":"ThePriceIsRice","steam_id":76561198079069543,"connected_time":3931000000000,"state":"active","ping":62},{"user_id":383,"name":"The Shaq Attack","steam_id":76561198075285534,"connected_time":1833000000000,"state":"active","ping":52},{"user_id":393,"name":"Stapler","steam_id":76561198099295077,"connected_time":1224000000000,"state":"active","ping":66},{"user_id":351,"name":"roody","steam_id":76561198066260405,"connected_time":4800000000000,"state":"active","ping":44},{"user_id":363,"name":"duddlee","steam_id":76561198030052564,"connected_time":3898000000000,"state":"active","ping":60},{"user_id":394,"name":"toes","steam_id":76561198221151676,"connected_time":1090000000000,"state":"active","ping":48},{"user_id":387,"name":"NOT FRIENDLY","steam_id":76561198041327231,"connected_time":1798000000000,"state":"active","ping":47},{"user_id":356,"name":"Walter White","steam_id":76561199102963294,"connected_time":4112000000000,"state":"active","ping":64},{"user_id":397,"name":"NEЯO","steam_id":76561197965450216,"connected_time":1044000000000,"state":"active","ping":50},{"user_id":379,"name":"CHIEF_JUSTICE_FUCKASS","steam_id":76561199261675844,"connected_time":2382000000000,"state":"active","ping":45},{"user_id":388,"name":"Hassium","steam_id":76561198162541373,"connected_time":1785000000000,"state":"active","ping":56},{"user_id":395,"name":"RainboomCrash","steam_id":76561198065612273,"connected_time":1083000000000,"state":"active","ping":51},{"user_id":350,"name":"Корзап","steam_id":76561198086030373,"connected_time":4940000000000,"state":"active","ping":52},{"user_id":380,"name":"Racecar_Driver","steam_id":76561198054176223,"connected_time":2380000000000,"state":"active","ping":57},{"user_id":372,"name":"William P. Ennis","steam_id":76561198073464877,"connected_time":3025000000000,"state":"active","ping":100},{"user_id":400,"name":"Drapph","steam_id":76561199384213314,"connected_time":102000000000,"state":"active","ping":105},{"user_id":342,"name":"theManMan","steam_id":76561199488457138,"connected_time":5623000000000,"state":"active","ping":58},{"user_id":371,"name":"GumCuzzler69","steam_id":76561198257418930,"connected_time":3446000000000,"state":"active","ping":103},{"user_id":385,"name":"Tungsten","steam_id":76561198312854342,"connected_time":1810000000000,"state":"active","ping":87},{"user_id":399,"name":"bocchi the gock","steam_id":76561198844648825,"connected_time":125000000000,"state":"active","ping":42},{"user_id":353,"name":"Ayayayayayayayayayayayayahuasca","steam_id":76561199002906056,"connected_time":4387000000000,"state":"active","ping":56},{"user_id":386,"name":"Cat","steam_id":76561198132362099,"connected_time":1809000000000,"state":"active","ping":83},{"user_id":378,"name":"trackpad gaming | f2p","steam_id":76561198840414371,"connected_time":2400000000000,"state":"active","ping":52},{"user_id":382,"name":"Hazel Nutts","steam_id":76561199247095754,"connected_time":1967000000000,"state":"active","ping":62}]},{"server_id":119,"name":"Uncletopia | Seattle | 2 | All Maps","name_short":"sea-2","host":"sea-1.us.uncletopia.com","port":27025,"enabled":true,"region":"us-west","cc":"us","latitude":47.608013,"longitude":-122.33517,"reserved":0,"last_update":"0001-01-01T00:00:00Z","name_a2s":"Uncletopia | Seattle | 2 | All Maps","protocol":17,"map":"cp_snakewater_final1","folder":"tf","game":"Team Fortress","app_id":440,"player_count":24,"max_players":24,"Bots":0,"server_type":"Dedicated","server_os":"Linux","password":true,"vac":true,"version":"7961495","steam_id":85568392924469998,"keywords":["cp","nocrits","nodmgspread","uncletopia"],"game_id":440,"stv_port":27026,"stv_name":"Uncletopia | Seattle | 2 | All Maps | STV","players":[{"user_id":91,"name":"THE CUMEST LORD","steam_id":76561198061412592,"connected_time":1223000000000,"state":"active","ping":108},{"user_id":70,"name":"dodecadron","steam_id":76561198027397222,"connected_time":2240000000000,"state":"active","ping":69},{"user_id":102,"name":"Gamer1243","steam_id":76561199073760355,"connected_time":120000000000,"state":"active","ping":87},{"user_id":97,"name":"WitchesBwew","steam_id":76561198871652065,"connected_time":425000000000,"state":"active","ping":82},{"user_id":101,"name":"MayKay","steam_id":76561199016092265,"connected_time":254000000000,"state":"active","ping":80},{"user_id":71,"name":"Thanks Ants","steam_id":76561197966221018,"connected_time":2191000000000,"state":"active","ping":37},{"user_id":103,"name":"sun","steam_id":76561198858474714,"connected_time":91000000000,"state":"active","ping":52},{"user_id":99,"name":"HeHedron","steam_id":76561199199667164,"connected_time":348000000000,"state":"active","ping":94},{"user_id":93,"name":"Tideflat","steam_id":76561198179850851,"connected_time":1154000000000,"state":"active","ping":47},{"user_id":89,"name":"Lunarthrope","steam_id":76561198292132147,"connected_time":1259000000000,"state":"active","ping":75},{"user_id":64,"name":"Petrivus","steam_id":76561198202152453,"connected_time":2784000000000,"state":"active","ping":45},{"user_id":95,"name":"Marz","steam_id":76561198799364911,"connected_time":613000000000,"state":"active","ping":88},{"user_id":104,"name":"Major_Pippy","steam_id":76561198004482878,"connected_time":85000000000,"state":"active","ping":34},{"user_id":83,"name":"Greenwood RN","steam_id":76561198088641060,"connected_time":1335000000000,"state":"active","ping":34},{"user_id":100,"name":"kookiestkookaburra","steam_id":76561197972601902,"connected_time":326000000000,"state":"active","ping":79},{"user_id":80,"name":"Batso","steam_id":76561198106589452,"connected_time":1411000000000,"state":"active","ping":76},{"user_id":54,"name":"Nick","steam_id":76561198329096986,"connected_time":3082000000000,"state":"active","ping":91},{"user_id":96,"name":"Dextersbrain","steam_id":76561198011831579,"connected_time":578000000000,"state":"active","ping":69},{"user_id":98,"name":"Lunch Enjoyer","steam_id":76561198037361116,"connected_time":395000000000,"state":"active","ping":55},{"user_id":90,"name":"Nodding","steam_id":76561198077789314,"connected_time":1242000000000,"state":"active","ping":107},{"user_id":65,"name":"WillowWisp","steam_id":76561198049104842,"connected_time":2667000000000,"state":"active","ping":45},{"user_id":59,"name":"decoy sniper","steam_id":76561198065662025,"connected_time":3037000000000,"state":"active","ping":71},{"user_id":74,"name":"james_bondage","steam_id":76561199476062624,"connected_time":1985000000000,"state":"active","ping":120},{"user_id":88,"name":"laughs bigman","steam_id":76561198067714032,"connected_time":1299000000000,"state":"active","ping":85}]},{"server_id":406,"name":"Uncletopia | Seattle | 3 | Stopwatch","name_short":"sea-3","host":"sea-1.us.uncletopia.com","port":27035,"enabled":true,"region":"us-west","cc":"us","latitude":47.608013,"longitude":-122.33517,"reserved":0,"last_update":"0001-01-01T00:00:00Z","name_a2s":"Uncletopia | Seattle | 3 | Stopwatch","protocol":17,"map":"cp_sunshine","folder":"tf","game":"Team Fortress","app_id":440,"player_count":22,"max_players":24,"Bots":0,"server_type":"Dedicated","server_os":"Linux","password":true,"vac":true,"version":"7961495","steam_id":85568392924515217,"keywords":["cp","nocrits","nodmgspread","uncletopia"],"game_id":440,"stv_port":27036,"stv_name":"Uncletopia | Seattle | 3 | Stopwatch | STV","players":[{"user_id":249,"name":"ButteryJack","steam_id":76561198021691102,"connected_time":1594000000000,"state":"active","ping":266},{"user_id":273,"name":"PeptoBismol","steam_id":76561198082669076,"connected_time":736000000000,"state":"spawning","ping":75},{"user_id":183,"name":"Klone","steam_id":76561198854485605,"connected_time":4844000000000,"state":"spawning","ping":115},{"user_id":271,"name":"GoldenGuy","steam_id":76561199063033506,"connected_time":773000000000,"state":"spawning","ping":49},{"user_id":242,"name":"type \"bad med\" to kick","steam_id":76561198076402476,"connected_time":1846000000000,"state":"active","ping":282},{"user_id":269,"name":"ORANGE","steam_id":76561198000401769,"connected_time":838000000000,"state":"active","ping":151},{"user_id":213,"name":"\u003e:3 Muiramme εїз","steam_id":76561197994458543,"connected_time":3626000000000,"state":"spawning","ping":50},{"user_id":186,"name":"pi???","steam_id":76561198450073779,"connected_time":4578000000000,"state":"spawning","ping":285},{"user_id":245,"name":"Dr. Juvenal","steam_id":76561198114553453,"connected_time":1656000000000,"state":"spawning","ping":63},{"user_id":277,"name":"JOHN WICK","steam_id":76561198091877422,"connected_time":275000000000,"state":"active","ping":262},{"user_id":263,"name":"Cowboyfos","steam_id":76561199055740230,"connected_time":1042000000000,"state":"spawning","ping":77},{"user_id":215,"name":"Munky","steam_id":76561197993491054,"connected_time":3598000000000,"state":"spawning","ping":64},{"user_id":276,"name":"Silverkeys","steam_id":76561197986012496,"connected_time":299000000000,"state":"spawning","ping":109},{"user_id":261,"name":"Real","steam_id":76561198405830028,"connected_time":1107000000000,"state":"spawning","ping":80},{"user_id":270,"name":"Jukebox","steam_id":76561198043930636,"connected_time":791000000000,"state":"spawning","ping":48},{"user_id":272,"name":"Dongus","steam_id":76561197979056451,"connected_time":769000000000,"state":"active","ping":54},{"user_id":260,"name":"Set","steam_id":76561198063949642,"connected_time":1182000000000,"state":"spawning","ping":50},{"user_id":262,"name":"Synergy","steam_id":76561198098630198,"connected_time":1101000000000,"state":"active","ping":74},{"user_id":265,"name":"IMPROBABLE FLIPPING","steam_id":76561198045964573,"connected_time":1001000000000,"state":"spawning","ping":223},{"user_id":222,"name":"Armpit!","steam_id":76561197978095727,"connected_time":3437000000000,"state":"spawning","ping":45},{"user_id":279,"name":"Kekian","steam_id":76561198814324672,"connected_time":164000000000,"state":"spawning","ping":84},{"user_id":266,"name":"Gojira19","steam_id":76561198206384351,"connected_time":991000000000,"state":"spawning","ping":92}]},{"server_id":17,"name":"Uncletopia | San Francisco | 1 | All Maps","name_short":"sfo-1","host":"sfo-1.us.uncletopia.com","port":27015,"enabled":true,"region":"us-west","cc":"us","latitude":37.77397,"longitude":-122.4313,"reserved":0,"last_update":"0001-01-01T00:00:00Z","name_a2s":"Uncletopia | San Francisco | 1 | All Maps","protocol":17,"map":"koth_viaduct","folder":"tf","game":"Team Fortress","app_id":440,"player_count":0,"max_players":24,"Bots":0,"server_type":"Dedicated","server_os":"Linux","password":true,"vac":true,"version":"7961495","steam_id":85568392924469999,"keywords":["cp","nocrits","nodmgspread","uncletopia"],"game_id":440,"stv_port":27016,"stv_name":"Uncletopia | San Francisco | 1 | All Maps | STV","players":null},{"server_id":18,"name":"Uncletopia | San Francisco | 2 | All Maps","name_short":"sfo-2","host":"sfo-1.us.uncletopia.com","port":27025,"enabled":true,"region":"us-west","cc":"us","latitude":37.77397,"longitude":-122.4313,"reserved":0,"last_update":"0001-01-01T00:00:00Z","name_a2s":"Uncletopia | San Francisco | 2 | All Maps","protocol":17,"map":"pl_frontier_final","folder":"tf","game":"Team Fortress","app_id":440,"player_count":24,"max_players":24,"Bots":0,"server_type":"Dedicated","server_os":"Linux","password":true,"vac":true,"version":"7961495","steam_id":85568392924470000,"keywords":["nocrits","nodmgspread","payload","uncletopia"],"game_id":440,"stv_port":27026,"stv_name":"Uncletopia | San Francisco | 2 | All Maps | STV","players":[{"user_id":511,"name":"SirGageXenon","steam_id":76561198354317942,"connected_time":234000000000,"state":"active","ping":127},{"user_id":512,"name":"Humble Learner","steam_id":76561198066091050,"connected_time":229000000000,"state":"active","ping":70},{"user_id":509,"name":"[☯] randomshagz*","steam_id":76561197968666646,"connected_time":266000000000,"state":"active","ping":78},{"user_id":513,"name":"luxl1","steam_id":76561198975034056,"connected_time":199000000000,"state":"active","ping":100},{"user_id":497,"name":"lordstinkdemon666","steam_id":76561198073914311,"connected_time":1983000000000,"state":"active","ping":50},{"user_id":494,"name":"FROYO cina_red","steam_id":76561198070266530,"connected_time":2150000000000,"state":"active","ping":47},{"user_id":515,"name":"tomiz","steam_id":76561198827013832,"connected_time":166000000000,"state":"active","ping":50},{"user_id":460,"name":"Igrium","steam_id":76561198119549811,"connected_time":4647000000000,"state":"active","ping":61},{"user_id":495,"name":"miguelrodriguez2013","steam_id":76561198269253587,"connected_time":2116000000000,"state":"active","ping":49},{"user_id":514,"name":"› We Are You.j2","steam_id":76561197995242200,"connected_time":175000000000,"state":"active","ping":50},{"user_id":498,"name":"Provisons inc.","steam_id":76561198327014706,"connected_time":1971000000000,"state":"active","ping":64},{"user_id":457,"name":"lol","steam_id":76561198026491738,"connected_time":5192000000000,"state":"active","ping":67},{"user_id":505,"name":"de1deonlyvic","steam_id":76561199072005203,"connected_time":949000000000,"state":"active","ping":68},{"user_id":503,"name":"dewey","steam_id":76561198132791511,"connected_time":1014000000000,"state":"active","ping":69},{"user_id":507,"name":"Yokogaijin Jr.","steam_id":76561199124647094,"connected_time":759000000000,"state":"active","ping":40},{"user_id":508,"name":"Bernie Flanders","steam_id":76561198245511850,"connected_time":665000000000,"state":"active","ping":69},{"user_id":516,"name":"Laxoloni","steam_id":76561199197045700,"connected_time":164000000000,"state":"active","ping":77},{"user_id":504,"name":"Just washed","steam_id":76561199030160932,"connected_time":996000000000,"state":"active","ping":118},{"user_id":486,"name":"roach :3","steam_id":76561198354811369,"connected_time":2888000000000,"state":"active","ping":59},{"user_id":517,"name":"FROYO b4nny","steam_id":76561197970669109,"connected_time":163000000000,"state":"active","ping":54},{"user_id":518,"name":"LACTAID","steam_id":76561198276585202,"connected_time":158000000000,"state":"active","ping":62},{"user_id":491,"name":"nella","steam_id":76561198079349621,"connected_time":2345000000000,"state":"active","ping":55},{"user_id":519,"name":"Ok then","steam_id":76561198891914787,"connected_time":146000000000,"state":"active","ping":70}]},{"server_id":19,"name":"Uncletopia | San Francisco | 3 | Stopwatch","name_short":"sfo-3","host":"sfo-1.us.uncletopia.com","port":27035,"enabled":true,"region":"us-west","cc":"us","latitude":37.77397,"longitude":-122.4313,"reserved":0,"last_update":"0001-01-01T00:00:00Z","name_a2s":"Uncletopia | San Francisco | 3 | Stopwatch","protocol":17,"map":"pl_pier","folder":"tf","game":"Team Fortress","app_id":440,"player_count":0,"max_players":24,"Bots":0,"server_type":"Dedicated","server_os":"Linux","password":true,"vac":true,"version":"7961495","steam_id":85568392924742824,"keywords":["nocrits","nodmgspread","payload","uncletopia"],"game_id":440,"stv_port":27036,"stv_name":"Uncletopia | San Francisco | 3 | Stopwatch | STV","players":null},{"server_id":20,"name":"Uncletopia | San Francisco | 4 | Community","name_short":"sfo-4","host":"sfo-1.us.uncletopia.com","port":27045,"enabled":true,"region":"us-west","cc":"us","latitude":37.77397,"longitude":-122.4313,"reserved":0,"last_update":"0001-01-01T00:00:00Z","name_a2s":"Uncletopia | San Francisco | 4 | Community","protocol":17,"map":"workshop/koth_slaughter_rc1.ugc1712845210","folder":"tf","game":"Team Fortress","app_id":440,"player_count":3,"max_players":24,"Bots":0,"server_type":"Dedicated","server_os":"Linux","password":true,"vac":true,"version":"7961495","steam_id":85568392924742826,"keywords":["cp","nocrits","nodmgspread","uncletopia"],"game_id":440,"stv_port":27046,"stv_name":"Uncletopia | San Francisco | 4 | Community | STV","players":[{"user_id":30,"name":"JungleFoxGZ","steam_id":76561198965661587,"connected_time":235000000000,"state":"active","ping":108},{"user_id":8,"name":"sobaka","steam_id":76561198116008934,"connected_time":6781000000000,"state":"active","ping":50},{"user_id":13,"name":"a familiar cat","steam_id":76561198080046542,"connected_time":4732000000000,"state":"active","ping":56}]},{"server_id":141,"name":"Uncletopia | Sydney | 1 | All Maps","name_short":"syd-1","host":"syd-1.au.uncletopia.com","port":27015,"enabled":true,"region":"au","cc":"au","latitude":-33.865143,"longitude":151.2099,"reserved":0,"last_update":"0001-01-01T00:00:00Z","name_a2s":"Uncletopia | Sydney | 1 | All Maps","protocol":17,"map":"pl_upward","folder":"tf","game":"Team Fortress","app_id":440,"player_count":0,"max_players":24,"Bots":0,"server_type":"Dedicated","server_os":"Linux","password":true,"vac":true,"version":"7961495","steam_id":85568392924470001,"keywords":["nocrits","nodmgspread","payload","uncletopia"],"game_id":440,"stv_port":27016,"stv_name":"Uncletopia | Sydney | 1 | All Maps | STV","players":null},{"server_id":123,"name":"Uncletopia | Sydney | 2 | All Maps","name_short":"syd-2","host":"syd-1.au.uncletopia.com","port":27025,"enabled":true,"region":"au","cc":"au","latitude":-33.865143,"longitude":151.2099,"reserved":0,"last_update":"0001-01-01T00:00:00Z","name_a2s":"Uncletopia | Sydney | 2 | All Maps","protocol":17,"map":"koth_lakeside_final","folder":"tf","game":"Team Fortress","app_id":440,"player_count":0,"max_players":24,"Bots":0,"server_type":"Dedicated","server_os":"Linux","password":true,"vac":true,"version":"7961495","steam_id":85568392924470002,"keywords":["cp","nocrits","nodmgspread","uncletopia"],"game_id":440,"stv_port":27026,"stv_name":"Uncletopia | Sydney | 2 | All Maps | STV","players":null},{"server_id":395,"name":"Uncletopia | Sydney | 3 | All Maps","name_short":"syd-3","host":"syd-1.au.uncletopia.com","port":27035,"enabled":true,"region":"au","cc":"au","latitude":-33.865143,"longitude":151.2099,"reserved":0,"last_update":"0001-01-01T00:00:00Z","name_a2s":"Uncletopia | Sydney | 3 | All Maps","protocol":17,"map":"pl_frontier_final","folder":"tf","game":"Team Fortress","app_id":440,"player_count":0,"max_players":24,"Bots":0,"server_type":"Dedicated","server_os":"Linux","password":true,"vac":true,"version":"7961495","steam_id":85568392925194467,"keywords":["nocrits","nodmgspread","payload","uncletopia"],"game_id":440,"stv_port":27036,"stv_name":"Uncletopia | Sydney | 3 | All Maps | STV","players":null},{"server_id":396,"name":"Uncletopia | Sydney | 4 | All Maps","name_short":"syd-4","host":"syd-1.au.uncletopia.com","port":27045,"enabled":true,"region":"au","cc":"au","latitude":-33.865143,"longitude":151.2099,"reserved":0,"last_update":"0001-01-01T00:00:00Z","name_a2s":"Uncletopia | Sydney | 4 | All Maps","protocol":17,"map":"cp_process_final","folder":"tf","game":"Team Fortress","app_id":440,"player_count":0,"max_players":24,"Bots":0,"server_type":"Dedicated","server_os":"Linux","password":true,"vac":true,"version":"7961495","steam_id":85568392925397958,"keywords":["cp","nocrits","nodmgspread","uncletopia"],"game_id":440,"stv_port":27046,"stv_name":"Uncletopia | Sydney | 4 | All Maps | STV","players":null},{"server_id":58,"name":"Uncletopia | Sydney | 5 | Stopwatch","name_short":"syd-5","host":"syd-1.au.uncletopia.com","port":27055,"enabled":true,"region":"au","cc":"au","latitude":-33.865143,"longitude":151.2099,"reserved":0,"last_update":"0001-01-01T00:00:00Z","name_a2s":"Uncletopia | Sydney | 5 | Stopwatch","protocol":17,"map":"pl_frontier_final","folder":"tf","game":"Team Fortress","app_id":440,"player_count":0,"max_players":24,"Bots":0,"server_type":"Dedicated","server_os":"Linux","password":true,"vac":true,"version":"7961495","steam_id":85568392925397959,"keywords":["nocrits","nodmgspread","payload","uncletopia"],"game_id":440,"stv_port":27056,"stv_name":"Uncletopia | Sydney | 5 | Stopwatch | STV","players":null},{"server_id":59,"name":"Uncletopia | Sydney | 6 | Community","name_short":"syd-6","host":"syd-1.au.uncletopia.com","port":27065,"enabled":true,"region":"au","cc":"au","latitude":-33.865143,"longitude":151.2099,"reserved":0,"last_update":"0001-01-01T00:00:00Z","name_a2s":"Uncletopia | Sydney | 6 | Community","protocol":17,"map":"cp_sunshine","folder":"tf","game":"Team Fortress","app_id":440,"player_count":0,"max_players":24,"Bots":0,"server_type":"Dedicated","server_os":"Linux","password":true,"vac":true,"version":"7961495","steam_id":85568392925397960,"keywords":["cp","nocrits","nodmgspread","uncletopia"],"game_id":440,"stv_port":27066,"stv_name":"Uncletopia | Sydney | 6 | Community | STV","players":null},{"server_id":49,"name":"Uncletopia | Warsaw | 1 | One Thousand Uncles","name_short":"waw-1","host":"waw-1.pl.uncletopia.com","port":27015,"enabled":true,"region":"eu","cc":"pl","latitude":52.2297,"longitude":21.017532,"reserved":0,"last_update":"0001-01-01T00:00:00Z","name_a2s":"Uncletopia | Warsaw | 1 | One Thousand Uncles","protocol":17,"map":"cp_mercenarypark","folder":"tf","game":"Team Fortress","app_id":440,"player_count":24,"max_players":32,"Bots":16,"server_type":"Dedicated","server_os":"Linux","password":true,"vac":true,"version":"7961495","steam_id":85568392925397850,"keywords":["alltalk","bots","cp","danepve","increased_maxplayers","nocrits","norespawntime","uncletopia"],"game_id":440,"stv_port":0,"stv_name":"","players":[{"user_id":726,"name":"Its yah monke","steam_id":76561198323869587,"connected_time":3450000000000,"state":"active","ping":59},{"user_id":706,"name":"JSX","steam_id":76561198039097662,"connected_time":11912000000000,"state":"active","ping":87},{"user_id":727,"name":"Retro","steam_id":76561199181824842,"connected_time":2835000000000,"state":"active","ping":66},{"user_id":728,"name":"Dr. Circumsizer","steam_id":76561198864841966,"connected_time":2180000000000,"state":"active","ping":193},{"user_id":729,"name":"JMJGAMING971","steam_id":76561199465588292,"connected_time":989000000000,"state":"active","ping":245},{"user_id":731,"name":"Professorstino","steam_id":76561199117907277,"connected_time":424000000000,"state":"active","ping":160},{"user_id":732,"name":"jimmygunn13","steam_id":76561199198832963,"connected_time":380000000000,"state":"active","ping":211},{"user_id":733,"name":"d4efeb","steam_id":76561198148098761,"connected_time":105000000000,"state":"active","ping":164}]},{"server_id":50,"name":"Uncletopia | Warsaw | 2 | One Thousand Uncles","name_short":"waw-2","host":"waw-1.pl.uncletopia.com","port":27025,"enabled":true,"region":"eu","cc":"pl","latitude":52.2297,"longitude":21.017532,"reserved":0,"last_update":"0001-01-01T00:00:00Z","name_a2s":"Uncletopia | Warsaw | 2 | One Thousand Uncles","protocol":17,"map":"cp_egypt_final","folder":"tf","game":"Team Fortress","app_id":440,"player_count":0,"max_players":32,"Bots":0,"server_type":"Dedicated","server_os":"Linux","password":true,"vac":true,"version":"7961495","steam_id":85568392925397851,"keywords":["alltalk","cp","danepve","increased_maxplayers","nocrits","norespawntime","uncletopia"],"game_id":440,"stv_port":0,"stv_name":"","players":null},{"server_id":51,"name":"Uncletopia | Warsaw | 3 | All Maps","name_short":"waw-3","host":"waw-1.pl.uncletopia.com","port":27035,"enabled":true,"region":"eu","cc":"pl","latitude":52.2297,"longitude":21.017532,"reserved":0,"last_update":"0001-01-01T00:00:00Z","name_a2s":"Uncletopia | Warsaw | 3 | All Maps","protocol":17,"map":"pl_swiftwater_final1","folder":"tf","game":"Team Fortress","app_id":440,"player_count":0,"max_players":24,"Bots":0,"server_type":"Dedicated","server_os":"Linux","password":true,"vac":true,"version":"7961495","steam_id":85568392925397852,"keywords":["nocrits","nodmgspread","payload","uncletopia"],"game_id":440,"stv_port":27036,"stv_name":"Uncletopia | Warsaw | 3 | All Maps | STV","players":null},{"server_id":52,"name":"Uncletopia | Warsaw | 4 | All Maps","name_short":"waw-4","host":"waw-1.pl.uncletopia.com","port":27045,"enabled":true,"region":"eu","cc":"pl","latitude":52.2297,"longitude":21.017532,"reserved":0,"last_update":"0001-01-01T00:00:00Z","name_a2s":"Uncletopia | Warsaw | 4 | All Maps","protocol":17,"map":"koth_cascade","folder":"tf","game":"Team Fortress","app_id":440,"player_count":0,"max_players":24,"Bots":0,"server_type":"Dedicated","server_os":"Linux","password":true,"vac":true,"version":"7961495","steam_id":85568392925397853,"keywords":["cp","nocrits","nodmgspread","uncletopia"],"game_id":440,"stv_port":27046,"stv_name":"Uncletopia | Warsaw | 4 | All Maps | STV","players":null},{"server_id":53,"name":"Uncletopia | Warsaw | 5 | Stopwatch","name_short":"waw-5","host":"waw-1.pl.uncletopia.com","port":27055,"enabled":true,"region":"eu","cc":"pl","latitude":52.2297,"longitude":21.017532,"reserved":0,"last_update":"0001-01-01T00:00:00Z","name_a2s":"Uncletopia | Warsaw | 5 | Stopwatch","protocol":17,"map":"cp_sunshine","folder":"tf","game":"Team Fortress","app_id":440,"player_count":0,"max_players":24,"Bots":0,"server_type":"Dedicated","server_os":"Linux","password":true,"vac":true,"version":"7961495","steam_id":85568392925397854,"keywords":["cp","nocrits","nodmgspread","uncletopia"],"game_id":440,"stv_port":27056,"stv_name":"Uncletopia | Warsaw | 5 | Stopwatch | STV","players":null},{"server_id":54,"name":"Uncletopia | Warsaw | 6 | Community","name_short":"waw-6","host":"waw-1.pl.uncletopia.com","port":27065,"enabled":true,"region":"eu","cc":"pl","latitude":52.2297,"longitude":21.017532,"reserved":0,"last_update":"0001-01-01T00:00:00Z","name_a2s":"Uncletopia | Warsaw | 6 | Community","protocol":17,"map":"workshop/cp_indulge.ugc528106646","folder":"tf","game":"Team Fortress","app_id":440,"player_count":0,"max_players":24,"Bots":0,"server_type":"Dedicated","server_os":"Linux","password":true,"vac":true,"version":"7961495","steam_id":85568392925397856,"keywords":["cp","nocrits","nodmgspread","uncletopia"],"game_id":440,"stv_port":27066,"stv_name":"Uncletopia | Warsaw | 6 | Community | STV","players":null}]}