{"status":true,"message":"","result":[{"server_id":9,"name":"Uncletopia | Atlanta | 1 | All Maps","name_short":"atl-1","host":"atl-1.us.uncletopia.com","port":27015,"enabled":true,"region":"us-east","cc":"us","latitude":33.753746,"longitude":-84.38633,"reserved":0,"last_update":"0001-01-01T00:00:00Z","name_a2s":"Uncletopia | Atlanta | 1 | All Maps","protocol":17,"map":"pl_upward","folder":"tf","game":"Team Fortress","app_id":440,"player_count":24,"max_players":24,"Bots":0,"server_type":"Dedicated","server_os":"Linux","password":true,"vac":true,"version":"7961495","steam_id":85568392924469982,"keywords":["nocrits","nodmgspread","payload","uncletopia"],"game_id":440,"stv_port":27016,"stv_name":"Uncletopia | Atlanta | 1 | All Maps | STV","players":[{"user_id":509,"name":"Heathcliff","steam_id":76561198044288534,"connected_time":7310000000000,"state":"active","ping":74},{"user_id":600,"name":"MARIOPARTYDSFAN","steam_id":76561198872122117,"connected_time":626000000000,"state":"active","ping":53},{"user_id":548,"name":"ash","steam_id":76561198127890645,"connected_time":4319000000000,"state":"active","ping":62},{"user_id":499,"name":"Oddball","steam_id":76561198040440984,"connected_time":7750000000000,"state":"active","ping":86},{"user_id":585,"name":"chexo4","steam_id":76561198150532531,"connected_time":1482000000000,"state":"active","ping":50},{"user_id":579,"name":"king sir glorious","steam_id":76561198115676070,"connected_time":2093000000000,"state":"active","ping":127},{"user_id":575,"name":"OrangeSodaMachine","steam_id":76561198079230156,"connected_time":2570000000000,"state":"active","ping":155},{"user_id":568,"name":"Blehnder","steam_id":76561198172097526,"connected_time":2873000000000,"state":"active","ping":83},{"user_id":580,"name":"YourLocalArsonist","steam_id":76561199111922751,"connected_time":1797000000000,"state":"active","ping":75},{"user_id":591,"name":"Person","steam_id":76561198093244204,"connected_time":1343000000000,"state":"active","ping":85},{"user_id":601,"name":"Dr.Inkmix(femboy medic!)","steam_id":76561198854070384,"connected_time":228000000000,"state":"active","ping":99},{"user_id":599,"name":"Sheembs","steam_id":76561199010524390,"connected_time":774000000000,"state":"active","ping":71},{"user_id":558,"name":"joe","steam_id":76561198045781320,"connected_time":3792000000000,"state":"active","ping":60},{"user_id":592,"name":"bkiller","steam_id":76561198029265697,"connected_time":1249000000000,"state":"active","ping":66},{"user_id":595,"name":"Son of Godzilla on VHS","steam_id":76561198064127012,"connected_time":936000000000,"state":"active","ping":66},{"user_id":574,"name":"ATL1 | to4st","steam_id":76561198981009008,"connected_time":2622000000000,"state":"active","ping":87},{"user_id":598,"name":"Waffle Wannabe","steam_id":76561198064510650,"connected_time":794000000000,"state":"active","ping":62},{"user_id":584,"name":"5Rivers`","steam_id":76561197967432094,"connected_time":1502000000000,"state":"active","ping":57},{"user_id":596,"name":"kite","steam_id":76561198346516392,"connected_time":826000000000,"state":"active","ping":83},{"user_id":512,"name":"ATL1 | Uganda Knuckles lll","steam_id":76561199121276474,"connected_time":7138000000000,"state":"active","ping":73},{"user_id":583,"name":"Jared","steam_id":76561198027210228,"connected_time":1512000000000,"state":"active","ping":81},{"user_id":578,"name":"Im High","steam_id":76561198049954886,"connected_time":2164000000000,"state":"active","ping":78},{"user_id":586,"name":"s t o n e","steam_id":76561197994525046,"connected_time":1480000000000,"state":"active","ping":68},{"user_id":588,"name":"zogs","steam_id":76561198323491654,"connected_time":1454000000000,"state":"active","ping":69}]},{"server_id":104,"name":"Uncletopia | Atlanta | 2 | All Maps","name_short":"atl-2","host":"atl-1.us.uncletopia.com","port":27025,"enabled":true,"region":"us-east","cc":"us","latitude":33.753746,"longitude":-84.38633,"reserved":0,"last_update":"0001-01-01T00:00:00Z","name_a2s":"Uncletopia | Atlanta | 2 | All Maps","protocol":17,"map":"koth_lakeside_final","folder":"tf","game":"Team Fortress","app_id":440,"player_count":24,"max_players":24,"Bots":0,"server_type":"Dedicated","server_os":"Linux","password":true,"vac":true,"version":"7961495","steam_id":85568392924469983,"keywords":["cp","nocrits","nodmgspread","uncletopia"],"game_id":440,"stv_port":27026,"stv_name":"Uncletopia | Atlanta | 2 | All Maps | STV","players":[{"user_id":317,"name":"Gnome Truther","steam_id":76561198135516465,"connected_time":1486000000000,"state":"active","ping":59},{"user_id":307,"name":"brisky","steam_id":76561198869675719,"connected_time":1809000000000,"state":"active","ping":60},{"user_id":319,"name":"Target practice","steam_id":76561198027102552,"connected_time":1426000000000,"state":"active","ping":132},{"user_id":322,"name":"Boot Mcstink","steam_id":76561199226873917,"connected_time":644000000000,"state":"active","ping":71},{"user_id":309,"name":"Acuzik","steam_id":76561198045453400,"connected_time":1786000000000,"state":"active","ping":59},{"user_id":330,"name":"Foolie","steam_id":76561198291741747,"connected_time":102000000000,"state":"connecting","ping":0},{"user_id":310,"name":"swan","steam_id":76561198012569200,"connected_time":1785000000000,"state":"active","ping":78},{"user_id":318,"name":"Robo Boss","steam_id":76561199067098696,"connected_time":1474000000000,"state":"active","ping":73},{"user_id":332,"name":"pablo","steam_id":76561199182194253,"connected_time":49000000000,"state":"active","ping":120},{"user_id":326,"name":"jailbreak","steam_id":76561198802085218,"connected_time":185000000000,"state":"active","ping":75},{"user_id":327,"name":"Willy","steam_id":76561198046508940,"connected_time":184000000000,"state":"active","ping":66},{"user_id":305,"name":"Orange Flavored Mother Fucker","steam_id":76561198148862653,"connected_time":1903000000000,"state":"active","ping":56},{"user_id":300,"name":"purplerosie334","steam_id":76561199491020174,"connected_time":2698000000000,"state":"active","ping":94},{"user_id":329,"name":"L to the OG","steam_id":76561199215811448,"connected_time":119000000000,"state":"active","ping":137},{"user_id":290,"name":"Bad Medic Buddy","steam_id":76561198093222632,"connected_time":3498000000000,"state":"active","ping":71},{"user_id":302,"name":"Lars Ulrich (real)","steam_id":76561198099296029,"connected_time":2446000000000,"state":"active","ping":63},{"user_id":311,"name":"Braingoo Hex","steam_id":76561198083094783,"connected_time":1785000000000,"state":"active","ping":95},{"user_id":334,"name":"xXThegamer88Xx","steam_id":76561199161362967,"connected_time":25000000000,"state":"active","ping":120},{"user_id":237,"name":"illious","steam_id":76561198169925494,"connected_time":7552000000000,"state":"active","ping":60},{"user_id":323,"name":"kicks","steam_id":76561199228854923,"connected_time":637000000000,"state":"active","ping":84},{"user_id":306,"name":"nao","steam_id":76561198073982533,"connected_time":1889000000000,"state":"active","ping":90},{"user_id":313,"name":"Fudgely","steam_id":76561198039425862,"connected_time":1783000000000,"state":"active","ping":78},{"user_id":314,"name":"giraffe ringme","steam_id":76561198030812596,"connected_time":1778000000000,"state":"active","ping":78},{"user_id":333,"name":"Cheese","steam_id":76561199207081299,"connected_time":33000000000,"state":"active","ping":97}]},{"server_id":400,"name":"Uncletopia | Atlanta | 3 | Stopwatch","name_short":"atl-3","host":"atl-1.us.uncletopia.com","port":27035,"enabled":true,"region":"us-east","cc":"us","latitude":33.753746,"longitude":-84.38633,"reserved":0,"last_update":"0001-01-01T00:00:00Z","name_a2s":"Uncletopia | Atlanta | 3 | Stopwatch","protocol":17,"map":"pl_borneo","folder":"tf","game":"Team Fortress","app_id":440,"player_count":24,"max_players":24,"Bots":0,"server_type":"Dedicated","server_os":"Linux","password":true,"vac":true,"version":"7961495","steam_id":85568392924515187,"keywords":["nocrits","nodmgspread","payload","uncletopia"],"game_id":440,"stv_port":27036,"stv_name":"Uncletopia | Atlanta | 3 | Stopwatch | STV","players":[{"user_id":52,"name":"Blue Collar","steam_id":76561198354781722,"connected_time":3642000000000,"state":"active","ping":104},{"user_id":123,"name":"Dark Lord","steam_id":76561198044199150,"connected_time":176000000000,"state":"active","ping":87},{"user_id":86,"name":"Venumb Bengal","steam_id":76561198156498290,"connected_time":2157000000000,"state":"active","ping":70},{"user_id":90,"name":"Lumpy the Illegally Blind","steam_id":76561198053125768,"connected_time":1786000000000,"state":"active","ping":122},{"user_id":117,"name":"DrDefault","steam_id":76561197972494920,"connected_time":333000000000,"state":"active","ping":73},{"user_id":91,"name":"ArcticRescue","steam_id":76561198055362404,"connected_time":1764000000000,"state":"active","ping":48},{"user_id":103,"name":"THE LAW","steam_id":76561198085700801,"connected_time":984000000000,"state":"active","ping":82},{"user_id":122,"name":"The Professor","steam_id":76561198113760863,"connected_time":187000000000,"state":"active","ping":61},{"user_id":27,"name":"Cosmolian","steam_id":76561199178160545,"connected_time":4456000000000,"state":"active","ping":119},{"user_id":92,"name":"get scrongled, idiot","steam_id":76561198115874625,"connected_time":1707000000000,"state":"active","ping":83},{"user_id":104,"name":"Who loves orange soda?","steam_id":76561198059808982,"connected_time":978000000000,"state":"active","ping":73},{"user_id":94,"name":"TheLABS","steam_id":76561198376106093,"connected_time":1661000000000,"state":"active","ping":80},{"user_id":99,"name":"A mild inconvenience","steam_id":76561198033455618,"connected_time":1221000000000,"state":"active","ping":80},{"user_id":100,"name":"Turnip","steam_id":76561198066309458,"connected_time":1207000000000,"state":"active","ping":64},{"user_id":105,"name":"aaaxel","steam_id":76561198137430598,"connected_time":957000000000,"state":"active","ping":60},{"user_id":106,"name":"AMistake","steam_id":76561199379196708,"connected_time":836000000000,"state":"active","ping":62},{"user_id":121,"name":"SasukeGOD","steam_id":76561199077255310,"connected_time":191000000000,"state":"active","ping":89},{"user_id":124,"name":"Young-OG","steam_id":76561198058800479,"connected_time":46000000000,"state":"active","ping":62},{"user_id":108,"name":"WoodySmith","steam_id":76561198069191123,"connected_time":809000000000,"state":"active","ping":75},{"user_id":109,"name":"TwistyBoi","steam_id":76561198201410603,"connected_time":808000000000,"state":"active","ping":58},{"user_id":111,"name":"boo_thefeared","steam_id":76561198127967685,"connected_time":746000000000,"state":"active","ping":145},{"user_id":119,"name":"WastefulTrash","steam_id":76561198119003597,"connected_time":241000000000,"state":"active","ping":68},{"user_id":113,"name":"bredinstead","steam_id":76561199156464551,"connected_time":737000000000,"state":"active","ping":88},{"user_id":114,"name":"uzr","steam_id":76561198799343084,"connected_time":708000000000,"state":"active","ping":103}]},{"server_id":401,"name":"Uncletopia | Atlanta | 4 | Community","name_short":"atl-4","host":"atl-1.us.uncletopia.com","port":27045,"enabled":true,"region":"us-east","cc":"us","latitude":33.753746,"longitude":-84.38633,"reserved":0,"last_update":"0001-01-01T00:00:00Z","name_a2s":"Uncletopia | Atlanta | 4 | Community","protocol":17,"map":"workshop/pl_boundary_final1.ugc456799153","folder":"tf","game":"Team Fortress","app_id":440,"player_count":0,"max_players":24,"Bots":0,"server_type":"Dedicated","server_os":"Linux","password":true,"vac":true,"version":"7961495","steam_id":85568392924515188,"keywords":["nocrits","nodmgspread","payload","uncletopia"],"game_id":440,"stv_port":27046,"stv_name":"Uncletopia | Atlanta | 4 | Community | STV","players":null},{"server_id":2,"name":"Uncletopia | Chicago | 1 | All Maps","name_short":"chi-1","host":"chi-1.us.uncletopia.com","port":27015,"enabled":true,"region":"us-central","cc":"us","latitude":41.881832,"longitude":-87.62318,"reserved":0,"last_update":"0001-01-01T00:00:00Z","name_a2s":"Uncletopia | Chicago | 1 | All Maps","protocol":17,"map":"pl_swiftwater_final1","folder":"tf","game":"Team Fortress","app_id":440,"player_count":24,"max_players":24,"Bots":0,"server_type":"Dedicated","server_os":"Linux","password":true,"vac":true,"version":"7961495","steam_id":85568392924469984,"keywords":["nocrits","nodmgspread","payload","uncletopia"],"game_id":440,"stv_port":27016,"stv_name":"Uncletopia | Chicago | 1 | All Maps | STV","players":[{"user_id":562,"name":"SandHanitizer","steam_id":76561198234676500,"connected_time":406000000000,"state":"active","ping":70},{"user_id":563,"name":"Tobo","steam_id":76561198085846393,"connected_time":329000000000,"state":"active","ping":75},{"user_id":542,"name":"Nestor","steam_id":76561198070782619,"connected_time":2685000000000,"state":"active","ping":65},{"user_id":556,"name":"Bobbn","steam_id":76561198876124683,"connected_time":1272000000000,"state":"active","ping":75},{"user_id":514,"name":"Sooch","steam_id":76561198007043697,"connected_time":3997000000000,"state":"active","ping":80},{"user_id":499,"name":"kashroomski","steam_id":76561198057076267,"connected_time":5167000000000,"state":"active","ping":75},{"user_id":553,"name":"Hylic","steam_id":76561199051314589,"connected_time":1333000000000,"state":"active","ping":68},{"user_id":552,"name":"Your Local Queer Librarian","steam_id":76561198013077080,"connected_time":1335000000000,"state":"active","ping":56},{"user_id":421,"name":"I have no idea what I am doing?","steam_id":76561198093152207,"connected_time":9776000000000,"state":"active","ping":60},{"user_id":546,"name":"chubbs","steam_id":76561198039267516,"connected_time":2023000000000,"state":"active","ping":61},{"user_id":501,"name":"Bunnyboy","steam_id":76561198298416058,"connected_time":5120000000000,"state":"active","ping":70},{"user_id":559,"name":"-Avh-","steam_id":76561198087593160,"connected_time":1206000000000,"state":"active","ping":67},{"user_id":539,"name":"Sentry Gun Main Man","steam_id":76561198327938247,"connected_time":2990000000000,"state":"active","ping":88},{"user_id":543,"name":"yan Ka","steam_id":76561198305840153,"connected_time":2520000000000,"state":"active","ping":78},{"user_id":557,"name":"TheJaprachaun","steam_id":76561198861083450,"connected_time":1230000000000,"state":"active","ping":66},{"user_id":558,"name":"Aldatzailea Egitura","steam_id":76561199240547667,"connected_time":1225000000000,"state":"active","ping":108},{"user_id":564,"name":"Big Phonius","steam_id":76561199092395311,"connected_time":130000000000,"state":"active","ping":69},{"user_id":549,"name":"edwinbrood","steam_id":76561198044848769,"connected_time":1348000000000,"state":"active","ping":56},{"user_id":560,"name":"rat eater","steam_id":76561199216874750,"connected_time":693000000000,"state":"active","ping":63},{"user_id":486,"name":"sauce","steam_id":76561198068430673,"connected_time":6292000000000,"state":"active","ping":88},{"user_id":538,"name":"Moonman327","steam_id":76561197992616059,"connected_time":3014000000000,"state":"active","ping":76},{"user_id":504,"name":"Chris The Combustible Cow","steam_id":76561198449656454,"connected_time":4929000000000,"state":"active","ping":76},{"user_id":550,"name":"DinkleBerg","steam_id":76561198891626233,"connected_time":1347000000000,"state":"active","ping":66},{"user_id":551,"name":"Space","steam_id":76561198350489754,"connected_time":1347000000000,"state":"active","ping":53}]},{"server_id":106,"name":"Uncletopia | Chicago | 2 | All Maps","name_short":"chi-2","host":"chi-1.us.uncletopia.com","port":27025,"enabled":true,"region":"us-central","cc":"us","latitude":41.881832,"longitude":-87.62318,"reserved":0,"last_update":"0001-01-01T00:00:00Z","name_a2s":"Uncletopia | Chicago | 2 | All Maps","protocol":17,"map":"pl_frontier_final","folder":"tf","game":"Team Fortress","app_id":440,"player_count":24,"max_players":24,"Bots":0,"server_type":"Dedicated","server_os":"Linux","password":true,"vac":true,"version":"7961495","steam_id":85568392924469985,"keywords":["nocrits","nodmgspread","payload","uncletopia"],"game_id":440,"stv_port":27026,"stv_name":"Uncletopia | Chicago | 2 | All Maps | STV","players":[{"user_id":409,"name":"Why","steam_id":76561199388826335,"connected_time":533000000000,"state":"active","ping":84},{"user_id":415,"name":"Always Here for You","steam_id":76561198219252313,"connected_time":419000000000,"state":"active","ping":64},{"user_id":404,"name":"Dr Oshawott","steam_id":76561198042021629,"connected_time":1390000000000,"state":"active","ping":67},{"user_id":406,"name":"DiamondEpsilon","steam_id":76561198203883311,"connected_time":1225000000000,"state":"active","ping":78},{"user_id":413,"name":"brae","steam_id":76561198047126327,"connected_time":506000000000,"state":"active","ping":71},{"user_id":386,"name":"An Erect Penis :)","steam_id":76561198086477485,"connected_time":2035000000000,"state":"active","ping":44},{"user_id":403,"name":"Broken Watermelon","steam_id":76561198928684592,"connected_time":1419000000000,"state":"active","ping":109},{"user_id":411,"name":"Adolf The Toast Jesus™","steam_id":76561198024553767,"connected_time":522000000000,"state":"active","ping":73},{"user_id":387,"name":"KASHI","steam_id":76561198045285049,"connected_time":1978000000000,"state":"active","ping":76},{"user_id":391,"name":"ChippyThePenguin","steam_id":76561198045663116,"connected_time":1677000000000,"state":"active","ping":59},{"user_id":371,"name":"Zebulaun","steam_id":76561197965160251,"connected_time":2722000000000,"state":"active","ping":74},{"user_id":408,"name":"peachy","steam_id":76561198028721790,"connected_time":629000000000,"state":"active","ping":87},{"user_id":417,"name":"HRT","steam_id":76561198013781132,"connected_time":229000000000,"state":"active","ping":77},{"user_id":393,"name":"triangleman","steam_id":76561198972733542,"connected_time":1661000000000,"state":"active","ping":56},{"user_id":412,"name":"HoneyOTU","steam_id":76561198200366607,"connected_time":516000000000,"state":"active","ping":92},{"user_id":416,"name":"deimos","steam_id":76561198148357768,"connected_time":406000000000,"state":"active","ping":61},{"user_id":347,"name":"Leadwolf","steam_id":76561198308533122,"connected_time":4721000000000,"state":"active","ping":76},{"user_id":405,"name":"✧･ﾟhooligan!!","steam_id":76561198874149130,"connected_time":1287000000000,"state":"active","ping":73},{"user_id":377,"name":"Sandbox","steam_id":76561198161977595,"connected_time":2372000000000,"state":"active","ping":75},{"user_id":397,"name":"Junipyre","steam_id":76561198044819364,"connected_time":1609000000000,"state":"active","ping":76},{"user_id":374,"name":"Mike Bean Burritos","steam_id":76561198173430607,"connected_time":2637000000000,"state":"active","ping":91},{"user_id":400,"name":"Makima Enjoyer","steam_id":76561198852044774,"connected_time":1514000000000,"state":"active","ping":75},{"user_id":401,"name":"augs","steam_id":76561199120607417,"connected_time":1514000000000,"state":"active","ping":74},{"user_id":339,"name":"loser","steam_id":76561198259380127,"connected_time":5365000000000,"state":"active","ping":53}]},{"server_id":402,"name":"Uncletopia | Chicago | 3 | All Maps","name_short":"chi-3","host":"chi-1.us.uncletopia.com","port":27035,"enabled":true,"region":"us-central","cc":"us","latitude":41.881832,"longitude":-87.62318,"reserved":0,"last_update":"0001-01-01T00:00:00Z","name_a2s":"Uncletopia | Chicago | 3 | All Maps","protocol":17,"map":"cp_dustbowl","folder":"tf","game":"Team Fortress","app_id":440,"player_count":24,"max_players":24,"Bots":0,"server_type":"Dedicated","server_os":"Linux","password":true,"vac":true,"version":"7961495","steam_id":85568392924515191,"keywords":["cp","nocrits","nodmgspread","uncletopia"],"game_id":440,"stv_port":27036,"stv_name":"Uncletopia | Chicago | 3 | All Maps | STV","players":[{"user_id":386,"name":"hearthian","steam_id":76561198113235260,"connected_time":1150000000000,"state":"active","ping":91},{"user_id":394,"name":"Harpua","steam_id":76561197988020228,"connected_time":113000000000,"state":"active","ping":63},{"user_id":379,"name":"NateDoesThings","steam_id":76561199028820561,"connected_time":1451000000000,"state":"active","ping":60},{"user_id":352,"name":"Shin19","steam_id":76561198171489806,"connected_time":2790000000000,"state":"active","ping":73},{"user_id":380,"name":"King De","steam_id":76561198194427422,"connected_time":1415000000000,"state":"active","ping":55},{"user_id":360,"name":"TurtledoveJones","steam_id":76561198010200051,"connected_time":2357000000000,"state":"active","ping":53},{"user_id":396,"name":"Blaze","steam_id":76561198043797702,"connected_time":93000000000,"state":"active","ping":63},{"user_id":401,"name":"dankman","steam_id":76561198977064186,"connected_time":43000000000,"state":"active","ping":60},{"user_id":385,"name":"bobby  peanstalk","steam_id":76561198040495463,"connected_time":1190000000000,"state":"active","ping":53},{"user_id":393,"name":"Shook","steam_id":76561198054064995,"connected_time":422000000000,"state":"active","ping":94},{"user_id":390,"name":"mr.teeth","steam_id":76561199210541615,"connected_time":667000000000,"state":"active","ping":87},{"user_id":372,"name":"Neopyth","steam_id":76561198031868427,"connected_time":1593000000000,"state":"active","ping":58},{"user_id":395,"name":"saltysagan","steam_id":76561197981854067,"connected_time":100000000000,"state":"active","ping":74},{"user_id":397,"name":"SKForm","steam_id":76561198381500437,"connected_time":85000000000,"state":"active","ping":55},{"user_id":374,"name":"Yuck","steam_id":76561198001667870,"connected_time":1562000000000,"state":"active","ping":77},{"user_id":334,"name":"XBaconX","steam_id":76561198069500207,"connected_time":3549000000000,"state":"active","ping":84},{"user_id":376,"name":"Bethla","steam_id":76561198205973640,"connected_time":1489000000000,"state":"active","ping":67},{"user_id":362,"name":"chesterwnimitz","steam_id":76561198062664377,"connected_time":2336000000000,"state":"active","ping":88},{"user_id":388,"name":"Kek","steam_id":76561198067689989,"connected_time":981000000000,"state":"active","ping":56},{"user_id":398,"name":"Dullahan","steam_id":76561198119668908,"connected_time":77000000000,"state":"active","ping":105},{"user_id":322,"name":"CONKER","steam_id":76561197986079320,"connected_time":4985000000000,"state":"active","ping":75},{"user_id":378,"name":"nomai","steam_id":76561198076201225,"connected_time":1464000000000,"state":"active","ping":99},{"user_id":348,"name":"CasualBacon","steam_id":76561198041182340,"connected_time":3191000000000,"state":"active","ping":56},{"user_id":400,"name":"Koopinator","steam_id":76561198135747412,"connected_time":67000000000,"state":"active","ping":71}]},{"server_id":403,"name":"Uncletopia | Chicago | 4 | All Maps","name_short":"chi-4","host":"chi-1.us.uncletopia.com","port":27045,"enabled":true,"region":"us-central","cc":"us","latitude":41.881832,"longitude":-87.62318,"reserved":0,"last_update":"0001-01-01T00:00:00Z","name_a2s":"Uncletopia | Chicago | 4 | All Maps","protocol":17,"map":"pl_barnblitz","folder":"tf","game":"Team Fortress","app_id":440,"player_count":24,"max_players":24,"Bots":0,"server_type":"Dedicated","server_os":"Linux","password":true,"vac":true,"version":"7961495","steam_id":85568392924515193,"keywords":["nocrits","nodmgspread","payload","uncletopia"],"game_id":440,"stv_port":27046,"stv_name":"Uncletopia | Chicago | 4 | All Maps | STV","players":[{"user_id":804,"name":"Comrade","steam_id":76561199056721863,"connected_time":38000000000,"state":"active","ping":85},{"user_id":802,"name":"HybridAir","steam_id":76561198007906682,"connected_time":50000000000,"state":"active","ping":61},{"user_id":715,"name":"Owl Pacino","steam_id":76561197979970666,"connected_time":1690000000000,"state":"active","ping":47},{"user_id":644,"name":"Tony Bananas","steam_id":76561197986081494,"connected_time":5797000000000,"state":"active","ping":75},{"user_id":785,"name":"Honest Tunnel Salesman","steam_id":76561198059071100,"connected_time":429000000000,"state":"active","ping":64},{"user_id":671,"name":"Intertrasting","steam_id":76561198123407886,"connected_time":3620000000000,"state":"active","ping":60},{"user_id":683,"name":"Trex","steam_id":76561198085606681,"connected_time":2747000000000,"state":"active","ping":67},{"user_id":736,"name":"a small patch of brown liquid","steam_id":76561198091172158,"connected_time":1365000000000,"state":"active","ping":43},{"user_id":725,"name":"Weebmcgee","steam_id":76561198081231557,"connected_time":1558000000000,"state":"active","ping":62},{"user_id":663,"name":"1992","steam_id":76561198075666613,"connected_time":4074000000000,"state":"active","ping":91},{"user_id":738,"name":"Chris P. Bacon","steam_id":76561198994704160,"connected_time":1331000000000,"state":"active","ping":68},{"user_id":688,"name":"OverPowered64","steam_id":76561198291027287,"connected_time":2614000000000,"state":"active","ping":76},{"user_id":769,"name":"riven","steam_id":76561198057158050,"connected_time":713000000000,"state":"active","ping":45},{"user_id":676,"name":"thecal","steam_id":76561198307893384,"connected_time":3139000000000,"state":"active","ping":59},{"user_id":737,"name":"Beebo, Son of Beebo","steam_id":76561198055948497,"connected_time":1355000000000,"state":"active","ping":57},{"user_id":739,"name":"Devoid","steam_id":76561198254039012,"connected_time":1306000000000,"state":"active","ping":52},{"user_id":625,"name":"Tero","steam_id":76561198073147972,"connected_time":8493000000000,"state":"active","ping":157},{"user_id":501,"name":"Hobo Shanker","steam_id":76561198001785187,"connected_time":17200000000000,"state":"active","ping":87},{"user_id":743,"name":"Indigolake","steam_id":76561198202215807,"connected_time":1204000000000,"state":"active","ping":84},{"user_id":803,"name":"CandorDanceFloor","steam_id":76561198062980511,"connected_time":50000000000,"state":"active","ping":72},{"user_id":800,"name":"HalfDead","steam_id":76561198049700226,"connected_time":63000000000,"state":"active","ping":84},{"user_id":805,"name":"Rudy","steam_id":76561198013456828,"connected_time":32000000000,"state":"active","ping":61},{"user_id":643,"name":"igotmail","steam_id":76561198070631899,"connected_time":5807000000000,"state":"active","ping":64},{"user_id":750,"name":"stick","steam_id":76561198049489094,"connected_time":1109000000000,"state":"active","ping":49}]},{"server_id":36,"name":"Uncletopia | Chicago | 5 | All Maps","name_short":"chi-5","host":"chi-2.us.uncletopia.com","port":27015,"enabled":true,"region":"us-central","cc":"us","latitude":41.881832,"longitude":-87.62318,"reserved":0,"last_update":"0001-01-01T00:00:00Z","name_a2s":"Uncletopia | Chicago | 5 | All Maps","protocol":17,"map":"pl_enclosure_final","folder":"tf","game":"Team Fortress","app_id":440,"player_count":23,"max_players":24,"Bots":0,"server_type":"Dedicated","server_os":"Linux","password":true,"vac":true,"version":"7961495","steam_id":85568392924866362,"keywords":["nocrits","nodmgspread","payload","uncletopia"],"game_id":440,"stv_port":27016,"stv_name":"Uncletopia | Chicago | 5 | All Maps | STV","players":[{"user_id":290,"name":"Classic","steam_id":76561198215293509,"connected_time":307000000000,"state":"active","ping":62},{"user_id":264,"name":"heck","steam_id":76561198308547958,"connected_time":1515000000000,"state":"active","ping":61},{"user_id":276,"name":"Grundle Thunder","steam_id":76561197960790338,"connected_time":969000000000,"state":"active","ping":87},{"user_id":286,"name":"laz","steam_id":76561198334164507,"connected_time":639000000000,"state":"active","ping":70},{"user_id":256,"name":"Coms","steam_id":76561198204995668,"connected_time":1751000000000,"state":"active","ping":84},{"user_id":224,"name":"c00kie","steam_id":76561198418178297,"connected_time":4105000000000,"state":"active","ping":32},{"user_id":291,"name":"Waffle","steam_id":76561199000034608,"connected_time":226000000000,"state":"active","ping":62},{"user_id":272,"name":"Piss Man","steam_id":76561199446367874,"connected_time":1328000000000,"state":"active","ping":44},{"user_id":277,"name":"Chicago Shoplifter","steam_id":76561197986530028,"connected_time":960000000000,"state":"active","ping":113},{"user_id":253,"name":"DeckofDragons","steam_id":76561198057398213,"connected_time":1916000000000,"state":"active","ping":76},{"user_id":282,"name":"mr beijing","steam_id":76561198044668836,"connected_time":916000000000,"state":"active","ping":52},{"user_id":293,"name":"Salam Ibn'dur","steam_id":76561198155872356,"connected_time":128000000000,"state":"active","ping":55},{"user_id":285,"name":"Gnaash","steam_id":76561198940657194,"connected_time":830000000000,"state":"active","ping":77},{"user_id":192,"name":"Ninetees","steam_id":76561198119483989,"connected_time":6061000000000,"state":"active","ping":76},{"user_id":176,"name":"green bean","steam_id":76561198113099204,"connected_time":7084000000000,"state":"active","ping":84},{"user_id":289,"name":"Kent C Straight","steam_id":76561198056190259,"connected_time":373000000000,"state":"active","ping":63},{"user_id":292,"name":"Genn","steam_id":76561198070450699,"connected_time":211000000000,"state":"active","ping":59},{"user_id":287,"name":"misterspud","steam_id":76561198195306218,"connected_time":408000000000,"state":"active","ping":105},{"user_id":281,"name":"Trump Shaker","steam_id":76561198065381038,"connected_time":933000000000,"state":"active","ping":84},{"user_id":270,"name":"FiddyFoMike","steam_id":76561198057072581,"connected_time":1368000000000,"state":"active","ping":98},{"user_id":294,"name":"bakkhertz","steam_id":76561198046745579,"connected_time":111000000000,"state":"active","ping":99},{"user_id":244,"name":"MintHaggis","steam_id":76561198006674825,"connected_time":3113000000000,"state":"active","ping":100},{"user_id":245,"name":"[NAME-REDACTED]","steam_id":76561198035682975,"connected_time":3075000000000,"state":"active","ping":75}]},{"server_id":37,"name":"Uncletopia | Chicago | 6 | All Maps","name_short":"chi-6","host":"chi-2.us.uncletopia.com","port":27025,"enabled":true,"region":"us-central","cc":"us","latitude":41.881832,"longitude":-87.62318,"reserved":0,"last_update":"0001-01-01T00:00:00Z","name_a2s":"Uncletopia | Chicago | 6 | All Maps","protocol":17,"map":"cp_mountainlab","folder":"tf","game":"Team Fortress","app_id":440,"player_count":24,"max_players":24,"Bots":0,"server_type":"Dedicated","server_os":"Linux","password":true,"vac":true,"version":"7961495","steam_id":85568392924866363,"keywords":["cp","nocrits","nodmgspread","uncletopia"],"game_id":440,"stv_port":27026,"stv_name":"Uncletopia | Chicago | 6 | All Maps | STV","players":[{"user_id":292,"name":"Demongirlballs","steam_id":76561198035768829,"connected_time":1060000000000,"state":"active","ping":66},{"user_id":193,"name":"Aribari (She/Her)","steam_id":76561198117327938,"connected_time":8912000000000,"state":"active","ping":76},{"user_id":286,"name":"ZeroAbyss00","steam_id":76561198859198386,"connected_time":1394000000000,"state":"active","ping":63},{"user_id":310,"name":"SirEverything","steam_id":76561199152393848,"connected_time":205000000000,"state":"active","ping":73},{"user_id":300,"name":"Hayden Jacobs","steam_id":76561198082200738,"connected_time":881000000000,"state":"active","ping":107},{"user_id":287,"name":"Mr. Sauce","steam_id":76561198055512324,"connected_time":1304000000000,"state":"active","ping":69},{"user_id":314,"name":"killer fish from san diego","steam_id":76561198875612039,"connected_time":171000000000,"state":"active","ping":72},{"user_id":283,"name":"StretchySnail59","steam_id":76561198073535005,"connected_time":1549000000000,"state":"active","ping":48},{"user_id":301,"name":"asdfgkjlh","steam_id":76561198153861493,"connected_time":836000000000,"state":"active","ping":78},{"user_id":308,"name":"Dexidus","steam_id":76561198021840495,"connected_time":249000000000,"state":"active","ping":64},{"user_id":303,"name":"ThatOneKaiser","steam_id":76561198799231254,"connected_time":604000000000,"state":"active","ping":78},{"user_id":295,"name":"Galaxxy Bun","steam_id":76561198275513037,"connected_time":1041000000000,"state":"active","ping":73},{"user_id":324,"name":"SecondCarpet","steam_id":76561199008323078,"connected_time":38000000000,"state":"active","ping":67},{"user_id":290,"name":"Scorpie Doodle","steam_id":76561198021845763,"connected_time":1191000000000,"state":"active","ping":55},{"user_id":304,"name":"Rem","steam_id":76561198204641019,"connected_time":546000000000,"state":"active","ping":69},{"user_id":234,"name":"Piss Goblin","steam_id":76561198945800020,"connected_time":6166000000000,"state":"active","ping":85},{"user_id":221,"name":"RyInc","steam_id":76561198874261643,"connected_time":7118000000000,"state":"active","ping":47},{"user_id":311,"name":"Dirtbike rider","steam_id":76561198030457066,"connected_time":201000000000,"state":"active","ping":79},{"user_id":177,"name":"Gen-E","steam_id":76561199497800989,"connected_time":10606000000000,"state":"active","ping":89},{"user_id":251,"name":"jimmyfnaf172198yay","steam_id":76561198311446636,"connected_time":5529000000000,"state":"active","ping":66},{"user_id":320,"name":"god","steam_id":76561198278008225,"connected_time":98000000000,"state":"active","ping":77},{"user_id":298,"name":"Dollsoap♡","steam_id":76561198799185573,"connected_time":996000000000,"state":"active","ping":119},{"user_id":306,"name":"Mega_Man23","steam_id":76561198138341391,"connected_time":472000000000,"state":"active","ping":60},{"user_id":322,"name":"Foolie","steam_id":76561198291741747,"connected_time":73000000000,"state":"active","ping":75}]},{"server_id":38,"name":"Uncletopia | Chicago | 7 | Stopwatch","name_short":"chi-7","host":"chi-2.us.uncletopia.com","port":27035,"enabled":true,"region":"us-central","cc":"us","latitude":41.881832,"longitude":-87.62318,"reserved":0,"last_update":"0001-01-01T00:00:00Z","name_a2s":"Uncletopia | Chicago | 7 | Stopwatch","protocol":17,"map":"workshop/koth_clearcut_b15.ugc2107050255","folder":"tf","game":"Team Fortress","app_id":440,"player_count":12,"max_players":24,"Bots":0,"server_type":"Dedicated","server_os":"Linux","password":true,"vac":true,"version":"7961495","steam_id":85568392924866364,"keywords":["cp","nocrits","nodmgspread","uncletopia"],"game_id":440,"stv_port":27036,"stv_name":"Uncletopia | Chicago | 7 | Stopwatch | STV","players":[{"user_id":183,"name":"TrashBoat","steam_id":76561199089671432,"connected_time":237000000000,"state":"active","ping":123},{"user_id":174,"name":"Granos","steam_id":76561198355508699,"connected_time":459000000000,"state":"active","ping":109},{"user_id":172,"name":"Candy Medusa","steam_id":76561198017790299,"connected_time":558000000000,"state":"active","ping":74},{"user_id":168,"name":"freak","steam_id":76561199023128474,"connected_time":635000000000,"state":"active","ping":132},{"user_id":184,"name":"CUBENSiS","steam_id":76561199138699358,"connected_time":188000000000,"state":"active","ping":56},{"user_id":187,"name":"Sands","steam_id":76561198436011363,"connected_time":86000000000,"state":"active","ping":49},{"user_id":188,"name":"samich seller","steam_id":76561199130327826,"connected_time":24000000000,"state":"active","ping":55},{"user_id":169,"name":"MotherLover","steam_id":76561199193420334,"connected_time":620000000000,"state":"active","ping":73},{"user_id":178,"name":"illa D","steam_id":76561198041468375,"connected_time":389000000000,"state":"active","ping":71},{"user_id":182,"name":"chrischrischris3018@yahoo.com","steam_id":76561198137316053,"connected_time":314000000000,"state":"active","ping":69},{"user_id":116,"name":"toastman","steam_id":76561198207073088,"connected_time":3672000000000,"state":"active","ping":121},{"user_id":181,"name":"He rolls his own","steam_id":76561198058162684,"connected_time":346000000000,"state":"active","ping":76}]},{"server_id":39,"name":"Uncletopia | Chicago | 8 | Community","name_short":"chi-8","host":"chi-2.us.uncletopia.com","port":27045,"enabled":true,"region":"us-central","cc":"us","latitude":41.881832,"longitude":-87.62318,"reserved":0,"last_update":"0001-01-01T00:00:00Z","name_a2s":"Uncletopia | Chicago | 8 | Community","protocol":17,"map":"workshop/koth_ashville_final.ugc2130459942","folder":"tf","game":"Team Fortress","app_id":440,"player_count":0,"max_players":24,"Bots":0,"server_type":"Dedicated","server_os":"Linux","password":true,"vac":true,"version":"7961495","steam_id":85568392924866365,"keywords":["cp","nocrits","nodmgspread","uncletopia"],"game_id":440,"stv_port":27046,"stv_name":"Uncletopia | Chicago | 8 | Community | STV","players":null},{"server_id":8,"name":"Uncletopia | Dallas | 1 | All Maps","name_short":"dal-1","host":"dal-1.us.uncletopia.com","port":27015,"enabled":true,"region":"us-central","cc":"us","latitude":32.779167,"longitude":-96.80889,"reserved":0,"last_update":"0001-01-01T00:00:00Z","name_a2s":"Uncletopia | Dallas | 1 | All Maps","protocol":17,"map":"cp_sunshine","folder":"tf","game":"Team Fortress","app_id":440,"player_count":24,"max_players":24,"Bots":0,"server_type":"Dedicated","server_os":"Linux","password":true,"vac":true,"version":"7961495","steam_id":85568392924469986,"keywords":["cp","nocrits","nodmgspread","uncletopia"],"game_id":440,"stv_port":27016,"stv_name":"Uncletopia | Dallas | 1 | All Maps | STV","players":[{"user_id":477,"name":"°Creamy Gilligan","steam_id":76561198001569384,"connected_time":1085000000000,"state":"active","ping":88},{"user_id":373,"name":"SilverLife25","steam_id":76561198392015722,"connected_time":8330000000000,"state":"active","ping":68},{"user_id":467,"name":"gender dysphoreos","steam_id":76561198038920185,"connected_time":1300000000000,"state":"active","ping":65},{"user_id":465,"name":"SAGE(सगे*)","steam_id":76561198811114074,"connected_time":1344000000000,"state":"active","ping":79},{"user_id":427,"name":"The CEO of cement","steam_id":76561199107177460,"connected_time":4102000000000,"state":"active","ping":87},{"user_id":479,"name":"Freddy Fazbear","steam_id":76561198272353440,"connected_time":790000000000,"state":"active","ping":56},{"user_id":442,"name":"tomandjerry085","steam_id":76561198800789071,"connected_time":3021000000000,"state":"active","ping":93},{"user_id":480,"name":"Corv1d","steam_id":76561198809386579,"connected_time":592000000000,"state":"active","ping":74},{"user_id":421,"name":"Wooden E","steam_id":76561198020308956,"connected_time":4284000000000,"state":"active","ping":60},{"user_id":469,"name":"The Engineering Puro","steam_id":76561199186496740,"connected_time":1186000000000,"state":"active","ping":118},{"user_id":470,"name":"snake eyes","steam_id":76561198099285010,"connected_time":1177000000000,"state":"active","ping":93},{"user_id":454,"name":"tail slap +36 (4d12+18)","steam_id":76561198040425096,"connected_time":2447000000000,"state":"active","ping":69},{"user_id":464,"name":"Heartgold","steam_id":76561199062592062,"connected_time":1350000000000,"state":"active","ping":84},{"user_id":455,"name":"DatGamerJimmeh","steam_id":76561198114676295,"connected_time":2433000000000,"state":"active","ping":54},{"user_id":476,"name":"Doughbouy","steam_id":76561198033321318,"connected_time":1113000000000,"state":"active","ping":67},{"user_id":471,"name":"jakobeo","steam_id":76561198415106043,"connected_time":1163000000000,"state":"active","ping":84},{"user_id":430,"name":"Mud Goblin","steam_id":76561198839118505,"connected_time":3992000000000,"state":"active","ping":97},{"user_id":483,"name":"Chauncey von Snuffles III","steam_id":76561198021784746,"connected_time":204000000000,"state":"active","ping":64},{"user_id":306,"name":"{ST} Oxythemoron","steam_id":76561198060089965,"connected_time":14068000000000,"state":"active","ping":53},{"user_id":433,"name":"Tuvok Shakur","steam_id":76561198018875334,"connected_time":3648000000000,"state":"active","ping":69},{"user_id":472,"name":"Gimli","steam_id":76561198153729934,"connected_time":1153000000000,"state":"active","ping":70},{"user_id":444,"name":"Franticraven177","steam_id":76561198334105579,"connected_time":2960000000000,"state":"active","ping":76},{"user_id":482,"name":"spectrumdoctor77","steam_id":76561198871003321,"connected_time":216000000000,"state":"active","ping":45},{"user_id":474,"name":"2cats_2curious","steam_id":76561198027143149,"connected_time":1146000000000,"state":"active","ping":60}]},{"server_id":108,"name":"Uncletopia | Dallas | 2 | All Maps","name_short":"dal-2","host":"dal-1.us.uncletopia.com","port":27025,"enabled":true,"region":"us-central","cc":"us","latitude":32.779167,"longitude":-96.80889,"reserved":0,"last_update":"0001-01-01T00:00:00Z","name_a2s":"Uncletopia | Dallas | 2 | All Maps","protocol":17,"map":"cp_altitude","folder":"tf","game":"Team Fortress","app_id":440,"player_count":24,"max_players":24,"Bots":0,"server_type":"Dedicated","server_os":"Linux","password":true,"vac":true,"version":"7961495","steam_id":85568392924469988,"keywords":["cp","nocrits","nodmgspread","uncletopia"],"game_id":440,"stv_port":27026,"stv_name":"Uncletopia | Dallas | 2 | All Maps | STV","players":[{"user_id":177,"name":"ĐïɐȐɹɦɆa","steam_id":76561198981411945,"connected_time":849000000000,"state":"active","ping":72},{"user_id":189,"name":"rach9411","steam_id":76561198256535721,"connected_time":464000000000,"state":"active","ping":158},{"user_id":175,"name":"Fishios","steam_id":76561199436428380,"connected_time":965000000000,"state":"active","ping":82},{"user_id":198,"name":"TwistTheCan","steam_id":76561198225790324,"connected_time":65000000000,"state":"active","ping":89},{"user_id":161,"name":"VerrucktMedic","steam_id":76561198093144226,"connected_time":2124000000000,"state":"active","ping":95},{"user_id":191,"name":"TheultimentFishy","steam_id":76561198169132821,"connected_time":173000000000,"state":"active","ping":93},{"user_id":194,"name":"2.5 Oz of Paprika","steam_id":76561198174647666,"connected_time":95000000000,"state":"active","ping":113},{"user_id":193,"name":"Shipmunk","steam_id":76561198063062670,"connected_time":113000000000,"state":"active","ping":83},{"user_id":152,"name":"Erodplayer","steam_id":76561198183840185,"connected_time":2897000000000,"state":"active","ping":58},{"user_id":157,"name":"Cofi","steam_id":76561199026721822,"connected_time":2239000000000,"state":"active","ping":87},{"user_id":158,"name":"uncletopia dallas 2 player","steam_id":76561198412786186,"connected_time":2147000000000,"state":"active","ping":45},{"user_id":162,"name":"♦♣Quadric♥♠","steam_id":76561198061003853,"connected_time":2110000000000,"state":"active","ping":92},{"user_id":180,"name":"Cat in a fedora","steam_id":76561198187502875,"connected_time":736000000000,"state":"active","ping":71},{"user_id":181,"name":"mkl","steam_id":76561197986401685,"connected_time":734000000000,"state":"active","ping":51},{"user_id":171,"name":"Bullwinkle J. Moose","steam_id":76561198075977196,"connected_time":1382000000000,"state":"active","ping":55},{"user_id":182,"name":"GibbusGod","steam_id":76561199232436690,"connected_time":731000000000,"state":"active","ping":73},{"user_id":62,"name":"Moonflower ✦","steam_id":76561198191782483,"connected_time":10178000000000,"state":"active","ping":50},{"user_id":190,"name":"SaltyManok","steam_id":76561198160082948,"connected_time":450000000000,"state":"active","ping":51},{"user_id":199,"name":"BudOfLight","steam_id":76561198017539604,"connected_time":58000000000,"state":"active","ping":72},{"user_id":173,"name":"Richard","steam_id":76561198262012045,"connected_time":1224000000000,"state":"active","ping":70},{"user_id":196,"name":"Mr Drug Addict","steam_id":76561199062081467,"connected_time":94000000000,"state":"active","ping":84},{"user_id":185,"name":"Satori Komeiji","steam_id":76561198158211423,"connected_time":693000000000,"state":"active","ping":78},{"user_id":82,"name":"stupor","steam_id":76561198124994507,"connected_time":8404000000000,"state":"active","ping":88},{"user_id":187,"name":"Slope115117","steam_id":76561199028794627,"connected_time":659000000000,"state":"active","ping":79}]},{"server_id":404,"name":"Uncletopia | Dallas | 3 | All Maps","name_short":"dal-3","host":"dal-1.us.uncletopia.com","port":27035,"enabled":true,"region":"us-central","cc":"us","latitude":32.779167,"longitude":-96.80889,"reserved":0,"last_update":"0001-01-01T00:00:00Z","name_a2s":"Uncletopia | Dallas | 3 | All Maps","protocol":17,"map":"pl_upward","folder":"tf","game":"Team Fortress","app_id":440,"player_count":24,"max_players":24,"Bots":0,"server_type":"Dedicated","server_os":"Linux","password":true,"vac":true,"version":"7961495","steam_id":85568392924515219,"keywords":["nocrits","nodmgspread","payload","uncletopia"],"game_id":440,"stv_port":27036,"stv_name":"Uncletopia | Dallas | 3 | All Maps | STV","players":[{"user_id":145,"name":"Pal The Palm","steam_id":76561198191507485,"connected_time":1616000000000,"state":"active","ping":76},{"user_id":165,"name":"galacticdragonlord","steam_id":76561198119755801,"connected_time":312000000000,"state":"active","ping":92},{"user_id":171,"name":"Evil little man","steam_id":76561198311053471,"connected_time":260000000000,"state":"active","ping":55},{"user_id":148,"name":"NeoWolf","steam_id":76561198144759784,"connected_time":967000000000,"state":"active","ping":97},{"user_id":149,"name":"asm_ghost","steam_id":76561199205363547,"connected_time":961000000000,"state":"active","ping":106},{"user_id":150,"name":"adam0o0","steam_id":76561198052250279,"connected_time":947000000000,"state":"active","ping":71},{"user_id":151,"name":"The Assistant Regional Manager","steam_id":76561199221484936,"connected_time":852000000000,"state":"active","ping":95},{"user_id":166,"name":"Rafl","steam_id":76561198055222756,"connected_time":312000000000,"state":"active","ping":45},{"user_id":154,"name":"Jam Jams","steam_id":76561198128811267,"connected_time":589000000000,"state":"active","ping":140},{"user_id":155,"name":"Jetty","steam_id":76561198004885583,"connected_time":578000000000,"state":"active","ping":97},{"user_id":156,"name":"TheGreythreat","steam_id":76561198021995538,"connected_time":558000000000,"state":"active","ping":87},{"user_id":173,"name":"Apple Zoo","steam_id":76561198013732450,"connected_time":176000000000,"state":"active","ping":70},{"user_id":158,"name":"Sporbo0","steam_id":76561198280594008,"connected_time":475000000000,"state":"active","ping":99},{"user_id":159,"name":"God's Yoinkiest Sploinker","steam_id":76561198131631865,"connected_time":463000000000,"state":"active","ping":73},{"user_id":160,"name":"Blackout","steam_id":76561199072602903,"connected_time":443000000000,"state":"active","ping":67},{"user_id":161,"name":"harry","steam_id":76561198365118514,"connected_time":406000000000,"state":"active","ping":108},{"user_id":162,"name":"Drilly22","steam_id":76561198068838338,"connected_time":389000000000,"state":"active","ping":68},{"user_id":163,"name":"DudeBergs","steam_id":76561198399777833,"connected_time":384000000000,"state":"active","ping":69},{"user_id":164,"name":"vcx","steam_id":76561198139371143,"connected_time":344000000000,"state":"active","ping":75},{"user_id":167,"name":"Coffee","steam_id":76561198140879627,"connected_time":311000000000,"state":"active","ping":73},{"user_id":168,"name":"NoodleQueen","steam_id":76561198141010662,"connected_time":306000000000,"state":"active","ping":72},{"user_id":169,"name":"Supa Dupt","steam_id":76561198166666289,"connected_time":294000000000,"state":"active","ping":72},{"user_id":170,"name":"*****setget","steam_id":76561198118824188,"connected_time":292000000000,"state":"active","ping":122},{"user_id":174,"name":"Shrebbie","steam_id":76561198875230824,"connected_time":147000000000,"state":"active","ping":87}]},{"server_id":405,"name":"Uncletopia | Dallas | 4 | Community","name_short":"dal-4","host":"dal-1.us.uncletopia.com","port":27045,"enabled":true,"region":"us-central","cc":"us","latitude":32.779167,"longitude":-96.80889,"reserved":0,"last_update":"0001-01-01T00:00:00Z","name_a2s":"Uncletopia | Dallas | 4 | Community","protocol":17,"map":"workshop/pl_shoreleave_rc2.ugc1238849347","folder":"tf","game":"Team Fortress","app_id":440,"player_count":0,"max_players":24,"Bots":0,"server_type":"Dedicated","server_os":"Linux","password":true,"vac":true,"version":"7961495","steam_id":85568392924515220,"keywords":["nocrits","nodmgspread","payload","uncletopia"],"game_id":440,"stv_port":27046,"stv_name":"Uncletopia | Dallas | 4 | Community | STV","players":null},{"server_id":5,"name":"Uncletopia | Frankfurt | 1 | All Maps","name_short":"frk-1","host":"frk-1.de.uncletopia.com","port":27015,"enabled":true,"region":"eu","cc":"de","latitude":50.110924,"longitude":8.682127,"reserved":0,"last_update":"0001-01-01T00:00:00Z","name_a2s":"Uncletopia | Frankfurt | 1 | All Maps","protocol":17,"map":"koth_cascade","folder":"tf","game":"Team Fortress","app_id":440,"player_count":0,"max_players":24,"Bots":0,"server_type":"Dedicated","server_os":"Linux","password":true,"vac":true,"version":"7961495","steam_id":85568392924469989,"keywords":["cp","nocrits","nodmgspread","uncletopia"],"game_id":440,"stv_port":27016,"stv_name":"Uncletopia | Frankfurt | 1 | All Maps | STV","players":null},{"server_id":110,"name":"Uncletopia | Frankfurt | 2 | All Maps","name_short":"frk-2","host":"frk-1.de.uncletopia.com","port":27025,"enabled":true,"region":"eu","cc":"de","latitude":50.110924,"longitude":8.682127,"reserved":0,"last_update":"0001-01-01T00:00:00Z","name_a2s":"Uncletopia | Frankfurt | 2 | All Maps","protocol":17,"map":"pl_borneo","folder":"tf","game":"Team Fortress","app_id":440,"player_count":21,"max_players":24,"Bots":0,"server_type":"Dedicated","server_os":"Linux","password":true,"vac":true,"version":"7961495","steam_id":85568392924469990,"keywords":["nocrits","nodmgspread","payload","uncletopia"],"game_id":440,"stv_port":27026,"stv_name":"Uncletopia | Frankfurt | 2 | All Maps | STV","players":[{"user_id":843,"name":"BADLY","steam_id":76561199217577701,"connected_time":9000000000,"state":"active","ping":66},{"user_id":818,"name":"Sholunan","steam_id":76561198062435739,"connected_time":3087000000000,"state":"active","ping":65},{"user_id":837,"name":"etc","steam_id":76561197998394797,"connected_time":1597000000000,"state":"active","ping":53},{"user_id":780,"name":"Iris","steam_id":76561198430295815,"connected_time":6530000000000,"state":"active","ping":140},{"user_id":742,"name":"GodFather","steam_id":76561198097779151,"connected_time":10772000000000,"state":"active","ping":84},{"user_id":823,"name":"@KINGDRIICK","steam_id":76561198048396162,"connected_time":2927000000000,"state":"active","ping":83},{"user_id":824,"name":"my fault og","steam_id":76561198256811438,"connected_time":2922000000000,"state":"active","ping":107},{"user_id":821,"name":"squirrel - Allkeyshop","steam_id":76561199380974466,"connected_time":3001000000000,"state":"spawning","ping":80},{"user_id":825,"name":"Russenluster","steam_id":76561198118016220,"connected_time":2821000000000,"state":"active","ping":50},{"user_id":836,"name":"edward cullen from twilight","steam_id":76561198038827937,"connected_time":1790000000000,"state":"active","ping":92},{"user_id":762,"name":"else1","steam_id":76561197996558319,"connected_time":9093000000000,"state":"active","ping":85},{"user_id":693,"name":"Seb, Comrade","steam_id":76561198040279587,"connected_time":14411000000000,"state":"active","ping":96},{"user_id":838,"name":"Bubsy 3D","steam_id":76561197988942314,"connected_time":1507000000000,"state":"active","ping":46},{"user_id":829,"name":"blant commando","steam_id":76561198239996676,"connected_time":2604000000000,"state":"spawning","ping":46},{"user_id":830,"name":"=BaFFe= Krakenpots","steam_id":76561198106600025,"connected_time":2517000000000,"state":"active","ping":101},{"user_id":807,"name":"Gamer Local","steam_id":76561198084157459,"connected_time":4166000000000,"state":"spawning","ping":48},{"user_id":840,"name":"Topounambir","steam_id":76561198215896476,"connected_time":1495000000000,"state":"active","ping":96},{"user_id":841,"name":"Jambly Jim","steam_id":76561198398540112,"connected_time":1444000000000,"state":"spawning","ping":47},{"user_id":811,"name":"Hunter64","steam_id":76561199121947938,"connected_time":3862000000000,"state":"spawning","ping":47},{"user_id":816,"name":"☆098uyt☆","steam_id":76561198866301215,"connected_time":3268000000000,"state":"active","ping":53},{"user_id":842,"name":"Funny\u0026Ulany","steam_id":76561198141832311,"connected_time":1301000000000,"state":"spawning","ping":240}]},{"server_id":308,"name":"Uncletopia | Frankfurt | 3 | All Maps","name_short":"frk-3","host":"frk-1.de.uncletopia.com","port":27035,"enabled":true,"region":"eu","cc":"de","latitude":50.110924,"longitude":8.682127,"reserved":0,"last_update":"0001-01-01T00:00:00Z","name_a2s":"Uncletopia | Frankfurt | 3 | All Maps","protocol":17,"map":"cp_snakewater_final1","folder":"tf","game":"Team Fortress","app_id":440,"player_count":0,"max_players":24,"Bots":0,"server_type":"Dedicated","server_os":"Linux","password":true,"vac":true,"version":"7961495","steam_id":85568392924504274,"keywords":["cp","nocrits","nodmgspread","uncletopia"],"game_id":440,"stv_port":27036,"stv_name":"Uncletopia | Frankfurt | 3 | All Maps | STV","players":null},{"server_id":309,"name":"Uncletopia | Frankfurt | 4 | All Maps","name_short":"frk-4","host":"frk-1.de.uncletopia.com","port":27045,"enabled":true,"region":"eu","cc":"de","latitude":50.110924,"longitude":8.682127,"reserved":0,"last_update":"0001-01-01T00:00:00Z","name_a2s":"Uncletopia | Frankfurt | 4 | All Maps","protocol":17,"map":"cp_dustbowl","folder":"tf","game":"Team Fortress","app_id":440,"player_count":0,"max_players":24,"Bots":0,"server_type":"Dedicated","server_os":"Linux","password":true,"vac":true,"version":"7961495","steam_id":85568392924504275,"keywords":["cp","nocrits","nodmgspread","uncletopia"],"game_id":440,"stv_port":27046,"stv_name":"Uncletopia | Frankfurt | 4 | All Maps | STV","players":null},{"server_id":310,"name":"Uncletopia | Frankfurt | 5 | All Maps","name_short":"frk-5","host":"frk-1.de.uncletopia.com","port":27055,"enabled":true,"region":"eu","cc":"de","latitude":50.110924,"longitude":8.682127,"reserved":0,"last_update":"0001-01-01T00:00:00Z","name_a2s":"Uncletopia | Frankfurt | 5 | All Maps","protocol":17,"map":"pl_badwater","folder":"tf","game":"Team Fortress","app_id":440,"player_count":0,"max_players":24,"Bots":0,"server_type":"Dedicated","server_os":"Linux","password":true,"vac":true,"version":"7961495","steam_id":85568392924504277,"keywords":["nocrits","nodmgspread","payload","uncletopia"],"game_id":440,"stv_port":27056,"stv_name":"Uncletopia | Frankfurt | 5 | All Maps | STV","players":null},{"server_id":311,"name":"Uncletopia | Frankfurt | 6 | All Maps","name_short":"frk-6","host":"frk-1.de.uncletopia.com","port":27065,"enabled":true,"region":"eu","cc":"de","latitude":50.110924,"longitude":8.682127,"reserved":0,"last_update":"0001-01-01T00:00:00Z","name_a2s":"Uncletopia | Frankfurt | 6 | All Maps","protocol":17,"map":"koth_highpass","folder":"tf","game":"Team Fortress","app_id":440,"player_count":0,"max_players":24,"Bots":0,"server_type":"Dedicated","server_os":"Linux","password":true,"vac":true,"version":"7961495","steam_id":85568392924504278,"keywords":["cp","nocrits","nodmgspread","uncletopia"],"game_id":440,"stv_port":27066,"stv_name":"Uncletopia | Frankfurt | 6 | All Maps | STV","players":null},{"server_id":23,"name":"Uncletopia | Frankfurt | 7 | Stopwatch","name_short":"frk-7","host":"frk-1.de.uncletopia.com","port":27075,"enabled":true,"region":"eu","cc":"de","latitude":50.110924,"longitude":8.682127,"reserved":0,"last_update":"0001-01-01T00:00:00Z","name_a2s":"Uncletopia | Frankfurt | 7 | Stopwatch","protocol":17,"map":"workshop/koth_bagel_rc6.ugc2514036946","folder":"tf","game":"Team Fortress","app_id":440,"player_count":0,"max_players":24,"Bots":0,"server_type":"Dedicated","server_os":"Linux","password":true,"vac":true,"version":"7961495","steam_id":85568392924742827,"keywords":["cp","nocrits","nodmgspread","uncletopia"],"game_id":440,"stv_port":27076,"stv_name":"Uncletopia | Frankfurt | 7 | Stopwatch | STV","players":null},{"server_id":24,"name":"Uncletopia | Frankfurt | 8 | Community","name_short":"frk-8","host":"frk-1.de.uncletopia.com","port":27085,"enabled":true,"region":"eu","cc":"de","latitude":50.110924,"longitude":8.682127,"reserved":0,"last_update":"0001-01-01T00:00:00Z","name_a2s":"Uncletopia | Frankfurt | 8 | Community","protocol":17,"map":"workshop/koth_product_final.ugc454272353","folder":"tf","game":"Team Fortress","app_id":440,"player_count":0,"max_players":24,"Bots":0,"server_type":"Dedicated","server_os":"Linux","password":true,"vac":true,"version":"7961495","steam_id":85568392924742828,"keywords":["cp","nocrits","nodmgspread","uncletopia"],"game_id":440,"stv_port":27086,"stv_name":"Uncletopia | Frankfurt | 8 | Community | STV","players":null},{"server_id":202,"name":"Uncletopia | Hong Kong | 1 | All Maps","name_short":"hgk-1","host":"hgk-1.hk.uncletopia.com","port":27015,"enabled":true,"region":"asia","cc":"hk","latitude":22.302711,"longitude":114.177216,"reserved":0,"last_update":"0001-01-01T00:00:00Z","name_a2s":"Uncletopia | Hong Kong | 1 | All Maps","protocol":17,"map":"pl_frontier_final","folder":"tf","game":"Team Fortress","app_id":440,"player_count":0,"max_players":24,"Bots":0,"server_type":"Dedicated","server_os":"Linux","password":true,"vac":true,"version":"7961495","steam_id":85568392924494504,"keywords":["nocrits","nodmgspread","payload","uncletopia"],"game_id":440,"stv_port":27016,"stv_name":"Uncletopia | Hong Kong | 1 | All Maps | STV","players":null},{"server_id":1,"name":"Uncletopia | Los Angeles | 1 | All Maps","name_short":"lax-1","host":"lax-1.us.uncletopia.com","port":27015,"enabled":true,"region":"us-west","cc":"us","latitude":33.94279,"longitude":-118.41004,"reserved":0,"last_update":"0001-01-01T00:00:00Z","name_a2s":"Uncletopia | Los Angeles | 1 | All Maps","protocol":17,"map":"pl_upward","folder":"tf","game":"Team Fortress","app_id":440,"player_count":24,"max_players":24,"Bots":0,"server_type":"Dedicated","server_os":"Linux","password":true,"vac":true,"version":"7961495","steam_id":85568392924469991,"keywords":["nocrits","nodmgspread","payload","uncletopia"],"game_id":440,"stv_port":27016,"stv_name":"Uncletopia | Los Angeles | 1 | All Maps | STV","players":[{"user_id":276,"name":"lukamine","steam_id":76561198166827208,"connected_time":591000000000,"state":"active","ping":64},{"user_id":254,"name":"Dax","steam_id":76561198045549713,"connected_time":1791000000000,"state":"active","ping":82},{"user_id":255,"name":"Severeburrito16","steam_id":76561198353155991,"connected_time":1754000000000,"state":"active","ping":103},{"user_id":250,"name":"jayzak24","steam_id":76561198354267509,"connected_time":1852000000000,"state":"active","ping":57},{"user_id":247,"name":"big gamer","steam_id":76561199102883421,"connected_time":1871000000000,"state":"active","ping":121},{"user_id":265,"name":"cory in the house","steam_id":76561198296933059,"connected_time":1406000000000,"state":"active","ping":60},{"user_id":222,"name":"Green","steam_id":76561198132116911,"connected_time":2989000000000,"state":"active","ping":61},{"user_id":301,"name":"roody","steam_id":76561198066260405,"connected_time":110000000000,"state":"active","ping":73},{"user_id":273,"name":"Celeritas","steam_id":76561198133414847,"connected_time":619000000000,"state":"active","ping":60},{"user_id":293,"name":"milkerstf2","steam_id":76561199074843594,"connected_time":258000000000,"state":"active","ping":74},{"user_id":264,"name":"Igrium","steam_id":76561198119549811,"connected_time":1512000000000,"state":"active","ping":91},{"user_id":277,"name":"gerf.","steam_id":76561198811706201,"connected_time":588000000000,"state":"active","ping":88},{"user_id":256,"name":"☭Borris☭","steam_id":76561198011136886,"connected_time":1745000000000,"state":"active","ping":72},{"user_id":270,"name":"Siopao","steam_id":76561198254089497,"connected_time":838000000000,"state":"active","ping":69},{"user_id":258,"name":"un-flipped shoes","steam_id":76561198045964573,"connected_time":1717000000000,"state":"active","ping":55},{"user_id":272,"name":"perfidy","steam_id":76561198271973658,"connected_time":716000000000,"state":"active","ping":118},{"user_id":307,"name":"duddlee","steam_id":76561198030052564,"connected_time":37000000000,"state":"active","ping":78},{"user_id":260,"name":"M4 Sherman","steam_id":76561198011096132,"connected_time":1680000000000,"state":"active","ping":60},{"user_id":267,"name":"BingBingAZ Tv","steam_id":76561198353065343,"connected_time":920000000000,"state":"active","ping":61},{"user_id":261,"name":"Aurorazx","steam_id":76561198285397048,"connected_time":1677000000000,"state":"active","ping":102},{"user_id":242,"name":"Ockulus","steam_id":76561199069638460,"connected_time":1997000000000,"state":"active","ping":57},{"user_id":262,"name":"Beta Fish","steam_id":76561198073504861,"connected_time":1674000000000,"state":"active","ping":94},{"user_id":203,"name":"Commander Shrekard","steam_id":76561198124066405,"connected_time":4595000000000,"state":"active","ping":46},{"user_id":269,"name":"BREAD MANN","steam_id":76561198949379945,"connected_time":892000000000,"state":"active","ping":106}]},{"server_id":112,"name":"Uncletopia | Los Angeles | 2 | All Maps","name_short":"lax-2","host":"lax-1.us.uncletopia.com","port":27025,"enabled":true,"region":"us-west","cc":"us","latitude":33.94279,"longitude":-118.41004,"reserved":0,"last_update":"0001-01-01T00:00:00Z","name_a2s":"Uncletopia | Los Angeles | 2 | All Maps","protocol":17,"map":"cp_gravelpit","folder":"tf","game":"Team Fortress","app_id":440,"player_count":24,"max_players":24,"Bots":0,"server_type":"Dedicated","server_os":"Linux","password":true,"vac":true,"version":"7961495","steam_id":85568392924469992,"keywords":["cp","nocrits","nodmgspread","uncletopia"],"game_id":440,"stv_port":27026,"stv_name":"Uncletopia | Los Angeles | 2 | All Maps | STV","players":[{"user_id":78,"name":"Schizo Femboy","steam_id":76561199162627150,"connected_time":7488000000000,"state":"active","ping":110},{"user_id":203,"name":"Eden","steam_id":76561198081284664,"connected_time":421000000000,"state":"active","ping":59},{"user_id":181,"name":"SaltyFlump","steam_id":76561199379601288,"connected_time":1315000000000,"state":"active","ping":84},{"user_id":186,"name":"Ecliptica","steam_id":76561198171951333,"connected_time":1044000000000,"state":"active","ping":99},{"user_id":206,"name":"Detective J","steam_id":76561198997648844,"connected_time":403000000000,"state":"active","ping":72},{"user_id":165,"name":"Western_dragon","steam_id":76561198130456105,"connected_time":1909000000000,"state":"active","ping":57},{"user_id":169,"name":"Charles","steam_id":76561198155322277,"connected_time":1773000000000,"state":"active","ping":53},{"user_id":201,"name":"dogerich404","steam_id":76561199124102546,"connected_time":453000000000,"state":"active","ping":60},{"user_id":140,"name":"Mr.Rogers","steam_id":76561198043878683,"connected_time":3478000000000,"state":"active","ping":62},{"user_id":214,"name":"Jamarcus","steam_id":76561198150272587,"connected_time":102000000000,"state":"active","ping":83},{"user_id":171,"name":"Seriously Bruh","steam_id":76561198070408485,"connected_time":1754000000000,"state":"active","ping":77},{"user_id":195,"name":"Portal2Player","steam_id":76561198062870114,"connected_time":766000000000,"state":"active","ping":122},{"user_id":204,"name":"SomeRandomMail","steam_id":76561199002913110,"connected_time":417000000000,"state":"active","ping":48},{"user_id":174,"name":"kiwi","steam_id":76561198052177917,"connected_time":1722000000000,"state":"active","ping":76},{"user_id":175,"name":"Beef Wellington","steam_id":76561197995635241,"connected_time":1632000000000,"state":"active","ping":171},{"user_id":213,"name":"Sinclair!","steam_id":76561198804662005,"connected_time":126000000000,"state":"active","ping":45},{"user_id":202,"name":"sw","steam_id":76561198420396010,"connected_time":431000000000,"state":"active","ping":63},{"user_id":212,"name":"Lux Tizer","steam_id":76561198035305831,"connected_time":156000000000,"state":"active","ping":121},{"user_id":205,"name":"marty","steam_id":76561198032782746,"connected_time":414000000000,"state":"active","ping":62},{"user_id":196,"name":"Joe Biden","steam_id":76561198238699798,"connected_time":672000000000,"state":"active","ping":75},{"user_id":209,"name":"Mimt1111","steam_id":76561198392370897,"connected_time":277000000000,"state":"active","ping":135},{"user_id":197,"name":"type \"bad med\" to kick","steam_id":76561198076402476,"connected_time":644000000000,"state":"active","ping":65},{"user_id":161,"name":"U ω U","steam_id":76561198118802562,"connected_time":2582000000000,"state":"active","ping":64},{"user_id":211,"name":"monsterkill4567","steam_id":76561198272986367,"connected_time":203000000000,"state":"active","ping":62}]},{"server_id":324,"name":"Uncletopia | Los Angeles | 3 | All Maps","name_short":"lax-3","host":"lax-1.us.uncletopia.com","port":27035,"enabled":true,"region":"us-west","cc":"us","latitude":33.94279,"longitude":-118.41004,"reserved":0,"last_update":"0001-01-01T00:00:00Z","name_a2s":"Uncletopia | Los Angeles | 3 | All Maps","protocol":17,"map":"pl_swiftwater_final1","folder":"tf","game":"Team Fortress","app_id":440,"player_count":0,"max_players":24,"Bots":0,"server_type":"Dedicated","server_os":"Linux","password":true,"vac":true,"version":"7961495","steam_id":85568392924510198,"keywords":["nocrits","nodmgspread","payload","uncletopia"],"game_id":440,"stv_port":27036,"stv_name":"Uncletopia | Los Angeles | 3 | All Maps | STV","players":null},{"server_id":25,"name":"Uncletopia | Los Angeles | 4 | Stopwatch","name_short":"lax-4","host":"lax-1.us.uncletopia.com","port":27045,"enabled":true,"region":"us-west","cc":"us","latitude":33.94279,"longitude":-118.41004,"reserved":0,"last_update":"0001-01-01T00:00:00Z","name_a2s":"Uncletopia | Los Angeles | 4 | Stopwatch","protocol":17,"map":"workshop/pl_barnblitz_pro7.ugc582280235","folder":"tf","game":"Team Fortress","app_id":440,"player_count":0,"max_players":24,"Bots":0,"server_type":"Dedicated","server_os":"Linux","password":true,"vac":true,"version":"7961495","steam_id":85568392924510199,"keywords":["nocrits","nodmgspread","payload","uncletopia"],"game_id":440,"stv_port":27046,"stv_name":"Uncletopia | Los Angeles | 4 | Stopwatch | STV","players":null},{"server_id":11,"name":"Uncletopia | London | 1 | All Maps","name_short":"lon-1","host":"lon-1.uk.uncletopia.com","port":27015,"enabled":true,"region":"eu","cc":"gb","latitude":51.509865,"longitude":-0.118092,"reserved":0,"last_update":"0001-01-01T00:00:00Z","name_a2s":"Uncletopia | London | 1 | All Maps","protocol":17,"map":"koth_harvest_final","folder":"tf","game":"Team Fortress","app_id":440,"player_count":17,"max_players":24,"Bots":0,"server_type":"Dedicated","server_os":"Linux","password":true,"vac":true,"version":"7961495","steam_id":85568392924367362,"keywords":["cp","nocrits","nodmgspread","uncletopia"],"game_id":440,"stv_port":27016,"stv_name":"Uncletopia | London | 1 | All Maps | STV","players":[{"user_id":1040,"name":"Dr. Sus","steam_id":76561198344435644,"connected_time":3820000000000,"state":"active","ping":65},{"user_id":1065,"name":"slothm442","steam_id":76561199487265826,"connected_time":653000000000,"state":"active","ping":119},{"user_id":1057,"name":"trans werewolf","steam_id":76561198107235989,"connected_time":1617000000000,"state":"active","ping":61},{"user_id":1071,"name":"Rick Makakezzz","steam_id":76561198057495653,"connected_time":167000000000,"state":"active","ping":83},{"user_id":1055,"name":"eart bound","steam_id":76561198121260981,"connected_time":1638000000000,"state":"active","ping":45},{"user_id":1062,"name":"nam","steam_id":76561198068869392,"connected_time":1367000000000,"state":"active","ping":45},{"user_id":1058,"name":"ywy","steam_id":76561198088624259,"connected_time":1590000000000,"state":"active","ping":59},{"user_id":1001,"name":"lawn","steam_id":76561198001243486,"connected_time":6373000000000,"state":"active","ping":45},{"user_id":1053,"name":"Deocyn","steam_id":76561197990495033,"connected_time":1948000000000,"state":"active","ping":72},{"user_id":1068,"name":"Haku*","steam_id":76561198013292193,"connected_time":569000000000,"state":"active","ping":67},{"user_id":1067,"name":"saucyboi123","steam_id":76561198159708235,"connected_time":610000000000,"state":"active","ping":47},{"user_id":1069,"name":"stun","steam_id":76561198276681691,"connected_time":516000000000,"state":"active","ping":44},{"user_id":1050,"name":"geroxe cruo","steam_id":76561199480942903,"connected_time":2815000000000,"state":"active","ping":65},{"user_id":1026,"name":"is it your crocodile?","steam_id":76561198346638308,"connected_time":4986000000000,"state":"active","ping":59},{"user_id":1052,"name":"bowchika wowa #SlavaUkraine","steam_id":76561198159564550,"connected_time":2322000000000,"state":"active","ping":69},{"user_id":1038,"name":"ho hoe HO","steam_id":76561198117335523,"connected_time":4274000000000,"state":"active","ping":77},{"user_id":1000,"name":"Brian","steam_id":76561198077756206,"connected_time":6387000000000,"state":"active","ping":42}]},{"server_id":114,"name":"Uncletopia | London | 2 | All Maps","name_short":"lon-2","host":"lon-1.uk.uncletopia.com","port":27025,"enabled":true,"region":"eu","cc":"gb","latitude":51.509865,"longitude":-0.118092,"reserved":0,"last_update":"0001-01-01T00:00:00Z","name_a2s":"Uncletopia | London | 2 | All Maps","protocol":17,"map":"cp_sunshine","folder":"tf","game":"Team Fortress","app_id":440,"player_count":0,"max_players":24,"Bots":0,"server_type":"Dedicated","server_os":"Linux","password":true,"vac":true,"version":"7961495","steam_id":85568392924470941,"keywords":["cp","nocrits","nodmgspread","uncletopia"],"game_id":440,"stv_port":27026,"stv_name":"Uncletopia | London | 2 | All Maps | STV","players":null},{"server_id":320,"name":"Uncletopia | London | 3 | All Maps","name_short":"lon-3","host":"lon-1.uk.uncletopia.com","port":27035,"enabled":true,"region":"eu","cc":"gb","latitude":51.509865,"longitude":-0.118092,"reserved":0,"last_update":"0001-01-01T00:00:00Z","name_a2s":"Uncletopia | London | 3 | All Maps","protocol":17,"map":"koth_cascade","folder":"tf","game":"Team Fortress","app_id":440,"player_count":0,"max_players":24,"Bots":0,"server_type":"Dedicated","server_os":"Linux","password":true,"vac":true,"version":"7961495","steam_id":85568392924510192,"keywords":["cp","nocrits","nodmgspread","uncletopia"],"game_id":440,"stv_port":27036,"stv_name":"Uncletopia | London | 3 | All Maps | STV","players":null},{"server_id":321,"name":"Uncletopia | London | 4 | All Maps","name_short":"lon-4","host":"lon-1.uk.uncletopia.com","port":27045,"enabled":true,"region":"eu","cc":"gb","latitude":51.509865,"longitude":-0.118092,"reserved":0,"last_update":"0001-01-01T00:00:00Z","name_a2s":"Uncletopia | London | 4 | All Maps","protocol":17,"map":"pl_upward","folder":"tf","game":"Team Fortress","app_id":440,"player_count":0,"max_players":24,"Bots":0,"server_type":"Dedicated","server_os":"Linux","password":true,"vac":true,"version":"7961495","steam_id":85568392924510193,"keywords":["nocrits","nodmgspread","payload","uncletopia"],"game_id":440,"stv_port":27046,"stv_name":"Uncletopia | London | 4 | All Maps | STV","players":null},{"server_id":21,"name":"Uncletopia | London | 5 | All Maps","name_short":"lon-5","host":"lon-1.uk.uncletopia.com","port":27055,"enabled":true,"region":"eu","cc":"gb","latitude":51.509865,"longitude":-0.118092,"reserved":0,"last_update":"0001-01-01T00:00:00Z","name_a2s":"Uncletopia | London | 5 | All Maps","protocol":17,"map":"koth_highpass","folder":"tf","game":"Team Fortress","app_id":440,"player_count":0,"max_players":24,"Bots":0,"server_type":"Dedicated","server_os":"Linux","password":true,"vac":true,"version":"7961495","steam_id":85568392924742829,"keywords":["cp","nocrits","nodmgspread","uncletopia"],"game_id":440,"stv_port":27056,"stv_name":"Uncletopia | London | 5 | All Maps | STV","players":null},{"server_id":22,"name":"Uncletopia | London | 6 | All Maps","name_short":"lon-6","host":"lon-1.uk.uncletopia.com","port":27065,"enabled":true,"region":"eu","cc":"gb","latitude":51.509865,"longitude":-0.118092,"reserved":0,"last_update":"0001-01-01T00:00:00Z","name_a2s":"Uncletopia | London | 6 | All Maps","protocol":17,"map":"pl_frontier_final","folder":"tf","game":"Team Fortress","app_id":440,"player_count":0,"max_players":24,"Bots":0,"server_type":"Dedicated","server_os":"Linux","password":true,"vac":true,"version":"7961495","steam_id":85568392924742830,"keywords":["nocrits","nodmgspread","payload","uncletopia"],"game_id":440,"stv_port":27066,"stv_name":"Uncletopia | London | 6 | All Maps | STV","players":null},{"server_id":40,"name":"Uncletopia | London | 7 | Stopwatch","name_short":"lon-7","host":"lon-1.uk.uncletopia.com","port":27075,"enabled":true,"region":"eu","cc":"gb","latitude":51.509865,"longitude":-0.118092,"reserved":0,"last_update":"0001-01-01T00:00:00Z","name_a2s":"Uncletopia | London | 7 | Stopwatch","protocol":17,"map":"workshop/koth_ashville_final.ugc2130459942","folder":"tf","game":"Team Fortress","app_id":440,"player_count":0,"max_players":24,"Bots":0,"server_type":"Dedicated","server_os":"Linux","password":true,"vac":true,"version":"7961495","steam_id":85568392924964314,"keywords":["cp","nocrits","nodmgspread","uncletopia"],"game_id":440,"stv_port":27076,"stv_name":"Uncletopia | London | 7 | Stopwatch | STV","players":null},{"server_id":41,"name":"Uncletopia | London | 8 | Community","name_short":"lon-8","host":"lon-1.uk.uncletopia.com","port":27085,"enabled":true,"region":"eu","cc":"gb","latitude":51.509865,"longitude":-0.118092,"reserved":0,"last_update":"0001-01-01T00:00:00Z","name_a2s":"Uncletopia | London | 8 | Community","protocol":17,"map":"workshop/pl_barnblitz_pro7.ugc582280235","folder":"tf","game":"Team Fortress","app_id":440,"player_count":0,"max_players":24,"Bots":0,"server_type":"Dedicated","server_os":"Linux","password":true,"vac":true,"version":"7961495","steam_id":85568392924964315,"keywords":["nocrits","nodmgspread","payload","uncletopia"],"game_id":440,"stv_port":27086,"stv_name":"Uncletopia | London | 8 | Community | STV","players":null},{"server_id":300,"name":"Uncletopia | Montréal | 1 | One Thousand Uncles","name_short":"mtl-1","host":"mtl-1.ca.uncletopia.com","port":27015,"enabled":true,"region":"us-east","cc":"ca","latitude":45.50889,"longitude":-73.56167,"reserved":0,"last_update":"0001-01-01T00:00:00Z","name_a2s":"","protocol":0,"map":"","folder":"","game":"","app_id":0,"player_count":6,"max_players":0,"Bots":0,"server_type":"","server_os":"","password":false,"vac":false,"version":"","steam_id":0,"keywords":null,"game_id":0,"stv_port":0,"stv_name":"","players":[{"user_id":312,"name":"Benkeithewarrior","steam_id":76561198320465304,"connected_time":2962000000000,"state":"active","ping":70},{"user_id":340,"name":"1-800-GHOST-DANCE","steam_id":76561198835430429,"connected_time":926000000000,"state":"active","ping":79},{"user_id":341,"name":"e2_e8","steam_id":76561198025032556,"connected_time":736000000000,"state":"active","ping":52},{"user_id":195,"name":"Krabby","steam_id":76561198038002264,"connected_time":10176000000000,"state":"active","ping":79},{"user_id":280,"name":"Waaagh!","steam_id":76561197995317887,"connected_time":4327000000000,"state":"active","ping":31},{"user_id":201,"name":"poon","steam_id":76561198049740395,"connected_time":9962000000000,"state":"active","ping":49}]},{"server_id":301,"name":"Uncletopia | Montréal | 2 | One Thousand Uncles","name_short":"mtl-2","host":"mtl-1.ca.uncletopia.com","port":27025,"enabled":true,"region":"us-east","cc":"ca","latitude":45.50889,"longitude":-73.56167,"reserved":0,"last_update":"0001-01-01T00:00:00Z","name_a2s":"","protocol":0,"map":"","folder":"","game":"","app_id":0,"player_count":0,"max_players":0,"Bots":0,"server_type":"","server_os":"","password":false,"vac":false,"version":"","steam_id":0,"keywords":null,"game_id":0,"stv_port":0,"stv_name":"","players":null},{"server_id":302,"name":"Uncletopia | Montréal | 3 | One Thousand Uncles","name_short":"mtl-3","host":"mtl-1.ca.uncletopia.com","port":27035,"enabled":true,"region":"us-east","cc":"ca","latitude":45.50889,"longitude":-73.56167,"reserved":0,"last_update":"0001-01-01T00:00:00Z","name_a2s":"","protocol":0,"map":"","folder":"","game":"","app_id":0,"player_count":8,"max_players":0,"Bots":0,"server_type":"","server_os":"","password":false,"vac":false,"version":"","steam_id":0,"keywords":null,"game_id":0,"stv_port":0,"stv_name":"","players":[{"user_id":156,"name":"Darkmaen","steam_id":76561198060543390,"connected_time":1130000000000,"state":"active","ping":134},{"user_id":151,"name":"Why not Zoidberg?","steam_id":76561197982207556,"connected_time":2144000000000,"state":"active","ping":76},{"user_id":150,"name":"Zero-Xyfer","steam_id":76561198351621003,"connected_time":2164000000000,"state":"active","ping":76},{"user_id":161,"name":"Kuwait Grips","steam_id":76561198292689973,"connected_time":564000000000,"state":"active","ping":62},{"user_id":120,"name":"Ignatius J. Reilly","steam_id":76561198066958868,"connected_time":4666000000000,"state":"active","ping":61},{"user_id":162,"name":"con","steam_id":76561198850438326,"connected_time":51000000000,"state":"active","ping":53},{"user_id":128,"name":"Rosco","steam_id":76561199102618241,"connected_time":3652000000000,"state":"active","ping":84},{"user_id":130,"name":"Dice","steam_id":76561198281349889,"connected_time":3220000000000,"state":"active","ping":88}]},{"server_id":13,"name":"Uncletopia | New York City | 1 | All Maps","name_short":"nyc-1","host":"nyc-1.us.uncletopia.com","port":27015,"enabled":true,"region":"us-east","cc":"us","latitude":40.73061,"longitude":-73.93524,"reserved":0,"last_update":"0001-01-01T00:00:00Z","name_a2s":"Uncletopia | New York City | 1 | All Maps","protocol":17,"map":"koth_viaduct","folder":"tf","game":"Team Fortress","app_id":440,"player_count":24,"max_players":24,"Bots":0,"server_type":"Dedicated","server_os":"Linux","password":true,"vac":true,"version":"7961495","steam_id":85568392924469993,"keywords":["cp","nocrits","nodmgspread","uncletopia"],"game_id":440,"stv_port":27016,"stv_name":"Uncletopia | New York City | 1 | All Maps | STV","players":[{"user_id":394,"name":"asscastle 2","steam_id":76561198097330521,"connected_time":849000000000,"state":"active","ping":165},{"user_id":362,"name":"Drake's Son","steam_id":76561198055628298,"connected_time":2667000000000,"state":"active","ping":62},{"user_id":271,"name":"› ActionBastard","steam_id":76561197966906273,"connected_time":8315000000000,"state":"active","ping":94},{"user_id":386,"name":"Porcupine's Revenge!","steam_id":76561199121615234,"connected_time":1230000000000,"state":"active","ping":39},{"user_id":373,"name":"Yuzu","steam_id":76561198417913035,"connected_time":2022000000000,"state":"active","ping":76},{"user_id":402,"name":"warren","steam_id":76561198136331136,"connected_time":259000000000,"state":"active","ping":78},{"user_id":397,"name":"Ripping Heads","steam_id":76561198006146062,"connected_time":670000000000,"state":"active","ping":62},{"user_id":349,"name":"OKAY","steam_id":76561198091980659,"connected_time":3459000000000,"state":"active","ping":60},{"user_id":396,"name":"ndvr","steam_id":76561199379200102,"connected_time":700000000000,"state":"active","ping":53},{"user_id":388,"name":"Hellmonger","steam_id":76561198016058155,"connected_time":926000000000,"state":"active","ping":66},{"user_id":375,"name":"emotional ******* e-cigarette","steam_id":76561198172120615,"connected_time":1919000000000,"state":"active","ping":39},{"user_id":401,"name":"kefkja","steam_id":76561198283963218,"connected_time":622000000000,"state":"active","ping":54},{"user_id":385,"name":"Melaza Madera","steam_id":76561199031977210,"connected_time":1350000000000,"state":"active","ping":66},{"user_id":400,"name":"hrdurdur","steam_id":76561199204815638,"connected_time":626000000000,"state":"active","ping":81},{"user_id":391,"name":"rawr","steam_id":76561198862888881,"connected_time":900000000000,"state":"active","ping":65},{"user_id":376,"name":"Primitive","steam_id":76561198060500671,"connected_time":1894000000000,"state":"active","ping":48},{"user_id":378,"name":"Nitwimp","steam_id":76561198028709054,"connected_time":1626000000000,"state":"active","ping":97},{"user_id":381,"name":"bape man","steam_id":76561198059128837,"connected_time":1423000000000,"state":"active","ping":54},{"user_id":392,"name":"SpongedSocks","steam_id":76561198374009086,"connected_time":881000000000,"state":"active","ping":53},{"user_id":367,"name":"ʕ•ᴥ•ʔ the bear","steam_id":76561197989591976,"connected_time":2415000000000,"state":"active","ping":60},{"user_id":355,"name":"Femboy Medic Main","steam_id":76561198268225109,"connected_time":3294000000000,"state":"active","ping":78},{"user_id":345,"name":"nice tea. good house","steam_id":76561197992669506,"connected_time":3853000000000,"state":"active","ping":70},{"user_id":372,"name":"CornDog","steam_id":76561198249446918,"connected_time":2098000000000,"state":"active","ping":41},{"user_id":393,"name":"you forgot the sauce","steam_id":76561198387016713,"connected_time":871000000000,"state":"active","ping":56}]},{"server_id":14,"name":"Uncletopia | New York City | 2 | All Maps","name_short":"nyc-2","host":"nyc-1.us.uncletopia.com","port":27025,"enabled":true,"region":"us-east","cc":"us","latitude":40.73061,"longitude":-73.93524,"reserved":0,"last_update":"0001-01-01T00:00:00Z","name_a2s":"Uncletopia | New York City | 2 | All Maps","protocol":17,"map":"koth_harvest_final","folder":"tf","game":"Team Fortress","app_id":440,"player_count":24,"max_players":24,"Bots":0,"server_type":"Dedicated","server_os":"Linux","password":true,"vac":true,"version":"7961495","steam_id":85568392924469994,"keywords":["cp","nocrits","nodmgspread","uncletopia"],"game_id":440,"stv_port":27026,"stv_name":"Uncletopia | New York City | 2 | All Maps | STV","players":[{"user_id":317,"name":"Unk","steam_id":76561198031717617,"connected_time":2521000000000,"state":"active","ping":43},{"user_id":349,"name":"ExEm","steam_id":76561198832738000,"connected_time":49000000000,"state":"active","ping":66},{"user_id":305,"name":"pea ttv/peabeanz","steam_id":76561198119551968,"connected_time":2904000000000,"state":"active","ping":65},{"user_id":328,"name":"lwyr","steam_id":76561198007982579,"connected_time":1695000000000,"state":"active","ping":41},{"user_id":350,"name":"coda","steam_id":76561198092052685,"connected_time":20000000000,"state":"active","ping":46},{"user_id":249,"name":"Parkster2000","steam_id":76561198125878513,"connected_time":7906000000000,"state":"active","ping":44},{"user_id":319,"name":":)","steam_id":76561198079892116,"connected_time":2281000000000,"state":"active","ping":53},{"user_id":343,"name":"Mercy!Avatar","steam_id":76561199113870006,"connected_time":388000000000,"state":"active","ping":44},{"user_id":248,"name":"Whyamidoingthisaaaa","steam_id":76561199168837342,"connected_time":7931000000000,"state":"active","ping":52},{"user_id":334,"name":"Guitar Queero","steam_id":76561198880568662,"connected_time":1362000000000,"state":"active","ping":71},{"user_id":337,"name":"markov","steam_id":76561198396574209,"connected_time":1029000000000,"state":"active","ping":47},{"user_id":345,"name":"Satan's Salad","steam_id":76561198043965827,"connected_time":232000000000,"state":"active","ping":72},{"user_id":310,"name":"Bee_Pirate","steam_id":76561199000599111,"connected_time":2872000000000,"state":"active","ping":61},{"user_id":331,"name":"Chalk","steam_id":76561198093790644,"connected_time":1505000000000,"state":"active","ping":86},{"user_id":344,"name":"menonamed","steam_id":76561198199564382,"connected_time":364000000000,"state":"active","ping":55},{"user_id":294,"name":"Dieu-Sama","steam_id":76561198002075862,"connected_time":4167000000000,"state":"active","ping":79},{"user_id":332,"name":"Kafka Stan","steam_id":76561198127039453,"connected_time":1504000000000,"state":"active","ping":102},{"user_id":338,"name":"NevaHappy1013","steam_id":76561198822525339,"connected_time":937000000000,"state":"active","ping":63},{"user_id":298,"name":"The Guy","steam_id":76561198799183693,"connected_time":3836000000000,"state":"active","ping":78},{"user_id":314,"name":"reymundo","steam_id":76561197989412830,"connected_time":2690000000000,"state":"active","ping":121},{"user_id":320,"name":"DJ Pierce","steam_id":76561198394241466,"connected_time":2280000000000,"state":"active","ping":62},{"user_id":339,"name":"Chhaam","steam_id":76561198058508132,"connected_time":858000000000,"state":"active","ping":44},{"user_id":316,"name":"Cat","steam_id":76561198328159094,"connected_time":2665000000000,"state":"active","ping":74},{"user_id":341,"name":"Tomata","steam_id":76561198970036461,"connected_time":693000000000,"state":"active","ping":68}]},{"server_id":15,"name":"Uncletopia | New York City | 3 | Stopwatch","name_short":"nyc-3","host":"nyc-1.us.uncletopia.com","port":27035,"enabled":true,"region":"us-east","cc":"us","latitude":40.73061,"longitude":-73.93524,"reserved":0,"last_update":"0001-01-01T00:00:00Z","name_a2s":"Uncletopia | New York City | 3 | Stopwatch","protocol":17,"map":"workshop/koth_ashville_final.ugc2130459942","folder":"tf","game":"Team Fortress","app_id":440,"player_count":0,"max_players":24,"Bots":0,"server_type":"Dedicated","server_os":"Linux","password":true,"vac":true,"version":"7961495","steam_id":85568392924742820,"keywords":["cp","nocrits","nodmgspread","uncletopia"],"game_id":440,"stv_port":27036,"stv_name":"Uncletopia | New York City | 3 | Stopwatch | STV","players":null},{"server_id":16,"name":"Uncletopia | New York City | 4 | Community","name_short":"nyc-4","host":"nyc-1.us.uncletopia.com","port":27045,"enabled":true,"region":"us-east","cc":"us","latitude":40.73061,"longitude":-73.93524,"reserved":0,"last_update":"0001-01-01T00:00:00Z","name_a2s":"Uncletopia | New York City | 4 | Community","protocol":17,"map":"workshop/koth_slaughter_rc1.ugc1712845210","folder":"tf","game":"Team Fortress","app_id":440,"player_count":0,"max_players":24,"Bots":0,"server_type":"Dedicated","server_os":"Linux","password":true,"vac":true,"version":"7961495","steam_id":85568392924742821,"keywords":["cp","nocrits","nodmgspread","uncletopia"],"game_id":440,"stv_port":27046,"stv_name":"Uncletopia | New York City | 4 | Community | STV","players":null},{"server_id":142,"name":"Uncletopia | São Paulo | 1 | All Maps","name_short":"sao-1","host":"sao-1.br.uncletopia.com","port":27015,"enabled":true,"region":"sa","cc":"br","latitude":-23.533773,"longitude":-46.62529,"reserved":0,"last_update":"0001-01-01T00:00:00Z","name_a2s":"Uncletopia | São Paulo | 1 | All Maps","protocol":17,"map":"koth_cascade","folder":"tf","game":"Team Fortress","app_id":440,"player_count":0,"max_players":24,"Bots":0,"server_type":"Dedicated","server_os":"Linux","password":true,"vac":true,"version":"7961495","steam_id":85568392924469996,"keywords":["cp","nocrits","nodmgspread","uncletopia"],"game_id":440,"stv_port":27016,"stv_name":"Uncletopia | São Paulo | 1 | All Maps | STV","players":null},{"server_id":143,"name":"Uncletopia | São Paulo | 2 | Community","name_short":"sao-2","host":"sao-2.br.uncletopia.com","port":27015,"enabled":true,"region":"sa","cc":"br","latitude":-23.533773,"longitude":-46.62529,"reserved":0,"last_update":"0001-01-01T00:00:00Z","name_a2s":"Uncletopia | São Paulo | 2 | Community","protocol":17,"map":"pl_badwater","folder":"tf","game":"Team Fortress","app_id":440,"player_count":0,"max_players":24,"Bots":0,"server_type":"Dedicated","server_os":"Linux","password":true,"vac":true,"version":"7961495","steam_id":85568392924485349,"keywords":["nocrits","nodmgspread","payload","uncletopia"],"game_id":440,"stv_port":27016,"stv_name":"Uncletopia | São Paulo | 2 | Community | STV","players":null},{"server_id":7,"name":"Uncletopia | Seattle | 1 | All Maps","name_short":"sea-1","host":"sea-1.us.uncletopia.com","port":27015,"enabled":true,"region":"us-west","cc":"us","latitude":47.608013,"longitude":-122.33517,"reserved":0,"last_update":"0001-01-01T00:00:00Z","name_a2s":"Uncletopia | Seattle | 1 | All Maps","protocol":17,"map":"pl_frontier_final","folder":"tf","game":"Team Fortress","app_id":440,"player_count":24,"max_players":24,"Bots":0,"server_type":"Dedicated","server_os":"Linux","password":true,"vac":true,"version":"7961495","steam_id":85568392924469997,"keywords":["nocrits","nodmgspread","payload","uncletopia"],"game_id":440,"stv_port":27016,"stv_name":"Uncletopia | Seattle | 1 | All Maps | STV","players":[{"user_id":676,"name":"KandyKane_404","steam_id":76561198844209170,"connected_time":3139000000000,"state":"active","ping":60},{"user_id":703,"name":"poundcake","steam_id":76561198796548083,"connected_time":562000000000,"state":"active","ping":51},{"user_id":689,"name":"WaffleWithNoToppings","steam_id":76561199088280111,"connected_time":1807000000000,"state":"active","ping":46},{"user_id":690,"name":"fey","steam_id":76561198119191002,"connected_time":1658000000000,"state":"active","ping":86},{"user_id":695,"name":"MrYadaization","steam_id":76561198050770818,"connected_time":854000000000,"state":"active","ping":55},{"user_id":677,"name":"summerlis","steam_id":76561198165324438,"connected_time":3071000000000,"state":"active","ping":66},{"user_id":673,"name":"DaddyGalaxy","steam_id":76561198139697796,"connected_time":3397000000000,"state":"active","ping":58},{"user_id":687,"name":"Noire","steam_id":76561198149370109,"connected_time":1820000000000,"state":"active","ping":82},{"user_id":688,"name":"Revolver Ocelot","steam_id":76561198194248527,"connected_time":1819000000000,"state":"active","ping":48},{"user_id":691,"name":"Copy","steam_id":76561198025031590,"connected_time":968000000000,"state":"active","ping":50},{"user_id":707,"name":"Dimple","steam_id":76561198980324190,"connected_time":255000000000,"state":"active","ping":58},{"user_id":672,"name":"❤ Ashley ❤","steam_id":76561198056428303,"connected_time":3567000000000,"state":"active","ping":79},{"user_id":669,"name":"rat gets the cheese","steam_id":76561198031234032,"connected_time":3738000000000,"state":"active","ping":93},{"user_id":692,"name":"self sufficient kitten","steam_id":76561197960592612,"connected_time":928000000000,"state":"active","ping":45},{"user_id":693,"name":"CashGordon","steam_id":76561197975594096,"connected_time":858000000000,"state":"active","ping":37},{"user_id":686,"name":"vulcan nightclub pon farr night","steam_id":76561197974283797,"connected_time":1841000000000,"state":"active","ping":96},{"user_id":694,"name":"tonic_tundra","steam_id":76561198081287723,"connected_time":856000000000,"state":"active","ping":64},{"user_id":696,"name":"fried water","steam_id":76561198360311110,"connected_time":854000000000,"state":"active","ping":50},{"user_id":706,"name":"CHIEF_JUSTICE_FUCKASS","steam_id":76561199261675844,"connected_time":314000000000,"state":"active","ping":46},{"user_id":685,"name":"chunkysquare","steam_id":76561199076468383,"connected_time":1853000000000,"state":"active","ping":68},{"user_id":705,"name":"Honorificabilitudinitatibus","steam_id":76561198008301397,"connected_time":506000000000,"state":"active","ping":106},{"user_id":681,"name":"Akira (they/them)","steam_id":76561198294601519,"connected_time":2322000000000,"state":"active","ping":39},{"user_id":699,"name":"DubiousDodo","steam_id":76561198828172686,"connected_time":852000000000,"state":"active","ping":76},{"user_id":648,"name":"smeasly","steam_id":76561198028718812,"connected_time":4953000000000,"state":"active","ping":44}]},{"server_id":119,"name":"Uncletopia | Seattle | 2 | All Maps","name_short":"sea-2","host":"sea-1.us.uncletopia.com","port":27025,"enabled":true,"region":"us-west","cc":"us","latitude":47.608013,"longitude":-122.33517,"reserved":0,"last_update":"0001-01-01T00:00:00Z","name_a2s":"Uncletopia | Seattle | 2 | All Maps","protocol":17,"map":"pl_thundermountain","folder":"tf","game":"Team Fortress","app_id":440,"player_count":9,"max_players":24,"Bots":0,"server_type":"Dedicated","server_os":"Linux","password":true,"vac":true,"version":"7961495","steam_id":85568392924469998,"keywords":["nocrits","nodmgspread","payload","uncletopia"],"game_id":440,"stv_port":27026,"stv_name":"Uncletopia | Seattle | 2 | All Maps | STV","players":[{"user_id":223,"name":"submarinetransmissionplot","steam_id":76561198419896433,"connected_time":997000000000,"state":"active","ping":44},{"user_id":224,"name":"WillieMakit","steam_id":76561197985391684,"connected_time":808000000000,"state":"active","ping":77},{"user_id":225,"name":"Fishmonger","steam_id":76561198372237027,"connected_time":764000000000,"state":"active","ping":35},{"user_id":226,"name":"5198002","steam_id":76561198212993755,"connected_time":657000000000,"state":"active","ping":60},{"user_id":227,"name":"Rude Dog","steam_id":76561197980385816,"connected_time":338000000000,"state":"active","ping":37},{"user_id":228,"name":"Trevor","steam_id":76561198111876561,"connected_time":255000000000,"state":"active","ping":82},{"user_id":229,"name":"Gahuppy","steam_id":76561198072129855,"connected_time":188000000000,"state":"active","ping":47},{"user_id":230,"name":"Saibot","steam_id":76561199076423956,"connected_time":134000000000,"state":"active","ping":104},{"user_id":231,"name":"liangjohnson61","steam_id":76561199132297474,"connected_time":4000000000,"state":"spawning","ping":66}]},{"server_id":406,"name":"Uncletopia | Seattle | 3 | Stopwatch","name_short":"sea-3","host":"sea-1.us.uncletopia.com","port":27035,"enabled":true,"region":"us-west","cc":"us","latitude":47.608013,"longitude":-122.33517,"reserved":0,"last_update":"0001-01-01T00:00:00Z","name_a2s":"Uncletopia | Seattle | 3 | Stopwatch","protocol":17,"map":"workshop/koth_clearcut_b15.ugc2107050255","folder":"tf","game":"Team Fortress","app_id":440,"player_count":0,"max_players":24,"Bots":0,"server_type":"Dedicated","server_os":"Linux","password":true,"vac":true,"version":"7961495","steam_id":85568392924515217,"keywords":["cp","nocrits","nodmgspread","uncletopia"],"game_id":440,"stv_port":27036,"stv_name":"Uncletopia | Seattle | 3 | Stopwatch | STV","players":null},{"server_id":17,"name":"Uncletopia | San Francisco | 1 | All Maps","name_short":"sfo-1","host":"sfo-1.us.uncletopia.com","port":27015,"enabled":true,"region":"us-west","cc":"us","latitude":37.77397,"longitude":-122.4313,"reserved":0,"last_update":"0001-01-01T00:00:00Z","name_a2s":"Uncletopia | San Francisco | 1 | All Maps","protocol":17,"map":"koth_cascade","folder":"tf","game":"Team Fortress","app_id":440,"player_count":0,"max_players":24,"Bots":0,"server_type":"Dedicated","server_os":"Linux","password":true,"vac":true,"version":"7961495","steam_id":85568392924469999,"keywords":["cp","nocrits","nodmgspread","uncletopia"],"game_id":440,"stv_port":27016,"stv_name":"Uncletopia | San Francisco | 1 | All Maps | STV","players":null},{"server_id":18,"name":"Uncletopia | San Francisco | 2 | All Maps","name_short":"sfo-2","host":"sfo-1.us.uncletopia.com","port":27025,"enabled":true,"region":"us-west","cc":"us","latitude":37.77397,"longitude":-122.4313,"reserved":0,"last_update":"0001-01-01T00:00:00Z","name_a2s":"Uncletopia | San Francisco | 2 | All Maps","protocol":17,"map":"koth_cascade","folder":"tf","game":"Team Fortress","app_id":440,"player_count":0,"max_players":24,"Bots":0,"server_type":"Dedicated","server_os":"Linux","password":true,"vac":true,"version":"7961495","steam_id":85568392924470000,"keywords":["cp","nocrits","nodmgspread","uncletopia"],"game_id":440,"stv_port":27026,"stv_name":"Uncletopia | San Francisco | 2 | All Maps | STV","players":null},{"server_id":19,"name":"Uncletopia | San Francisco | 3 | Stopwatch","name_short":"sfo-3","host":"sfo-1.us.uncletopia.com","port":27035,"enabled":true,"region":"us-west","cc":"us","latitude":37.77397,"longitude":-122.4313,"reserved":0,"last_update":"0001-01-01T00:00:00Z","name_a2s":"Uncletopia | San Francisco | 3 | Stopwatch","protocol":17,"map":"pl_upward","folder":"tf","game":"Team Fortress","app_id":440,"player_count":7,"max_players":24,"Bots":0,"server_type":"Dedicated","server_os":"Linux","password":true,"vac":true,"version":"7961495","steam_id":85568392924742824,"keywords":["nocrits","nodmgspread","payload","uncletopia"],"game_id":440,"stv_port":27036,"stv_name":"Uncletopia | San Francisco | 3 | Stopwatch | STV","players":[{"user_id":11,"name":"ChickenFriar","steam_id":76561199119888114,"connected_time":5855000000000,"state":"active","ping":114},{"user_id":20,"name":"Mud","steam_id":76561198356426602,"connected_time":2790000000000,"state":"active","ping":44},{"user_id":15,"name":"Mom","steam_id":76561198207936000,"connected_time":4029000000000,"state":"active","ping":43},{"user_id":26,"name":"FireQuiz","steam_id":76561198107357249,"connected_time":180000000000,"state":"active","ping":55},{"user_id":22,"name":"[girlkisser esports] transfiend","steam_id":76561198407600762,"connected_time":1228000000000,"state":"active","ping":66},{"user_id":18,"name":"mafia is mafia","steam_id":76561198042574722,"connected_time":3477000000000,"state":"active","ping":69},{"user_id":23,"name":"[boykisser esports] cursed 7/11","steam_id":76561198282017726,"connected_time":1165000000000,"state":"active","ping":60}]},{"server_id":20,"name":"Uncletopia | San Francisco | 4 | Community","name_short":"sfo-4","host":"sfo-1.us.uncletopia.com","port":27045,"enabled":true,"region":"us-west","cc":"us","latitude":37.77397,"longitude":-122.4313,"reserved":0,"last_update":"0001-01-01T00:00:00Z","name_a2s":"Uncletopia | San Francisco | 4 | Community","protocol":17,"map":"workshop/cp_bruhstbowl_b6.ugc2878604990","folder":"tf","game":"Team Fortress","app_id":440,"player_count":0,"max_players":24,"Bots":0,"server_type":"Dedicated","server_os":"Linux","password":true,"vac":true,"version":"7961495","steam_id":85568392924742826,"keywords":["cp","nocrits","nodmgspread","uncletopia"],"game_id":440,"stv_port":27046,"stv_name":"Uncletopia | San Francisco | 4 | Community | STV","players":null},{"server_id":141,"name":"Uncletopia | Sydney | 1 | All Maps","name_short":"syd-1","host":"syd-1.au.uncletopia.com","port":27015,"enabled":true,"region":"au","cc":"au","latitude":-33.865143,"longitude":151.2099,"reserved":0,"last_update":"0001-01-01T00:00:00Z","name_a2s":"Uncletopia | Sydney | 1 | All Maps","protocol":17,"map":"pl_swiftwater_final1","folder":"tf","game":"Team Fortress","app_id":440,"player_count":0,"max_players":24,"Bots":0,"server_type":"Dedicated","server_os":"Linux","password":true,"vac":true,"version":"7961495","steam_id":85568392924470001,"keywords":["nocrits","nodmgspread","payload","uncletopia"],"game_id":440,"stv_port":27016,"stv_name":"Uncletopia | Sydney | 1 | All Maps | STV","players":null},{"server_id":123,"name":"Uncletopia | Sydney | 2 | All Maps","name_short":"syd-2","host":"syd-1.au.uncletopia.com","port":27025,"enabled":true,"region":"au","cc":"au","latitude":-33.865143,"longitude":151.2099,"reserved":0,"last_update":"0001-01-01T00:00:00Z","name_a2s":"Uncletopia | Sydney | 2 | All Maps","protocol":17,"map":"koth_lakeside_final","folder":"tf","game":"Team Fortress","app_id":440,"player_count":0,"max_players":24,"Bots":0,"server_type":"Dedicated","server_os":"Linux","password":true,"vac":true,"version":"7961495","steam_id":85568392924470002,"keywords":["cp","nocrits","nodmgspread","uncletopia"],"game_id":440,"stv_port":27026,"stv_name":"Uncletopia | Sydney | 2 | All Maps | STV","players":null},{"server_id":395,"name":"Uncletopia | Sydney | 3 | All Maps","name_short":"syd-3","host":"syd-1.au.uncletopia.com","port":27035,"enabled":true,"region":"au","cc":"au","latitude":-33.865143,"longitude":151.2099,"reserved":0,"last_update":"0001-01-01T00:00:00Z","name_a2s":"Uncletopia | Sydney | 3 | All Maps","protocol":17,"map":"pl_frontier_final","folder":"tf","game":"Team Fortress","app_id":440,"player_count":0,"max_players":24,"Bots":0,"server_type":"Dedicated","server_os":"Linux","password":true,"vac":true,"version":"7961495","steam_id":85568392925194467,"keywords":["nocrits","nodmgspread","payload","uncletopia"],"game_id":440,"stv_port":27036,"stv_name":"Uncletopia | Sydney | 3 | All Maps | STV","players":null},{"server_id":396,"name":"Uncletopia | Sydney | 4 | All Maps","name_short":"syd-4","host":"syd-1.au.uncletopia.com","port":27045,"enabled":true,"region":"au","cc":"au","latitude":-33.865143,"longitude":151.2099,"reserved":0,"last_update":"0001-01-01T00:00:00Z","name_a2s":"Uncletopia | Sydney | 4 | All Maps","protocol":17,"map":"koth_cascade","folder":"tf","game":"Team Fortress","app_id":440,"player_count":0,"max_players":24,"Bots":0,"server_type":"Dedicated","server_os":"Linux","password":true,"vac":true,"version":"7961495","steam_id":85568392925397958,"keywords":["cp","nocrits","nodmgspread","uncletopia"],"game_id":440,"stv_port":27046,"stv_name":"Uncletopia | Sydney | 4 | All Maps | STV","players":null},{"server_id":58,"name":"Uncletopia | Sydney | 5 | Stopwatch","name_short":"syd-5","host":"syd-1.au.uncletopia.com","port":27055,"enabled":true,"region":"au","cc":"au","latitude":-33.865143,"longitude":151.2099,"reserved":0,"last_update":"0001-01-01T00:00:00Z","name_a2s":"Uncletopia | Sydney | 5 | Stopwatch","protocol":17,"map":"pl_frontier_final","folder":"tf","game":"Team Fortress","app_id":440,"player_count":0,"max_players":24,"Bots":0,"server_type":"Dedicated","server_os":"Linux","password":true,"vac":true,"version":"7961495","steam_id":85568392925397959,"keywords":["nocrits","nodmgspread","payload","uncletopia"],"game_id":440,"stv_port":27056,"stv_name":"Uncletopia | Sydney | 5 | Stopwatch | STV","players":null},{"server_id":59,"name":"Uncletopia | Sydney | 6 | Community","name_short":"syd-6","host":"syd-1.au.uncletopia.com","port":27065,"enabled":true,"region":"au","cc":"au","latitude":-33.865143,"longitude":151.2099,"reserved":0,"last_update":"0001-01-01T00:00:00Z","name_a2s":"Uncletopia | Sydney | 6 | Community","protocol":17,"map":"cp_sunshine","folder":"tf","game":"Team Fortress","app_id":440,"player_count":0,"max_players":24,"Bots":0,"server_type":"Dedicated","server_os":"Linux","password":true,"vac":true,"version":"7961495","steam_id":85568392925397960,"keywords":["cp","nocrits","nodmgspread","uncletopia"],"game_id":440,"stv_port":27066,"stv_name":"Uncletopia | Sydney | 6 | Community | STV","players":null},{"server_id":49,"name":"Uncletopia | Warsaw | 1 | One Thousand Uncles","name_short":"waw-1","host":"waw-1.pl.uncletopia.com","port":27015,"enabled":true,"region":"eu","cc":"pl","latitude":52.2297,"longitude":21.017532,"reserved":0,"last_update":"0001-01-01T00:00:00Z","name_a2s":"Uncletopia | Warsaw | 1 | One Thousand Uncles","protocol":17,"map":"cp_dustbowl","folder":"tf","game":"Team Fortress","app_id":440,"player_count":0,"max_players":32,"Bots":0,"server_type":"Dedicated","server_os":"Linux","password":true,"vac":true,"version":"7961495","steam_id":85568392925397850,"keywords":["alltalk","cp","danepve","increased_maxplayers","nocrits","norespawntime","uncletopia"],"game_id":440,"stv_port":0,"stv_name":"","players":null},{"server_id":50,"name":"Uncletopia | Warsaw | 2 | One Thousand Uncles","name_short":"waw-2","host":"waw-1.pl.uncletopia.com","port":27025,"enabled":true,"region":"eu","cc":"pl","latitude":52.2297,"longitude":21.017532,"reserved":0,"last_update":"0001-01-01T00:00:00Z","name_a2s":"Uncletopia | Warsaw | 2 | One Thousand Uncles","protocol":17,"map":"cp_dustbowl","folder":"tf","game":"Team Fortress","app_id":440,"player_count":0,"max_players":32,"Bots":0,"server_type":"Dedicated","server_os":"Linux","password":true,"vac":true,"version":"7961495","steam_id":85568392925397851,"keywords":["alltalk","cp","danepve","increased_maxplayers","nocrits","norespawntime","uncletopia"],"game_id":440,"stv_port":0,"stv_name":"","players":null},{"server_id":51,"name":"Uncletopia | Warsaw | 3 | All Maps","name_short":"waw-3","host":"waw-1.pl.uncletopia.com","port":27035,"enabled":true,"region":"eu","cc":"pl","latitude":52.2297,"longitude":21.017532,"reserved":0,"last_update":"0001-01-01T00:00:00Z","name_a2s":"Uncletopia | Warsaw | 3 | All Maps","protocol":17,"map":"cp_sunshine","folder":"tf","game":"Team Fortress","app_id":440,"player_count":0,"max_players":24,"Bots":0,"server_type":"Dedicated","server_os":"Linux","password":true,"vac":true,"version":"7961495","steam_id":85568392925397852,"keywords":["cp","nocrits","nodmgspread","uncletopia"],"game_id":440,"stv_port":27036,"stv_name":"Uncletopia | Warsaw | 3 | All Maps | STV","players":null},{"server_id":52,"name":"Uncletopia | Warsaw | 4 | All Maps","name_short":"waw-4","host":"waw-1.pl.uncletopia.com","port":27045,"enabled":true,"region":"eu","cc":"pl","latitude":52.2297,"longitude":21.017532,"reserved":0,"last_update":"0001-01-01T00:00:00Z","name_a2s":"Uncletopia | Warsaw | 4 | All Maps","protocol":17,"map":"pl_barnblitz","folder":"tf","game":"Team Fortress","app_id":440,"player_count":0,"max_players":24,"Bots":0,"server_type":"Dedicated","server_os":"Linux","password":true,"vac":true,"version":"7961495","steam_id":85568392925397853,"keywords":["nocrits","nodmgspread","payload","uncletopia"],"game_id":440,"stv_port":27046,"stv_name":"Uncletopia | Warsaw | 4 | All Maps | STV","players":null},{"server_id":53,"name":"Uncletopia | Warsaw | 5 | Stopwatch","name_short":"waw-5","host":"waw-1.pl.uncletopia.com","port":27055,"enabled":true,"region":"eu","cc":"pl","latitude":52.2297,"longitude":21.017532,"reserved":0,"last_update":"0001-01-01T00:00:00Z","name_a2s":"Uncletopia | Warsaw | 5 | Stopwatch","protocol":17,"map":"workshop/pl_barnblitz_pro7.ugc582280235","folder":"tf","game":"Team Fortress","app_id":440,"player_count":0,"max_players":24,"Bots":0,"server_type":"Dedicated","server_os":"Linux","password":true,"vac":true,"version":"7961495","steam_id":85568392925397854,"keywords":["nocrits","nodmgspread","payload","uncletopia"],"game_id":440,"stv_port":27056,"stv_name":"Uncletopia | Warsaw | 5 | Stopwatch | STV","players":null},{"server_id":54,"name":"Uncletopia | Warsaw | 6 | Community","name_short":"waw-6","host":"waw-1.pl.uncletopia.com","port":27065,"enabled":true,"region":"eu","cc":"pl","latitude":52.2297,"longitude":21.017532,"reserved":0,"last_update":"0001-01-01T00:00:00Z","name_a2s":"Uncletopia | Warsaw | 6 | Community","protocol":17,"map":"workshop/cp_coilblaze_rc7.ugc1272700588","folder":"tf","game":"Team Fortress","app_id":440,"player_count":0,"max_players":24,"Bots":0,"server_type":"Dedicated","server_os":"Linux","password":true,"vac":true,"version":"7961495","steam_id":85568392925397856,"keywords":["cp","nocrits","nodmgspread","uncletopia"],"game_id":440,"stv_port":27066,"stv_name":"Uncletopia | Warsaw | 6 | Community | STV","players":null}]}