{"status":true,"message":"","result":[{"server_id":9,"name":"Uncletopia | Atlanta | 1 | All Maps","name_short":"atl-1","host":"atl-1.us.uncletopia.com","port":27015,"enabled":true,"region":"us-east","cc":"us","latitude":33.753746,"longitude":-84.38633,"reserved":0,"last_update":"0001-01-01T00:00:00Z","name_a2s":"Uncletopia | Atlanta | 1 | All Maps","protocol":17,"map":"pl_upward","folder":"tf","game":"Team Fortress","app_id":440,"player_count":24,"max_players":24,"Bots":0,"server_type":"Dedicated","server_os":"Linux","password":true,"vac":true,"version":"7757534","steam_id":85568392924469982,"keywords":["nocrits","nodmgspread","payload","uncletopia"],"game_id":440,"stv_port":27016,"stv_name":"Uncletopia | Atlanta | 1 | All Maps | STV","players":[{"user_id":568,"name":"khalil","steam_id":76561199008085020,"connected_time":1098000000000,"state":"active","ping":54},{"user_id":582,"name":"Spoofle","steam_id":76561199003655066,"connected_time":353000000000,"state":"active","ping":103},{"user_id":580,"name":"Elephant Seal","steam_id":76561198065364829,"connected_time":368000000000,"state":"active","ping":74},{"user_id":574,"name":"ryan_philips1240005@yahoo.com","steam_id":76561198072143131,"connected_time":892000000000,"state":"active","ping":129},{"user_id":552,"name":"perfect inCell","steam_id":76561198059182316,"connected_time":2519000000000,"state":"active","ping":57},{"user_id":524,"name":"Big Narrlocke","steam_id":76561198040588362,"connected_time":4235000000000,"state":"active","ping":89},{"user_id":546,"name":"FemboyNate","steam_id":76561198146636410,"connected_time":3076000000000,"state":"active","ping":65},{"user_id":581,"name":"The Professor","steam_id":76561198113760863,"connected_time":367000000000,"state":"active","ping":59},{"user_id":583,"name":"Houndoo","steam_id":76561198079003902,"connected_time":351000000000,"state":"active","ping":64},{"user_id":554,"name":"[OC2TM] CF-TF2","steam_id":76561198145893044,"connected_time":2183000000000,"state":"active","ping":87},{"user_id":442,"name":"years","steam_id":76561197994098627,"connected_time":12075000000000,"state":"active","ping":114},{"user_id":519,"name":"Ojen","steam_id":76561197998414482,"connected_time":4940000000000,"state":"active","ping":90},{"user_id":569,"name":"mariobluegloves.info","steam_id":76561197990149603,"connected_time":1088000000000,"state":"active","ping":98},{"user_id":578,"name":"Xbox_Pro_2016","steam_id":76561198176126519,"connected_time":476000000000,"state":"active","ping":72},{"user_id":587,"name":"Pardue The Holy Man","steam_id":76561198045231965,"connected_time":90000000000,"state":"active","ping":88},{"user_id":564,"name":"april","steam_id":76561198388123421,"connected_time":1677000000000,"state":"active","ping":90},{"user_id":491,"name":"obliviated Gamer ||-iwnl-||","steam_id":76561198044006334,"connected_time":6507000000000,"state":"active","ping":108},{"user_id":553,"name":"rizzard of oz","steam_id":76561198040907214,"connected_time":2292000000000,"state":"active","ping":60},{"user_id":541,"name":"HeavenHearst","steam_id":76561198066083947,"connected_time":3207000000000,"state":"active","ping":64},{"user_id":576,"name":"A lost cow.","steam_id":76561198047673765,"connected_time":833000000000,"state":"active","ping":65},{"user_id":492,"name":"OddSlaush","steam_id":76561198043898488,"connected_time":6504000000000,"state":"active","ping":89},{"user_id":588,"name":"CoryBaxterWH","steam_id":76561198060041823,"connected_time":41000000000,"state":"spawning","ping":67},{"user_id":534,"name":"sylvia","steam_id":76561198217119457,"connected_time":3775000000000,"state":"active","ping":68},{"user_id":585,"name":"waffen's kid","steam_id":76561197972661434,"connected_time":315000000000,"state":"active","ping":84}]},{"server_id":400,"name":"Uncletopia | Atlanta | 3 | Community","name_short":"atl-3","host":"atl-1.us.uncletopia.com","port":27035,"enabled":true,"region":"us-east","cc":"us","latitude":33.753746,"longitude":-84.38633,"reserved":0,"last_update":"0001-01-01T00:00:00Z","name_a2s":"Uncletopia | Atlanta | 3 | Community","protocol":17,"map":"workshop/cp_propaganda_b18.ugc1603743849","folder":"tf","game":"Team Fortress","app_id":440,"player_count":0,"max_players":24,"Bots":0,"server_type":"Dedicated","server_os":"Linux","password":true,"vac":true,"version":"7757534","steam_id":85568392924515187,"keywords":["cp","nocrits","nodmgspread","uncletopia"],"game_id":440,"stv_port":27036,"stv_name":"Uncletopia | Atlanta | 3 | Community | STV","players":null},{"server_id":401,"name":"Uncletopia | Atlanta | 4 | No Payload","name_short":"atl-4","host":"atl-1.us.uncletopia.com","port":27045,"enabled":true,"region":"us-east","cc":"us","latitude":33.753746,"longitude":-84.38633,"reserved":0,"last_update":"0001-01-01T00:00:00Z","name_a2s":"","protocol":0,"map":"","folder":"","game":"","app_id":0,"player_count":0,"max_players":0,"Bots":0,"server_type":"","server_os":"","password":false,"vac":false,"version":"","steam_id":0,"keywords":null,"game_id":0,"stv_port":0,"stv_name":"","players":null},{"server_id":2,"name":"Uncletopia | Chicago | 1 | All Maps","name_short":"chi-1","host":"chi-1.us.uncletopia.com","port":27015,"enabled":true,"region":"us-central","cc":"us","latitude":41.881832,"longitude":-87.62318,"reserved":0,"last_update":"0001-01-01T00:00:00Z","name_a2s":"Uncletopia | Chicago | 1 | All Maps","protocol":17,"map":"pl_upward","folder":"tf","game":"Team Fortress","app_id":440,"player_count":23,"max_players":24,"Bots":0,"server_type":"Dedicated","server_os":"Linux","password":true,"vac":true,"version":"7757534","steam_id":85568392924469984,"keywords":["nocrits","nodmgspread","payload","uncletopia"],"game_id":440,"stv_port":27016,"stv_name":"Uncletopia | Chicago | 1 | All Maps | STV","players":[{"user_id":994,"name":"DavisE","steam_id":76561198075504309,"connected_time":275000000000,"state":"active","ping":98},{"user_id":986,"name":"Jetteyes","steam_id":76561198366782769,"connected_time":1723000000000,"state":"active","ping":77},{"user_id":996,"name":"Û†Ä°Û†Ä°","steam_id":76561198202704364,"connected_time":210000000000,"state":"active","ping":101},{"user_id":997,"name":"Got Oil?","steam_id":76561199238964574,"connected_time":133000000000,"state":"active","ping":62},{"user_id":965,"name":"king of bogers","steam_id":76561198045731295,"connected_time":2551000000000,"state":"active","ping":76},{"user_id":998,"name":"Zippy","steam_id":76561198279229422,"connected_time":13000000000,"state":"spawning","ping":41},{"user_id":954,"name":"Dzhoshua","steam_id":76561198071915251,"connected_time":3942000000000,"state":"active","ping":66},{"user_id":964,"name":"Your cars Extended Warranty","steam_id":76561197993458793,"connected_time":2900000000000,"state":"active","ping":119},{"user_id":989,"name":"Enchanced","steam_id":76561198797393854,"connected_time":905000000000,"state":"active","ping":120},{"user_id":987,"name":"Mothership","steam_id":76561198044029501,"connected_time":1603000000000,"state":"active","ping":146},{"user_id":913,"name":"Haze","steam_id":76561198032486799,"connected_time":7649000000000,"state":"active","ping":107},{"user_id":971,"name":"germba","steam_id":76561198421591995,"connected_time":2459000000000,"state":"active","ping":74},{"user_id":988,"name":"ComedianGoat","steam_id":76561199006805659,"connected_time":1048000000000,"state":"active","ping":86},{"user_id":972,"name":"Deryn Sharp","steam_id":76561198047017346,"connected_time":2439000000000,"state":"active","ping":133},{"user_id":980,"name":"kramer","steam_id":76561198117761965,"connected_time":1986000000000,"state":"active","ping":69},{"user_id":993,"name":"Cam(era)","steam_id":76561198285054047,"connected_time":364000000000,"state":"active","ping":81},{"user_id":990,"name":"‚úø PoutyBun ‚úø","steam_id":76561197965762847,"connected_time":903000000000,"state":"active","ping":83},{"user_id":983,"name":"flora","steam_id":76561197994492154,"connected_time":1768000000000,"state":"active","ping":165},{"user_id":992,"name":"segway cop","steam_id":76561198225609936,"connected_time":868000000000,"state":"active","ping":57},{"user_id":974,"name":"Female Gamer","steam_id":76561199366482682,"connected_time":2427000000000,"state":"active","ping":101},{"user_id":981,"name":"Sydney","steam_id":76561198797603297,"connected_time":1963000000000,"state":"active","ping":60},{"user_id":977,"name":"Slugma","steam_id":76561198048544669,"connected_time":2208000000000,"state":"active","ping":154},{"user_id":934,"name":"Anna","steam_id":76561197999657118,"connected_time":6133000000000,"state":"active","ping":80}]},{"server_id":106,"name":"Uncletopia | Chicago | 2 | All Maps","name_short":"chi-2","host":"chi-1.us.uncletopia.com","port":27025,"enabled":true,"region":"us-central","cc":"us","latitude":41.881832,"longitude":-87.62318,"reserved":0,"last_update":"0001-01-01T00:00:00Z","name_a2s":"Uncletopia | Chicago | 2 | All Maps","protocol":17,"map":"pl_upward","folder":"tf","game":"Team Fortress","app_id":440,"player_count":23,"max_players":24,"Bots":0,"server_type":"Dedicated","server_os":"Linux","password":true,"vac":true,"version":"7757534","steam_id":85568392924469985,"keywords":["nocrits","nodmgspread","payload","uncletopia"],"game_id":440,"stv_port":27026,"stv_name":"Uncletopia | Chicago | 2 | All Maps | STV","players":[{"user_id":843,"name":"PMT_Red","steam_id":76561198958863929,"connected_time":580000000000,"state":"active","ping":105},{"user_id":845,"name":"rudy","steam_id":76561198088712799,"connected_time":456000000000,"state":"active","ping":74},{"user_id":827,"name":"Tomato Soup","steam_id":76561198048625847,"connected_time":1567000000000,"state":"active","ping":81},{"user_id":820,"name":"Crusader","steam_id":76561198144092743,"connected_time":1862000000000,"state":"active","ping":139},{"user_id":725,"name":"captainspatklz","steam_id":76561198432167270,"connected_time":8068000000000,"state":"active","ping":74},{"user_id":848,"name":"exile","steam_id":76561198047813960,"connected_time":49000000000,"state":"active","ping":81},{"user_id":835,"name":"Argh!","steam_id":76561197972159639,"connected_time":1293000000000,"state":"active","ping":77},{"user_id":793,"name":"Herr M√ºller","steam_id":76561198064876829,"connected_time":3603000000000,"state":"active","ping":97},{"user_id":777,"name":"Lavender","steam_id":76561198142770666,"connected_time":5134000000000,"state":"active","ping":51},{"user_id":847,"name":"milk","steam_id":76561198085319245,"connected_time":228000000000,"state":"active","ping":90},{"user_id":825,"name":"Karma's Camera","steam_id":76561198059385185,"connected_time":1669000000000,"state":"active","ping":75},{"user_id":850,"name":"RadiantSong","steam_id":76561198004406054,"connected_time":28000000000,"state":"active","ping":75},{"user_id":805,"name":"John;Titor","steam_id":76561198266404287,"connected_time":3285000000000,"state":"active","ping":133},{"user_id":851,"name":"sweaterfan","steam_id":76561199389567214,"connected_time":12000000000,"state":"spawning","ping":58},{"user_id":829,"name":"Quietsharp","steam_id":76561198277968438,"connected_time":1564000000000,"state":"active","ping":104},{"user_id":844,"name":"N. Vermillion","steam_id":76561198191189053,"connected_time":542000000000,"state":"active","ping":60},{"user_id":790,"name":"miner","steam_id":76561198073035221,"connected_time":3740000000000,"state":"active","ping":60},{"user_id":781,"name":"Merci?","steam_id":76561198096823118,"connected_time":5043000000000,"state":"active","ping":88},{"user_id":832,"name":"Coffee with a Stranger","steam_id":76561198307422313,"connected_time":1482000000000,"state":"active","ping":66},{"user_id":783,"name":"Frost","steam_id":76561198953970191,"connected_time":4993000000000,"state":"active","ping":64},{"user_id":846,"name":"-Enter Name Here-","steam_id":76561198040358938,"connected_time":395000000000,"state":"active","ping":76},{"user_id":836,"name":"maji","steam_id":76561199147740808,"connected_time":1146000000000,"state":"active","ping":108},{"user_id":806,"name":"The Great Karizma!","steam_id":76561198346191193,"connected_time":3068000000000,"state":"active","ping":113}]},{"server_id":402,"name":"Uncletopia | Chicago | 3 | All Maps","name_short":"chi-3","host":"chi-1.us.uncletopia.com","port":27035,"enabled":true,"region":"us-central","cc":"us","latitude":41.881832,"longitude":-87.62318,"reserved":0,"last_update":"0001-01-01T00:00:00Z","name_a2s":"Uncletopia | Chicago | 3 | All Maps","protocol":17,"map":"cp_altitude","folder":"tf","game":"Team Fortress","app_id":440,"player_count":0,"max_players":24,"Bots":0,"server_type":"Dedicated","server_os":"Linux","password":true,"vac":true,"version":"7757534","steam_id":85568392924515191,"keywords":["cp","nocrits","nodmgspread","uncletopia"],"game_id":440,"stv_port":27036,"stv_name":"Uncletopia | Chicago | 3 | All Maps | STV","players":null},{"server_id":403,"name":"Uncletopia | Chicago | 4 | All Maps","name_short":"chi-4","host":"chi-1.us.uncletopia.com","port":27045,"enabled":true,"region":"us-central","cc":"us","latitude":41.881832,"longitude":-87.62318,"reserved":0,"last_update":"0001-01-01T00:00:00Z","name_a2s":"Uncletopia | Chicago | 4 | All Maps","protocol":17,"map":"cp_process_final","folder":"tf","game":"Team Fortress","app_id":440,"player_count":0,"max_players":24,"Bots":0,"server_type":"Dedicated","server_os":"Linux","password":true,"vac":true,"version":"7757534","steam_id":85568392924515193,"keywords":["cp","nocrits","nodmgspread","uncletopia"],"game_id":440,"stv_port":27046,"stv_name":"Uncletopia | Chicago | 4 | All Maps | STV","players":null},{"server_id":36,"name":"Uncletopia | Chicago | 5 | All Maps","name_short":"chi-5","host":"chi-2.us.uncletopia.com","port":27015,"enabled":true,"region":"us-central","cc":"us","latitude":41.881832,"longitude":-87.62318,"reserved":0,"last_update":"0001-01-01T00:00:00Z","name_a2s":"Uncletopia | Chicago | 5 | All Maps","protocol":17,"map":"koth_highpass","folder":"tf","game":"Team Fortress","app_id":440,"player_count":0,"max_players":24,"Bots":0,"server_type":"Dedicated","server_os":"Linux","password":true,"vac":true,"version":"7757534","steam_id":85568392924866362,"keywords":["cp","nocrits","nodmgspread","uncletopia"],"game_id":440,"stv_port":27016,"stv_name":"Uncletopia | Chicago | 5 | All Maps | STV","players":null},{"server_id":37,"name":"Uncletopia | Chicago | 6 | All Maps","name_short":"chi-6","host":"chi-2.us.uncletopia.com","port":27025,"enabled":true,"region":"us-central","cc":"us","latitude":41.881832,"longitude":-87.62318,"reserved":0,"last_update":"0001-01-01T00:00:00Z","name_a2s":"Uncletopia | Chicago | 6 | All Maps","protocol":17,"map":"koth_king","folder":"tf","game":"Team Fortress","app_id":440,"player_count":0,"max_players":24,"Bots":0,"server_type":"Dedicated","server_os":"Linux","password":true,"vac":true,"version":"7757534","steam_id":85568392924866363,"keywords":["cp","nocrits","nodmgspread","uncletopia"],"game_id":440,"stv_port":27026,"stv_name":"Uncletopia | Chicago | 6 | All Maps | STV","players":null},{"server_id":38,"name":"Uncletopia | Chicago | 7 | Stopwatch Beta","name_short":"chi-7","host":"chi-2.us.uncletopia.com","port":27035,"enabled":true,"region":"us-central","cc":"us","latitude":41.881832,"longitude":-87.62318,"reserved":0,"last_update":"0001-01-01T00:00:00Z","name_a2s":"Uncletopia | Chicago | 7 | Stopwatch Beta","protocol":17,"map":"workshop/koth_ramjam_rc1.ugc459778887","folder":"tf","game":"Team Fortress","app_id":440,"player_count":0,"max_players":24,"Bots":0,"server_type":"Dedicated","server_os":"Linux","password":true,"vac":true,"version":"7757534","steam_id":85568392924866364,"keywords":["cp","nocrits","nodmgspread","uncletopia"],"game_id":440,"stv_port":27036,"stv_name":"Uncletopia | Chicago | 7 | Stopwatch Beta | STV","players":null},{"server_id":39,"name":"Uncletopia | Chicago | 8 | Community","name_short":"chi-8","host":"chi-2.us.uncletopia.com","port":27045,"enabled":true,"region":"us-central","cc":"us","latitude":41.881832,"longitude":-87.62318,"reserved":0,"last_update":"0001-01-01T00:00:00Z","name_a2s":"Uncletopia | Chicago | 8 | Community","protocol":17,"map":"workshop/koth_kemptown_rc1.ugc767410655","folder":"tf","game":"Team Fortress","app_id":440,"player_count":0,"max_players":24,"Bots":0,"server_type":"Dedicated","server_os":"Linux","password":true,"vac":true,"version":"7757534","steam_id":85568392924866365,"keywords":["cp","nocrits","nodmgspread","uncletopia"],"game_id":440,"stv_port":27046,"stv_name":"Uncletopia | Chicago | 8 | Community | STV","players":null},{"server_id":8,"name":"Uncletopia | Dallas | 1 | All Maps","name_short":"dal-1","host":"dal-1.us.uncletopia.com","port":27015,"enabled":true,"region":"us-central","cc":"us","latitude":32.779167,"longitude":-96.80889,"reserved":0,"last_update":"0001-01-01T00:00:00Z","name_a2s":"Uncletopia | Dallas | 1 | All Maps","protocol":17,"map":"pl_badwater","folder":"tf","game":"Team Fortress","app_id":440,"player_count":16,"max_players":24,"Bots":0,"server_type":"Dedicated","server_os":"Linux","password":true,"vac":true,"version":"7757534","steam_id":85568392924469986,"keywords":["nocrits","nodmgspread","payload","uncletopia"],"game_id":440,"stv_port":27016,"stv_name":"Uncletopia | Dallas | 1 | All Maps | STV","players":[{"user_id":990,"name":"Spinch","steam_id":76561198296224166,"connected_time":2190000000000,"state":"active","ping":85},{"user_id":969,"name":"Technic","steam_id":76561198200302281,"connected_time":4871000000000,"state":"active","ping":60},{"user_id":970,"name":"MoonWheel","steam_id":76561198122417762,"connected_time":4842000000000,"state":"active","ping":45},{"user_id":997,"name":"Sir LordFoog the 2st","steam_id":76561198373843788,"connected_time":38000000000,"state":"active","ping":163},{"user_id":957,"name":"Wally (s)Mack","steam_id":76561198258810146,"connected_time":5460000000000,"state":"active","ping":97},{"user_id":995,"name":"Stephen \"Fatso\" Stromboli","steam_id":76561198060911025,"connected_time":939000000000,"state":"active","ping":70},{"user_id":986,"name":"Walnut","steam_id":76561198024954863,"connected_time":2317000000000,"state":"active","ping":72},{"user_id":991,"name":"AngryBurrito","steam_id":76561197972778702,"connected_time":2164000000000,"state":"active","ping":170},{"user_id":982,"name":"Achy_Blitz","steam_id":76561198090433209,"connected_time":4116000000000,"state":"active","ping":85},{"user_id":981,"name":"wizorb","steam_id":76561198002172674,"connected_time":4179000000000,"state":"active","ping":67},{"user_id":971,"name":"BBOSensei","steam_id":76561198071548190,"connected_time":4830000000000,"state":"active","ping":85},{"user_id":984,"name":"Cartoonishly Evil","steam_id":76561198311587575,"connected_time":3700000000000,"state":"active","ping":123},{"user_id":985,"name":"Brisk","steam_id":76561198129769783,"connected_time":3311000000000,"state":"active","ping":75},{"user_id":988,"name":"Kol","steam_id":76561199151398882,"connected_time":2306000000000,"state":"active","ping":105},{"user_id":987,"name":"Fox","steam_id":76561198063507627,"connected_time":2314000000000,"state":"active","ping":42},{"user_id":978,"name":"iceman","steam_id":76561198135397441,"connected_time":4514000000000,"state":"active","ping":77}]},{"server_id":108,"name":"Uncletopia | Dallas | 2 | All Maps","name_short":"dal-2","host":"dal-1.us.uncletopia.com","port":27025,"enabled":true,"region":"us-central","cc":"us","latitude":32.779167,"longitude":-96.80889,"reserved":0,"last_update":"0001-01-01T00:00:00Z","name_a2s":"Uncletopia | Dallas | 2 | All Maps","protocol":17,"map":"pl_swiftwater_final1","folder":"tf","game":"Team Fortress","app_id":440,"player_count":0,"max_players":24,"Bots":0,"server_type":"Dedicated","server_os":"Linux","password":true,"vac":true,"version":"7757534","steam_id":85568392924469988,"keywords":["nocrits","nodmgspread","payload","uncletopia"],"game_id":440,"stv_port":27026,"stv_name":"Uncletopia | Dallas | 2 | All Maps | STV","players":null},{"server_id":5,"name":"Uncletopia | Frankfurt | 1 | All Maps","name_short":"frk-1","host":"frk-1.de.uncletopia.com","port":27015,"enabled":true,"region":"eu","cc":"de","latitude":50.110924,"longitude":8.682127,"reserved":0,"last_update":"0001-01-01T00:00:00Z","name_a2s":"Uncletopia | Frankfurt | 1 | All Maps","protocol":17,"map":"pl_snowycoast","folder":"tf","game":"Team Fortress","app_id":440,"player_count":0,"max_players":24,"Bots":0,"server_type":"Dedicated","server_os":"Linux","password":true,"vac":true,"version":"7757534","steam_id":85568392924469989,"keywords":["nocrits","nodmgspread","payload","uncletopia"],"game_id":440,"stv_port":27016,"stv_name":"Uncletopia | Frankfurt | 1 | All Maps | STV","players":null},{"server_id":110,"name":"Uncletopia | Frankfurt | 2 | All Maps","name_short":"frk-2","host":"frk-1.de.uncletopia.com","port":27025,"enabled":true,"region":"eu","cc":"de","latitude":50.110924,"longitude":8.682127,"reserved":0,"last_update":"0001-01-01T00:00:00Z","name_a2s":"Uncletopia | Frankfurt | 2 | All Maps","protocol":17,"map":"cp_dustbowl","folder":"tf","game":"Team Fortress","app_id":440,"player_count":0,"max_players":24,"Bots":0,"server_type":"Dedicated","server_os":"Linux","password":true,"vac":true,"version":"7757534","steam_id":85568392924469990,"keywords":["cp","nocrits","nodmgspread","uncletopia"],"game_id":440,"stv_port":27026,"stv_name":"Uncletopia | Frankfurt | 2 | All Maps | STV","players":null},{"server_id":308,"name":"Uncletopia | Frankfurt | 3 | All Maps","name_short":"frk-3","host":"frk-1.de.uncletopia.com","port":27035,"enabled":true,"region":"eu","cc":"de","latitude":50.110924,"longitude":8.682127,"reserved":0,"last_update":"0001-01-01T00:00:00Z","name_a2s":"Uncletopia | Frankfurt | 3 | All Maps","protocol":17,"map":"cp_altitude","folder":"tf","game":"Team Fortress","app_id":440,"player_count":0,"max_players":24,"Bots":0,"server_type":"Dedicated","server_os":"Linux","password":true,"vac":true,"version":"7757534","steam_id":85568392924504274,"keywords":["cp","nocrits","nodmgspread","uncletopia"],"game_id":440,"stv_port":27036,"stv_name":"Uncletopia | Frankfurt | 3 | All Maps | STV","players":null},{"server_id":309,"name":"Uncletopia | Frankfurt | 4 | All Maps","name_short":"frk-4","host":"frk-1.de.uncletopia.com","port":27045,"enabled":true,"region":"eu","cc":"de","latitude":50.110924,"longitude":8.682127,"reserved":0,"last_update":"0001-01-01T00:00:00Z","name_a2s":"Uncletopia | Frankfurt | 4 | All Maps","protocol":17,"map":"cp_altitude","folder":"tf","game":"Team Fortress","app_id":440,"player_count":0,"max_players":24,"Bots":0,"server_type":"Dedicated","server_os":"Linux","password":true,"vac":true,"version":"7757534","steam_id":85568392924504275,"keywords":["cp","nocrits","nodmgspread","uncletopia"],"game_id":440,"stv_port":27046,"stv_name":"Uncletopia | Frankfurt | 4 | All Maps | STV","players":null},{"server_id":310,"name":"Uncletopia | Frankfurt | 5 | All Maps","name_short":"frk-5","host":"frk-1.de.uncletopia.com","port":27055,"enabled":true,"region":"eu","cc":"de","latitude":50.110924,"longitude":8.682127,"reserved":0,"last_update":"0001-01-01T00:00:00Z","name_a2s":"Uncletopia | Frankfurt | 5 | All Maps","protocol":17,"map":"cp_altitude","folder":"tf","game":"Team Fortress","app_id":440,"player_count":0,"max_players":24,"Bots":0,"server_type":"Dedicated","server_os":"Linux","password":true,"vac":true,"version":"7757534","steam_id":85568392924504277,"keywords":["cp","nocrits","nodmgspread","uncletopia"],"game_id":440,"stv_port":27056,"stv_name":"Uncletopia | Frankfurt | 5 | All Maps | STV","players":null},{"server_id":311,"name":"Uncletopia | Frankfurt | 6 | All Maps","name_short":"frk-6","host":"frk-1.de.uncletopia.com","port":27065,"enabled":true,"region":"eu","cc":"de","latitude":50.110924,"longitude":8.682127,"reserved":0,"last_update":"0001-01-01T00:00:00Z","name_a2s":"Uncletopia | Frankfurt | 6 | All Maps","protocol":17,"map":"koth_highpass","folder":"tf","game":"Team Fortress","app_id":440,"player_count":0,"max_players":24,"Bots":0,"server_type":"Dedicated","server_os":"Linux","password":true,"vac":true,"version":"7757534","steam_id":85568392924504278,"keywords":["cp","nocrits","nodmgspread","uncletopia"],"game_id":440,"stv_port":27066,"stv_name":"Uncletopia | Frankfurt | 6 | All Maps | STV","players":null},{"server_id":23,"name":"Uncletopia | Frankfurt | 7 | Stopwatch Beta","name_short":"frk-7","host":"frk-1.de.uncletopia.com","port":27075,"enabled":true,"region":"eu","cc":"de","latitude":50.110924,"longitude":8.682127,"reserved":0,"last_update":"0001-01-01T00:00:00Z","name_a2s":"Uncletopia | Frankfurt | 7 | Stopwatch Beta","protocol":17,"map":"pl_frontier_final","folder":"tf","game":"Team Fortress","app_id":440,"player_count":0,"max_players":24,"Bots":0,"server_type":"Dedicated","server_os":"Linux","password":true,"vac":true,"version":"7757534","steam_id":85568392924742827,"keywords":["nocrits","nodmgspread","payload","uncletopia"],"game_id":440,"stv_port":27076,"stv_name":"Uncletopia | Frankfurt | 7 | Stopwatch Beta | STV","players":null},{"server_id":24,"name":"Uncletopia | Frankfurt | 8 | Community","name_short":"frk-8","host":"frk-1.de.uncletopia.com","port":27085,"enabled":true,"region":"eu","cc":"de","latitude":50.110924,"longitude":8.682127,"reserved":0,"last_update":"0001-01-01T00:00:00Z","name_a2s":"Uncletopia | Frankfurt | 8 | Community","protocol":17,"map":"workshop/cp_indulge.ugc528106646","folder":"tf","game":"Team Fortress","app_id":440,"player_count":0,"max_players":24,"Bots":0,"server_type":"Dedicated","server_os":"Linux","password":true,"vac":true,"version":"7757534","steam_id":85568392924742828,"keywords":["cp","nocrits","nodmgspread","uncletopia"],"game_id":440,"stv_port":27086,"stv_name":"Uncletopia | Frankfurt | 8 | Community | STV","players":null},{"server_id":202,"name":"Uncletopia | Hong Kong | 1 | All Maps","name_short":"hgk-1","host":"hgk-1.hk.uncletopia.com","port":27015,"enabled":true,"region":"asia","cc":"hk","latitude":22.302711,"longitude":114.177216,"reserved":0,"last_update":"0001-01-01T00:00:00Z","name_a2s":"Uncletopia | Hong Kong | 1 | All Maps","protocol":17,"map":"pl_borneo","folder":"tf","game":"Team Fortress","app_id":440,"player_count":24,"max_players":24,"Bots":0,"server_type":"Dedicated","server_os":"Linux","password":true,"vac":true,"version":"7757534","steam_id":85568392924494504,"keywords":["nocrits","nodmgspread","payload","uncletopia"],"game_id":440,"stv_port":27016,"stv_name":"Uncletopia | Hong Kong | 1 | All Maps | STV","players":[{"user_id":198,"name":"tiden2000","steam_id":76561198092969425,"connected_time":147000000000,"state":"active","ping":94},{"user_id":187,"name":"uptriste","steam_id":76561198158666692,"connected_time":1844000000000,"state":"active","ping":36},{"user_id":182,"name":"Yna Yna (actually Oka Oka)","steam_id":76561199232527135,"connected_time":2010000000000,"state":"active","ping":171},{"user_id":166,"name":"Violezine","steam_id":76561199000502615,"connected_time":2826000000000,"state":"active","ping":85},{"user_id":195,"name":"Miku831","steam_id":76561198162232044,"connected_time":610000000000,"state":"active","ping":50},{"user_id":200,"name":"Urotsuki","steam_id":76561198074339034,"connected_time":141000000000,"state":"active","ping":70},{"user_id":107,"name":"Ai Ohto Gaming","steam_id":76561198972625527,"connected_time":6355000000000,"state":"active","ping":93},{"user_id":176,"name":"Sex","steam_id":76561198871697359,"connected_time":2300000000000,"state":"active","ping":89},{"user_id":183,"name":"victoria","steam_id":76561199109871823,"connected_time":1993000000000,"state":"active","ping":83},{"user_id":191,"name":"asap","steam_id":76561198400698408,"connected_time":764000000000,"state":"active","ping":97},{"user_id":174,"name":"chainsemen","steam_id":76561198442507642,"connected_time":2337000000000,"state":"active","ping":89},{"user_id":184,"name":"Lelouch","steam_id":76561198828840546,"connected_time":1991000000000,"state":"active","ping":101},{"user_id":97,"name":"cumb dhigga","steam_id":76561198412329672,"connected_time":7193000000000,"state":"active","ping":91},{"user_id":165,"name":"Celestial Madman","steam_id":76561198985198656,"connected_time":2904000000000,"state":"active","ping":61},{"user_id":175,"name":"markrap‡∂ûvic","steam_id":76561198383599763,"connected_time":2312000000000,"state":"active","ping":110},{"user_id":177,"name":"Lil' Chungus","steam_id":76561198258046956,"connected_time":2247000000000,"state":"active","ping":112},{"user_id":197,"name":"Batbob","steam_id":76561198999413123,"connected_time":598000000000,"state":"active","ping":78},{"user_id":106,"name":"Noyour","steam_id":76561198323259830,"connected_time":6645000000000,"state":"active","ping":115},{"user_id":202,"name":"iced","steam_id":76561198999114004,"connected_time":86000000000,"state":"active","ping":121},{"user_id":194,"name":"Prof Booster","steam_id":76561199148930929,"connected_time":626000000000,"state":"active","ping":30},{"user_id":180,"name":"Mystery cheese üßÄ","steam_id":76561198304002409,"connected_time":2128000000000,"state":"active","ping":84},{"user_id":188,"name":"CaptainBozo","steam_id":76561199151959977,"connected_time":1633000000000,"state":"active","ping":56},{"user_id":186,"name":"Saber Nero","steam_id":76561198810245353,"connected_time":1933000000000,"state":"active","ping":147},{"user_id":190,"name":"Â∏ï","steam_id":76561198439343999,"connected_time":971000000000,"state":"active","ping":78}]},{"server_id":1,"name":"Uncletopia | Los Angeles | 1 | All Maps","name_short":"lax-1","host":"lax-1.us.uncletopia.com","port":27015,"enabled":true,"region":"us-west","cc":"us","latitude":33.94279,"longitude":-118.41004,"reserved":0,"last_update":"0001-01-01T00:00:00Z","name_a2s":"Uncletopia | Los Angeles | 1 | All Maps","protocol":17,"map":"cp_dustbowl","folder":"tf","game":"Team Fortress","app_id":440,"player_count":24,"max_players":24,"Bots":0,"server_type":"Dedicated","server_os":"Linux","password":true,"vac":true,"version":"7757534","steam_id":85568392924469991,"keywords":["cp","nocrits","nodmgspread","uncletopia"],"game_id":440,"stv_port":27016,"stv_name":"Uncletopia | Los Angeles | 1 | All Maps | STV","players":[{"user_id":613,"name":"Redathant","steam_id":76561199005697271,"connected_time":1855000000000,"state":"active","ping":78},{"user_id":614,"name":"Auburn","steam_id":76561198199541493,"connected_time":1774000000000,"state":"active","ping":58},{"user_id":602,"name":"Cockfight","steam_id":76561198160277649,"connected_time":3056000000000,"state":"active","ping":67},{"user_id":615,"name":"mind goblin","steam_id":76561198050112234,"connected_time":1756000000000,"state":"active","ping":64},{"user_id":626,"name":"bean drinker","steam_id":76561198044004639,"connected_time":438000000000,"state":"active","ping":83},{"user_id":573,"name":"werolat","steam_id":76561197960544784,"connected_time":5617000000000,"state":"active","ping":66},{"user_id":594,"name":"tanner","steam_id":76561198137381904,"connected_time":3632000000000,"state":"active","ping":67},{"user_id":556,"name":"summerlis","steam_id":76561198165324438,"connected_time":6983000000000,"state":"active","ping":45},{"user_id":579,"name":"gosh","steam_id":76561198025681784,"connected_time":5357000000000,"state":"active","ping":93},{"user_id":624,"name":"FROYO b4nny","steam_id":76561197970669109,"connected_time":1111000000000,"state":"active","ping":53},{"user_id":601,"name":"Adam Levine (Real)","steam_id":76561199199257149,"connected_time":3083000000000,"state":"active","ping":50},{"user_id":616,"name":"Punished Dimitri","steam_id":76561198170918179,"connected_time":1717000000000,"state":"active","ping":63},{"user_id":597,"name":"crush","steam_id":76561198107219183,"connected_time":3377000000000,"state":"active","ping":55},{"user_id":540,"name":"‚õß","steam_id":76561198021308963,"connected_time":7950000000000,"state":"active","ping":77},{"user_id":625,"name":"Cactus‚Ñ¢ ‚ô•","steam_id":76561198036441270,"connected_time":642000000000,"state":"active","ping":79},{"user_id":618,"name":"Fizzma","steam_id":76561198271999030,"connected_time":1667000000000,"state":"active","ping":92},{"user_id":620,"name":"TitanicMistake","steam_id":76561198052999475,"connected_time":1558000000000,"state":"active","ping":75},{"user_id":606,"name":"Squid121","steam_id":76561198038832034,"connected_time":2891000000000,"state":"active","ping":81},{"user_id":577,"name":"nhoj_","steam_id":76561198048003380,"connected_time":5508000000000,"state":"active","ping":55},{"user_id":623,"name":"K4le","steam_id":76561198747668363,"connected_time":1264000000000,"state":"active","ping":60},{"user_id":619,"name":"KatzenMeister","steam_id":76561198315056580,"connected_time":1663000000000,"state":"active","ping":56},{"user_id":604,"name":"MyMonkeyBaby","steam_id":76561198046896670,"connected_time":3029000000000,"state":"active","ping":85},{"user_id":621,"name":"ChieF BEEF QueeF","steam_id":76561198078294539,"connected_time":1406000000000,"state":"active","ping":59},{"user_id":608,"name":"Wub","steam_id":76561198072947773,"connected_time":2797000000000,"state":"active","ping":88}]},{"server_id":112,"name":"Uncletopia | Los Angeles | 2 | All Maps","name_short":"lax-2","host":"lax-1.us.uncletopia.com","port":27025,"enabled":true,"region":"us-west","cc":"us","latitude":33.94279,"longitude":-118.41004,"reserved":0,"last_update":"0001-01-01T00:00:00Z","name_a2s":"Uncletopia | Los Angeles | 2 | All Maps","protocol":17,"map":"pl_pier","folder":"tf","game":"Team Fortress","app_id":440,"player_count":8,"max_players":24,"Bots":0,"server_type":"Dedicated","server_os":"Linux","password":true,"vac":true,"version":"7757534","steam_id":85568392924469992,"keywords":["nocrits","nodmgspread","payload","uncletopia"],"game_id":440,"stv_port":27026,"stv_name":"Uncletopia | Los Angeles | 2 | All Maps | STV","players":[{"user_id":33,"name":"[Œ¥] Delta","steam_id":76561198287190116,"connected_time":406000000000,"state":"active","ping":88},{"user_id":14,"name":"Tufu","steam_id":76561198170095074,"connected_time":4819000000000,"state":"active","ping":94},{"user_id":15,"name":"Lumi","steam_id":76561198387080267,"connected_time":4814000000000,"state":"active","ping":84},{"user_id":16,"name":"Tony_J","steam_id":76561198163563201,"connected_time":4801000000000,"state":"active","ping":94},{"user_id":25,"name":"Rat (self-tamed)","steam_id":76561198052397636,"connected_time":3028000000000,"state":"active","ping":105},{"user_id":34,"name":"joe biden gaming","steam_id":76561198052256411,"connected_time":358000000000,"state":"active","ping":60},{"user_id":31,"name":"lavendur","steam_id":76561198257044617,"connected_time":663000000000,"state":"active","ping":105},{"user_id":32,"name":"Cap","steam_id":76561198072870415,"connected_time":603000000000,"state":"active","ping":130}]},{"server_id":324,"name":"Uncletopia | Los Angeles | 3 | All Maps","name_short":"lax-3","host":"lax-1.us.uncletopia.com","port":27035,"enabled":true,"region":"us-west","cc":"us","latitude":33.94279,"longitude":-118.41004,"reserved":0,"last_update":"0001-01-01T00:00:00Z","name_a2s":"Uncletopia | Los Angeles | 3 | All Maps","protocol":17,"map":"pl_frontier_final","folder":"tf","game":"Team Fortress","app_id":440,"player_count":0,"max_players":24,"Bots":0,"server_type":"Dedicated","server_os":"Linux","password":true,"vac":true,"version":"7757534","steam_id":85568392924510198,"keywords":["nocrits","nodmgspread","payload","uncletopia"],"game_id":440,"stv_port":27036,"stv_name":"Uncletopia | Los Angeles | 3 | All Maps | STV","players":null},{"server_id":25,"name":"Uncletopia | Los Angeles | 4 | Stopwatch Beta","name_short":"lax-4","host":"lax-1.us.uncletopia.com","port":27045,"enabled":true,"region":"us-west","cc":"us","latitude":33.94279,"longitude":-118.41004,"reserved":0,"last_update":"0001-01-01T00:00:00Z","name_a2s":"Uncletopia | Los Angeles | 4 | Stopwatch Beta","protocol":17,"map":"workshop/koth_ashville_final.ugc2130459942","folder":"tf","game":"Team Fortress","app_id":440,"player_count":2,"max_players":24,"Bots":0,"server_type":"Dedicated","server_os":"Linux","password":true,"vac":true,"version":"7757534","steam_id":85568392924510199,"keywords":["cp","nocrits","nodmgspread","uncletopia"],"game_id":440,"stv_port":27046,"stv_name":"Uncletopia | Los Angeles | 4 | Stopwatch Beta | STV","players":[{"user_id":22,"name":"fulices","steam_id":76561198420163702,"connected_time":3149000000000,"state":"active","ping":42},{"user_id":23,"name":"StrikcZ Áà∂","steam_id":76561198976507691,"connected_time":2967000000000,"state":"active","ping":41}]},{"server_id":11,"name":"Uncletopia | London | 1 | All Maps","name_short":"lon-1","host":"lon-1.uk.uncletopia.com","port":27015,"enabled":true,"region":"eu","cc":"gb","latitude":51.509865,"longitude":-0.118092,"reserved":0,"last_update":"0001-01-01T00:00:00Z","name_a2s":"Uncletopia | London | 1 | All Maps","protocol":17,"map":"koth_viaduct","folder":"tf","game":"Team Fortress","app_id":440,"player_count":0,"max_players":24,"Bots":0,"server_type":"Dedicated","server_os":"Linux","password":true,"vac":true,"version":"7757534","steam_id":85568392924367362,"keywords":["cp","nocrits","nodmgspread","uncletopia"],"game_id":440,"stv_port":27016,"stv_name":"Uncletopia | London | 1 | All Maps | STV","players":null},{"server_id":114,"name":"Uncletopia | London | 2 | All Maps","name_short":"lon-2","host":"lon-1.uk.uncletopia.com","port":27025,"enabled":true,"region":"eu","cc":"gb","latitude":51.509865,"longitude":-0.118092,"reserved":0,"last_update":"0001-01-01T00:00:00Z","name_a2s":"Uncletopia | London | 2 | All Maps","protocol":17,"map":"cp_dustbowl","folder":"tf","game":"Team Fortress","app_id":440,"player_count":0,"max_players":24,"Bots":0,"server_type":"Dedicated","server_os":"Linux","password":true,"vac":true,"version":"7757534","steam_id":85568392924470941,"keywords":["cp","nocrits","nodmgspread","uncletopia"],"game_id":440,"stv_port":27026,"stv_name":"Uncletopia | London | 2 | All Maps | STV","players":null},{"server_id":320,"name":"Uncletopia | London | 3 | All Maps","name_short":"lon-3","host":"lon-1.uk.uncletopia.com","port":27035,"enabled":true,"region":"eu","cc":"gb","latitude":51.509865,"longitude":-0.118092,"reserved":0,"last_update":"0001-01-01T00:00:00Z","name_a2s":"Uncletopia | London | 3 | All Maps","protocol":17,"map":"pl_pier","folder":"tf","game":"Team Fortress","app_id":440,"player_count":24,"max_players":24,"Bots":0,"server_type":"Dedicated","server_os":"Linux","password":true,"vac":true,"version":"7757534","steam_id":85568392924510192,"keywords":["nocrits","nodmgspread","payload","uncletopia"],"game_id":440,"stv_port":27036,"stv_name":"Uncletopia | London | 3 | All Maps | STV","players":[{"user_id":83,"name":"DarkFady","steam_id":76561198179099523,"connected_time":274000000000,"state":"active","ping":124},{"user_id":10,"name":"fried","steam_id":76561198307522022,"connected_time":5128000000000,"state":"active","ping":45},{"user_id":5,"name":"DocTwoEight","steam_id":76561198153488940,"connected_time":5483000000000,"state":"active","ping":64},{"user_id":62,"name":"Brass beast heavy","steam_id":76561198274197623,"connected_time":1629000000000,"state":"active","ping":75},{"user_id":58,"name":"HimpoX","steam_id":76561198043946778,"connected_time":1914000000000,"state":"active","ping":88},{"user_id":9,"name":"OffMilky","steam_id":76561198831440921,"connected_time":5263000000000,"state":"active","ping":27},{"user_id":66,"name":"qt wavyz","steam_id":76561199060668138,"connected_time":1481000000000,"state":"active","ping":167},{"user_id":65,"name":"Mr.B","steam_id":76561199204478925,"connected_time":1548000000000,"state":"active","ping":115},{"user_id":84,"name":"Gaem Geck","steam_id":76561198057966907,"connected_time":217000000000,"state":"active","ping":46},{"user_id":53,"name":".::[SerafeTTiN]::.","steam_id":76561198009471724,"connected_time":2820000000000,"state":"active","ping":102},{"user_id":80,"name":"caps.","steam_id":76561198116528817,"connected_time":582000000000,"state":"active","ping":59},{"user_id":64,"name":"MateMO","steam_id":76561198146180114,"connected_time":1599000000000,"state":"active","ping":92},{"user_id":82,"name":"Uncle Motong","steam_id":76561198029093635,"connected_time":426000000000,"state":"active","ping":63},{"user_id":43,"name":"pou123321","steam_id":76561198069211237,"connected_time":3462000000000,"state":"active","ping":134},{"user_id":78,"name":"XFACTOR | {Moshik Roth}","steam_id":76561198352842114,"connected_time":728000000000,"state":"active","ping":110},{"user_id":77,"name":"latch","steam_id":76561198064878900,"connected_time":810000000000,"state":"active","ping":73},{"user_id":79,"name":"Fpaoullis","steam_id":76561198897866131,"connected_time":612000000000,"state":"active","ping":90},{"user_id":32,"name":"dafydd","steam_id":76561198052200325,"connected_time":3744000000000,"state":"active","ping":89},{"user_id":61,"name":"Jiggie","steam_id":76561198018134884,"connected_time":1794000000000,"state":"active","ping":75},{"user_id":70,"name":"Mommy Ermes","steam_id":76561198316225370,"connected_time":1233000000000,"state":"active","ping":66},{"user_id":74,"name":"fmdi","steam_id":76561199433879329,"connected_time":1140000000000,"state":"active","ping":76},{"user_id":44,"name":"ugly","steam_id":76561199050412617,"connected_time":3455000000000,"state":"active","ping":118},{"user_id":45,"name":"Shun Rosen","steam_id":76561198012823909,"connected_time":3302000000000,"state":"active","ping":136},{"user_id":52,"name":"Geraldo","steam_id":76561198046596619,"connected_time":2935000000000,"state":"active","ping":121}]},{"server_id":321,"name":"Uncletopia | London | 4 | All Maps","name_short":"lon-4","host":"lon-1.uk.uncletopia.com","port":27045,"enabled":true,"region":"eu","cc":"gb","latitude":51.509865,"longitude":-0.118092,"reserved":0,"last_update":"0001-01-01T00:00:00Z","name_a2s":"Uncletopia | London | 4 | All Maps","protocol":17,"map":"koth_viaduct","folder":"tf","game":"Team Fortress","app_id":440,"player_count":0,"max_players":24,"Bots":0,"server_type":"Dedicated","server_os":"Linux","password":true,"vac":true,"version":"7757534","steam_id":85568392924510193,"keywords":["cp","nocrits","nodmgspread","uncletopia"],"game_id":440,"stv_port":27046,"stv_name":"Uncletopia | London | 4 | All Maps | STV","players":null},{"server_id":21,"name":"Uncletopia | London | 5 | All Maps","name_short":"lon-5","host":"lon-1.uk.uncletopia.com","port":27055,"enabled":true,"region":"eu","cc":"gb","latitude":51.509865,"longitude":-0.118092,"reserved":0,"last_update":"0001-01-01T00:00:00Z","name_a2s":"Uncletopia | London | 5 | All Maps","protocol":17,"map":"cp_snakewater_final1","folder":"tf","game":"Team Fortress","app_id":440,"player_count":0,"max_players":24,"Bots":0,"server_type":"Dedicated","server_os":"Linux","password":true,"vac":true,"version":"7757534","steam_id":85568392924742829,"keywords":["cp","nocrits","nodmgspread","uncletopia"],"game_id":440,"stv_port":27056,"stv_name":"Uncletopia | London | 5 | All Maps | STV","players":null},{"server_id":22,"name":"Uncletopia | London | 6 | All Maps","name_short":"lon-6","host":"lon-1.uk.uncletopia.com","port":27065,"enabled":true,"region":"eu","cc":"gb","latitude":51.509865,"longitude":-0.118092,"reserved":0,"last_update":"0001-01-01T00:00:00Z","name_a2s":"Uncletopia | London | 6 | All Maps","protocol":17,"map":"koth_cascade","folder":"tf","game":"Team Fortress","app_id":440,"player_count":0,"max_players":24,"Bots":0,"server_type":"Dedicated","server_os":"Linux","password":true,"vac":true,"version":"7757534","steam_id":85568392924742830,"keywords":["cp","nocrits","nodmgspread","uncletopia"],"game_id":440,"stv_port":27066,"stv_name":"Uncletopia | London | 6 | All Maps | STV","players":null},{"server_id":40,"name":"Uncletopia | London | 7 | No Payload","name_short":"lon-7","host":"lon-1.uk.uncletopia.com","port":27075,"enabled":true,"region":"eu","cc":"gb","latitude":51.509865,"longitude":-0.118092,"reserved":0,"last_update":"0001-01-01T00:00:00Z","name_a2s":"Uncletopia | London | 7 | No Payload","protocol":17,"map":"cp_process_final","folder":"tf","game":"Team Fortress","app_id":440,"player_count":0,"max_players":24,"Bots":0,"server_type":"Dedicated","server_os":"Linux","password":true,"vac":true,"version":"7757534","steam_id":85568392924964314,"keywords":["cp","nocrits","nodmgspread","uncletopia"],"game_id":440,"stv_port":27076,"stv_name":"Uncletopia | London | 7 | No Payload | STV","players":null},{"server_id":41,"name":"Uncletopia | London | 8 | Community","name_short":"lon-8","host":"lon-1.uk.uncletopia.com","port":27085,"enabled":true,"region":"eu","cc":"gb","latitude":51.509865,"longitude":-0.118092,"reserved":0,"last_update":"0001-01-01T00:00:00Z","name_a2s":"Uncletopia | London | 8 | Community","protocol":17,"map":"workshop/koth_slaughter_rc1.ugc1712845210","folder":"tf","game":"Team Fortress","app_id":440,"player_count":0,"max_players":24,"Bots":0,"server_type":"Dedicated","server_os":"Linux","password":true,"vac":true,"version":"7757534","steam_id":85568392924964315,"keywords":["cp","nocrits","nodmgspread","uncletopia"],"game_id":440,"stv_port":27086,"stv_name":"Uncletopia | London | 8 | Community | STV","players":null},{"server_id":300,"name":"Uncletopia | Montr√©al | 1 | All Maps","name_short":"mtl-1","host":"mtl-1.ca.uncletopia.com","port":27015,"enabled":true,"region":"us-east","cc":"ca","latitude":45.50889,"longitude":-73.56167,"reserved":0,"last_update":"0001-01-01T00:00:00Z","name_a2s":"Uncletopia | Montr√©al | 1 | All Maps","protocol":17,"map":"pl_pier","folder":"tf","game":"Team Fortress","app_id":440,"player_count":0,"max_players":24,"Bots":0,"server_type":"Dedicated","server_os":"Linux","password":true,"vac":true,"version":"7757534","steam_id":85568392924500087,"keywords":["nocrits","nodmgspread","payload","uncletopia"],"game_id":440,"stv_port":27016,"stv_name":"Uncletopia | Montr√©al | 1 | All Maps | STV","players":null},{"server_id":301,"name":"Uncletopia | Montr√©al | 2 | All Maps","name_short":"mtl-2","host":"mtl-1.ca.uncletopia.com","port":27025,"enabled":true,"region":"us-east","cc":"ca","latitude":45.50889,"longitude":-73.56167,"reserved":0,"last_update":"0001-01-01T00:00:00Z","name_a2s":"Uncletopia | Montr√©al | 2 | All Maps","protocol":17,"map":"koth_viaduct","folder":"tf","game":"Team Fortress","app_id":440,"player_count":0,"max_players":24,"Bots":0,"server_type":"Dedicated","server_os":"Linux","password":true,"vac":true,"version":"7757534","steam_id":85568392924500088,"keywords":["cp","nocrits","nodmgspread","uncletopia"],"game_id":440,"stv_port":27026,"stv_name":"Uncletopia | Montr√©al | 2 | All Maps | STV","players":null},{"server_id":302,"name":"Uncletopia | Montr√©al | 3 | All Maps","name_short":"mtl-3","host":"mtl-1.ca.uncletopia.com","port":27035,"enabled":true,"region":"us-east","cc":"ca","latitude":45.50889,"longitude":-73.56167,"reserved":0,"last_update":"0001-01-01T00:00:00Z","name_a2s":"Uncletopia | Montr√©al | 3 | All Maps","protocol":17,"map":"pl_frontier_final","folder":"tf","game":"Team Fortress","app_id":440,"player_count":0,"max_players":24,"Bots":0,"server_type":"Dedicated","server_os":"Linux","password":true,"vac":true,"version":"7757534","steam_id":85568392924500089,"keywords":["nocrits","nodmgspread","payload","uncletopia"],"game_id":440,"stv_port":27036,"stv_name":"Uncletopia | Montr√©al | 3 | All Maps | STV","players":null},{"server_id":303,"name":"Uncletopia | Montr√©al | 4 | No Payload","name_short":"mtl-4","host":"mtl-1.ca.uncletopia.com","port":27045,"enabled":true,"region":"us-east","cc":"ca","latitude":45.50889,"longitude":-73.56167,"reserved":0,"last_update":"0001-01-01T00:00:00Z","name_a2s":"Uncletopia | Montr√©al | 4 | No Payload","protocol":17,"map":"pl_borneo","folder":"tf","game":"Team Fortress","app_id":440,"player_count":0,"max_players":24,"Bots":0,"server_type":"Dedicated","server_os":"Linux","password":true,"vac":true,"version":"7757534","steam_id":85568392924500090,"keywords":["nocrits","nodmgspread","payload","uncletopia"],"game_id":440,"stv_port":27046,"stv_name":"Uncletopia | Montr√©al | 4 | No Payload | STV","players":null},{"server_id":13,"name":"Uncletopia | New York City | 1 | All Maps","name_short":"nyc-1","host":"nyc-1.us.uncletopia.com","port":27015,"enabled":true,"region":"us-east","cc":"us","latitude":40.73061,"longitude":-73.93524,"reserved":0,"last_update":"0001-01-01T00:00:00Z","name_a2s":"Uncletopia | New York City | 1 | All Maps","protocol":17,"map":"pl_barnblitz","folder":"tf","game":"Team Fortress","app_id":440,"player_count":24,"max_players":24,"Bots":0,"server_type":"Dedicated","server_os":"Linux","password":true,"vac":true,"version":"7757534","steam_id":85568392924469993,"keywords":["nocrits","nodmgspread","payload","uncletopia"],"game_id":440,"stv_port":27016,"stv_name":"Uncletopia | New York City | 1 | All Maps | STV","players":[{"user_id":645,"name":"CobyNoH0es","steam_id":76561198122236594,"connected_time":425000000000,"state":"active","ping":73},{"user_id":608,"name":"Fog Champ","steam_id":76561198120777991,"connected_time":2141000000000,"state":"active","ping":56},{"user_id":597,"name":"Pizza Party","steam_id":76561198165730754,"connected_time":2808000000000,"state":"active","ping":68},{"user_id":613,"name":"brian eno enjoyer","steam_id":76561198056467179,"connected_time":1287000000000,"state":"active","ping":101},{"user_id":589,"name":"BIGGIE CHEESE","steam_id":76561198014620175,"connected_time":4283000000000,"state":"active","ping":120},{"user_id":606,"name":"puppygirl gaming","steam_id":76561198044363630,"connected_time":2511000000000,"state":"active","ping":46},{"user_id":614,"name":"notatrip (l.i.b)","steam_id":76561198046109327,"connected_time":1274000000000,"state":"active","ping":84},{"user_id":567,"name":"daemon","steam_id":76561198001541433,"connected_time":7303000000000,"state":"active","ping":74},{"user_id":642,"name":"Brendan","steam_id":76561198041079914,"connected_time":475000000000,"state":"active","ping":47},{"user_id":630,"name":"[T]aKer","steam_id":76561198001778013,"connected_time":779000000000,"state":"active","ping":120},{"user_id":646,"name":"Tor","steam_id":76561198148621828,"connected_time":153000000000,"state":"active","ping":92},{"user_id":643,"name":"Master-e","steam_id":76561198173044685,"connected_time":473000000000,"state":"active","ping":60},{"user_id":617,"name":"rad","steam_id":76561198119597043,"connected_time":1050000000000,"state":"active","ping":48},{"user_id":576,"name":"C papi","steam_id":76561198027779564,"connected_time":6572000000000,"state":"active","ping":53},{"user_id":603,"name":"„Ç¢„É≥„Éê„Éº„Ç∞","steam_id":76561199137927878,"connected_time":2608000000000,"state":"active","ping":191},{"user_id":618,"name":"whirlwind","steam_id":76561198168685103,"connected_time":1043000000000,"state":"active","ping":94},{"user_id":633,"name":"diymo","steam_id":76561198017600790,"connected_time":725000000000,"state":"active","ping":105},{"user_id":626,"name":"‚òÖThe Milkman‚û¢","steam_id":76561198164058021,"connected_time":914000000000,"state":"active","ping":51},{"user_id":621,"name":"demoknight tf2","steam_id":76561198070393998,"connected_time":1031000000000,"state":"active","ping":64},{"user_id":622,"name":"Water Weight","steam_id":76561198260699005,"connected_time":1023000000000,"state":"active","ping":57},{"user_id":579,"name":"Vladikr1","steam_id":76561198401495362,"connected_time":6532000000000,"state":"active","ping":72},{"user_id":638,"name":"Bliztank | RGL.gg","steam_id":76561198019252798,"connected_time":620000000000,"state":"active","ping":48},{"user_id":644,"name":"LunarMallow","steam_id":76561198211930151,"connected_time":461000000000,"state":"active","ping":80},{"user_id":640,"name":"Room","steam_id":76561199174579733,"connected_time":609000000000,"state":"active","ping":55}]},{"server_id":14,"name":"Uncletopia | New York City | 2 | All Maps","name_short":"nyc-2","host":"nyc-1.us.uncletopia.com","port":27025,"enabled":true,"region":"us-east","cc":"us","latitude":40.73061,"longitude":-73.93524,"reserved":0,"last_update":"0001-01-01T00:00:00Z","name_a2s":"Uncletopia | New York City | 2 | All Maps","protocol":17,"map":"koth_cascade","folder":"tf","game":"Team Fortress","app_id":440,"player_count":0,"max_players":24,"Bots":0,"server_type":"Dedicated","server_os":"Linux","password":true,"vac":true,"version":"7757534","steam_id":85568392924469994,"keywords":["cp","nocrits","nodmgspread","uncletopia"],"game_id":440,"stv_port":27026,"stv_name":"Uncletopia | New York City | 2 | All Maps | STV","players":null},{"server_id":15,"name":"Uncletopia | New York City | 3 | Stopwatch Beta","name_short":"nyc-3","host":"nyc-1.us.uncletopia.com","port":27035,"enabled":true,"region":"us-east","cc":"us","latitude":40.73061,"longitude":-73.93524,"reserved":0,"last_update":"0001-01-01T00:00:00Z","name_a2s":"Uncletopia | New York City | 3 | Stopwatch Beta","protocol":17,"map":"pl_swiftwater_final1","folder":"tf","game":"Team Fortress","app_id":440,"player_count":0,"max_players":24,"Bots":0,"server_type":"Dedicated","server_os":"Linux","password":true,"vac":true,"version":"7757534","steam_id":85568392924742820,"keywords":["nocrits","nodmgspread","payload","uncletopia"],"game_id":440,"stv_port":27036,"stv_name":"Uncletopia | New York City | 3 | Stopwatch Beta | STV","players":null},{"server_id":16,"name":"Uncletopia | New York City | 4 | Community","name_short":"nyc-4","host":"nyc-1.us.uncletopia.com","port":27045,"enabled":true,"region":"us-east","cc":"us","latitude":40.73061,"longitude":-73.93524,"reserved":0,"last_update":"0001-01-01T00:00:00Z","name_a2s":"Uncletopia | New York City | 4 | Community","protocol":17,"map":"workshop/pl_cashworks_final1.ugc2904065412","folder":"tf","game":"Team Fortress","app_id":440,"player_count":0,"max_players":24,"Bots":0,"server_type":"Dedicated","server_os":"Linux","password":true,"vac":true,"version":"7757534","steam_id":85568392924742821,"keywords":["nocrits","nodmgspread","payload","uncletopia"],"game_id":440,"stv_port":27046,"stv_name":"Uncletopia | New York City | 4 | Community | STV","players":null},{"server_id":142,"name":"Uncletopia | S√£o Paulo | 1 | All Maps","name_short":"sao-1","host":"sao-1.br.uncletopia.com","port":27015,"enabled":true,"region":"sa","cc":"br","latitude":-23.533773,"longitude":-46.62529,"reserved":0,"last_update":"0001-01-01T00:00:00Z","name_a2s":"Uncletopia | S√£o Paulo | 1 | All Maps","protocol":17,"map":"koth_highpass","folder":"tf","game":"Team Fortress","app_id":440,"player_count":0,"max_players":24,"Bots":0,"server_type":"Dedicated","server_os":"Linux","password":true,"vac":true,"version":"7757534","steam_id":85568392924469996,"keywords":["cp","nocrits","nodmgspread","uncletopia"],"game_id":440,"stv_port":27016,"stv_name":"Uncletopia | S√£o Paulo | 1 | All Maps | STV","players":null},{"server_id":143,"name":"Uncletopia | S√£o Paulo | 2 | All Maps","name_short":"sao-2","host":"sao-2.br.uncletopia.com","port":27015,"enabled":true,"region":"sa","cc":"br","latitude":-23.533773,"longitude":-46.62529,"reserved":0,"last_update":"0001-01-01T00:00:00Z","name_a2s":"Uncletopia | S√£o Paulo | 2 | All Maps","protocol":17,"map":"koth_viaduct","folder":"tf","game":"Team Fortress","app_id":440,"player_count":0,"max_players":24,"Bots":0,"server_type":"Dedicated","server_os":"Linux","password":true,"vac":true,"version":"7757534","steam_id":85568392924485349,"keywords":["cp","nocrits","nodmgspread","uncletopia"],"game_id":440,"stv_port":27016,"stv_name":"Uncletopia | S√£o Paulo | 2 | All Maps | STV","players":null},{"server_id":7,"name":"Uncletopia | Seattle | 1 | All Maps","name_short":"sea-1","host":"sea-1.us.uncletopia.com","port":27015,"enabled":true,"region":"us-west","cc":"us","latitude":47.608013,"longitude":-122.33517,"reserved":0,"last_update":"0001-01-01T00:00:00Z","name_a2s":"Uncletopia | Seattle | 1 | All Maps","protocol":17,"map":"pl_borneo","folder":"tf","game":"Team Fortress","app_id":440,"player_count":24,"max_players":24,"Bots":0,"server_type":"Dedicated","server_os":"Linux","password":true,"vac":true,"version":"7757534","steam_id":85568392924469997,"keywords":["nocrits","nodmgspread","payload","uncletopia"],"game_id":440,"stv_port":27016,"stv_name":"Uncletopia | Seattle | 1 | All Maps | STV","players":[{"user_id":417,"name":"the average dreamlander","steam_id":76561198325306660,"connected_time":3866000000000,"state":"active","ping":57},{"user_id":420,"name":"Kobe","steam_id":76561198041937355,"connected_time":3702000000000,"state":"active","ping":106},{"user_id":292,"name":"Level 99 Mudcrab","steam_id":76561198077452771,"connected_time":13941000000000,"state":"active","ping":57},{"user_id":434,"name":"Riske","steam_id":76561198115840568,"connected_time":2497000000000,"state":"active","ping":118},{"user_id":452,"name":"self sufficient kitten","steam_id":76561197960592612,"connected_time":840000000000,"state":"active","ping":47},{"user_id":456,"name":":)","steam_id":76561197974493959,"connected_time":635000000000,"state":"active","ping":119},{"user_id":433,"name":"PopcornNinja101","steam_id":76561198330680181,"connected_time":2536000000000,"state":"active","ping":46},{"user_id":436,"name":"chicken wit dah eggrow","steam_id":76561198115458307,"connected_time":2428000000000,"state":"active","ping":75},{"user_id":471,"name":"Xanathar","steam_id":76561197985749277,"connected_time":30000000000,"state":"active","ping":85},{"user_id":464,"name":"seats","steam_id":76561197998756039,"connected_time":241000000000,"state":"active","ping":76},{"user_id":465,"name":"Prison with an F","steam_id":76561198087865543,"connected_time":152000000000,"state":"active","ping":60},{"user_id":457,"name":"pumba","steam_id":76561198207881077,"connected_time":621000000000,"state":"active","ping":105},{"user_id":425,"name":"we did it mate","steam_id":76561199471434875,"connected_time":3287000000000,"state":"active","ping":40},{"user_id":472,"name":"Requiem","steam_id":76561198297990877,"connected_time":11000000000,"state":"spawning","ping":28},{"user_id":467,"name":"Mozz","steam_id":76561198132892873,"connected_time":78000000000,"state":"active","ping":100},{"user_id":468,"name":"melon","steam_id":76561198041266286,"connected_time":76000000000,"state":"active","ping":85},{"user_id":444,"name":"strong and healthy gamer","steam_id":76561198049489349,"connected_time":1730000000000,"state":"active","ping":60},{"user_id":392,"name":"rat gets the cheese","steam_id":76561198031234032,"connected_time":6672000000000,"state":"active","ping":95},{"user_id":400,"name":"SlightlyToasty","steam_id":76561198934455279,"connected_time":5555000000000,"state":"active","ping":96},{"user_id":455,"name":"mouse gets the cheesecake","steam_id":76561198337705174,"connected_time":667000000000,"state":"active","ping":76},{"user_id":473,"name":"goldhed","steam_id":76561198051751133,"connected_time":3000000000,"state":"spawning","ping":57},{"user_id":334,"name":"Ayayahuasca","steam_id":76561199002906056,"connected_time":10573000000000,"state":"active","ping":46},{"user_id":463,"name":"Xylemon","steam_id":76561197965297420,"connected_time":265000000000,"state":"active","ping":67},{"user_id":470,"name":"Goat","steam_id":76561198130683707,"connected_time":74000000000,"state":"active","ping":79}]},{"server_id":119,"name":"Uncletopia | Seattle | 2 | All Maps","name_short":"sea-2","host":"sea-1.us.uncletopia.com","port":27025,"enabled":true,"region":"us-west","cc":"us","latitude":47.608013,"longitude":-122.33517,"reserved":0,"last_update":"0001-01-01T00:00:00Z","name_a2s":"Uncletopia | Seattle | 2 | All Maps","protocol":17,"map":"koth_king","folder":"tf","game":"Team Fortress","app_id":440,"player_count":19,"max_players":24,"Bots":0,"server_type":"Dedicated","server_os":"Linux","password":true,"vac":true,"version":"7757534","steam_id":85568392924469998,"keywords":["cp","nocrits","nodmgspread","uncletopia"],"game_id":440,"stv_port":27026,"stv_name":"Uncletopia | Seattle | 2 | All Maps | STV","players":[{"user_id":715,"name":"shiftshock01","steam_id":76561199049488870,"connected_time":9222000000000,"state":"active","ping":57},{"user_id":821,"name":"ms. anthrope","steam_id":76561198063533082,"connected_time":1065000000000,"state":"active","ping":31},{"user_id":769,"name":"KHKenny","steam_id":76561198210902499,"connected_time":5457000000000,"state":"active","ping":75},{"user_id":832,"name":"rebycorp321","steam_id":76561198247521636,"connected_time":49000000000,"state":"active","ping":57},{"user_id":825,"name":"EatSomeBEES","steam_id":76561198047334307,"connected_time":607000000000,"state":"active","ping":90},{"user_id":788,"name":"hungry home invader","steam_id":76561198190962742,"connected_time":3758000000000,"state":"active","ping":92},{"user_id":826,"name":"Feel the bern","steam_id":76561198078824519,"connected_time":582000000000,"state":"active","ping":96},{"user_id":784,"name":"FCKGW-RHQQ2-YXRKT-8TG6W-2B7Q8","steam_id":76561197993138592,"connected_time":4760000000000,"state":"active","ping":43},{"user_id":828,"name":"Jay","steam_id":76561198815333435,"connected_time":519000000000,"state":"active","ping":86},{"user_id":807,"name":"O bez","steam_id":76561198841579939,"connected_time":1724000000000,"state":"active","ping":88},{"user_id":796,"name":"taco bell fire sauce","steam_id":76561198046073848,"connected_time":3215000000000,"state":"active","ping":45},{"user_id":747,"name":"me","steam_id":76561199468285784,"connected_time":6897000000000,"state":"active","ping":59},{"user_id":822,"name":"Rommel2007","steam_id":76561198041744631,"connected_time":1060000000000,"state":"active","ping":83},{"user_id":792,"name":"Mauve","steam_id":76561199020265281,"connected_time":3441000000000,"state":"active","ping":97},{"user_id":816,"name":"MagicalBoyChan","steam_id":76561198024776873,"connected_time":1125000000000,"state":"active","ping":66},{"user_id":824,"name":"softest_Poly","steam_id":76561198192264662,"connected_time":716000000000,"state":"active","ping":113},{"user_id":787,"name":"cheeto dorito","steam_id":76561198107941274,"connected_time":4376000000000,"state":"active","ping":74},{"user_id":829,"name":"Greeble","steam_id":76561198000283892,"connected_time":445000000000,"state":"active","ping":76},{"user_id":831,"name":"Mr Majesticals","steam_id":76561198015242706,"connected_time":380000000000,"state":"active","ping":86}]},{"server_id":406,"name":"Uncletopia | Seattle | 3 | Stopwatch Beta","name_short":"sea-3","host":"sea-1.us.uncletopia.com","port":27035,"enabled":true,"region":"us-west","cc":"us","latitude":47.608013,"longitude":-122.33517,"reserved":0,"last_update":"0001-01-01T00:00:00Z","name_a2s":"Uncletopia | Seattle | 3 | Stopwatch Beta","protocol":17,"map":"workshop/pl_vigil_rc9.ugc1266210012","folder":"tf","game":"Team Fortress","app_id":440,"player_count":0,"max_players":24,"Bots":0,"server_type":"Dedicated","server_os":"Linux","password":true,"vac":true,"version":"7757534","steam_id":85568392924515217,"keywords":["nocrits","nodmgspread","payload","uncletopia"],"game_id":440,"stv_port":27036,"stv_name":"Uncletopia | Seattle | 3 | Stopwatch Beta | STV","players":null},{"server_id":17,"name":"Uncletopia | San Francisco | 1 | All Maps","name_short":"sfo-1","host":"sfo-1.us.uncletopia.com","port":27015,"enabled":true,"region":"us-west","cc":"us","latitude":37.77397,"longitude":-122.4313,"reserved":0,"last_update":"0001-01-01T00:00:00Z","name_a2s":"Uncletopia | San Francisco | 1 | All Maps","protocol":17,"map":"pl_snowycoast","folder":"tf","game":"Team Fortress","app_id":440,"player_count":0,"max_players":24,"Bots":0,"server_type":"Dedicated","server_os":"Linux","password":true,"vac":true,"version":"7757534","steam_id":85568392924469999,"keywords":["nocrits","nodmgspread","payload","uncletopia"],"game_id":440,"stv_port":27016,"stv_name":"Uncletopia | San Francisco | 1 | All Maps | STV","players":null},{"server_id":18,"name":"Uncletopia | San Francisco | 2 | All Maps","name_short":"sfo-2","host":"sfo-1.us.uncletopia.com","port":27025,"enabled":true,"region":"us-west","cc":"us","latitude":37.77397,"longitude":-122.4313,"reserved":0,"last_update":"0001-01-01T00:00:00Z","name_a2s":"Uncletopia | San Francisco | 2 | All Maps","protocol":17,"map":"koth_nucleus","folder":"tf","game":"Team Fortress","app_id":440,"player_count":24,"max_players":24,"Bots":0,"server_type":"Dedicated","server_os":"Linux","password":true,"vac":true,"version":"7757534","steam_id":85568392924470000,"keywords":["cp","nocrits","nodmgspread","uncletopia"],"game_id":440,"stv_port":27026,"stv_name":"Uncletopia | San Francisco | 2 | All Maps | STV","players":[{"user_id":396,"name":"Yung Yaboi","steam_id":76561198316229273,"connected_time":1336000000000,"state":"active","ping":102},{"user_id":349,"name":"Bikeway Naros","steam_id":76561198086676786,"connected_time":5070000000000,"state":"active","ping":48},{"user_id":351,"name":"Battery_Included","steam_id":76561198067164431,"connected_time":4957000000000,"state":"active","ping":49},{"user_id":397,"name":"35 Years Without a Footjob...","steam_id":76561198799299193,"connected_time":1320000000000,"state":"active","ping":68},{"user_id":355,"name":"laggy mcstab","steam_id":76561198106379962,"connected_time":4715000000000,"state":"active","ping":100},{"user_id":412,"name":"Pudsla","steam_id":76561198258974036,"connected_time":167000000000,"state":"active","ping":54},{"user_id":398,"name":"Shini","steam_id":76561199066567421,"connected_time":1316000000000,"state":"active","ping":71},{"user_id":400,"name":"Scoron","steam_id":76561198062099305,"connected_time":1250000000000,"state":"active","ping":55},{"user_id":390,"name":"150cc lightning cup andy","steam_id":76561198121268007,"connected_time":1783000000000,"state":"active","ping":63},{"user_id":180,"name":"tweet","steam_id":76561198166515735,"connected_time":20779000000000,"state":"active","ping":46},{"user_id":401,"name":"eryn üó∫","steam_id":76561198004433070,"connected_time":1246000000000,"state":"active","ping":92},{"user_id":402,"name":"Ketamine Ape","steam_id":76561198143132686,"connected_time":1237000000000,"state":"active","ping":89},{"user_id":393,"name":"served","steam_id":76561199438267625,"connected_time":1495000000000,"state":"active","ping":60},{"user_id":374,"name":"Dani","steam_id":76561198408146684,"connected_time":3036000000000,"state":"active","ping":88},{"user_id":394,"name":"Secret633","steam_id":76561199136015400,"connected_time":1483000000000,"state":"active","ping":101},{"user_id":410,"name":"everythingrhymeswithorange","steam_id":76561198010306193,"connected_time":651000000000,"state":"active","ping":63},{"user_id":368,"name":"Scarface #RattPack","steam_id":76561197979614166,"connected_time":3344000000000,"state":"active","ping":57},{"user_id":405,"name":"Arewulf","steam_id":76561198220118495,"connected_time":1189000000000,"state":"active","ping":78},{"user_id":409,"name":"-BRH- Tangled up in Bluegrass","steam_id":76561197987181139,"connected_time":965000000000,"state":"active","ping":102},{"user_id":363,"name":"Trips","steam_id":76561198054581597,"connected_time":4154000000000,"state":"active","ping":45},{"user_id":345,"name":"Akkawi","steam_id":76561198203159952,"connected_time":5791000000000,"state":"active","ping":60},{"user_id":388,"name":"Malmart_Employee","steam_id":76561198320388704,"connected_time":2047000000000,"state":"active","ping":81},{"user_id":339,"name":"Frenchfry_Addict","steam_id":76561199156867989,"connected_time":6761000000000,"state":"active","ping":83},{"user_id":411,"name":"Context","steam_id":76561197972634187,"connected_time":299000000000,"state":"active","ping":32}]},{"server_id":19,"name":"Uncletopia | San Francisco | 3 | Stopwatch Beta","name_short":"sfo-3","host":"sfo-1.us.uncletopia.com","port":27035,"enabled":true,"region":"us-west","cc":"us","latitude":37.77397,"longitude":-122.4313,"reserved":0,"last_update":"0001-01-01T00:00:00Z","name_a2s":"Uncletopia | San Francisco | 3 | Stopwatch Beta","protocol":17,"map":"workshop/koth_ramjam_rc1.ugc459778887","folder":"tf","game":"Team Fortress","app_id":440,"player_count":0,"max_players":24,"Bots":0,"server_type":"Dedicated","server_os":"Linux","password":true,"vac":true,"version":"7757534","steam_id":85568392924742824,"keywords":["cp","nocrits","nodmgspread","uncletopia"],"game_id":440,"stv_port":27036,"stv_name":"Uncletopia | San Francisco | 3 | Stopwatch Beta | STV","players":null},{"server_id":20,"name":"Uncletopia | San Francisco | 4 | Community","name_short":"sfo-4","host":"sfo-1.us.uncletopia.com","port":27045,"enabled":true,"region":"us-west","cc":"us","latitude":37.77397,"longitude":-122.4313,"reserved":0,"last_update":"0001-01-01T00:00:00Z","name_a2s":"Uncletopia | San Francisco | 4 | Community","protocol":17,"map":"workshop/pl_corrode_rc2.ugc546577989","folder":"tf","game":"Team Fortress","app_id":440,"player_count":0,"max_players":24,"Bots":0,"server_type":"Dedicated","server_os":"Linux","password":true,"vac":true,"version":"7757534","steam_id":85568392924742826,"keywords":["nocrits","nodmgspread","payload","uncletopia"],"game_id":440,"stv_port":27046,"stv_name":"Uncletopia | San Francisco | 4 | Community | STV","players":null},{"server_id":141,"name":"Uncletopia | Sydney | 1 | All Maps","name_short":"syd-1","host":"syd-1.au.uncletopia.com","port":27015,"enabled":true,"region":"au","cc":"au","latitude":-33.865143,"longitude":151.2099,"reserved":0,"last_update":"0001-01-01T00:00:00Z","name_a2s":"Uncletopia | Sydney | 1 | All Maps","protocol":17,"map":"cp_snakewater_final1","folder":"tf","game":"Team Fortress","app_id":440,"player_count":9,"max_players":24,"Bots":0,"server_type":"Dedicated","server_os":"Linux","password":true,"vac":true,"version":"7757534","steam_id":85568392924470001,"keywords":["cp","nocrits","nodmgspread","uncletopia"],"game_id":440,"stv_port":27016,"stv_name":"Uncletopia | Sydney | 1 | All Maps | STV","players":[{"user_id":316,"name":"scout tf2","steam_id":76561198251386932,"connected_time":2510000000000,"state":"active","ping":64},{"user_id":317,"name":"JayTheLlamaKing","steam_id":76561198836354249,"connected_time":2508000000000,"state":"active","ping":58},{"user_id":320,"name":"Ironical","steam_id":76561198184873390,"connected_time":536000000000,"state":"active","ping":48},{"user_id":326,"name":"tweedie","steam_id":76561198063425523,"connected_time":126000000000,"state":"active","ping":50},{"user_id":329,"name":"Phobia¬≤","steam_id":76561198038833524,"connected_time":44000000000,"state":"active","ping":51},{"user_id":323,"name":"TheNeutrality","steam_id":76561199017954062,"connected_time":272000000000,"state":"active","ping":172},{"user_id":325,"name":"DIY Miracle","steam_id":76561198046228152,"connected_time":228000000000,"state":"active","ping":54},{"user_id":327,"name":"Nigel Homeless","steam_id":76561198207746773,"connected_time":91000000000,"state":"active","ping":66},{"user_id":330,"name":"Taskmaster","steam_id":76561198402045918,"connected_time":16000000000,"state":"active","ping":48}]},{"server_id":123,"name":"Uncletopia | Sydney | 2 | All Maps","name_short":"syd-2","host":"syd-1.au.uncletopia.com","port":27025,"enabled":true,"region":"au","cc":"au","latitude":-33.865143,"longitude":151.2099,"reserved":0,"last_update":"0001-01-01T00:00:00Z","name_a2s":"Uncletopia | Sydney | 2 | All Maps","protocol":17,"map":"koth_highpass","folder":"tf","game":"Team Fortress","app_id":440,"player_count":24,"max_players":24,"Bots":0,"server_type":"Dedicated","server_os":"Linux","password":true,"vac":true,"version":"7757534","steam_id":85568392924470002,"keywords":["cp","nocrits","nodmgspread","uncletopia"],"game_id":440,"stv_port":27026,"stv_name":"Uncletopia | Sydney | 2 | All Maps | STV","players":[{"user_id":215,"name":"Consolidated Fart","steam_id":76561198924101909,"connected_time":62000000000,"state":"active","ping":66},{"user_id":213,"name":"Hawk","steam_id":76561198135164277,"connected_time":164000000000,"state":"active","ping":53},{"user_id":184,"name":"Splooge Fellow","steam_id":76561198067993108,"connected_time":1953000000000,"state":"active","ping":47},{"user_id":206,"name":"Distilledrain41","steam_id":76561198272717119,"connected_time":636000000000,"state":"active","ping":45},{"user_id":194,"name":"Abraham Lincoln","steam_id":76561198095292515,"connected_time":1508000000000,"state":"active","ping":60},{"user_id":152,"name":"Easel (any/all)","steam_id":76561198049213583,"connected_time":4586000000000,"state":"active","ping":65},{"user_id":176,"name":"Radio","steam_id":76561199436707447,"connected_time":3216000000000,"state":"active","ping":47},{"user_id":189,"name":"reeee.vol 2","steam_id":76561198309177510,"connected_time":1760000000000,"state":"active","ping":80},{"user_id":200,"name":"voxii","steam_id":76561198099698281,"connected_time":940000000000,"state":"active","ping":64},{"user_id":177,"name":"Zeal","steam_id":76561198060829393,"connected_time":3009000000000,"state":"active","ping":68},{"user_id":211,"name":"Dank Walrus","steam_id":76561198312719211,"connected_time":175000000000,"state":"active","ping":40},{"user_id":89,"name":"KnowZero","steam_id":76561198095752015,"connected_time":9942000000000,"state":"active","ping":61},{"user_id":216,"name":"seiran","steam_id":76561198880907232,"connected_time":8000000000,"state":"spawning","ping":93},{"user_id":178,"name":"Emanuel Augustus","steam_id":76561199081848498,"connected_time":2961000000000,"state":"active","ping":61},{"user_id":180,"name":"Wake'n'Bake'n'Make'n'Bacon","steam_id":76561198061960926,"connected_time":2161000000000,"state":"active","ping":96},{"user_id":174,"name":"SaltierThanYou","steam_id":76561198444395188,"connected_time":3244000000000,"state":"active","ping":79},{"user_id":203,"name":"SubHam","steam_id":76561198071578622,"connected_time":831000000000,"state":"active","ping":70},{"user_id":212,"name":"james16","steam_id":76561198362678073,"connected_time":166000000000,"state":"active","ping":34},{"user_id":153,"name":"FrontlineNinja","steam_id":76561198046731954,"connected_time":4586000000000,"state":"active","ping":47},{"user_id":208,"name":"halloween","steam_id":76561198088998460,"connected_time":589000000000,"state":"active","ping":75},{"user_id":209,"name":"Chicken nugget enjoyer","steam_id":76561199084263464,"connected_time":579000000000,"state":"active","ping":148},{"user_id":210,"name":"Kaynis82","steam_id":76561199067369201,"connected_time":570000000000,"state":"active","ping":65},{"user_id":214,"name":"Big Boss","steam_id":76561198023962878,"connected_time":159000000000,"state":"active","ping":49},{"user_id":217,"name":"Piklz","steam_id":76561198043384139,"connected_time":8000000000,"state":"spawning","ping":44}]},{"server_id":395,"name":"Uncletopia | Sydney | 3 | All Maps","name_short":"syd-3","host":"syd-1.au.uncletopia.com","port":27035,"enabled":true,"region":"au","cc":"au","latitude":-33.865143,"longitude":151.2099,"reserved":0,"last_update":"0001-01-01T00:00:00Z","name_a2s":"Uncletopia | Sydney | 3 | All Maps","protocol":17,"map":"koth_viaduct","folder":"tf","game":"Team Fortress","app_id":440,"player_count":0,"max_players":24,"Bots":0,"server_type":"Dedicated","server_os":"Linux","password":true,"vac":true,"version":"7757534","steam_id":85568392925194467,"keywords":["cp","nocrits","nodmgspread","uncletopia"],"game_id":440,"stv_port":27036,"stv_name":"Uncletopia | Sydney | 3 | All Maps | STV","players":null},{"server_id":396,"name":"Uncletopia | Sydney | 4 | All Maps","name_short":"syd-4","host":"syd-1.au.uncletopia.com","port":27045,"enabled":true,"region":"au","cc":"au","latitude":-33.865143,"longitude":151.2099,"reserved":0,"last_update":"0001-01-01T00:00:00Z","name_a2s":"Uncletopia | Sydney | 4 | All Maps","protocol":17,"map":"koth_lakeside_final","folder":"tf","game":"Team Fortress","app_id":440,"player_count":0,"max_players":24,"Bots":0,"server_type":"Dedicated","server_os":"Linux","password":true,"vac":true,"version":"7757534","steam_id":85568392925397958,"keywords":["cp","nocrits","nodmgspread","uncletopia"],"game_id":440,"stv_port":27046,"stv_name":"Uncletopia | Sydney | 4 | All Maps | STV","players":null},{"server_id":58,"name":"Uncletopia | Sydney | 5 | Stopwatch Beta","name_short":"syd-5","host":"syd-1.au.uncletopia.com","port":27055,"enabled":true,"region":"au","cc":"au","latitude":-33.865143,"longitude":151.2099,"reserved":0,"last_update":"0001-01-01T00:00:00Z","name_a2s":"Uncletopia | Sydney | 5 | Stopwatch Beta","protocol":17,"map":"workshop/koth_clearcut_b15.ugc2107050255","folder":"tf","game":"Team Fortress","app_id":440,"player_count":0,"max_players":24,"Bots":0,"server_type":"Dedicated","server_os":"Linux","password":true,"vac":true,"version":"7757534","steam_id":85568392925397959,"keywords":["cp","nocrits","nodmgspread","uncletopia"],"game_id":440,"stv_port":27056,"stv_name":"Uncletopia | Sydney | 5 | Stopwatch Beta | STV","players":null},{"server_id":59,"name":"Uncletopia | Sydney | 6 | Community","name_short":"syd-6","host":"syd-1.au.uncletopia.com","port":27065,"enabled":true,"region":"au","cc":"au","latitude":-33.865143,"longitude":151.2099,"reserved":0,"last_update":"0001-01-01T00:00:00Z","name_a2s":"Uncletopia | Sydney | 6 | Community","protocol":17,"map":"workshop/cp_sulfur_rc2.ugc619869471","folder":"tf","game":"Team Fortress","app_id":440,"player_count":0,"max_players":24,"Bots":0,"server_type":"Dedicated","server_os":"Linux","password":true,"vac":true,"version":"7757534","steam_id":85568392925397960,"keywords":["cp","nocrits","nodmgspread","uncletopia"],"game_id":440,"stv_port":27066,"stv_name":"Uncletopia | Sydney | 6 | Community | STV","players":null},{"server_id":49,"name":"Uncletopia | Warsaw | 1 | All Maps","name_short":"waw-1","host":"waw-1.pl.uncletopia.com","port":27015,"enabled":true,"region":"eu","cc":"pl","latitude":52.2297,"longitude":21.017532,"reserved":0,"last_update":"0001-01-01T00:00:00Z","name_a2s":"","protocol":0,"map":"","folder":"","game":"","app_id":0,"player_count":0,"max_players":0,"Bots":0,"server_type":"","server_os":"","password":false,"vac":false,"version":"","steam_id":0,"keywords":null,"game_id":0,"stv_port":0,"stv_name":"","players":null},{"server_id":50,"name":"Uncletopia | Warsaw | 2 | All Maps","name_short":"waw-2","host":"waw-1.pl.uncletopia.com","port":27025,"enabled":true,"region":"eu","cc":"pl","latitude":52.2297,"longitude":21.017532,"reserved":0,"last_update":"0001-01-01T00:00:00Z","name_a2s":"Uncletopia | Warsaw | 2 | All Maps","protocol":17,"map":"cp_process_final","folder":"tf","game":"Team Fortress","app_id":440,"player_count":0,"max_players":24,"Bots":0,"server_type":"Dedicated","server_os":"Linux","password":true,"vac":true,"version":"7757534","steam_id":85568392925397851,"keywords":["cp","nocrits","nodmgspread","uncletopia"],"game_id":440,"stv_port":27026,"stv_name":"Uncletopia | Warsaw | 2 | All Maps | STV","players":null},{"server_id":51,"name":"Uncletopia | Warsaw | 3 | All Maps","name_short":"waw-3","host":"waw-1.pl.uncletopia.com","port":27035,"enabled":true,"region":"eu","cc":"pl","latitude":52.2297,"longitude":21.017532,"reserved":0,"last_update":"0001-01-01T00:00:00Z","name_a2s":"Uncletopia | Warsaw | 3 | All Maps","protocol":17,"map":"pl_barnblitz","folder":"tf","game":"Team Fortress","app_id":440,"player_count":0,"max_players":24,"Bots":0,"server_type":"Dedicated","server_os":"Linux","password":true,"vac":true,"version":"7757534","steam_id":85568392925397852,"keywords":["nocrits","nodmgspread","payload","uncletopia"],"game_id":440,"stv_port":27036,"stv_name":"Uncletopia | Warsaw | 3 | All Maps | STV","players":null},{"server_id":52,"name":"Uncletopia | Warsaw | 4 | All Maps","name_short":"waw-4","host":"waw-1.pl.uncletopia.com","port":27045,"enabled":true,"region":"eu","cc":"pl","latitude":52.2297,"longitude":21.017532,"reserved":0,"last_update":"0001-01-01T00:00:00Z","name_a2s":"Uncletopia | Warsaw | 4 | All Maps","protocol":17,"map":"pl_snowycoast","folder":"tf","game":"Team Fortress","app_id":440,"player_count":0,"max_players":24,"Bots":0,"server_type":"Dedicated","server_os":"Linux","password":true,"vac":true,"version":"7757534","steam_id":85568392925397853,"keywords":["nocrits","nodmgspread","payload","uncletopia"],"game_id":440,"stv_port":27046,"stv_name":"Uncletopia | Warsaw | 4 | All Maps | STV","players":null},{"server_id":53,"name":"Uncletopia | Warsaw | 5 | Stopwatch Beta","name_short":"waw-5","host":"waw-1.pl.uncletopia.com","port":27055,"enabled":true,"region":"eu","cc":"pl","latitude":52.2297,"longitude":21.017532,"reserved":0,"last_update":"0001-01-01T00:00:00Z","name_a2s":"Uncletopia | Warsaw | 5 | Stopwatch Beta","protocol":17,"map":"pl_barnblitz","folder":"tf","game":"Team Fortress","app_id":440,"player_count":0,"max_players":24,"Bots":0,"server_type":"Dedicated","server_os":"Linux","password":true,"vac":true,"version":"7757534","steam_id":85568392925397854,"keywords":["nocrits","nodmgspread","payload","uncletopia"],"game_id":440,"stv_port":27056,"stv_name":"Uncletopia | Warsaw | 5 | Stopwatch Beta | STV","players":null},{"server_id":54,"name":"Uncletopia | Warsaw | 6 | Community","name_short":"waw-6","host":"waw-1.pl.uncletopia.com","port":27065,"enabled":true,"region":"eu","cc":"pl","latitude":52.2297,"longitude":21.017532,"reserved":0,"last_update":"0001-01-01T00:00:00Z","name_a2s":"Uncletopia | Warsaw | 6 | Community","protocol":17,"map":"pl_swiftwater_final1","folder":"tf","game":"Team Fortress","app_id":440,"player_count":0,"max_players":24,"Bots":0,"server_type":"Dedicated","server_os":"Linux","password":true,"vac":true,"version":"7757534","steam_id":85568392925397856,"keywords":["nocrits","nodmgspread","payload","uncletopia"],"game_id":440,"stv_port":27066,"stv_name":"Uncletopia | Warsaw | 6 | Community | STV","players":null}]}