{"status":true,"message":"","result":[{"server_id":9,"name":"Uncletopia | Atlanta | 1 | All Maps","name_short":"atl-1","host":"atl-1.us.uncletopia.com","port":27015,"enabled":true,"region":"us-east","cc":"us","latitude":33.753746,"longitude":-84.38633,"reserved":0,"last_update":"0001-01-01T00:00:00Z","name_a2s":"Uncletopia | Atlanta | 1 | All Maps","protocol":17,"map":"koth_highpass","folder":"tf","game":"Team Fortress","app_id":440,"player_count":0,"max_players":24,"Bots":0,"server_type":"Dedicated","server_os":"Linux","password":true,"vac":true,"version":"7961495","steam_id":85568392924469982,"keywords":["cp","nocrits","nodmgspread","uncletopia"],"game_id":440,"stv_port":27016,"stv_name":"Uncletopia | Atlanta | 1 | All Maps | STV","players":null},{"server_id":104,"name":"Uncletopia | Atlanta | 2 | All Maps","name_short":"atl-2","host":"atl-1.us.uncletopia.com","port":27025,"enabled":true,"region":"us-east","cc":"us","latitude":33.753746,"longitude":-84.38633,"reserved":0,"last_update":"0001-01-01T00:00:00Z","name_a2s":"Uncletopia | Atlanta | 2 | All Maps","protocol":17,"map":"cp_badlands","folder":"tf","game":"Team Fortress","app_id":440,"player_count":0,"max_players":24,"Bots":0,"server_type":"Dedicated","server_os":"Linux","password":true,"vac":true,"version":"7961495","steam_id":85568392924469983,"keywords":["cp","nocrits","nodmgspread","uncletopia"],"game_id":440,"stv_port":27026,"stv_name":"Uncletopia | Atlanta | 2 | All Maps | STV","players":null},{"server_id":400,"name":"Uncletopia | Atlanta | 3 | Stopwatch","name_short":"atl-3","host":"atl-1.us.uncletopia.com","port":27035,"enabled":true,"region":"us-east","cc":"us","latitude":33.753746,"longitude":-84.38633,"reserved":0,"last_update":"0001-01-01T00:00:00Z","name_a2s":"Uncletopia | Atlanta | 3 | Stopwatch","protocol":17,"map":"workshop/koth_ashville_final.ugc2130459942","folder":"tf","game":"Team Fortress","app_id":440,"player_count":0,"max_players":24,"Bots":0,"server_type":"Dedicated","server_os":"Linux","password":true,"vac":true,"version":"7961495","steam_id":85568392924515187,"keywords":["cp","nocrits","nodmgspread","uncletopia"],"game_id":440,"stv_port":27036,"stv_name":"Uncletopia | Atlanta | 3 | Stopwatch | STV","players":null},{"server_id":401,"name":"Uncletopia | Atlanta | 4 | Community","name_short":"atl-4","host":"atl-1.us.uncletopia.com","port":27045,"enabled":true,"region":"us-east","cc":"us","latitude":33.753746,"longitude":-84.38633,"reserved":0,"last_update":"0001-01-01T00:00:00Z","name_a2s":"Uncletopia | Atlanta | 4 | Community","protocol":17,"map":"workshop/pl_badwater_pro_v12.ugc2142942074","folder":"tf","game":"Team Fortress","app_id":440,"player_count":0,"max_players":24,"Bots":0,"server_type":"Dedicated","server_os":"Linux","password":true,"vac":true,"version":"7961495","steam_id":85568392924515188,"keywords":["nocrits","nodmgspread","payload","uncletopia"],"game_id":440,"stv_port":27046,"stv_name":"Uncletopia | Atlanta | 4 | Community | STV","players":null},{"server_id":2,"name":"Uncletopia | Chicago | 1 | All Maps","name_short":"chi-1","host":"chi-1.us.uncletopia.com","port":27015,"enabled":true,"region":"us-central","cc":"us","latitude":41.881832,"longitude":-87.62318,"reserved":0,"last_update":"0001-01-01T00:00:00Z","name_a2s":"Uncletopia | Chicago | 1 | All Maps","protocol":17,"map":"pl_frontier_final","folder":"tf","game":"Team Fortress","app_id":440,"player_count":24,"max_players":24,"Bots":0,"server_type":"Dedicated","server_os":"Linux","password":true,"vac":true,"version":"7961495","steam_id":85568392924469984,"keywords":["nocrits","nodmgspread","payload","uncletopia"],"game_id":440,"stv_port":27016,"stv_name":"Uncletopia | Chicago | 1 | All Maps | STV","players":[{"user_id":181,"name":"Stimming","steam_id":76561199127423378,"connected_time":2870000000000,"state":"active","ping":100},{"user_id":172,"name":"Gotta Move That Gear Up","steam_id":76561197993467034,"connected_time":3367000000000,"state":"active","ping":56},{"user_id":206,"name":"·πΩ‚ßâ Lojack Porscheman","steam_id":76561198000173889,"connected_time":819000000000,"state":"active","ping":71},{"user_id":190,"name":"Smitty Werbenjagermanjensen","steam_id":76561198065782439,"connected_time":2314000000000,"state":"active","ping":97},{"user_id":173,"name":"poorman #1 sniper","steam_id":76561198447884169,"connected_time":3276000000000,"state":"active","ping":57},{"user_id":200,"name":"ParchedPigeon9","steam_id":76561198257204226,"connected_time":1356000000000,"state":"active","ping":63},{"user_id":198,"name":"sirsmit1","steam_id":76561199129778001,"connected_time":1506000000000,"state":"active","ping":72},{"user_id":191,"name":"CabezaGrande","steam_id":76561197972555502,"connected_time":2276000000000,"state":"active","ping":55},{"user_id":213,"name":"Stolas ‚ô•","steam_id":76561198835430280,"connected_time":329000000000,"state":"active","ping":56},{"user_id":171,"name":"Fiendish Frog","steam_id":76561198029478821,"connected_time":3442000000000,"state":"active","ping":71},{"user_id":186,"name":"Stonershade","steam_id":76561198377429433,"connected_time":2528000000000,"state":"active","ping":66},{"user_id":110,"name":"harmless people ‚Üí wild beasts","steam_id":76561197995620232,"connected_time":8607000000000,"state":"active","ping":58},{"user_id":209,"name":"Medicated Thembo","steam_id":76561198035868181,"connected_time":581000000000,"state":"active","ping":74},{"user_id":160,"name":"Lily (she/her)","steam_id":76561198355495948,"connected_time":4245000000000,"state":"active","ping":78},{"user_id":155,"name":"Makima Enjoyer","steam_id":76561198852044774,"connected_time":4662000000000,"state":"active","ping":83},{"user_id":210,"name":"Chucklin","steam_id":76561198010823579,"connected_time":567000000000,"state":"active","ping":92},{"user_id":207,"name":"Pango","steam_id":76561198069811545,"connected_time":693000000000,"state":"active","ping":60},{"user_id":193,"name":"Franston","steam_id":76561198253365247,"connected_time":2212000000000,"state":"active","ping":180},{"user_id":211,"name":"HarryjusttHarry","steam_id":76561198982810452,"connected_time":547000000000,"state":"active","ping":91},{"user_id":204,"name":"ecks","steam_id":76561197978114705,"connected_time":1139000000000,"state":"active","ping":77},{"user_id":208,"name":"Topaz Tom","steam_id":76561199214479904,"connected_time":645000000000,"state":"active","ping":88},{"user_id":195,"name":"chaffy","steam_id":76561198021754567,"connected_time":2173000000000,"state":"active","ping":62},{"user_id":214,"name":"Do Online Now Guys","steam_id":76561198120551862,"connected_time":319000000000,"state":"active","ping":61},{"user_id":130,"name":"yeehaw88","steam_id":76561198337308198,"connected_time":7933000000000,"state":"active","ping":69}]},{"server_id":106,"name":"Uncletopia | Chicago | 2 | All Maps","name_short":"chi-2","host":"chi-1.us.uncletopia.com","port":27025,"enabled":true,"region":"us-central","cc":"us","latitude":41.881832,"longitude":-87.62318,"reserved":0,"last_update":"0001-01-01T00:00:00Z","name_a2s":"Uncletopia | Chicago | 2 | All Maps","protocol":17,"map":"pl_rumford_event","folder":"tf","game":"Team Fortress","app_id":440,"player_count":0,"max_players":24,"Bots":0,"server_type":"Dedicated","server_os":"Linux","password":true,"vac":true,"version":"7961495","steam_id":85568392924469985,"keywords":["nocrits","nodmgspread","payload","uncletopia"],"game_id":440,"stv_port":27026,"stv_name":"Uncletopia | Chicago | 2 | All Maps | STV","players":null},{"server_id":402,"name":"Uncletopia | Chicago | 3 | All Maps","name_short":"chi-3","host":"chi-1.us.uncletopia.com","port":27035,"enabled":true,"region":"us-central","cc":"us","latitude":41.881832,"longitude":-87.62318,"reserved":0,"last_update":"0001-01-01T00:00:00Z","name_a2s":"Uncletopia | Chicago | 3 | All Maps","protocol":17,"map":"plr_pipeline","folder":"tf","game":"Team Fortress","app_id":440,"player_count":0,"max_players":24,"Bots":0,"server_type":"Dedicated","server_os":"Linux","password":true,"vac":true,"version":"7961495","steam_id":85568392924515191,"keywords":["nocrits","nodmgspread","payload","uncletopia"],"game_id":440,"stv_port":27036,"stv_name":"Uncletopia | Chicago | 3 | All Maps | STV","players":null},{"server_id":403,"name":"Uncletopia | Chicago | 4 | All Maps","name_short":"chi-4","host":"chi-1.us.uncletopia.com","port":27045,"enabled":true,"region":"us-central","cc":"us","latitude":41.881832,"longitude":-87.62318,"reserved":0,"last_update":"0001-01-01T00:00:00Z","name_a2s":"Uncletopia | Chicago | 4 | All Maps","protocol":17,"map":"pl_badwater","folder":"tf","game":"Team Fortress","app_id":440,"player_count":24,"max_players":24,"Bots":0,"server_type":"Dedicated","server_os":"Linux","password":true,"vac":true,"version":"7961495","steam_id":85568392924515193,"keywords":["nocrits","nodmgspread","payload","uncletopia"],"game_id":440,"stv_port":27046,"stv_name":"Uncletopia | Chicago | 4 | All Maps | STV","players":[{"user_id":80,"name":"jg125","steam_id":76561198824953530,"connected_time":464000000000,"state":"active","ping":138},{"user_id":5,"name":"Varie","steam_id":76561199454930210,"connected_time":4329000000000,"state":"active","ping":64},{"user_id":69,"name":"Leonardo Decappaccino","steam_id":76561198829737019,"connected_time":1162000000000,"state":"active","ping":81},{"user_id":8,"name":"MangoMaster7834","steam_id":76561199231165397,"connected_time":3827000000000,"state":"active","ping":84},{"user_id":56,"name":"yum","steam_id":76561199103766971,"connected_time":1941000000000,"state":"active","ping":63},{"user_id":70,"name":"creeeeeee","steam_id":76561198392539722,"connected_time":1156000000000,"state":"active","ping":79},{"user_id":63,"name":"Nostic","steam_id":76561199508767541,"connected_time":1518000000000,"state":"active","ping":63},{"user_id":48,"name":"Zonk","steam_id":76561198846893994,"connected_time":2452000000000,"state":"active","ping":86},{"user_id":16,"name":"gerry0107","steam_id":76561198277578620,"connected_time":3410000000000,"state":"active","ping":70},{"user_id":66,"name":"ToningDeer","steam_id":76561199206163727,"connected_time":1310000000000,"state":"active","ping":163},{"user_id":71,"name":"frederick","steam_id":76561198037746805,"connected_time":1142000000000,"state":"active","ping":64},{"user_id":72,"name":"Darkshadows","steam_id":76561198051424894,"connected_time":1119000000000,"state":"active","ping":90},{"user_id":32,"name":"Grimprr","steam_id":76561198275816797,"connected_time":2860000000000,"state":"active","ping":68},{"user_id":73,"name":"shaq$","steam_id":76561198045246504,"connected_time":1066000000000,"state":"active","ping":51},{"user_id":82,"name":"owlbortch","steam_id":76561198042849350,"connected_time":41000000000,"state":"active","ping":75},{"user_id":78,"name":"lacoulaswwwe","steam_id":76561198966352385,"connected_time":896000000000,"state":"active","ping":72},{"user_id":79,"name":"Shark Sandwich","steam_id":76561198025007938,"connected_time":775000000000,"state":"active","ping":85},{"user_id":30,"name":"JOE BIDEN","steam_id":76561198065650507,"connected_time":2928000000000,"state":"active","ping":57},{"user_id":65,"name":"Flyingmeadow","steam_id":76561198144687723,"connected_time":1381000000000,"state":"active","ping":72},{"user_id":39,"name":"Nic0","steam_id":76561198305690218,"connected_time":2677000000000,"state":"active","ping":73},{"user_id":62,"name":"freyja","steam_id":76561198249206656,"connected_time":1536000000000,"state":"active","ping":68},{"user_id":81,"name":"inshallah","steam_id":76561198165212575,"connected_time":279000000000,"state":"active","ping":71},{"user_id":77,"name":"Person1268","steam_id":76561198855949094,"connected_time":915000000000,"state":"active","ping":84},{"user_id":59,"name":"NIX","steam_id":76561198979351501,"connected_time":1876000000000,"state":"active","ping":79}]},{"server_id":36,"name":"Uncletopia | Chicago | 5 | All Maps","name_short":"chi-5","host":"chi-2.us.uncletopia.com","port":27015,"enabled":true,"region":"us-central","cc":"us","latitude":41.881832,"longitude":-87.62318,"reserved":0,"last_update":"0001-01-01T00:00:00Z","name_a2s":"Uncletopia | Chicago | 5 | All Maps","protocol":17,"map":"pl_borneo","folder":"tf","game":"Team Fortress","app_id":440,"player_count":0,"max_players":24,"Bots":0,"server_type":"Dedicated","server_os":"Linux","password":true,"vac":true,"version":"7961495","steam_id":85568392924866362,"keywords":["nocrits","nodmgspread","payload","uncletopia"],"game_id":440,"stv_port":27016,"stv_name":"Uncletopia | Chicago | 5 | All Maps | STV","players":null},{"server_id":37,"name":"Uncletopia | Chicago | 6 | All Maps","name_short":"chi-6","host":"chi-2.us.uncletopia.com","port":27025,"enabled":true,"region":"us-central","cc":"us","latitude":41.881832,"longitude":-87.62318,"reserved":0,"last_update":"0001-01-01T00:00:00Z","name_a2s":"Uncletopia | Chicago | 6 | All Maps","protocol":17,"map":"ctf_turbine","folder":"tf","game":"Team Fortress","app_id":440,"player_count":0,"max_players":24,"Bots":0,"server_type":"Dedicated","server_os":"Linux","password":true,"vac":true,"version":"7961495","steam_id":85568392924866363,"keywords":["ctf","nocrits","nodmgspread","uncletopia"],"game_id":440,"stv_port":27026,"stv_name":"Uncletopia | Chicago | 6 | All Maps | STV","players":null},{"server_id":38,"name":"Uncletopia | Chicago | 7 | Stopwatch","name_short":"chi-7","host":"chi-2.us.uncletopia.com","port":27035,"enabled":true,"region":"us-central","cc":"us","latitude":41.881832,"longitude":-87.62318,"reserved":0,"last_update":"0001-01-01T00:00:00Z","name_a2s":"Uncletopia | Chicago | 7 | Stopwatch","protocol":17,"map":"workshop/pl_badwater_pro_v12.ugc2142942074","folder":"tf","game":"Team Fortress","app_id":440,"player_count":0,"max_players":24,"Bots":0,"server_type":"Dedicated","server_os":"Linux","password":true,"vac":true,"version":"7961495","steam_id":85568392924866364,"keywords":["nocrits","nodmgspread","payload","uncletopia"],"game_id":440,"stv_port":27036,"stv_name":"Uncletopia | Chicago | 7 | Stopwatch | STV","players":null},{"server_id":39,"name":"Uncletopia | Chicago | 8 | Community","name_short":"chi-8","host":"chi-2.us.uncletopia.com","port":27045,"enabled":true,"region":"us-central","cc":"us","latitude":41.881832,"longitude":-87.62318,"reserved":0,"last_update":"0001-01-01T00:00:00Z","name_a2s":"Uncletopia | Chicago | 8 | Community","protocol":17,"map":"workshop/koth_slaughter_rc1.ugc1712845210","folder":"tf","game":"Team Fortress","app_id":440,"player_count":0,"max_players":24,"Bots":0,"server_type":"Dedicated","server_os":"Linux","password":true,"vac":true,"version":"7961495","steam_id":85568392924866365,"keywords":["cp","nocrits","nodmgspread","uncletopia"],"game_id":440,"stv_port":27046,"stv_name":"Uncletopia | Chicago | 8 | Community | STV","players":null},{"server_id":8,"name":"Uncletopia | Dallas | 1 | All Maps","name_short":"dal-1","host":"dal-1.us.uncletopia.com","port":27015,"enabled":true,"region":"us-central","cc":"us","latitude":32.779167,"longitude":-96.80889,"reserved":0,"last_update":"0001-01-01T00:00:00Z","name_a2s":"Uncletopia | Dallas | 1 | All Maps","protocol":17,"map":"pl_pier","folder":"tf","game":"Team Fortress","app_id":440,"player_count":24,"max_players":24,"Bots":0,"server_type":"Dedicated","server_os":"Linux","password":true,"vac":true,"version":"7961495","steam_id":85568392924469986,"keywords":["nocrits","nodmgspread","payload","uncletopia"],"game_id":440,"stv_port":27016,"stv_name":"Uncletopia | Dallas | 1 | All Maps | STV","players":[{"user_id":88,"name":"Tala\u003c3","steam_id":76561198169200739,"connected_time":3062000000000,"state":"active","ping":54},{"user_id":121,"name":"Leeous","steam_id":76561198081083248,"connected_time":500000000000,"state":"active","ping":105},{"user_id":125,"name":"Burnt Toast","steam_id":76561198174761155,"connected_time":178000000000,"state":"active","ping":60},{"user_id":114,"name":"Disco Inferno","steam_id":76561198063398791,"connected_time":912000000000,"state":"active","ping":149},{"user_id":118,"name":"BlueBoi2006","steam_id":76561199150475057,"connected_time":735000000000,"state":"active","ping":68},{"user_id":115,"name":"the keebler","steam_id":76561199486326945,"connected_time":876000000000,"state":"active","ping":77},{"user_id":29,"name":"BOTH | Sunshine","steam_id":76561198885528098,"connected_time":7343000000000,"state":"active","ping":99},{"user_id":123,"name":"vebr","steam_id":76561199189391772,"connected_time":434000000000,"state":"active","ping":84},{"user_id":74,"name":"world machine","steam_id":76561198020689909,"connected_time":4206000000000,"state":"active","ping":83},{"user_id":91,"name":"Fortune","steam_id":76561198346118738,"connected_time":2972000000000,"state":"active","ping":47},{"user_id":111,"name":"Megatron G","steam_id":76561198168864083,"connected_time":1162000000000,"state":"active","ping":106},{"user_id":98,"name":"BL√òRG","steam_id":76561198036126673,"connected_time":2560000000000,"state":"active","ping":75},{"user_id":78,"name":"A defenseless kitten","steam_id":76561198079416360,"connected_time":4018000000000,"state":"active","ping":50},{"user_id":45,"name":"Boring","steam_id":76561198827219701,"connected_time":6621000000000,"state":"active","ping":184},{"user_id":54,"name":"BOTH | BERSERKER","steam_id":76561198303464488,"connected_time":5419000000000,"state":"active","ping":73},{"user_id":122,"name":"Klitz Penischmidt","steam_id":76561198050582941,"connected_time":498000000000,"state":"active","ping":86},{"user_id":108,"name":"short bus enthusiast","steam_id":76561198069380992,"connected_time":1727000000000,"state":"active","ping":62},{"user_id":112,"name":"Giblius Fragbottom","steam_id":76561197962639541,"connected_time":1146000000000,"state":"active","ping":97},{"user_id":70,"name":"ZestyTrev","steam_id":76561198253391039,"connected_time":4601000000000,"state":"active","ping":51},{"user_id":104,"name":"BOTH | Kiso","steam_id":76561198141026844,"connected_time":2105000000000,"state":"active","ping":135},{"user_id":119,"name":"5-MeO-DMT","steam_id":76561198089527768,"connected_time":732000000000,"state":"active","ping":56},{"user_id":124,"name":"thebestman982","steam_id":76561199001698710,"connected_time":413000000000,"state":"active","ping":93},{"user_id":116,"name":"Jeramosa","steam_id":76561198811000094,"connected_time":869000000000,"state":"active","ping":74},{"user_id":117,"name":"Kronk","steam_id":76561198063092125,"connected_time":828000000000,"state":"active","ping":94}]},{"server_id":108,"name":"Uncletopia | Dallas | 2 | All Maps","name_short":"dal-2","host":"dal-1.us.uncletopia.com","port":27025,"enabled":true,"region":"us-central","cc":"us","latitude":32.779167,"longitude":-96.80889,"reserved":0,"last_update":"0001-01-01T00:00:00Z","name_a2s":"Uncletopia | Dallas | 2 | All Maps","protocol":17,"map":"cp_dustbowl","folder":"tf","game":"Team Fortress","app_id":440,"player_count":0,"max_players":24,"Bots":0,"server_type":"Dedicated","server_os":"Linux","password":true,"vac":true,"version":"7961495","steam_id":85568392924469988,"keywords":["cp","nocrits","nodmgspread","uncletopia"],"game_id":440,"stv_port":27026,"stv_name":"Uncletopia | Dallas | 2 | All Maps | STV","players":null},{"server_id":404,"name":"Uncletopia | Dallas | 3 | All Maps","name_short":"dal-3","host":"dal-1.us.uncletopia.com","port":27035,"enabled":true,"region":"us-central","cc":"us","latitude":32.779167,"longitude":-96.80889,"reserved":0,"last_update":"0001-01-01T00:00:00Z","name_a2s":"Uncletopia | Dallas | 3 | All Maps","protocol":17,"map":"pl_barnblitz","folder":"tf","game":"Team Fortress","app_id":440,"player_count":0,"max_players":24,"Bots":0,"server_type":"Dedicated","server_os":"Linux","password":true,"vac":true,"version":"7961495","steam_id":85568392924515219,"keywords":["nocrits","nodmgspread","payload","uncletopia"],"game_id":440,"stv_port":27036,"stv_name":"Uncletopia | Dallas | 3 | All Maps | STV","players":null},{"server_id":405,"name":"Uncletopia | Dallas | 4 | Community","name_short":"dal-4","host":"dal-1.us.uncletopia.com","port":27045,"enabled":true,"region":"us-central","cc":"us","latitude":32.779167,"longitude":-96.80889,"reserved":0,"last_update":"0001-01-01T00:00:00Z","name_a2s":"Uncletopia | Dallas | 4 | Community","protocol":17,"map":"workshop/koth_synthetic_rc6a.ugc1549817316","folder":"tf","game":"Team Fortress","app_id":440,"player_count":0,"max_players":24,"Bots":0,"server_type":"Dedicated","server_os":"Linux","password":true,"vac":true,"version":"7961495","steam_id":85568392924515220,"keywords":["cp","nocrits","nodmgspread","uncletopia"],"game_id":440,"stv_port":27046,"stv_name":"Uncletopia | Dallas | 4 | Community | STV","players":null},{"server_id":5,"name":"Uncletopia | Frankfurt | 1 | All Maps","name_short":"frk-1","host":"frk-1.de.uncletopia.com","port":27015,"enabled":true,"region":"eu","cc":"de","latitude":50.110924,"longitude":8.682127,"reserved":0,"last_update":"0001-01-01T00:00:00Z","name_a2s":"Uncletopia | Frankfurt | 1 | All Maps","protocol":17,"map":"pl_swiftwater_final1","folder":"tf","game":"Team Fortress","app_id":440,"player_count":24,"max_players":24,"Bots":0,"server_type":"Dedicated","server_os":"Linux","password":true,"vac":true,"version":"7961495","steam_id":85568392924469989,"keywords":["nocrits","nodmgspread","payload","uncletopia"],"game_id":440,"stv_port":27016,"stv_name":"Uncletopia | Frankfurt | 1 | All Maps | STV","players":[{"user_id":273,"name":"Gordon Birdman","steam_id":76561198013382324,"connected_time":748000000000,"state":"active","ping":74},{"user_id":231,"name":"Gaxkang","steam_id":76561198125768571,"connected_time":4082000000000,"state":"active","ping":59},{"user_id":286,"name":"Moth","steam_id":76561198405910705,"connected_time":171000000000,"state":"active","ping":81},{"user_id":222,"name":"Owlet","steam_id":76561198065613974,"connected_time":4587000000000,"state":"active","ping":74},{"user_id":274,"name":"Angry Team Fortress 2 Nerd","steam_id":76561198970762992,"connected_time":720000000000,"state":"active","ping":77},{"user_id":261,"name":"willus212","steam_id":76561199182615246,"connected_time":1808000000000,"state":"active","ping":63},{"user_id":251,"name":"yush","steam_id":76561198121688934,"connected_time":2431000000000,"state":"active","ping":83},{"user_id":232,"name":"SPONGE","steam_id":76561198040933472,"connected_time":3939000000000,"state":"active","ping":59},{"user_id":268,"name":"gronk","steam_id":76561198806422317,"connected_time":1370000000000,"state":"active","ping":56},{"user_id":130,"name":"wavelength","steam_id":76561198154677956,"connected_time":11022000000000,"state":"active","ping":60},{"user_id":285,"name":"The Nutcracker of Tf2","steam_id":76561199391107813,"connected_time":243000000000,"state":"active","ping":86},{"user_id":276,"name":"Hurans","steam_id":76561198064853199,"connected_time":694000000000,"state":"active","ping":59},{"user_id":242,"name":"6bIK_0CeMEHuTEJIb","steam_id":76561198992528373,"connected_time":2789000000000,"state":"active","ping":62},{"user_id":287,"name":"Divine","steam_id":76561198430207251,"connected_time":138000000000,"state":"active","ping":122},{"user_id":271,"name":"God is serb","steam_id":76561198966246028,"connected_time":814000000000,"state":"active","ping":76},{"user_id":282,"name":"Dr. House","steam_id":76561198255128489,"connected_time":468000000000,"state":"active","ping":62},{"user_id":288,"name":"‚ô¨ ·¥õ·¥á·¥ã…™·¥õ ‚ô¨","steam_id":76561198111704722,"connected_time":36000000000,"state":"active","ping":78},{"user_id":240,"name":"ALARM","steam_id":76561198120686521,"connected_time":2881000000000,"state":"active","ping":55},{"user_id":284,"name":"peq123asasin (baboon Esports)","steam_id":76561198873638694,"connected_time":325000000000,"state":"active","ping":61},{"user_id":279,"name":"KayfromCzechia","steam_id":76561198925899810,"connected_time":675000000000,"state":"active","ping":65},{"user_id":228,"name":"John Noob","steam_id":76561197999170026,"connected_time":4431000000000,"state":"active","ping":75},{"user_id":269,"name":"Itsmemuriu","steam_id":76561198397780043,"connected_time":1356000000000,"state":"active","ping":107},{"user_id":258,"name":"Kr√≥licki_","steam_id":76561199109915352,"connected_time":2144000000000,"state":"active","ping":53},{"user_id":281,"name":"timmy.27","steam_id":76561198063296613,"connected_time":664000000000,"state":"active","ping":68}]},{"server_id":110,"name":"Uncletopia | Frankfurt | 2 | All Maps","name_short":"frk-2","host":"frk-1.de.uncletopia.com","port":27025,"enabled":true,"region":"eu","cc":"de","latitude":50.110924,"longitude":8.682127,"reserved":0,"last_update":"0001-01-01T00:00:00Z","name_a2s":"Uncletopia | Frankfurt | 2 | All Maps","protocol":17,"map":"koth_viaduct","folder":"tf","game":"Team Fortress","app_id":440,"player_count":24,"max_players":24,"Bots":0,"server_type":"Dedicated","server_os":"Linux","password":true,"vac":true,"version":"7961495","steam_id":85568392924469990,"keywords":["cp","nocrits","nodmgspread","uncletopia"],"game_id":440,"stv_port":27026,"stv_name":"Uncletopia | Frankfurt | 2 | All Maps | STV","players":[{"user_id":469,"name":"MeBandae","steam_id":76561198910770432,"connected_time":197000000000,"state":"active","ping":73},{"user_id":457,"name":"LeeHam","steam_id":76561198111446846,"connected_time":578000000000,"state":"active","ping":84},{"user_id":453,"name":"Schmidt","steam_id":76561198001058733,"connected_time":693000000000,"state":"active","ping":105},{"user_id":467,"name":"Chopperson_","steam_id":76561198873728497,"connected_time":317000000000,"state":"active","ping":95},{"user_id":461,"name":"MegaKEKER","steam_id":76561199485792353,"connected_time":522000000000,"state":"active","ping":74},{"user_id":400,"name":"Ergas","steam_id":76561198860861032,"connected_time":3090000000000,"state":"active","ping":74},{"user_id":473,"name":"Der Geist des Hans Rosling","steam_id":76561198049231109,"connected_time":99000000000,"state":"active","ping":46},{"user_id":440,"name":"Greenmaker","steam_id":76561198060466591,"connected_time":1526000000000,"state":"active","ping":63},{"user_id":407,"name":"weed fairy","steam_id":76561197998843096,"connected_time":2843000000000,"state":"active","ping":75},{"user_id":472,"name":"Columban","steam_id":76561199202258284,"connected_time":108000000000,"state":"active","ping":45},{"user_id":458,"name":"indie","steam_id":76561197998255855,"connected_time":575000000000,"state":"active","ping":101},{"user_id":474,"name":"guyava","steam_id":76561198046229680,"connected_time":32000000000,"state":"active","ping":97},{"user_id":443,"name":"Purple Soup :D","steam_id":76561198985100366,"connected_time":1212000000000,"state":"active","ping":80},{"user_id":459,"name":"Stuid","steam_id":76561199427506542,"connected_time":566000000000,"state":"active","ping":51},{"user_id":447,"name":"Vibr√°tor (418 122 locomotive)","steam_id":76561198097789669,"connected_time":1091000000000,"state":"active","ping":60},{"user_id":460,"name":"No_Thoughts_Just_Gaming","steam_id":76561198285951918,"connected_time":546000000000,"state":"active","ping":67},{"user_id":475,"name":"GMsU | Smiley","steam_id":76561198121494414,"connected_time":23000000000,"state":"active","ping":80},{"user_id":462,"name":"please do not the cat","steam_id":76561198089003514,"connected_time":493000000000,"state":"active","ping":44},{"user_id":321,"name":"TheEventGuy","steam_id":76561197972797744,"connected_time":5351000000000,"state":"active","ping":62},{"user_id":470,"name":"Amandus","steam_id":76561198036281079,"connected_time":187000000000,"state":"active","ping":59},{"user_id":433,"name":"danny","steam_id":76561198056930504,"connected_time":2116000000000,"state":"active","ping":44},{"user_id":464,"name":"Jeffrey Harpen","steam_id":76561199073314677,"connected_time":445000000000,"state":"active","ping":54},{"user_id":280,"name":"Asocial","steam_id":76561198328594578,"connected_time":7292000000000,"state":"active","ping":90},{"user_id":465,"name":"Loky","steam_id":76561198129738366,"connected_time":432000000000,"state":"active","ping":92}]},{"server_id":308,"name":"Uncletopia | Frankfurt | 3 | All Maps","name_short":"frk-3","host":"frk-1.de.uncletopia.com","port":27035,"enabled":true,"region":"eu","cc":"de","latitude":50.110924,"longitude":8.682127,"reserved":0,"last_update":"0001-01-01T00:00:00Z","name_a2s":"Uncletopia | Frankfurt | 3 | All Maps","protocol":17,"map":"pl_borneo","folder":"tf","game":"Team Fortress","app_id":440,"player_count":0,"max_players":24,"Bots":0,"server_type":"Dedicated","server_os":"Linux","password":true,"vac":true,"version":"7961495","steam_id":85568392924504274,"keywords":["nocrits","nodmgspread","payload","uncletopia"],"game_id":440,"stv_port":27036,"stv_name":"Uncletopia | Frankfurt | 3 | All Maps | STV","players":null},{"server_id":309,"name":"Uncletopia | Frankfurt | 4 | All Maps","name_short":"frk-4","host":"frk-1.de.uncletopia.com","port":27045,"enabled":true,"region":"eu","cc":"de","latitude":50.110924,"longitude":8.682127,"reserved":0,"last_update":"0001-01-01T00:00:00Z","name_a2s":"Uncletopia | Frankfurt | 4 | All Maps","protocol":17,"map":"pl_barnblitz","folder":"tf","game":"Team Fortress","app_id":440,"player_count":24,"max_players":24,"Bots":0,"server_type":"Dedicated","server_os":"Linux","password":true,"vac":true,"version":"7961495","steam_id":85568392924504275,"keywords":["nocrits","nodmgspread","payload","uncletopia"],"game_id":440,"stv_port":27046,"stv_name":"Uncletopia | Frankfurt | 4 | All Maps | STV","players":[{"user_id":251,"name":"[UM-monster","steam_id":76561198085098243,"connected_time":769000000000,"state":"active","ping":93},{"user_id":258,"name":"SCRAMMMBLED","steam_id":76561197998307746,"connected_time":578000000000,"state":"active","ping":57},{"user_id":255,"name":"COOL PEPE","steam_id":76561198848805153,"connected_time":641000000000,"state":"active","ping":97},{"user_id":267,"name":"Demolisher Hernaeus the Lil Cut","steam_id":76561197997917267,"connected_time":220000000000,"state":"active","ping":134},{"user_id":253,"name":"katana on the trains","steam_id":76561198202464032,"connected_time":731000000000,"state":"active","ping":66},{"user_id":260,"name":"umbrella leaf","steam_id":76561198299372487,"connected_time":547000000000,"state":"active","ping":48},{"user_id":254,"name":"your personal medic","steam_id":76561197961707932,"connected_time":699000000000,"state":"active","ping":49},{"user_id":268,"name":"Ephix","steam_id":76561197977164055,"connected_time":204000000000,"state":"active","ping":50},{"user_id":234,"name":"J√°nos","steam_id":76561199061251952,"connected_time":2520000000000,"state":"active","ping":60},{"user_id":246,"name":"riaron","steam_id":76561198187637390,"connected_time":1285000000000,"state":"active","ping":66},{"user_id":172,"name":"StarDoc2222","steam_id":76561199389114520,"connected_time":6686000000000,"state":"active","ping":139},{"user_id":202,"name":"Garolt_Knight","steam_id":76561198957445537,"connected_time":4181000000000,"state":"active","ping":80},{"user_id":256,"name":"Jeryx","steam_id":76561197995602803,"connected_time":618000000000,"state":"active","ping":55},{"user_id":240,"name":"kgf","steam_id":76561198181442259,"connected_time":1945000000000,"state":"active","ping":60},{"user_id":220,"name":"RAT BASTARD","steam_id":76561199195985387,"connected_time":3186000000000,"state":"active","ping":83},{"user_id":257,"name":"Daven","steam_id":76561198036522928,"connected_time":591000000000,"state":"active","ping":59},{"user_id":259,"name":"Before the fire","steam_id":76561198055512527,"connected_time":573000000000,"state":"active","ping":46},{"user_id":265,"name":"SuntanPikachu","steam_id":76561198121242476,"connected_time":372000000000,"state":"active","ping":54},{"user_id":262,"name":"mt","steam_id":76561197961319303,"connected_time":487000000000,"state":"active","ping":54},{"user_id":263,"name":"BORGETENNISCLUB","steam_id":76561198049343723,"connected_time":432000000000,"state":"active","ping":63},{"user_id":264,"name":"[Z]aks","steam_id":76561198245751674,"connected_time":394000000000,"state":"active","ping":89},{"user_id":266,"name":"Dr. Cox","steam_id":76561198246629218,"connected_time":351000000000,"state":"active","ping":99},{"user_id":224,"name":"Junkfish","steam_id":76561199168630846,"connected_time":3168000000000,"state":"active","ping":136},{"user_id":238,"name":"Ween :0","steam_id":76561198073607799,"connected_time":2198000000000,"state":"active","ping":67}]},{"server_id":310,"name":"Uncletopia | Frankfurt | 5 | All Maps","name_short":"frk-5","host":"frk-1.de.uncletopia.com","port":27055,"enabled":true,"region":"eu","cc":"de","latitude":50.110924,"longitude":8.682127,"reserved":0,"last_update":"0001-01-01T00:00:00Z","name_a2s":"Uncletopia | Frankfurt | 5 | All Maps","protocol":17,"map":"pl_pier","folder":"tf","game":"Team Fortress","app_id":440,"player_count":24,"max_players":24,"Bots":0,"server_type":"Dedicated","server_os":"Linux","password":true,"vac":true,"version":"7961495","steam_id":85568392924504277,"keywords":["nocrits","nodmgspread","payload","uncletopia"],"game_id":440,"stv_port":27056,"stv_name":"Uncletopia | Frankfurt | 5 | All Maps | STV","players":[{"user_id":492,"name":"Monika Gaming","steam_id":76561198356227707,"connected_time":3496000000000,"state":"active","ping":75},{"user_id":540,"name":"Smack Dadde","steam_id":76561198137863947,"connected_time":177000000000,"state":"active","ping":53},{"user_id":506,"name":"joe biden gamer","steam_id":76561198356383438,"connected_time":2307000000000,"state":"active","ping":45},{"user_id":511,"name":"KALACH","steam_id":76561198028664460,"connected_time":2100000000000,"state":"active","ping":99},{"user_id":535,"name":"üÉî Katarina","steam_id":76561198065652251,"connected_time":395000000000,"state":"active","ping":41},{"user_id":521,"name":"Mr. Cheesey","steam_id":76561198153462183,"connected_time":1237000000000,"state":"active","ping":151},{"user_id":520,"name":"NiveK","steam_id":76561197988636096,"connected_time":1308000000000,"state":"active","ping":71},{"user_id":509,"name":"I crave violence","steam_id":76561198235814492,"connected_time":2247000000000,"state":"active","ping":207},{"user_id":541,"name":"Caliban","steam_id":76561197999696839,"connected_time":123000000000,"state":"active","ping":87},{"user_id":516,"name":"Kriofty","steam_id":76561198811696536,"connected_time":1512000000000,"state":"active","ping":76},{"user_id":450,"name":"whatever","steam_id":76561198095943461,"connected_time":5803000000000,"state":"active","ping":66},{"user_id":526,"name":"Walkingboi","steam_id":76561198385498290,"connected_time":1130000000000,"state":"active","ping":99},{"user_id":536,"name":"Haha?","steam_id":76561198056882245,"connected_time":337000000000,"state":"active","ping":55},{"user_id":537,"name":"blurry","steam_id":76561198884908952,"connected_time":288000000000,"state":"active","ping":68},{"user_id":504,"name":"STRXFE","steam_id":76561198084701676,"connected_time":2347000000000,"state":"active","ping":90},{"user_id":482,"name":"Sham!","steam_id":76561198050434275,"connected_time":4632000000000,"state":"active","ping":52},{"user_id":542,"name":"Churre Murre","steam_id":76561199013316825,"connected_time":121000000000,"state":"active","ping":56},{"user_id":524,"name":"Russenluster","steam_id":76561198118016220,"connected_time":1210000000000,"state":"active","ping":56},{"user_id":525,"name":"Smebiulack","steam_id":76561197982409664,"connected_time":1207000000000,"state":"active","ping":59},{"user_id":515,"name":"Sunduchek","steam_id":76561198067934157,"connected_time":1573000000000,"state":"active","ping":121},{"user_id":528,"name":"M Nsky","steam_id":76561198011749653,"connected_time":968000000000,"state":"active","ping":60},{"user_id":489,"name":"ATARAKSIA","steam_id":76561198119392756,"connected_time":4003000000000,"state":"active","ping":90},{"user_id":518,"name":"Marukuso","steam_id":76561198154229845,"connected_time":1510000000000,"state":"active","ping":55},{"user_id":532,"name":"–∫—Å—é—à–∞—à –∞—à–ª–æ—Å—å","steam_id":76561199149307190,"connected_time":783000000000,"state":"active","ping":63}]},{"server_id":311,"name":"Uncletopia | Frankfurt | 6 | All Maps","name_short":"frk-6","host":"frk-1.de.uncletopia.com","port":27065,"enabled":true,"region":"eu","cc":"de","latitude":50.110924,"longitude":8.682127,"reserved":0,"last_update":"0001-01-01T00:00:00Z","name_a2s":"Uncletopia | Frankfurt | 6 | All Maps","protocol":17,"map":"pl_rumford_event","folder":"tf","game":"Team Fortress","app_id":440,"player_count":24,"max_players":24,"Bots":0,"server_type":"Dedicated","server_os":"Linux","password":true,"vac":true,"version":"7961495","steam_id":85568392924504278,"keywords":["nocrits","nodmgspread","payload","uncletopia"],"game_id":440,"stv_port":27066,"stv_name":"Uncletopia | Frankfurt | 6 | All Maps | STV","players":[{"user_id":185,"name":"MGE MONSTER228","steam_id":76561198796600155,"connected_time":437000000000,"state":"active","ping":78},{"user_id":197,"name":"tealoverr.190","steam_id":76561199028497703,"connected_time":88000000000,"state":"active","ping":95},{"user_id":75,"name":"Tails8521","steam_id":76561198051747164,"connected_time":7996000000000,"state":"active","ping":53},{"user_id":184,"name":"r^f butter","steam_id":76561198130814770,"connected_time":502000000000,"state":"active","ping":75},{"user_id":186,"name":"Purrplehaze","steam_id":76561198297604298,"connected_time":423000000000,"state":"active","ping":60},{"user_id":73,"name":"korupt","steam_id":76561198022738512,"connected_time":8031000000000,"state":"active","ping":39},{"user_id":141,"name":"else1","steam_id":76561197996558319,"connected_time":3807000000000,"state":"active","ping":79},{"user_id":152,"name":"Stellar Fox","steam_id":76561198236985244,"connected_time":3611000000000,"state":"active","ping":49},{"user_id":187,"name":"Balling","steam_id":76561198240320806,"connected_time":374000000000,"state":"active","ping":70},{"user_id":166,"name":"caos","steam_id":76561198151268007,"connected_time":2115000000000,"state":"active","ping":77},{"user_id":188,"name":"david zaydullin (Charles McGill","steam_id":76561198965191846,"connected_time":368000000000,"state":"active","ping":84},{"user_id":146,"name":"[UiF] BafTac r/f*ckcars","steam_id":76561198060547050,"connected_time":3720000000000,"state":"active","ping":50},{"user_id":86,"name":"Spinya","steam_id":76561198086653667,"connected_time":6906000000000,"state":"active","ping":66},{"user_id":189,"name":"comic_sans","steam_id":76561198845309519,"connected_time":351000000000,"state":"active","ping":80},{"user_id":177,"name":"‚ù§ [HoneyBe_] ‚ù§","steam_id":76561198288930154,"connected_time":1597000000000,"state":"active","ping":60},{"user_id":195,"name":"LLama Money","steam_id":76561199185391100,"connected_time":113000000000,"state":"active","ping":146},{"user_id":191,"name":"G_raff","steam_id":76561199048512726,"connected_time":319000000000,"state":"active","ping":75},{"user_id":192,"name":"Michael","steam_id":76561198003146906,"connected_time":274000000000,"state":"active","ping":60},{"user_id":194,"name":"Corn Readyx","steam_id":76561198192185825,"connected_time":157000000000,"state":"active","ping":63},{"user_id":196,"name":"breadbear \u003c3","steam_id":76561198036895007,"connected_time":112000000000,"state":"connecting","ping":0},{"user_id":128,"name":"Greasy","steam_id":76561198868180366,"connected_time":4599000000000,"state":"active","ping":55},{"user_id":171,"name":"Snowy","steam_id":76561198169992461,"connected_time":1858000000000,"state":"active","ping":55},{"user_id":198,"name":"BD[PL]","steam_id":76561198115995871,"connected_time":88000000000,"state":"active","ping":81},{"user_id":176,"name":"Malen","steam_id":76561198074179851,"connected_time":1695000000000,"state":"active","ping":57}]},{"server_id":23,"name":"Uncletopia | Frankfurt | 7 | Stopwatch","name_short":"frk-7","host":"frk-1.de.uncletopia.com","port":27075,"enabled":true,"region":"eu","cc":"de","latitude":50.110924,"longitude":8.682127,"reserved":0,"last_update":"0001-01-01T00:00:00Z","name_a2s":"Uncletopia | Frankfurt | 7 | Stopwatch","protocol":17,"map":"workshop/koth_bagel_rc6.ugc2514036946","folder":"tf","game":"Team Fortress","app_id":440,"player_count":0,"max_players":24,"Bots":0,"server_type":"Dedicated","server_os":"Linux","password":true,"vac":true,"version":"7961495","steam_id":85568392924742827,"keywords":["cp","nocrits","nodmgspread","uncletopia"],"game_id":440,"stv_port":27076,"stv_name":"Uncletopia | Frankfurt | 7 | Stopwatch | STV","players":null},{"server_id":24,"name":"Uncletopia | Frankfurt | 8 | Community","name_short":"frk-8","host":"frk-1.de.uncletopia.com","port":27085,"enabled":true,"region":"eu","cc":"de","latitude":50.110924,"longitude":8.682127,"reserved":0,"last_update":"0001-01-01T00:00:00Z","name_a2s":"Uncletopia | Frankfurt | 8 | Community","protocol":17,"map":"workshop/pl_boundary_final1.ugc456799153","folder":"tf","game":"Team Fortress","app_id":440,"player_count":0,"max_players":24,"Bots":0,"server_type":"Dedicated","server_os":"Linux","password":true,"vac":true,"version":"7961495","steam_id":85568392924742828,"keywords":["nocrits","nodmgspread","payload","uncletopia"],"game_id":440,"stv_port":27086,"stv_name":"Uncletopia | Frankfurt | 8 | Community | STV","players":null},{"server_id":202,"name":"Uncletopia | Hong Kong | 1 | All Maps","name_short":"hgk-1","host":"hgk-1.hk.uncletopia.com","port":27015,"enabled":true,"region":"asia","cc":"hk","latitude":22.302711,"longitude":114.177216,"reserved":0,"last_update":"0001-01-01T00:00:00Z","name_a2s":"Uncletopia | Hong Kong | 1 | All Maps","protocol":17,"map":"cp_altitude","folder":"tf","game":"Team Fortress","app_id":440,"player_count":16,"max_players":24,"Bots":0,"server_type":"Dedicated","server_os":"Linux","password":true,"vac":true,"version":"7961495","steam_id":85568392924494504,"keywords":["cp","nocrits","nodmgspread","uncletopia"],"game_id":440,"stv_port":27016,"stv_name":"Uncletopia | Hong Kong | 1 | All Maps | STV","players":[{"user_id":343,"name":"BRING BACK ***** -no-browser !!","steam_id":76561198865984950,"connected_time":2533000000000,"state":"active","ping":77},{"user_id":372,"name":"CarlJo","steam_id":76561198384135605,"connected_time":251000000000,"state":"active","ping":92},{"user_id":370,"name":"killman47","steam_id":76561198348487408,"connected_time":468000000000,"state":"active","ping":38},{"user_id":371,"name":"screamer","steam_id":76561198147950041,"connected_time":306000000000,"state":"active","ping":80},{"user_id":359,"name":"Cloud","steam_id":76561198272454184,"connected_time":1131000000000,"state":"active","ping":76},{"user_id":349,"name":"Kpba32(Lego)","steam_id":76561198051927766,"connected_time":1864000000000,"state":"active","ping":97},{"user_id":374,"name":"Cat Lover","steam_id":76561199480643089,"connected_time":81000000000,"state":"active","ping":60},{"user_id":323,"name":"Kek","steam_id":76561199004616229,"connected_time":4684000000000,"state":"active","ping":95},{"user_id":375,"name":"patrick86195794","steam_id":76561199507873475,"connected_time":70000000000,"state":"active","ping":70},{"user_id":376,"name":"Pizza_Jammies1345","steam_id":76561199228950246,"connected_time":31000000000,"state":"active","ping":151},{"user_id":353,"name":"coalescence","steam_id":76561198056450442,"connected_time":1557000000000,"state":"active","ping":94},{"user_id":354,"name":"birdo","steam_id":76561199206075827,"connected_time":1544000000000,"state":"active","ping":78},{"user_id":361,"name":"RacistGaming","steam_id":76561198379016582,"connected_time":1038000000000,"state":"active","ping":75},{"user_id":362,"name":"iitzPooMZ","steam_id":76561199080619055,"connected_time":1012000000000,"state":"active","ping":141},{"user_id":377,"name":"Áî±Â∞ºÊ≠êÂü∑Ë°å","steam_id":76561198147235082,"connected_time":24000000000,"state":"active","ping":37},{"user_id":364,"name":"solariis","steam_id":76561198993775429,"connected_time":985000000000,"state":"active","ping":85}]},{"server_id":1,"name":"Uncletopia | Los Angeles | 1 | All Maps","name_short":"lax-1","host":"lax-1.us.uncletopia.com","port":27015,"enabled":true,"region":"us-west","cc":"us","latitude":33.94279,"longitude":-118.41004,"reserved":0,"last_update":"0001-01-01T00:00:00Z","name_a2s":"Uncletopia | Los Angeles | 1 | All Maps","protocol":17,"map":"cp_gorge","folder":"tf","game":"Team Fortress","app_id":440,"player_count":0,"max_players":24,"Bots":0,"server_type":"Dedicated","server_os":"Linux","password":true,"vac":true,"version":"7961495","steam_id":85568392924469991,"keywords":["cp","nocrits","nodmgspread","uncletopia"],"game_id":440,"stv_port":27016,"stv_name":"Uncletopia | Los Angeles | 1 | All Maps | STV","players":null},{"server_id":112,"name":"Uncletopia | Los Angeles | 2 | All Maps","name_short":"lax-2","host":"lax-1.us.uncletopia.com","port":27025,"enabled":true,"region":"us-west","cc":"us","latitude":33.94279,"longitude":-118.41004,"reserved":0,"last_update":"0001-01-01T00:00:00Z","name_a2s":"Uncletopia | Los Angeles | 2 | All Maps","protocol":17,"map":"koth_cascade","folder":"tf","game":"Team Fortress","app_id":440,"player_count":0,"max_players":24,"Bots":0,"server_type":"Dedicated","server_os":"Linux","password":true,"vac":true,"version":"7961495","steam_id":85568392924469992,"keywords":["cp","nocrits","nodmgspread","uncletopia"],"game_id":440,"stv_port":27026,"stv_name":"Uncletopia | Los Angeles | 2 | All Maps | STV","players":null},{"server_id":324,"name":"Uncletopia | Los Angeles | 3 | All Maps","name_short":"lax-3","host":"lax-1.us.uncletopia.com","port":27035,"enabled":true,"region":"us-west","cc":"us","latitude":33.94279,"longitude":-118.41004,"reserved":0,"last_update":"0001-01-01T00:00:00Z","name_a2s":"Uncletopia | Los Angeles | 3 | All Maps","protocol":17,"map":"pl_hoodoo_final","folder":"tf","game":"Team Fortress","app_id":440,"player_count":4,"max_players":24,"Bots":0,"server_type":"Dedicated","server_os":"Linux","password":true,"vac":true,"version":"7961495","steam_id":85568392924510198,"keywords":["nocrits","nodmgspread","payload","uncletopia"],"game_id":440,"stv_port":27036,"stv_name":"Uncletopia | Los Angeles | 3 | All Maps | STV","players":[{"user_id":3,"name":"‚óçGremlin‚óç","steam_id":76561199062136263,"connected_time":1199000000000,"state":"active","ping":60},{"user_id":4,"name":"EXP64","steam_id":76561198414530310,"connected_time":1096000000000,"state":"active","ping":102},{"user_id":5,"name":"Preston","steam_id":76561199130754110,"connected_time":620000000000,"state":"active","ping":78},{"user_id":6,"name":"Cosmoose","steam_id":76561198120336284,"connected_time":395000000000,"state":"active","ping":71}]},{"server_id":25,"name":"Uncletopia | Los Angeles | 4 | Stopwatch","name_short":"lax-4","host":"lax-1.us.uncletopia.com","port":27045,"enabled":true,"region":"us-west","cc":"us","latitude":33.94279,"longitude":-118.41004,"reserved":0,"last_update":"0001-01-01T00:00:00Z","name_a2s":"Uncletopia | Los Angeles | 4 | Stopwatch","protocol":17,"map":"workshop/koth_product_final.ugc454272353","folder":"tf","game":"Team Fortress","app_id":440,"player_count":0,"max_players":24,"Bots":0,"server_type":"Dedicated","server_os":"Linux","password":true,"vac":true,"version":"7961495","steam_id":85568392924510199,"keywords":["cp","nocrits","nodmgspread","uncletopia"],"game_id":440,"stv_port":27046,"stv_name":"Uncletopia | Los Angeles | 4 | Stopwatch | STV","players":null},{"server_id":11,"name":"Uncletopia | London | 1 | All Maps","name_short":"lon-1","host":"lon-1.uk.uncletopia.com","port":27015,"enabled":true,"region":"eu","cc":"gb","latitude":51.509865,"longitude":-0.118092,"reserved":0,"last_update":"0001-01-01T00:00:00Z","name_a2s":"Uncletopia | London | 1 | All Maps","protocol":17,"map":"pl_borneo","folder":"tf","game":"Team Fortress","app_id":440,"player_count":24,"max_players":24,"Bots":0,"server_type":"Dedicated","server_os":"Linux","password":true,"vac":true,"version":"7961495","steam_id":85568392924367362,"keywords":["nocrits","nodmgspread","payload","uncletopia"],"game_id":440,"stv_port":27016,"stv_name":"Uncletopia | London | 1 | All Maps | STV","players":[{"user_id":315,"name":"nappo","steam_id":76561198060105180,"connected_time":162000000000,"state":"active","ping":60},{"user_id":218,"name":"Mea","steam_id":76561198353496134,"connected_time":9156000000000,"state":"active","ping":51},{"user_id":316,"name":"dog?","steam_id":76561199232839385,"connected_time":108000000000,"state":"active","ping":101},{"user_id":313,"name":"Pimpin' \u0026 Blimpin'","steam_id":76561198326776107,"connected_time":298000000000,"state":"active","ping":88},{"user_id":279,"name":"Wuffington","steam_id":76561198033762881,"connected_time":3749000000000,"state":"active","ping":50},{"user_id":305,"name":"swagmeester","steam_id":76561198045828392,"connected_time":1410000000000,"state":"active","ping":52},{"user_id":306,"name":"goop","steam_id":76561198190073005,"connected_time":1317000000000,"state":"active","ping":43},{"user_id":307,"name":"yipieeee :DDD","steam_id":76561198076219289,"connected_time":1317000000000,"state":"active","ping":58},{"user_id":292,"name":"sword machine","steam_id":76561198895235231,"connected_time":3015000000000,"state":"active","ping":59},{"user_id":176,"name":"Laru","steam_id":76561197998838438,"connected_time":12517000000000,"state":"active","ping":87},{"user_id":310,"name":"ZANNABLUKE","steam_id":76561198013534336,"connected_time":1138000000000,"state":"active","ping":59},{"user_id":253,"name":"Suolainen","steam_id":76561198133341026,"connected_time":6545000000000,"state":"active","ping":89},{"user_id":265,"name":"Gorgeous George","steam_id":76561198144256544,"connected_time":5588000000000,"state":"active","ping":46},{"user_id":276,"name":"Falafel","steam_id":76561198043344845,"connected_time":4041000000000,"state":"active","ping":45},{"user_id":308,"name":"CFFG. WaxWing","steam_id":76561198090944581,"connected_time":1237000000000,"state":"active","ping":174},{"user_id":294,"name":"gitlitwitit","steam_id":76561197980019054,"connected_time":2429000000000,"state":"active","ping":71},{"user_id":293,"name":"Butt","steam_id":76561198115496457,"connected_time":2542000000000,"state":"active","ping":46},{"user_id":291,"name":"KhornateDoom","steam_id":76561198127530619,"connected_time":3059000000000,"state":"active","ping":52},{"user_id":311,"name":"Yassine","steam_id":76561198140565712,"connected_time":887000000000,"state":"active","ping":49},{"user_id":317,"name":"Storm's Foreshadow","steam_id":76561198098462526,"connected_time":92000000000,"state":"active","ping":76},{"user_id":314,"name":"A-Train","steam_id":76561198256816896,"connected_time":289000000000,"state":"active","ping":78},{"user_id":302,"name":"tim","steam_id":76561198801490317,"connected_time":1822000000000,"state":"active","ping":108}]},{"server_id":114,"name":"Uncletopia | London | 2 | All Maps","name_short":"lon-2","host":"lon-1.uk.uncletopia.com","port":27025,"enabled":true,"region":"eu","cc":"gb","latitude":51.509865,"longitude":-0.118092,"reserved":0,"last_update":"0001-01-01T00:00:00Z","name_a2s":"Uncletopia | London | 2 | All Maps","protocol":17,"map":"pl_pier","folder":"tf","game":"Team Fortress","app_id":440,"player_count":8,"max_players":24,"Bots":0,"server_type":"Dedicated","server_os":"Linux","password":true,"vac":true,"version":"7961495","steam_id":85568392924470941,"keywords":["nocrits","nodmgspread","payload","uncletopia"],"game_id":440,"stv_port":27026,"stv_name":"Uncletopia | London | 2 | All Maps | STV","players":[{"user_id":17,"name":"The Scoundrel","steam_id":76561199244090814,"connected_time":1420000000000,"state":"active","ping":44},{"user_id":18,"name":"sniper's kangaroo ex","steam_id":76561198334042273,"connected_time":1393000000000,"state":"active","ping":40},{"user_id":16,"name":"krozewski","steam_id":76561198035540483,"connected_time":1543000000000,"state":"active","ping":97},{"user_id":26,"name":"[Z7]DrNo","steam_id":76561197969376290,"connected_time":72000000000,"state":"active","ping":55},{"user_id":20,"name":"ja","steam_id":76561199228540618,"connected_time":1176000000000,"state":"active","ping":60},{"user_id":21,"name":"Lwyz016","steam_id":76561199164626058,"connected_time":628000000000,"state":"active","ping":72},{"user_id":22,"name":"Moondrop","steam_id":76561199421181719,"connected_time":285000000000,"state":"active","ping":60},{"user_id":24,"name":"bucket","steam_id":76561199102853603,"connected_time":245000000000,"state":"active","ping":94}]},{"server_id":320,"name":"Uncletopia | London | 3 | All Maps","name_short":"lon-3","host":"lon-1.uk.uncletopia.com","port":27035,"enabled":true,"region":"eu","cc":"gb","latitude":51.509865,"longitude":-0.118092,"reserved":0,"last_update":"0001-01-01T00:00:00Z","name_a2s":"Uncletopia | London | 3 | All Maps","protocol":17,"map":"koth_lakeside_final","folder":"tf","game":"Team Fortress","app_id":440,"player_count":0,"max_players":24,"Bots":0,"server_type":"Dedicated","server_os":"Linux","password":true,"vac":true,"version":"7961495","steam_id":85568392924510192,"keywords":["cp","nocrits","nodmgspread","uncletopia"],"game_id":440,"stv_port":27036,"stv_name":"Uncletopia | London | 3 | All Maps | STV","players":null},{"server_id":321,"name":"Uncletopia | London | 4 | All Maps","name_short":"lon-4","host":"lon-1.uk.uncletopia.com","port":27045,"enabled":true,"region":"eu","cc":"gb","latitude":51.509865,"longitude":-0.118092,"reserved":0,"last_update":"0001-01-01T00:00:00Z","name_a2s":"Uncletopia | London | 4 | All Maps","protocol":17,"map":"pl_thundermountain","folder":"tf","game":"Team Fortress","app_id":440,"player_count":23,"max_players":24,"Bots":0,"server_type":"Dedicated","server_os":"Linux","password":true,"vac":true,"version":"7961495","steam_id":85568392924510193,"keywords":["nocrits","nodmgspread","payload","uncletopia"],"game_id":440,"stv_port":27046,"stv_name":"Uncletopia | London | 4 | All Maps | STV","players":[{"user_id":80,"name":"(9)cum","steam_id":76561198052898368,"connected_time":5319000000000,"state":"active","ping":80},{"user_id":115,"name":"Aeinzalot","steam_id":76561198195288449,"connected_time":2367000000000,"state":"active","ping":46},{"user_id":149,"name":"Skelet","steam_id":76561198051685232,"connected_time":4000000000,"state":"spawning","ping":36},{"user_id":67,"name":"Zembis","steam_id":76561198008017918,"connected_time":5804000000000,"state":"active","ping":90},{"user_id":50,"name":"vomit","steam_id":76561197994492154,"connected_time":6576000000000,"state":"active","ping":72},{"user_id":140,"name":"-rikeOo-","steam_id":76561198303995379,"connected_time":991000000000,"state":"active","ping":79},{"user_id":141,"name":"Luke","steam_id":76561198332688229,"connected_time":875000000000,"state":"active","ping":63},{"user_id":145,"name":"Bobo","steam_id":76561198052308399,"connected_time":230000000000,"state":"active","ping":58},{"user_id":135,"name":"NoName","steam_id":76561198108612230,"connected_time":1171000000000,"state":"active","ping":67},{"user_id":119,"name":"The worst TF2 player(Real)","steam_id":76561199184873889,"connected_time":2167000000000,"state":"active","ping":64},{"user_id":136,"name":"Sex Man TF2","steam_id":76561198798657045,"connected_time":1145000000000,"state":"active","ping":73},{"user_id":137,"name":"Meladoom2","steam_id":76561198086845387,"connected_time":1140000000000,"state":"active","ping":95},{"user_id":101,"name":"Molty","steam_id":76561198004360335,"connected_time":4018000000000,"state":"active","ping":44},{"user_id":143,"name":"cheap whisky","steam_id":76561198383808477,"connected_time":313000000000,"state":"active","ping":51},{"user_id":118,"name":"Dirty goblin","steam_id":76561198153207632,"connected_time":2268000000000,"state":"active","ping":62},{"user_id":144,"name":"Onions","steam_id":76561198150195195,"connected_time":301000000000,"state":"active","ping":51},{"user_id":148,"name":"David Random","steam_id":76561198144497918,"connected_time":116000000000,"state":"active","ping":59},{"user_id":146,"name":"Personano","steam_id":76561198994355577,"connected_time":214000000000,"state":"active","ping":45},{"user_id":116,"name":"CAR DOOR","steam_id":76561198055283295,"connected_time":2343000000000,"state":"active","ping":48},{"user_id":104,"name":"stonebum","steam_id":76561198057004606,"connected_time":3974000000000,"state":"active","ping":60},{"user_id":93,"name":"..!","steam_id":76561198882483441,"connected_time":4430000000000,"state":"active","ping":140},{"user_id":43,"name":"Nassu","steam_id":76561198147367577,"connected_time":7677000000000,"state":"active","ping":148},{"user_id":139,"name":"Nova","steam_id":76561199001959014,"connected_time":1103000000000,"state":"active","ping":125}]},{"server_id":21,"name":"Uncletopia | London | 5 | All Maps","name_short":"lon-5","host":"lon-1.uk.uncletopia.com","port":27055,"enabled":true,"region":"eu","cc":"gb","latitude":51.509865,"longitude":-0.118092,"reserved":0,"last_update":"0001-01-01T00:00:00Z","name_a2s":"Uncletopia | London | 5 | All Maps","protocol":17,"map":"koth_lazarus","folder":"tf","game":"Team Fortress","app_id":440,"player_count":0,"max_players":24,"Bots":0,"server_type":"Dedicated","server_os":"Linux","password":true,"vac":true,"version":"7961495","steam_id":85568392924742829,"keywords":["cp","nocrits","nodmgspread","uncletopia"],"game_id":440,"stv_port":27056,"stv_name":"Uncletopia | London | 5 | All Maps | STV","players":null},{"server_id":22,"name":"Uncletopia | London | 6 | All Maps","name_short":"lon-6","host":"lon-1.uk.uncletopia.com","port":27065,"enabled":true,"region":"eu","cc":"gb","latitude":51.509865,"longitude":-0.118092,"reserved":0,"last_update":"0001-01-01T00:00:00Z","name_a2s":"Uncletopia | London | 6 | All Maps","protocol":17,"map":"cp_snakewater_final1","folder":"tf","game":"Team Fortress","app_id":440,"player_count":0,"max_players":24,"Bots":0,"server_type":"Dedicated","server_os":"Linux","password":true,"vac":true,"version":"7961495","steam_id":85568392924742830,"keywords":["cp","nocrits","nodmgspread","uncletopia"],"game_id":440,"stv_port":27066,"stv_name":"Uncletopia | London | 6 | All Maps | STV","players":null},{"server_id":40,"name":"Uncletopia | London | 7 | Stopwatch","name_short":"lon-7","host":"lon-1.uk.uncletopia.com","port":27075,"enabled":true,"region":"eu","cc":"gb","latitude":51.509865,"longitude":-0.118092,"reserved":0,"last_update":"0001-01-01T00:00:00Z","name_a2s":"Uncletopia | London | 7 | Stopwatch","protocol":17,"map":"workshop/koth_ashville_final.ugc2130459942","folder":"tf","game":"Team Fortress","app_id":440,"player_count":0,"max_players":24,"Bots":0,"server_type":"Dedicated","server_os":"Linux","password":true,"vac":true,"version":"7961495","steam_id":85568392924964314,"keywords":["cp","nocrits","nodmgspread","uncletopia"],"game_id":440,"stv_port":27076,"stv_name":"Uncletopia | London | 7 | Stopwatch | STV","players":null},{"server_id":41,"name":"Uncletopia | London | 8 | Community","name_short":"lon-8","host":"lon-1.uk.uncletopia.com","port":27085,"enabled":true,"region":"eu","cc":"gb","latitude":51.509865,"longitude":-0.118092,"reserved":0,"last_update":"0001-01-01T00:00:00Z","name_a2s":"Uncletopia | London | 8 | Community","protocol":17,"map":"workshop/cp_villa_b19.ugc2113052569","folder":"tf","game":"Team Fortress","app_id":440,"player_count":0,"max_players":24,"Bots":0,"server_type":"Dedicated","server_os":"Linux","password":true,"vac":true,"version":"7961495","steam_id":85568392924964315,"keywords":["cp","nocrits","nodmgspread","uncletopia"],"game_id":440,"stv_port":27086,"stv_name":"Uncletopia | London | 8 | Community | STV","players":null},{"server_id":300,"name":"Uncletopia | Montr√©al | 1 | One Thousand Uncles","name_short":"mtl-1","host":"mtl-1.ca.uncletopia.com","port":27015,"enabled":true,"region":"us-east","cc":"ca","latitude":45.50889,"longitude":-73.56167,"reserved":0,"last_update":"0001-01-01T00:00:00Z","name_a2s":"Uncletopia | Montr√©al | 1 | One Thousand Uncles","protocol":17,"map":"pl_chilly","folder":"tf","game":"Team Fortress","app_id":440,"player_count":0,"max_players":32,"Bots":0,"server_type":"Dedicated","server_os":"Linux","password":true,"vac":true,"version":"7961495","steam_id":85568392924500087,"keywords":["alltalk","danepve","increased_maxplayers","norespawntime","payload","uncletopia"],"game_id":440,"stv_port":0,"stv_name":"","players":null},{"server_id":301,"name":"Uncletopia | Montr√©al | 2 | One Thousand Uncles","name_short":"mtl-2","host":"mtl-1.ca.uncletopia.com","port":27025,"enabled":true,"region":"us-east","cc":"ca","latitude":45.50889,"longitude":-73.56167,"reserved":0,"last_update":"0001-01-01T00:00:00Z","name_a2s":"Uncletopia | Montr√©al | 2 | One Thousand Uncles","protocol":17,"map":"pl_snowycoast","folder":"tf","game":"Team Fortress","app_id":440,"player_count":0,"max_players":32,"Bots":0,"server_type":"Dedicated","server_os":"Linux","password":true,"vac":true,"version":"7961495","steam_id":85568392924500088,"keywords":["alltalk","danepve","increased_maxplayers","norespawntime","payload","uncletopia"],"game_id":440,"stv_port":0,"stv_name":"","players":null},{"server_id":302,"name":"Uncletopia | Montr√©al | 3 | One Thousand Uncles","name_short":"mtl-3","host":"mtl-1.ca.uncletopia.com","port":27035,"enabled":true,"region":"us-east","cc":"ca","latitude":45.50889,"longitude":-73.56167,"reserved":0,"last_update":"0001-01-01T00:00:00Z","name_a2s":"Uncletopia | Montr√©al | 3 | One Thousand Uncles","protocol":17,"map":"pl_upward","folder":"tf","game":"Team Fortress","app_id":440,"player_count":0,"max_players":32,"Bots":0,"server_type":"Dedicated","server_os":"Linux","password":true,"vac":true,"version":"7961495","steam_id":85568392924500089,"keywords":["alltalk","danepve","increased_maxplayers","norespawntime","payload","uncletopia"],"game_id":440,"stv_port":0,"stv_name":"","players":null},{"server_id":13,"name":"Uncletopia | New York City | 1 | All Maps","name_short":"nyc-1","host":"nyc-1.us.uncletopia.com","port":27015,"enabled":true,"region":"us-east","cc":"us","latitude":40.73061,"longitude":-73.93524,"reserved":0,"last_update":"0001-01-01T00:00:00Z","name_a2s":"Uncletopia | New York City | 1 | All Maps","protocol":17,"map":"koth_brazil","folder":"tf","game":"Team Fortress","app_id":440,"player_count":0,"max_players":24,"Bots":0,"server_type":"Dedicated","server_os":"Linux","password":true,"vac":true,"version":"7961495","steam_id":85568392924469993,"keywords":["cp","nocrits","nodmgspread","uncletopia"],"game_id":440,"stv_port":27016,"stv_name":"Uncletopia | New York City | 1 | All Maps | STV","players":null},{"server_id":14,"name":"Uncletopia | New York City | 2 | All Maps","name_short":"nyc-2","host":"nyc-1.us.uncletopia.com","port":27025,"enabled":true,"region":"us-east","cc":"us","latitude":40.73061,"longitude":-73.93524,"reserved":0,"last_update":"0001-01-01T00:00:00Z","name_a2s":"Uncletopia | New York City | 2 | All Maps","protocol":17,"map":"pl_frontier_final","folder":"tf","game":"Team Fortress","app_id":440,"player_count":24,"max_players":24,"Bots":0,"server_type":"Dedicated","server_os":"Linux","password":true,"vac":true,"version":"7961495","steam_id":85568392924469994,"keywords":["nocrits","nodmgspread","payload","uncletopia"],"game_id":440,"stv_port":27026,"stv_name":"Uncletopia | New York City | 2 | All Maps | STV","players":[{"user_id":48,"name":"He rolls his own","steam_id":76561198058162684,"connected_time":296000000000,"state":"active","ping":50},{"user_id":5,"name":"Menace to Sobriety","steam_id":76561198245103000,"connected_time":3549000000000,"state":"active","ping":40},{"user_id":51,"name":"lol","steam_id":76561198072115209,"connected_time":69000000000,"state":"active","ping":48},{"user_id":44,"name":"Madame Meow Meow","steam_id":76561198111399111,"connected_time":473000000000,"state":"active","ping":53},{"user_id":11,"name":"Pannington","steam_id":76561198138707710,"connected_time":1907000000000,"state":"active","ping":72},{"user_id":40,"name":"Ranger","steam_id":76561198064096654,"connected_time":660000000000,"state":"active","ping":59},{"user_id":13,"name":"Ramen","steam_id":76561198152762458,"connected_time":1897000000000,"state":"active","ping":64},{"user_id":32,"name":"Beany","steam_id":76561198102299438,"connected_time":1110000000000,"state":"active","ping":61},{"user_id":35,"name":"Xavibite","steam_id":76561198209380493,"connected_time":894000000000,"state":"active","ping":45},{"user_id":45,"name":"Coke Himmy","steam_id":76561198397459211,"connected_time":457000000000,"state":"active","ping":51},{"user_id":46,"name":"TheLoneGoat","steam_id":76561198391485266,"connected_time":409000000000,"state":"active","ping":54},{"user_id":49,"name":"pim","steam_id":76561198095163441,"connected_time":241000000000,"state":"active","ping":78},{"user_id":19,"name":"Shawesome","steam_id":76561199059276383,"connected_time":1503000000000,"state":"active","ping":58},{"user_id":20,"name":"DarkFrenzy","steam_id":76561199144599645,"connected_time":1501000000000,"state":"active","ping":74},{"user_id":47,"name":"Beltalowda","steam_id":76561198106396044,"connected_time":346000000000,"state":"active","ping":63},{"user_id":56,"name":"FoxyTheFish","steam_id":76561199074190919,"connected_time":10000000000,"state":"spawning","ping":119},{"user_id":55,"name":"SalsaDaddy","steam_id":76561198358869108,"connected_time":27000000000,"state":"active","ping":94},{"user_id":26,"name":"The Hose on Upward","steam_id":76561197965092192,"connected_time":1207000000000,"state":"active","ping":53},{"user_id":27,"name":"RedBread | Not mad, just Bo3","steam_id":76561197999362370,"connected_time":1204000000000,"state":"active","ping":74},{"user_id":52,"name":"baconandx","steam_id":76561198355074004,"connected_time":59000000000,"state":"active","ping":52},{"user_id":30,"name":"chen","steam_id":76561198064872330,"connected_time":1191000000000,"state":"active","ping":56},{"user_id":31,"name":"Eviscerator","steam_id":76561197980073637,"connected_time":1185000000000,"state":"active","ping":89},{"user_id":54,"name":"Engineer :)","steam_id":76561199210230541,"connected_time":51000000000,"state":"active","ping":66},{"user_id":34,"name":"Barry","steam_id":76561198371953939,"connected_time":1061000000000,"state":"active","ping":47}]},{"server_id":15,"name":"Uncletopia | New York City | 3 | Stopwatch","name_short":"nyc-3","host":"nyc-1.us.uncletopia.com","port":27035,"enabled":true,"region":"us-east","cc":"us","latitude":40.73061,"longitude":-73.93524,"reserved":0,"last_update":"0001-01-01T00:00:00Z","name_a2s":"Uncletopia | New York City | 3 | Stopwatch","protocol":17,"map":"workshop/cp_reckoner_rc6.ugc674719999","folder":"tf","game":"Team Fortress","app_id":440,"player_count":0,"max_players":24,"Bots":0,"server_type":"Dedicated","server_os":"Linux","password":true,"vac":true,"version":"7961495","steam_id":85568392924742820,"keywords":["cp","nocrits","nodmgspread","uncletopia"],"game_id":440,"stv_port":27036,"stv_name":"Uncletopia | New York City | 3 | Stopwatch | STV","players":null},{"server_id":16,"name":"Uncletopia | New York City | 4 | Community","name_short":"nyc-4","host":"nyc-1.us.uncletopia.com","port":27045,"enabled":true,"region":"us-east","cc":"us","latitude":40.73061,"longitude":-73.93524,"reserved":0,"last_update":"0001-01-01T00:00:00Z","name_a2s":"Uncletopia | New York City | 4 | Community","protocol":17,"map":"workshop/cp_indulge.ugc528106646","folder":"tf","game":"Team Fortress","app_id":440,"player_count":0,"max_players":24,"Bots":0,"server_type":"Dedicated","server_os":"Linux","password":true,"vac":true,"version":"7961495","steam_id":85568392924742821,"keywords":["cp","nocrits","nodmgspread","uncletopia"],"game_id":440,"stv_port":27046,"stv_name":"Uncletopia | New York City | 4 | Community | STV","players":null},{"server_id":142,"name":"Uncletopia | S√£o Paulo | 1 | All Maps","name_short":"sao-1","host":"sao-1.br.uncletopia.com","port":27015,"enabled":true,"region":"sa","cc":"br","latitude":-23.533773,"longitude":-46.62529,"reserved":0,"last_update":"0001-01-01T00:00:00Z","name_a2s":"Uncletopia | S√£o Paulo | 1 | All Maps","protocol":17,"map":"cp_granary","folder":"tf","game":"Team Fortress","app_id":440,"player_count":0,"max_players":24,"Bots":0,"server_type":"Dedicated","server_os":"Linux","password":true,"vac":true,"version":"7961495","steam_id":85568392924469996,"keywords":["cp","nocrits","nodmgspread","uncletopia"],"game_id":440,"stv_port":27016,"stv_name":"Uncletopia | S√£o Paulo | 1 | All Maps | STV","players":null},{"server_id":143,"name":"Uncletopia | S√£o Paulo | 2 | Community","name_short":"sao-2","host":"sao-2.br.uncletopia.com","port":27015,"enabled":true,"region":"sa","cc":"br","latitude":-23.533773,"longitude":-46.62529,"reserved":0,"last_update":"0001-01-01T00:00:00Z","name_a2s":"Uncletopia | S√£o Paulo | 2 | Community","protocol":17,"map":"workshop/koth_jamram_rc1a.ugc2964065613","folder":"tf","game":"Team Fortress","app_id":440,"player_count":0,"max_players":24,"Bots":0,"server_type":"Dedicated","server_os":"Linux","password":true,"vac":true,"version":"7961495","steam_id":85568392924485349,"keywords":["cp","nocrits","nodmgspread","uncletopia"],"game_id":440,"stv_port":27016,"stv_name":"Uncletopia | S√£o Paulo | 2 | Community | STV","players":null},{"server_id":7,"name":"Uncletopia | Seattle | 1 | All Maps","name_short":"sea-1","host":"sea-1.us.uncletopia.com","port":27015,"enabled":true,"region":"us-west","cc":"us","latitude":47.608013,"longitude":-122.33517,"reserved":0,"last_update":"0001-01-01T00:00:00Z","name_a2s":"Uncletopia | Seattle | 1 | All Maps","protocol":17,"map":"koth_viaduct","folder":"tf","game":"Team Fortress","app_id":440,"player_count":0,"max_players":24,"Bots":0,"server_type":"Dedicated","server_os":"Linux","password":true,"vac":true,"version":"7961495","steam_id":85568392924469997,"keywords":["cp","nocrits","nodmgspread","uncletopia"],"game_id":440,"stv_port":27016,"stv_name":"Uncletopia | Seattle | 1 | All Maps | STV","players":null},{"server_id":119,"name":"Uncletopia | Seattle | 2 | All Maps","name_short":"sea-2","host":"sea-1.us.uncletopia.com","port":27025,"enabled":true,"region":"us-west","cc":"us","latitude":47.608013,"longitude":-122.33517,"reserved":0,"last_update":"0001-01-01T00:00:00Z","name_a2s":"Uncletopia | Seattle | 2 | All Maps","protocol":17,"map":"koth_lakeside_final","folder":"tf","game":"Team Fortress","app_id":440,"player_count":0,"max_players":24,"Bots":0,"server_type":"Dedicated","server_os":"Linux","password":true,"vac":true,"version":"7961495","steam_id":85568392924469998,"keywords":["cp","nocrits","nodmgspread","uncletopia"],"game_id":440,"stv_port":27026,"stv_name":"Uncletopia | Seattle | 2 | All Maps | STV","players":null},{"server_id":406,"name":"Uncletopia | Seattle | 3 | Stopwatch","name_short":"sea-3","host":"sea-1.us.uncletopia.com","port":27035,"enabled":true,"region":"us-west","cc":"us","latitude":47.608013,"longitude":-122.33517,"reserved":0,"last_update":"0001-01-01T00:00:00Z","name_a2s":"Uncletopia | Seattle | 3 | Stopwatch","protocol":17,"map":"cp_gullywash_final1","folder":"tf","game":"Team Fortress","app_id":440,"player_count":0,"max_players":24,"Bots":0,"server_type":"Dedicated","server_os":"Linux","password":true,"vac":true,"version":"7961495","steam_id":85568392924515217,"keywords":["cp","nocrits","nodmgspread","uncletopia"],"game_id":440,"stv_port":27036,"stv_name":"Uncletopia | Seattle | 3 | Stopwatch | STV","players":null},{"server_id":17,"name":"Uncletopia | San Francisco | 1 | All Maps","name_short":"sfo-1","host":"sfo-1.us.uncletopia.com","port":27015,"enabled":true,"region":"us-west","cc":"us","latitude":37.77397,"longitude":-122.4313,"reserved":0,"last_update":"0001-01-01T00:00:00Z","name_a2s":"Uncletopia | San Francisco | 1 | All Maps","protocol":17,"map":"pl_thundermountain","folder":"tf","game":"Team Fortress","app_id":440,"player_count":14,"max_players":24,"Bots":0,"server_type":"Dedicated","server_os":"Linux","password":true,"vac":true,"version":"7961495","steam_id":85568392924469999,"keywords":["nocrits","nodmgspread","payload","uncletopia"],"game_id":440,"stv_port":27016,"stv_name":"Uncletopia | San Francisco | 1 | All Maps | STV","players":[{"user_id":47,"name":"mintsmatchamocha","steam_id":76561198420094402,"connected_time":577000000000,"state":"active","ping":58},{"user_id":34,"name":"Caramel_Chalice","steam_id":76561198307609692,"connected_time":2560000000000,"state":"active","ping":65},{"user_id":36,"name":"Sause","steam_id":76561198813759906,"connected_time":2251000000000,"state":"active","ping":107},{"user_id":17,"name":"Trips","steam_id":76561198054581597,"connected_time":3824000000000,"state":"active","ping":47},{"user_id":37,"name":"LeFunnyMan","steam_id":76561199081645289,"connected_time":2163000000000,"state":"active","ping":83},{"user_id":38,"name":"FI LO","steam_id":76561198976530881,"connected_time":1917000000000,"state":"active","ping":39},{"user_id":28,"name":":3","steam_id":76561199194702127,"connected_time":2947000000000,"state":"active","ping":106},{"user_id":43,"name":"Frying Pan gaming","steam_id":76561199230315253,"connected_time":1514000000000,"state":"active","ping":230},{"user_id":44,"name":"The Potato","steam_id":76561198797301216,"connected_time":1386000000000,"state":"active","ping":108},{"user_id":54,"name":"AidenSpot","steam_id":76561198324152195,"connected_time":101000000000,"state":"active","ping":120},{"user_id":51,"name":"Mormon Discoball","steam_id":76561198028006216,"connected_time":359000000000,"state":"active","ping":75},{"user_id":32,"name":"Alkimia","steam_id":76561198385763137,"connected_time":2714000000000,"state":"active","ping":103},{"user_id":52,"name":"The Sydney Sleeper Itself","steam_id":76561198180251763,"connected_time":273000000000,"state":"active","ping":83},{"user_id":53,"name":"Griff Applewood","steam_id":76561198091512776,"connected_time":170000000000,"state":"active","ping":89}]},{"server_id":18,"name":"Uncletopia | San Francisco | 2 | All Maps","name_short":"sfo-2","host":"sfo-1.us.uncletopia.com","port":27025,"enabled":true,"region":"us-west","cc":"us","latitude":37.77397,"longitude":-122.4313,"reserved":0,"last_update":"0001-01-01T00:00:00Z","name_a2s":"Uncletopia | San Francisco | 2 | All Maps","protocol":17,"map":"cp_freight_final1","folder":"tf","game":"Team Fortress","app_id":440,"player_count":0,"max_players":24,"Bots":0,"server_type":"Dedicated","server_os":"Linux","password":true,"vac":true,"version":"7961495","steam_id":85568392924470000,"keywords":["cp","nocrits","nodmgspread","uncletopia"],"game_id":440,"stv_port":27026,"stv_name":"Uncletopia | San Francisco | 2 | All Maps | STV","players":null},{"server_id":19,"name":"Uncletopia | San Francisco | 3 | Stopwatch","name_short":"sfo-3","host":"sfo-1.us.uncletopia.com","port":27035,"enabled":true,"region":"us-west","cc":"us","latitude":37.77397,"longitude":-122.4313,"reserved":0,"last_update":"0001-01-01T00:00:00Z","name_a2s":"Uncletopia | San Francisco | 3 | Stopwatch","protocol":17,"map":"workshop/koth_product_final.ugc454272353","folder":"tf","game":"Team Fortress","app_id":440,"player_count":0,"max_players":24,"Bots":0,"server_type":"Dedicated","server_os":"Linux","password":true,"vac":true,"version":"7961495","steam_id":85568392924742824,"keywords":["cp","nocrits","nodmgspread","uncletopia"],"game_id":440,"stv_port":27036,"stv_name":"Uncletopia | San Francisco | 3 | Stopwatch | STV","players":null},{"server_id":20,"name":"Uncletopia | San Francisco | 4 | Community","name_short":"sfo-4","host":"sfo-1.us.uncletopia.com","port":27045,"enabled":true,"region":"us-west","cc":"us","latitude":37.77397,"longitude":-122.4313,"reserved":0,"last_update":"0001-01-01T00:00:00Z","name_a2s":"Uncletopia | San Francisco | 4 | Community","protocol":17,"map":"workshop/pl_cactuscanyon_redux_final2.ugc2579644293","folder":"tf","game":"Team Fortress","app_id":440,"player_count":0,"max_players":24,"Bots":0,"server_type":"Dedicated","server_os":"Linux","password":true,"vac":true,"version":"7961495","steam_id":85568392924742826,"keywords":["nocrits","nodmgspread","payload","uncletopia"],"game_id":440,"stv_port":27046,"stv_name":"Uncletopia | San Francisco | 4 | Community | STV","players":null},{"server_id":141,"name":"Uncletopia | Sydney | 1 | All Maps","name_short":"syd-1","host":"syd-1.au.uncletopia.com","port":27015,"enabled":true,"region":"au","cc":"au","latitude":-33.865143,"longitude":151.2099,"reserved":0,"last_update":"0001-01-01T00:00:00Z","name_a2s":"Uncletopia | Sydney | 1 | All Maps","protocol":17,"map":"pl_frontier_final","folder":"tf","game":"Team Fortress","app_id":440,"player_count":0,"max_players":24,"Bots":0,"server_type":"Dedicated","server_os":"Linux","password":true,"vac":true,"version":"7961495","steam_id":85568392924470001,"keywords":["nocrits","nodmgspread","payload","uncletopia"],"game_id":440,"stv_port":27016,"stv_name":"Uncletopia | Sydney | 1 | All Maps | STV","players":null},{"server_id":123,"name":"Uncletopia | Sydney | 2 | All Maps","name_short":"syd-2","host":"syd-1.au.uncletopia.com","port":27025,"enabled":true,"region":"au","cc":"au","latitude":-33.865143,"longitude":151.2099,"reserved":0,"last_update":"0001-01-01T00:00:00Z","name_a2s":"Uncletopia | Sydney | 2 | All Maps","protocol":17,"map":"pl_thundermountain","folder":"tf","game":"Team Fortress","app_id":440,"player_count":16,"max_players":24,"Bots":0,"server_type":"Dedicated","server_os":"Linux","password":true,"vac":true,"version":"7961495","steam_id":85568392924470002,"keywords":["nocrits","nodmgspread","payload","uncletopia"],"game_id":440,"stv_port":27026,"stv_name":"Uncletopia | Sydney | 2 | All Maps | STV","players":[{"user_id":477,"name":"crinkle","steam_id":76561198059799940,"connected_time":2438000000000,"state":"active","ping":43},{"user_id":495,"name":"11/10 would cook spider again","steam_id":76561198285714724,"connected_time":1038000000000,"state":"active","ping":60},{"user_id":394,"name":"grug","steam_id":76561198029898248,"connected_time":9327000000000,"state":"active","ping":59},{"user_id":473,"name":"Demomen at Work","steam_id":76561198376221252,"connected_time":2912000000000,"state":"active","ping":60},{"user_id":471,"name":"Andreas Vesalius","steam_id":76561198950692005,"connected_time":2955000000000,"state":"active","ping":44},{"user_id":478,"name":"Weave","steam_id":76561198050777540,"connected_time":2433000000000,"state":"active","ping":44},{"user_id":395,"name":"Postal Pat","steam_id":76561198020480676,"connected_time":9327000000000,"state":"active","ping":46},{"user_id":462,"name":"Plushie","steam_id":76561198043226890,"connected_time":3518000000000,"state":"active","ping":45},{"user_id":463,"name":"barber shop heptet","steam_id":76561198055379370,"connected_time":3480000000000,"state":"active","ping":96},{"user_id":455,"name":"Kenny","steam_id":76561198077366241,"connected_time":4464000000000,"state":"active","ping":47},{"user_id":483,"name":"oogeenee","steam_id":76561199224705904,"connected_time":2041000000000,"state":"active","ping":34},{"user_id":488,"name":"Sinister80s","steam_id":76561198343540472,"connected_time":1719000000000,"state":"active","ping":71},{"user_id":452,"name":"bruiseblood","steam_id":76561198062301135,"connected_time":4718000000000,"state":"active","ping":49},{"user_id":491,"name":"floop flub","steam_id":76561198418968979,"connected_time":1378000000000,"state":"active","ping":46},{"user_id":492,"name":"Inplayed","steam_id":76561198450477626,"connected_time":1294000000000,"state":"active","ping":49},{"user_id":425,"name":"Bay 13 Bogan","steam_id":76561198193953294,"connected_time":7356000000000,"state":"active","ping":47}]},{"server_id":395,"name":"Uncletopia | Sydney | 3 | All Maps","name_short":"syd-3","host":"syd-1.au.uncletopia.com","port":27035,"enabled":true,"region":"au","cc":"au","latitude":-33.865143,"longitude":151.2099,"reserved":0,"last_update":"0001-01-01T00:00:00Z","name_a2s":"Uncletopia | Sydney | 3 | All Maps","protocol":17,"map":"cp_mountainlab","folder":"tf","game":"Team Fortress","app_id":440,"player_count":0,"max_players":24,"Bots":0,"server_type":"Dedicated","server_os":"Linux","password":true,"vac":true,"version":"7961495","steam_id":85568392925194467,"keywords":["cp","nocrits","nodmgspread","uncletopia"],"game_id":440,"stv_port":27036,"stv_name":"Uncletopia | Sydney | 3 | All Maps | STV","players":null},{"server_id":396,"name":"Uncletopia | Sydney | 4 | All Maps","name_short":"syd-4","host":"syd-1.au.uncletopia.com","port":27045,"enabled":true,"region":"au","cc":"au","latitude":-33.865143,"longitude":151.2099,"reserved":0,"last_update":"0001-01-01T00:00:00Z","name_a2s":"Uncletopia | Sydney | 4 | All Maps","protocol":17,"map":"koth_lakeside_final","folder":"tf","game":"Team Fortress","app_id":440,"player_count":0,"max_players":24,"Bots":0,"server_type":"Dedicated","server_os":"Linux","password":true,"vac":true,"version":"7961495","steam_id":85568392925397958,"keywords":["cp","nocrits","nodmgspread","uncletopia"],"game_id":440,"stv_port":27046,"stv_name":"Uncletopia | Sydney | 4 | All Maps | STV","players":null},{"server_id":58,"name":"Uncletopia | Sydney | 5 | Stopwatch","name_short":"syd-5","host":"syd-1.au.uncletopia.com","port":27055,"enabled":true,"region":"au","cc":"au","latitude":-33.865143,"longitude":151.2099,"reserved":0,"last_update":"0001-01-01T00:00:00Z","name_a2s":"Uncletopia | Sydney | 5 | Stopwatch","protocol":17,"map":"workshop/pl_summercoast_rc8e.ugc1761528829","folder":"tf","game":"Team Fortress","app_id":440,"player_count":0,"max_players":24,"Bots":0,"server_type":"Dedicated","server_os":"Linux","password":true,"vac":true,"version":"7961495","steam_id":85568392925397959,"keywords":["nocrits","nodmgspread","payload","uncletopia"],"game_id":440,"stv_port":27056,"stv_name":"Uncletopia | Sydney | 5 | Stopwatch | STV","players":null},{"server_id":59,"name":"Uncletopia | Sydney | 6 | Community","name_short":"syd-6","host":"syd-1.au.uncletopia.com","port":27065,"enabled":true,"region":"au","cc":"au","latitude":-33.865143,"longitude":151.2099,"reserved":0,"last_update":"0001-01-01T00:00:00Z","name_a2s":"Uncletopia | Sydney | 6 | Community","protocol":17,"map":"workshop/koth_trenchfoot_ab1.ugc731436616","folder":"tf","game":"Team Fortress","app_id":440,"player_count":0,"max_players":24,"Bots":0,"server_type":"Dedicated","server_os":"Linux","password":true,"vac":true,"version":"7961495","steam_id":85568392925397960,"keywords":["cp","nocrits","nodmgspread","uncletopia"],"game_id":440,"stv_port":27066,"stv_name":"Uncletopia | Sydney | 6 | Community | STV","players":null},{"server_id":49,"name":"Uncletopia | Warsaw | 1 | One Thousand Uncles","name_short":"waw-1","host":"waw-1.pl.uncletopia.com","port":27015,"enabled":true,"region":"eu","cc":"pl","latitude":52.2297,"longitude":21.017532,"reserved":0,"last_update":"0001-01-01T00:00:00Z","name_a2s":"Uncletopia | Warsaw | 1 | One Thousand Uncles","protocol":17,"map":"pl_goldrush","folder":"tf","game":"Team Fortress","app_id":440,"player_count":26,"max_players":32,"Bots":16,"server_type":"Dedicated","server_os":"Linux","password":true,"vac":true,"version":"7961495","steam_id":85568392925397850,"keywords":["alltalk","bots","danepve","increased_maxplayers","norespawntime","payload","uncletopia"],"game_id":440,"stv_port":0,"stv_name":"","players":[{"user_id":501,"name":"padillacampos","steam_id":76561198161923970,"connected_time":100000000000,"state":"active","ping":89},{"user_id":462,"name":"d u k k i","steam_id":76561198071807437,"connected_time":2955000000000,"state":"active","ping":59},{"user_id":488,"name":"Max","steam_id":76561198080956366,"connected_time":1824000000000,"state":"active","ping":47},{"user_id":502,"name":"Rusk","steam_id":76561198982057397,"connected_time":75000000000,"state":"active","ping":58},{"user_id":490,"name":"Whelchur","steam_id":76561199442895952,"connected_time":1702000000000,"state":"active","ping":91},{"user_id":491,"name":"Yuxues","steam_id":76561199218188958,"connected_time":1670000000000,"state":"active","ping":95},{"user_id":496,"name":"Limner.exe","steam_id":76561199200274345,"connected_time":1084000000000,"state":"active","ping":156},{"user_id":497,"name":"G.L.O.R.I.","steam_id":76561198134414380,"connected_time":1077000000000,"state":"active","ping":75},{"user_id":498,"name":"CryptoSV","steam_id":76561197995784509,"connected_time":760000000000,"state":"active","ping":78},{"user_id":499,"name":"luckyastroman","steam_id":76561199027500574,"connected_time":613000000000,"state":"active","ping":48}]},{"server_id":50,"name":"Uncletopia | Warsaw | 2 | One Thousand Uncles","name_short":"waw-2","host":"waw-1.pl.uncletopia.com","port":27025,"enabled":true,"region":"eu","cc":"pl","latitude":52.2297,"longitude":21.017532,"reserved":0,"last_update":"0001-01-01T00:00:00Z","name_a2s":"Uncletopia | Warsaw | 2 | One Thousand Uncles","protocol":17,"map":"pl_goldrush","folder":"tf","game":"Team Fortress","app_id":440,"player_count":17,"max_players":32,"Bots":16,"server_type":"Dedicated","server_os":"Linux","password":true,"vac":true,"version":"7961495","steam_id":85568392925397851,"keywords":["alltalk","bots","danepve","increased_maxplayers","norespawntime","payload","uncletopia"],"game_id":440,"stv_port":0,"stv_name":"","players":[{"user_id":133,"name":"B1234fa","steam_id":76561199119287595,"connected_time":55000000000,"state":"active","ping":33}]},{"server_id":51,"name":"Uncletopia | Warsaw | 3 | All Maps","name_short":"waw-3","host":"waw-1.pl.uncletopia.com","port":27035,"enabled":true,"region":"eu","cc":"pl","latitude":52.2297,"longitude":21.017532,"reserved":0,"last_update":"0001-01-01T00:00:00Z","name_a2s":"Uncletopia | Warsaw | 3 | All Maps","protocol":17,"map":"koth_lakeside_final","folder":"tf","game":"Team Fortress","app_id":440,"player_count":0,"max_players":24,"Bots":0,"server_type":"Dedicated","server_os":"Linux","password":true,"vac":true,"version":"7961495","steam_id":85568392925397852,"keywords":["cp","nocrits","nodmgspread","uncletopia"],"game_id":440,"stv_port":27036,"stv_name":"Uncletopia | Warsaw | 3 | All Maps | STV","players":null},{"server_id":52,"name":"Uncletopia | Warsaw | 4 | All Maps","name_short":"waw-4","host":"waw-1.pl.uncletopia.com","port":27045,"enabled":true,"region":"eu","cc":"pl","latitude":52.2297,"longitude":21.017532,"reserved":0,"last_update":"0001-01-01T00:00:00Z","name_a2s":"Uncletopia | Warsaw | 4 | All Maps","protocol":17,"map":"koth_lakeside_final","folder":"tf","game":"Team Fortress","app_id":440,"player_count":0,"max_players":24,"Bots":0,"server_type":"Dedicated","server_os":"Linux","password":true,"vac":true,"version":"7961495","steam_id":85568392925397853,"keywords":["cp","nocrits","nodmgspread","uncletopia"],"game_id":440,"stv_port":27046,"stv_name":"Uncletopia | Warsaw | 4 | All Maps | STV","players":null},{"server_id":53,"name":"Uncletopia | Warsaw | 5 | Stopwatch","name_short":"waw-5","host":"waw-1.pl.uncletopia.com","port":27055,"enabled":true,"region":"eu","cc":"pl","latitude":52.2297,"longitude":21.017532,"reserved":0,"last_update":"0001-01-01T00:00:00Z","name_a2s":"Uncletopia | Warsaw | 5 | Stopwatch","protocol":17,"map":"cp_gullywash_final1","folder":"tf","game":"Team Fortress","app_id":440,"player_count":1,"max_players":24,"Bots":0,"server_type":"Dedicated","server_os":"Linux","password":true,"vac":true,"version":"7961495","steam_id":85568392925397854,"keywords":["cp","nocrits","nodmgspread","uncletopia"],"game_id":440,"stv_port":27056,"stv_name":"Uncletopia | Warsaw | 5 | Stopwatch | STV","players":[{"user_id":5,"name":"[HOL] Solringen","steam_id":76561198003584681,"connected_time":52000000000,"state":"active","ping":80}]},{"server_id":54,"name":"Uncletopia | Warsaw | 6 | Community","name_short":"waw-6","host":"waw-1.pl.uncletopia.com","port":27065,"enabled":true,"region":"eu","cc":"pl","latitude":52.2297,"longitude":21.017532,"reserved":0,"last_update":"0001-01-01T00:00:00Z","name_a2s":"Uncletopia | Warsaw | 6 | Community","protocol":17,"map":"workshop/cp_fulgur_rc2a.ugc2068252300","folder":"tf","game":"Team Fortress","app_id":440,"player_count":0,"max_players":24,"Bots":0,"server_type":"Dedicated","server_os":"Linux","password":true,"vac":true,"version":"7961495","steam_id":85568392925397856,"keywords":["cp","nocrits","nodmgspread","uncletopia"],"game_id":440,"stv_port":27066,"stv_name":"Uncletopia | Warsaw | 6 | Community | STV","players":null}]}