{"status":true,"message":"","result":[{"server_id":9,"name":"Uncletopia | Atlanta | 1 | All Maps","name_short":"atl-1","host":"atl-1.us.uncletopia.com","port":27015,"enabled":true,"region":"us-east","cc":"us","latitude":33.753746,"longitude":-84.38633,"reserved":0,"last_update":"0001-01-01T00:00:00Z","name_a2s":"Uncletopia | Atlanta | 1 | All Maps","protocol":17,"map":"koth_cascade","folder":"tf","game":"Team Fortress","app_id":440,"player_count":6,"max_players":24,"Bots":0,"server_type":"Dedicated","server_os":"Linux","password":true,"vac":true,"version":"7757534","steam_id":85568392924469982,"keywords":["cp","nocrits","nodmgspread","uncletopia"],"game_id":440,"stv_port":27016,"stv_name":"Uncletopia | Atlanta | 1 | All Maps | STV","players":[{"user_id":9,"name":"Joh'Tar Kubo","steam_id":76561199075390591,"connected_time":1406000000000,"state":"active","ping":62},{"user_id":12,"name":"Lone Rider","steam_id":76561198091978968,"connected_time":636000000000,"state":"active","ping":74},{"user_id":13,"name":"Crotonga","steam_id":76561198077178900,"connected_time":616000000000,"state":"active","ping":71},{"user_id":14,"name":"Trini","steam_id":76561198100683863,"connected_time":601000000000,"state":"active","ping":56},{"user_id":15,"name":"Checkered Scones","steam_id":76561198162786894,"connected_time":479000000000,"state":"active","ping":95},{"user_id":16,"name":"BladedBloom4611","steam_id":76561198416655215,"connected_time":436000000000,"state":"active","ping":140}]},{"server_id":104,"name":"Uncletopia | Atlanta | 2 | All Maps","name_short":"atl-2","host":"atl-1.us.uncletopia.com","port":27025,"enabled":true,"region":"us-east","cc":"us","latitude":33.753746,"longitude":-84.38633,"reserved":0,"last_update":"0001-01-01T00:00:00Z","name_a2s":"Uncletopia | Atlanta | 2 | All Maps","protocol":17,"map":"pl_frontier_final","folder":"tf","game":"Team Fortress","app_id":440,"player_count":20,"max_players":24,"Bots":0,"server_type":"Dedicated","server_os":"Linux","password":true,"vac":true,"version":"7757534","steam_id":85568392924469983,"keywords":["nocrits","nodmgspread","payload","uncletopia"],"game_id":440,"stv_port":27026,"stv_name":"Uncletopia | Atlanta | 2 | All Maps | STV","players":[{"user_id":121,"name":"Sea raider","steam_id":76561198123982355,"connected_time":1593000000000,"state":"active","ping":85},{"user_id":164,"name":"Gian","steam_id":76561198041434512,"connected_time":231000000000,"state":"active","ping":91},{"user_id":30,"name":"Market.","steam_id":76561198196219378,"connected_time":8412000000000,"state":"active","ping":102},{"user_id":157,"name":"Weird","steam_id":76561199082362722,"connected_time":477000000000,"state":"active","ping":99},{"user_id":166,"name":"Alikchi","steam_id":76561197969594220,"connected_time":149000000000,"state":"active","ping":69},{"user_id":86,"name":"Winkrill","steam_id":76561198108515561,"connected_time":4475000000000,"state":"active","ping":60},{"user_id":167,"name":"Laer","steam_id":76561198208375719,"connected_time":107000000000,"state":"spawning","ping":81},{"user_id":168,"name":"∆ê’å—¥∆≥","steam_id":76561198099470277,"connected_time":76000000000,"state":"active","ping":60},{"user_id":161,"name":"Quansen","steam_id":76561198151594550,"connected_time":309000000000,"state":"active","ping":71},{"user_id":92,"name":"Anxious Bird Nerd","steam_id":76561198112178602,"connected_time":4281000000000,"state":"active","ping":109},{"user_id":111,"name":"D(b) Hell","steam_id":76561198067869016,"connected_time":2410000000000,"state":"active","ping":60},{"user_id":163,"name":"titan","steam_id":76561198197388678,"connected_time":251000000000,"state":"active","ping":60},{"user_id":109,"name":"keffers","steam_id":76561198202338796,"connected_time":2637000000000,"state":"active","ping":96},{"user_id":126,"name":"sentry turret","steam_id":76561198327057433,"connected_time":1461000000000,"state":"active","ping":99},{"user_id":140,"name":"Nick","steam_id":76561199065776495,"connected_time":855000000000,"state":"active","ping":72},{"user_id":147,"name":"mcdoubble","steam_id":76561198089126832,"connected_time":754000000000,"state":"active","ping":87},{"user_id":79,"name":"shadow elite","steam_id":76561198165212575,"connected_time":5024000000000,"state":"active","ping":87},{"user_id":129,"name":"goooot","steam_id":76561198155591052,"connected_time":1378000000000,"state":"active","ping":70},{"user_id":155,"name":"StormRage","steam_id":76561199435079308,"connected_time":588000000000,"state":"active","ping":119},{"user_id":114,"name":"Jin Gulilo","steam_id":76561198065151242,"connected_time":2214000000000,"state":"active","ping":73}]},{"server_id":400,"name":"Uncletopia | Atlanta | 3 | Community","name_short":"atl-3","host":"atl-1.us.uncletopia.com","port":27035,"enabled":true,"region":"us-east","cc":"us","latitude":33.753746,"longitude":-84.38633,"reserved":0,"last_update":"0001-01-01T00:00:00Z","name_a2s":"Uncletopia | Atlanta | 3 | Community","protocol":17,"map":"cp_snakewater_final1","folder":"tf","game":"Team Fortress","app_id":440,"player_count":0,"max_players":24,"Bots":0,"server_type":"Dedicated","server_os":"Linux","password":true,"vac":true,"version":"7757534","steam_id":85568392924515187,"keywords":["cp","nocrits","nodmgspread","uncletopia"],"game_id":440,"stv_port":27036,"stv_name":"Uncletopia | Atlanta | 3 | Community | STV","players":null},{"server_id":401,"name":"Uncletopia | Atlanta | 4 | No Payload","name_short":"atl-4","host":"atl-1.us.uncletopia.com","port":27045,"enabled":true,"region":"us-east","cc":"us","latitude":33.753746,"longitude":-84.38633,"reserved":0,"last_update":"0001-01-01T00:00:00Z","name_a2s":"","protocol":0,"map":"","folder":"","game":"","app_id":0,"player_count":0,"max_players":0,"Bots":0,"server_type":"","server_os":"","password":false,"vac":false,"version":"","steam_id":0,"keywords":null,"game_id":0,"stv_port":0,"stv_name":"","players":null},{"server_id":2,"name":"Uncletopia | Chicago | 1 | All Maps","name_short":"chi-1","host":"chi-1.us.uncletopia.com","port":27015,"enabled":true,"region":"us-central","cc":"us","latitude":41.881832,"longitude":-87.62318,"reserved":0,"last_update":"0001-01-01T00:00:00Z","name_a2s":"Uncletopia | Chicago | 1 | All Maps","protocol":17,"map":"koth_lakeside_final","folder":"tf","game":"Team Fortress","app_id":440,"player_count":25,"max_players":24,"Bots":0,"server_type":"Dedicated","server_os":"Linux","password":true,"vac":true,"version":"7757534","steam_id":85568392924469984,"keywords":["cp","nocrits","nodmgspread","uncletopia"],"game_id":440,"stv_port":27016,"stv_name":"Uncletopia | Chicago | 1 | All Maps | STV","players":[{"user_id":334,"name":"PajamaPants","steam_id":76561198400306643,"connected_time":1366000000000,"state":"active","ping":67},{"user_id":299,"name":"Chinese \"Weather\" Balloon","steam_id":76561198031675881,"connected_time":2900000000000,"state":"active","ping":64},{"user_id":261,"name":"rat","steam_id":76561198271946754,"connected_time":5939000000000,"state":"active","ping":75},{"user_id":345,"name":"Old St. Scat","steam_id":76561198322096569,"connected_time":903000000000,"state":"active","ping":80},{"user_id":332,"name":"Claw Finger","steam_id":76561198116408865,"connected_time":1587000000000,"state":"active","ping":66},{"user_id":338,"name":"h√§mis","steam_id":76561198089616341,"connected_time":1089000000000,"state":"active","ping":62},{"user_id":314,"name":"Mimic","steam_id":76561198060164147,"connected_time":2244000000000,"state":"active","ping":51},{"user_id":312,"name":"stupid ape","steam_id":76561198350027075,"connected_time":2254000000000,"state":"active","ping":58},{"user_id":340,"name":"//Shiiben;","steam_id":76561197995505767,"connected_time":1045000000000,"state":"active","ping":60},{"user_id":351,"name":"‚ñ≤‚ñº‚ñ≤ Paul Atreideeznuts","steam_id":76561198015714075,"connected_time":426000000000,"state":"active","ping":82},{"user_id":322,"name":"Nassu","steam_id":76561198147367577,"connected_time":1898000000000,"state":"active","ping":67},{"user_id":324,"name":"Scorpie Doodle","steam_id":76561198021845763,"connected_time":1803000000000,"state":"active","ping":55},{"user_id":341,"name":"Oopsie Daisy ‚ùã","steam_id":76561198042144492,"connected_time":1015000000000,"state":"active","ping":69},{"user_id":269,"name":"poe","steam_id":76561198155720118,"connected_time":5725000000000,"state":"active","ping":50},{"user_id":349,"name":"reanimator","steam_id":76561198085830470,"connected_time":641000000000,"state":"active","ping":60},{"user_id":350,"name":"Eosson","steam_id":76561198108642113,"connected_time":593000000000,"state":"active","ping":67},{"user_id":348,"name":"-œÄ- BakaD","steam_id":76561197960559169,"connected_time":763000000000,"state":"active","ping":52},{"user_id":227,"name":"Brokayo","steam_id":76561198053802723,"connected_time":8775000000000,"state":"active","ping":91},{"user_id":344,"name":"=PB=","steam_id":76561197999146612,"connected_time":916000000000,"state":"active","ping":127},{"user_id":356,"name":"Epifiny","steam_id":76561198027958086,"connected_time":58000000000,"state":"active","ping":71},{"user_id":355,"name":"Big Phony","steam_id":76561199092395311,"connected_time":98000000000,"state":"active","ping":60},{"user_id":331,"name":"bear1boss fan","steam_id":76561198047850813,"connected_time":1627000000000,"state":"active","ping":91},{"user_id":353,"name":"Domo","steam_id":76561199440809546,"connected_time":411000000000,"state":"active","ping":48},{"user_id":343,"name":"M@verick","steam_id":76561198006363519,"connected_time":979000000000,"state":"active","ping":78},{"user_id":357,"name":"Polyphonia","steam_id":76561198346066472,"connected_time":5000000000,"state":"spawning","ping":36}]},{"server_id":106,"name":"Uncletopia | Chicago | 2 | All Maps","name_short":"chi-2","host":"chi-1.us.uncletopia.com","port":27025,"enabled":true,"region":"us-central","cc":"us","latitude":41.881832,"longitude":-87.62318,"reserved":0,"last_update":"0001-01-01T00:00:00Z","name_a2s":"Uncletopia | Chicago | 2 | All Maps","protocol":17,"map":"cp_altitude","folder":"tf","game":"Team Fortress","app_id":440,"player_count":0,"max_players":24,"Bots":0,"server_type":"Dedicated","server_os":"Linux","password":true,"vac":true,"version":"7757534","steam_id":85568392924469985,"keywords":["cp","nocrits","nodmgspread","uncletopia"],"game_id":440,"stv_port":27026,"stv_name":"Uncletopia | Chicago | 2 | All Maps | STV","players":null},{"server_id":402,"name":"Uncletopia | Chicago | 3 | All Maps","name_short":"chi-3","host":"chi-1.us.uncletopia.com","port":27035,"enabled":true,"region":"us-central","cc":"us","latitude":41.881832,"longitude":-87.62318,"reserved":0,"last_update":"0001-01-01T00:00:00Z","name_a2s":"Uncletopia | Chicago | 3 | All Maps","protocol":17,"map":"pl_pier","folder":"tf","game":"Team Fortress","app_id":440,"player_count":18,"max_players":24,"Bots":0,"server_type":"Dedicated","server_os":"Linux","password":true,"vac":true,"version":"7757534","steam_id":85568392924515191,"keywords":["nocrits","nodmgspread","payload","uncletopia"],"game_id":440,"stv_port":27036,"stv_name":"Uncletopia | Chicago | 3 | All Maps | STV","players":[{"user_id":162,"name":"Generator","steam_id":76561198011762257,"connected_time":4524000000000,"state":"active","ping":111},{"user_id":224,"name":"NoahSherlock(wln.tf)","steam_id":76561199015641953,"connected_time":110000000000,"state":"active","ping":130},{"user_id":189,"name":"WatchWill","steam_id":76561198157237945,"connected_time":2905000000000,"state":"active","ping":78},{"user_id":199,"name":"dansci","steam_id":76561198269530717,"connected_time":1985000000000,"state":"active","ping":80},{"user_id":221,"name":"merkmywords ttttttv","steam_id":76561198066840152,"connected_time":615000000000,"state":"active","ping":50},{"user_id":220,"name":"Nutbrain123","steam_id":76561198962725294,"connected_time":802000000000,"state":"active","ping":115},{"user_id":225,"name":"methhead\u003c3","steam_id":76561198195091799,"connected_time":34000000000,"state":"active","ping":64},{"user_id":226,"name":"BurnN8or101","steam_id":76561198132668224,"connected_time":27000000000,"state":"active","ping":55},{"user_id":126,"name":"Training Arc","steam_id":76561198038832034,"connected_time":5912000000000,"state":"active","ping":106},{"user_id":194,"name":"Rat","steam_id":76561199102985277,"connected_time":2580000000000,"state":"active","ping":92},{"user_id":218,"name":"floppy muppet","steam_id":76561198003076261,"connected_time":928000000000,"state":"active","ping":85},{"user_id":219,"name":"athletesfoot","steam_id":76561197997331867,"connected_time":906000000000,"state":"active","ping":51},{"user_id":215,"name":"Mr. Klauk","steam_id":76561199085666301,"connected_time":1268000000000,"state":"active","ping":69},{"user_id":223,"name":"lynt","steam_id":76561198988333976,"connected_time":153000000000,"state":"active","ping":59},{"user_id":206,"name":"redwater skooma","steam_id":76561198058013470,"connected_time":1688000000000,"state":"active","ping":60},{"user_id":217,"name":"daBigBoss","steam_id":76561198120428029,"connected_time":1107000000000,"state":"active","ping":97},{"user_id":210,"name":"Indicative","steam_id":76561199076612537,"connected_time":1545000000000,"state":"active","ping":56},{"user_id":182,"name":"Fudgely","steam_id":76561198039425862,"connected_time":3671000000000,"state":"active","ping":75}]},{"server_id":403,"name":"Uncletopia | Chicago | 4 | All Maps","name_short":"chi-4","host":"chi-1.us.uncletopia.com","port":27045,"enabled":true,"region":"us-central","cc":"us","latitude":41.881832,"longitude":-87.62318,"reserved":0,"last_update":"0001-01-01T00:00:00Z","name_a2s":"Uncletopia | Chicago | 4 | All Maps","protocol":17,"map":"pl_badwater","folder":"tf","game":"Team Fortress","app_id":440,"player_count":24,"max_players":24,"Bots":0,"server_type":"Dedicated","server_os":"Linux","password":true,"vac":true,"version":"7757534","steam_id":85568392924515193,"keywords":["nocrits","nodmgspread","payload","uncletopia"],"game_id":440,"stv_port":27046,"stv_name":"Uncletopia | Chicago | 4 | All Maps | STV","players":[{"user_id":25,"name":"Soil","steam_id":76561198943879122,"connected_time":2963000000000,"state":"active","ping":65},{"user_id":26,"name":"SEXHATER329","steam_id":76561198101093446,"connected_time":2960000000000,"state":"active","ping":58},{"user_id":27,"name":"Jee","steam_id":76561198237639548,"connected_time":2784000000000,"state":"active","ping":74},{"user_id":28,"name":"Stan","steam_id":76561198209150708,"connected_time":2754000000000,"state":"active","ping":72},{"user_id":61,"name":"lorelius hogglefart","steam_id":76561198211781375,"connected_time":625000000000,"state":"active","ping":82},{"user_id":62,"name":"Seru","steam_id":76561199219827214,"connected_time":623000000000,"state":"active","ping":103},{"user_id":64,"name":"porz","steam_id":76561198195711453,"connected_time":230000000000,"state":"active","ping":55},{"user_id":44,"name":"ShadBad","steam_id":76561198248287390,"connected_time":1871000000000,"state":"active","ping":109},{"user_id":55,"name":"Tommy Pickles (Very Cool)","steam_id":76561198391261463,"connected_time":1167000000000,"state":"active","ping":72},{"user_id":35,"name":"JustCoffee","steam_id":76561199389473180,"connected_time":2110000000000,"state":"active","ping":69},{"user_id":58,"name":"Mug Moment Gaming","steam_id":76561198233098136,"connected_time":876000000000,"state":"active","ping":53},{"user_id":38,"name":"QueenPinharam","steam_id":76561199015626409,"connected_time":2076000000000,"state":"active","ping":81},{"user_id":59,"name":"Dr. Cocktor","steam_id":76561198187744622,"connected_time":873000000000,"state":"active","ping":82},{"user_id":40,"name":"·πΩ‚ßâ cookie","steam_id":76561197998884823,"connected_time":2066000000000,"state":"active","ping":64},{"user_id":41,"name":"ShadowBolt","steam_id":76561198061610985,"connected_time":2036000000000,"state":"active","ping":149},{"user_id":42,"name":"Krellah","steam_id":76561198287045069,"connected_time":2012000000000,"state":"active","ping":53},{"user_id":56,"name":"Dragonsofdra","steam_id":76561198253369292,"connected_time":1095000000000,"state":"active","ping":90},{"user_id":63,"name":"The Drunk Clown","steam_id":76561197986850426,"connected_time":482000000000,"state":"active","ping":75},{"user_id":46,"name":"Joe Sloppy","steam_id":76561198130329863,"connected_time":1802000000000,"state":"active","ping":51},{"user_id":49,"name":"IanTheAwsm","steam_id":76561198093031738,"connected_time":1588000000000,"state":"active","ping":62},{"user_id":51,"name":"angry blimp","steam_id":76561198072592880,"connected_time":1334000000000,"state":"active","ping":43},{"user_id":52,"name":"denim repair service","steam_id":76561198075666613,"connected_time":1267000000000,"state":"active","ping":92},{"user_id":53,"name":"JazzyParadox","steam_id":76561198919333929,"connected_time":1227000000000,"state":"active","ping":174},{"user_id":54,"name":"Magik","steam_id":76561198115443354,"connected_time":1177000000000,"state":"active","ping":55}]},{"server_id":36,"name":"Uncletopia | Chicago | 5 | All Maps","name_short":"chi-5","host":"chi-2.us.uncletopia.com","port":27015,"enabled":true,"region":"us-central","cc":"us","latitude":41.881832,"longitude":-87.62318,"reserved":0,"last_update":"0001-01-01T00:00:00Z","name_a2s":"Uncletopia | Chicago | 5 | All Maps","protocol":17,"map":"koth_cascade","folder":"tf","game":"Team Fortress","app_id":440,"player_count":19,"max_players":24,"Bots":0,"server_type":"Dedicated","server_os":"Linux","password":true,"vac":true,"version":"7757534","steam_id":85568392924866362,"keywords":["cp","nocrits","nodmgspread","uncletopia"],"game_id":440,"stv_port":27016,"stv_name":"Uncletopia | Chicago | 5 | All Maps | STV","players":[{"user_id":4,"name":"Nedrog the Lost","steam_id":76561198272270244,"connected_time":1342000000000,"state":"active","ping":74},{"user_id":5,"name":"HappyHitchhiker","steam_id":76561198080228697,"connected_time":1322000000000,"state":"active","ping":71},{"user_id":6,"name":"TypicalGiftig","steam_id":76561198170372495,"connected_time":1314000000000,"state":"active","ping":65},{"user_id":7,"name":"Jeb \"The Captain\" Bush","steam_id":76561198095134205,"connected_time":1230000000000,"state":"active","ping":95},{"user_id":9,"name":"roadrunner","steam_id":76561198237140468,"connected_time":932000000000,"state":"active","ping":75},{"user_id":11,"name":"Scrimblo Jim","steam_id":76561198088372680,"connected_time":719000000000,"state":"active","ping":82},{"user_id":12,"name":"Bimblo Jim","steam_id":76561198190323610,"connected_time":715000000000,"state":"active","ping":89},{"user_id":13,"name":"Jumpin over your head","steam_id":76561198140517330,"connected_time":690000000000,"state":"active","ping":78},{"user_id":14,"name":"ally of big tobacco","steam_id":76561198169927835,"connected_time":627000000000,"state":"active","ping":60},{"user_id":22,"name":"TDR","steam_id":76561198093243434,"connected_time":192000000000,"state":"active","ping":55},{"user_id":16,"name":"‡πñ€£€ú‚â´√ê!œü‚òæ‚òâ‚Ñõ√ê","steam_id":76561198095974361,"connected_time":503000000000,"state":"active","ping":87},{"user_id":17,"name":"Chicken","steam_id":76561198220970932,"connected_time":479000000000,"state":"active","ping":114},{"user_id":19,"name":"mighty","steam_id":76561198129310938,"connected_time":250000000000,"state":"active","ping":54},{"user_id":20,"name":"replaycoding","steam_id":76561198289737954,"connected_time":238000000000,"state":"active","ping":100},{"user_id":21,"name":"somuch4stardust","steam_id":76561198174415170,"connected_time":204000000000,"state":"active","ping":45},{"user_id":23,"name":"UNKEY BLUSTY DA SENTY MISTA","steam_id":76561198838054669,"connected_time":144000000000,"state":"active","ping":85},{"user_id":24,"name":"Evolution","steam_id":76561198144767370,"connected_time":109000000000,"state":"active","ping":46},{"user_id":25,"name":"neet","steam_id":76561197968115168,"connected_time":108000000000,"state":"active","ping":46},{"user_id":26,"name":"Am37000","steam_id":76561198872232094,"connected_time":37000000000,"state":"spawning","ping":83}]},{"server_id":37,"name":"Uncletopia | Chicago | 6 | All Maps","name_short":"chi-6","host":"chi-2.us.uncletopia.com","port":27025,"enabled":true,"region":"us-central","cc":"us","latitude":41.881832,"longitude":-87.62318,"reserved":0,"last_update":"0001-01-01T00:00:00Z","name_a2s":"Uncletopia | Chicago | 6 | All Maps","protocol":17,"map":"pl_borneo","folder":"tf","game":"Team Fortress","app_id":440,"player_count":0,"max_players":24,"Bots":0,"server_type":"Dedicated","server_os":"Linux","password":true,"vac":true,"version":"7757534","steam_id":85568392924866363,"keywords":["nocrits","nodmgspread","payload","uncletopia"],"game_id":440,"stv_port":27026,"stv_name":"Uncletopia | Chicago | 6 | All Maps | STV","players":null},{"server_id":38,"name":"Uncletopia | Chicago | 7 | Stopwatch Beta","name_short":"chi-7","host":"chi-2.us.uncletopia.com","port":27035,"enabled":true,"region":"us-central","cc":"us","latitude":41.881832,"longitude":-87.62318,"reserved":0,"last_update":"0001-01-01T00:00:00Z","name_a2s":"Uncletopia | Chicago | 7 | Stopwatch Beta","protocol":17,"map":"pl_barnblitz","folder":"tf","game":"Team Fortress","app_id":440,"player_count":0,"max_players":24,"Bots":0,"server_type":"Dedicated","server_os":"Linux","password":true,"vac":true,"version":"7757534","steam_id":85568392924866364,"keywords":["nocrits","nodmgspread","payload","uncletopia"],"game_id":440,"stv_port":27036,"stv_name":"Uncletopia | Chicago | 7 | Stopwatch Beta | STV","players":null},{"server_id":39,"name":"Uncletopia | Chicago | 8 | Community","name_short":"chi-8","host":"chi-2.us.uncletopia.com","port":27045,"enabled":true,"region":"us-central","cc":"us","latitude":41.881832,"longitude":-87.62318,"reserved":0,"last_update":"0001-01-01T00:00:00Z","name_a2s":"Uncletopia | Chicago | 8 | Community","protocol":17,"map":"workshop/cp_fulgur_rc2a.ugc2068252300","folder":"tf","game":"Team Fortress","app_id":440,"player_count":18,"max_players":24,"Bots":0,"server_type":"Dedicated","server_os":"Linux","password":true,"vac":true,"version":"7757534","steam_id":85568392924866365,"keywords":["cp","nocrits","nodmgspread","uncletopia"],"game_id":440,"stv_port":27046,"stv_name":"Uncletopia | Chicago | 8 | Community | STV","players":[{"user_id":60,"name":"bash -lc ./asshat.sh","steam_id":76561198004584315,"connected_time":457000000000,"state":"active","ping":66},{"user_id":61,"name":"[DEEP] Danmar33","steam_id":76561198056453091,"connected_time":351000000000,"state":"active","ping":53},{"user_id":62,"name":"lana_del_Rei.com","steam_id":76561198172447621,"connected_time":248000000000,"state":"active","ping":92},{"user_id":40,"name":"Si1entSn1pa","steam_id":76561198170095479,"connected_time":2327000000000,"state":"active","ping":93},{"user_id":52,"name":"The Bombinomicon","steam_id":76561198209881263,"connected_time":1539000000000,"state":"active","ping":100},{"user_id":34,"name":"PinguEnjoyer6","steam_id":76561199186723516,"connected_time":2573000000000,"state":"active","ping":98},{"user_id":30,"name":"your local forecast","steam_id":76561198042243083,"connected_time":2736000000000,"state":"active","ping":59},{"user_id":23,"name":"Cousin Corn on the Cob","steam_id":76561198049837377,"connected_time":2949000000000,"state":"active","ping":45},{"user_id":32,"name":"*Gage*","steam_id":76561197975233869,"connected_time":2715000000000,"state":"active","ping":91},{"user_id":41,"name":"Orca?","steam_id":76561198164341099,"connected_time":2322000000000,"state":"active","ping":83},{"user_id":53,"name":"‚òºBarracuda‚òº","steam_id":76561198013022083,"connected_time":1310000000000,"state":"active","ping":54},{"user_id":58,"name":"Primal","steam_id":76561197983118203,"connected_time":763000000000,"state":"active","ping":77},{"user_id":51,"name":"bloomerrr","steam_id":76561199468075285,"connected_time":1633000000000,"state":"active","ping":87},{"user_id":54,"name":"Gino Fratelli","steam_id":76561198166409300,"connected_time":1185000000000,"state":"active","ping":60},{"user_id":42,"name":"I Am Alpharius","steam_id":76561198799197135,"connected_time":2304000000000,"state":"active","ping":58},{"user_id":46,"name":"AnonymouzR011","steam_id":76561198262685906,"connected_time":2276000000000,"state":"active","ping":114},{"user_id":44,"name":"KnockBoots69","steam_id":76561198057528868,"connected_time":2298000000000,"state":"active","ping":98},{"user_id":55,"name":"Big_Based","steam_id":76561198163460226,"connected_time":1154000000000,"state":"active","ping":52}]},{"server_id":8,"name":"Uncletopia | Dallas | 1 | All Maps","name_short":"dal-1","host":"dal-1.us.uncletopia.com","port":27015,"enabled":true,"region":"us-central","cc":"us","latitude":32.779167,"longitude":-96.80889,"reserved":0,"last_update":"0001-01-01T00:00:00Z","name_a2s":"Uncletopia | Dallas | 1 | All Maps","protocol":17,"map":"koth_cascade","folder":"tf","game":"Team Fortress","app_id":440,"player_count":0,"max_players":24,"Bots":0,"server_type":"Dedicated","server_os":"Linux","password":true,"vac":true,"version":"7757534","steam_id":85568392924469986,"keywords":["cp","nocrits","nodmgspread","uncletopia"],"game_id":440,"stv_port":27016,"stv_name":"Uncletopia | Dallas | 1 | All Maps | STV","players":null},{"server_id":108,"name":"Uncletopia | Dallas | 2 | All Maps","name_short":"dal-2","host":"dal-1.us.uncletopia.com","port":27025,"enabled":true,"region":"us-central","cc":"us","latitude":32.779167,"longitude":-96.80889,"reserved":0,"last_update":"0001-01-01T00:00:00Z","name_a2s":"Uncletopia | Dallas | 2 | All Maps","protocol":17,"map":"cp_snakewater_final1","folder":"tf","game":"Team Fortress","app_id":440,"player_count":24,"max_players":24,"Bots":0,"server_type":"Dedicated","server_os":"Linux","password":true,"vac":true,"version":"7757534","steam_id":85568392924469988,"keywords":["cp","nocrits","nodmgspread","uncletopia"],"game_id":440,"stv_port":27026,"stv_name":"Uncletopia | Dallas | 2 | All Maps | STV","players":[{"user_id":277,"name":"chanoc","steam_id":76561198026734746,"connected_time":820000000000,"state":"active","ping":88},{"user_id":280,"name":"Lemmers235","steam_id":76561199192668922,"connected_time":802000000000,"state":"active","ping":88},{"user_id":185,"name":"wire-guided","steam_id":76561198055407168,"connected_time":11728000000000,"state":"active","ping":76},{"user_id":285,"name":"profile name","steam_id":76561198990223681,"connected_time":583000000000,"state":"active","ping":122},{"user_id":275,"name":"SethToast","steam_id":76561198404633529,"connected_time":1058000000000,"state":"active","ping":73},{"user_id":284,"name":"esper","steam_id":76561198200002859,"connected_time":682000000000,"state":"active","ping":61},{"user_id":261,"name":"Blue Necromancer","steam_id":76561198275755146,"connected_time":2624000000000,"state":"active","ping":95},{"user_id":262,"name":"ZimuxNowChock","steam_id":76561198799942265,"connected_time":2595000000000,"state":"active","ping":104},{"user_id":274,"name":"the lazy gamer","steam_id":76561199070127039,"connected_time":1231000000000,"state":"active","ping":124},{"user_id":270,"name":"Funboringness","steam_id":76561198115648071,"connected_time":1613000000000,"state":"active","ping":39},{"user_id":271,"name":"PLak-PlaK","steam_id":76561198115688122,"connected_time":1433000000000,"state":"active","ping":94},{"user_id":129,"name":"endo","steam_id":76561197995204381,"connected_time":17664000000000,"state":"active","ping":74},{"user_id":249,"name":"Dreamy \u003c3","steam_id":76561198129908521,"connected_time":4240000000000,"state":"active","ping":78},{"user_id":241,"name":"„Äê caden / karma „Äë","steam_id":76561198072276429,"connected_time":5332000000000,"state":"active","ping":89},{"user_id":141,"name":"smugdoug","steam_id":76561198021381678,"connected_time":16701000000000,"state":"active","ping":83},{"user_id":290,"name":"Team Fortress Forever","steam_id":76561199192132061,"connected_time":252000000000,"state":"active","ping":90},{"user_id":279,"name":"Megaxonic","steam_id":76561198996548641,"connected_time":806000000000,"state":"active","ping":45},{"user_id":211,"name":"Voraxic","steam_id":76561198148266239,"connected_time":8840000000000,"state":"active","ping":70},{"user_id":276,"name":"Humon Player","steam_id":76561198013593178,"connected_time":826000000000,"state":"active","ping":57},{"user_id":289,"name":"Demoman With One Joke","steam_id":76561197993467034,"connected_time":398000000000,"state":"active","ping":75},{"user_id":268,"name":"hud_saytext_time 0","steam_id":76561198010327228,"connected_time":2160000000000,"state":"active","ping":184},{"user_id":291,"name":"Bad Pyro","steam_id":76561199019647814,"connected_time":228000000000,"state":"active","ping":52},{"user_id":250,"name":"Literally a Trans Woman","steam_id":76561198054639925,"connected_time":4236000000000,"state":"active","ping":90},{"user_id":124,"name":"Joe Swanson","steam_id":76561199089907740,"connected_time":18603000000000,"state":"active","ping":71}]},{"server_id":5,"name":"Uncletopia | Frankfurt | 1 | All Maps","name_short":"frk-1","host":"frk-1.de.uncletopia.com","port":27015,"enabled":true,"region":"eu","cc":"de","latitude":50.110924,"longitude":8.682127,"reserved":0,"last_update":"0001-01-01T00:00:00Z","name_a2s":"Uncletopia | Frankfurt | 1 | All Maps","protocol":17,"map":"cp_process_final","folder":"tf","game":"Team Fortress","app_id":440,"player_count":6,"max_players":24,"Bots":0,"server_type":"Dedicated","server_os":"Linux","password":true,"vac":true,"version":"7757534","steam_id":85568392924469989,"keywords":["cp","nocrits","nodmgspread","uncletopia"],"game_id":440,"stv_port":27016,"stv_name":"Uncletopia | Frankfurt | 1 | All Maps | STV","players":[{"user_id":20,"name":"Torttu","steam_id":76561198013980029,"connected_time":1496000000000,"state":"active","ping":58},{"user_id":22,"name":"Kuntmeister","steam_id":76561198016076012,"connected_time":1412000000000,"state":"active","ping":118},{"user_id":33,"name":"Pilaarius","steam_id":76561198120273212,"connected_time":118000000000,"state":"active","ping":105},{"user_id":24,"name":"nibsÓÑ∏","steam_id":76561198040099538,"connected_time":1329000000000,"state":"active","ping":74},{"user_id":29,"name":"THE MICROWAVER","steam_id":76561198327068020,"connected_time":921000000000,"state":"active","ping":73},{"user_id":34,"name":"Kvicha Kvaratskhelia","steam_id":76561198179339326,"connected_time":110000000000,"state":"active","ping":74}]},{"server_id":110,"name":"Uncletopia | Frankfurt | 2 | All Maps","name_short":"frk-2","host":"frk-1.de.uncletopia.com","port":27025,"enabled":true,"region":"eu","cc":"de","latitude":50.110924,"longitude":8.682127,"reserved":0,"last_update":"0001-01-01T00:00:00Z","name_a2s":"Uncletopia | Frankfurt | 2 | All Maps","protocol":17,"map":"koth_lakeside_final","folder":"tf","game":"Team Fortress","app_id":440,"player_count":1,"max_players":24,"Bots":0,"server_type":"Dedicated","server_os":"Linux","password":true,"vac":true,"version":"7757534","steam_id":85568392924469990,"keywords":["cp","nocrits","nodmgspread","uncletopia"],"game_id":440,"stv_port":27026,"stv_name":"Uncletopia | Frankfurt | 2 | All Maps | STV","players":[{"user_id":23,"name":"Klifton","steam_id":76561198803743443,"connected_time":600000000000,"state":"active","ping":69}]},{"server_id":308,"name":"Uncletopia | Frankfurt | 3 | All Maps","name_short":"frk-3","host":"frk-1.de.uncletopia.com","port":27035,"enabled":true,"region":"eu","cc":"de","latitude":50.110924,"longitude":8.682127,"reserved":0,"last_update":"0001-01-01T00:00:00Z","name_a2s":"Uncletopia | Frankfurt | 3 | All Maps","protocol":17,"map":"cp_process_final","folder":"tf","game":"Team Fortress","app_id":440,"player_count":24,"max_players":24,"Bots":0,"server_type":"Dedicated","server_os":"Linux","password":true,"vac":true,"version":"7757534","steam_id":85568392924504274,"keywords":["cp","nocrits","nodmgspread","uncletopia"],"game_id":440,"stv_port":27036,"stv_name":"Uncletopia | Frankfurt | 3 | All Maps | STV","players":[{"user_id":516,"name":"Josh","steam_id":76561198274546904,"connected_time":1218000000000,"state":"active","ping":132},{"user_id":517,"name":"chrisOnFire","steam_id":76561199093219473,"connected_time":1201000000000,"state":"active","ping":68},{"user_id":539,"name":"KLAMA  ‚ù§","steam_id":76561198351549661,"connected_time":445000000000,"state":"active","ping":68},{"user_id":510,"name":"happeanes","steam_id":76561198044293799,"connected_time":1655000000000,"state":"active","ping":62},{"user_id":535,"name":"peku","steam_id":76561198082074666,"connected_time":726000000000,"state":"active","ping":65},{"user_id":489,"name":"Shaddow","steam_id":76561198105348049,"connected_time":3754000000000,"state":"active","ping":70},{"user_id":522,"name":"VORTEX(COMMS OPEN)","steam_id":76561199074746528,"connected_time":1050000000000,"state":"active","ping":62},{"user_id":518,"name":"monky","steam_id":76561199380595946,"connected_time":1150000000000,"state":"active","ping":51},{"user_id":509,"name":"cat","steam_id":76561198037237664,"connected_time":1862000000000,"state":"active","ping":60},{"user_id":543,"name":"Earthman","steam_id":76561198137424821,"connected_time":250000000000,"state":"active","ping":57},{"user_id":534,"name":"-gunripp0r^be / Obelix^","steam_id":76561197999306879,"connected_time":773000000000,"state":"active","ping":71},{"user_id":520,"name":"Eme","steam_id":76561198171619442,"connected_time":1110000000000,"state":"active","ping":85},{"user_id":524,"name":"SupLemon","steam_id":76561199147537491,"connected_time":1037000000000,"state":"active","ping":91},{"user_id":540,"name":"xoxoji19910501","steam_id":76561199037007405,"connected_time":350000000000,"state":"active","ping":84},{"user_id":544,"name":"Mogwai","steam_id":76561198078832314,"connected_time":232000000000,"state":"active","ping":78},{"user_id":542,"name":"shavedmyheadchangedmyname","steam_id":76561199042470246,"connected_time":282000000000,"state":"active","ping":54},{"user_id":528,"name":"‚òÖ","steam_id":76561198080168182,"connected_time":1020000000000,"state":"active","ping":72},{"user_id":537,"name":"Omni","steam_id":76561197964320557,"connected_time":554000000000,"state":"active","ping":66},{"user_id":529,"name":"madacid","steam_id":76561198212315885,"connected_time":1020000000000,"state":"active","ping":60},{"user_id":530,"name":"The Punch","steam_id":76561198212488780,"connected_time":1014000000000,"state":"active","ping":56},{"user_id":532,"name":"speedyboy","steam_id":76561199222795521,"connected_time":1004000000000,"state":"active","ping":99},{"user_id":483,"name":"finbar","steam_id":76561198056812396,"connected_time":4037000000000,"state":"active","ping":80},{"user_id":538,"name":"onion knight","steam_id":76561198328543549,"connected_time":537000000000,"state":"active","ping":75},{"user_id":502,"name":"Piox","steam_id":76561198125689157,"connected_time":2425000000000,"state":"active","ping":80}]},{"server_id":309,"name":"Uncletopia | Frankfurt | 4 | All Maps","name_short":"frk-4","host":"frk-1.de.uncletopia.com","port":27045,"enabled":true,"region":"eu","cc":"de","latitude":50.110924,"longitude":8.682127,"reserved":0,"last_update":"0001-01-01T00:00:00Z","name_a2s":"Uncletopia | Frankfurt | 4 | All Maps","protocol":17,"map":"koth_cascade","folder":"tf","game":"Team Fortress","app_id":440,"player_count":0,"max_players":24,"Bots":0,"server_type":"Dedicated","server_os":"Linux","password":true,"vac":true,"version":"7757534","steam_id":85568392924504275,"keywords":["cp","nocrits","nodmgspread","uncletopia"],"game_id":440,"stv_port":27046,"stv_name":"Uncletopia | Frankfurt | 4 | All Maps | STV","players":null},{"server_id":310,"name":"Uncletopia | Frankfurt | 5 | All Maps","name_short":"frk-5","host":"frk-1.de.uncletopia.com","port":27055,"enabled":true,"region":"eu","cc":"de","latitude":50.110924,"longitude":8.682127,"reserved":0,"last_update":"0001-01-01T00:00:00Z","name_a2s":"Uncletopia | Frankfurt | 5 | All Maps","protocol":17,"map":"pl_barnblitz","folder":"tf","game":"Team Fortress","app_id":440,"player_count":21,"max_players":24,"Bots":0,"server_type":"Dedicated","server_os":"Linux","password":true,"vac":true,"version":"7757534","steam_id":85568392924504277,"keywords":["nocrits","nodmgspread","payload","uncletopia"],"game_id":440,"stv_port":27056,"stv_name":"Uncletopia | Frankfurt | 5 | All Maps | STV","players":[{"user_id":379,"name":"rob","steam_id":76561198122211848,"connected_time":4503000000000,"state":"active","ping":102},{"user_id":524,"name":"Mawreese","steam_id":76561199476288533,"connected_time":77000000000,"state":"active","ping":63},{"user_id":361,"name":"Falamp‚Ñ¢","steam_id":76561198300127856,"connected_time":5736000000000,"state":"active","ping":82},{"user_id":523,"name":"‡∂ûbominasus 2137  #SaveTF2","steam_id":76561198030062981,"connected_time":187000000000,"state":"active","ping":67},{"user_id":345,"name":"Milca_11 [Original Onslaught]","steam_id":76561198848650365,"connected_time":6643000000000,"state":"active","ping":93},{"user_id":496,"name":"Waltcha","steam_id":76561198007691468,"connected_time":865000000000,"state":"active","ping":61},{"user_id":497,"name":"MaypulSoyrup","steam_id":76561199213966821,"connected_time":856000000000,"state":"active","ping":82},{"user_id":433,"name":"Senator Armstrong","steam_id":76561198984346408,"connected_time":2674000000000,"state":"active","ping":76},{"user_id":369,"name":"MoistMomMauler","steam_id":76561198069359049,"connected_time":4586000000000,"state":"active","ping":81},{"user_id":500,"name":"Osman0","steam_id":76561198851527212,"connected_time":801000000000,"state":"active","ping":59},{"user_id":502,"name":"FUKTARD2005","steam_id":76561198839121591,"connected_time":779000000000,"state":"active","ping":72},{"user_id":485,"name":"Kati","steam_id":76561198007231088,"connected_time":1121000000000,"state":"active","ping":54},{"user_id":382,"name":"Meth","steam_id":76561199300394949,"connected_time":4443000000000,"state":"active","ping":54},{"user_id":521,"name":"X45Y","steam_id":76561198112534025,"connected_time":219000000000,"state":"active","ping":45},{"user_id":525,"name":"quabens","steam_id":76561198277858041,"connected_time":63000000000,"state":"active","ping":100},{"user_id":526,"name":"DogeDudeFX","steam_id":76561199154459568,"connected_time":45000000000,"state":"spawning","ping":82},{"user_id":527,"name":"Martin","steam_id":76561199129575002,"connected_time":7000000000,"state":"spawning","ping":50},{"user_id":391,"name":"DeCypher [She/Her]","steam_id":76561198171992619,"connected_time":4152000000000,"state":"active","ping":64},{"user_id":498,"name":"risan071","steam_id":76561198280690113,"connected_time":849000000000,"state":"active","ping":87},{"user_id":518,"name":"Peculiar Fellow","steam_id":76561199237140999,"connected_time":372000000000,"state":"active","ping":74},{"user_id":453,"name":"Kron Krian","steam_id":76561198122541754,"connected_time":2196000000000,"state":"active","ping":70}]},{"server_id":311,"name":"Uncletopia | Frankfurt | 6 | All Maps","name_short":"frk-6","host":"frk-1.de.uncletopia.com","port":27065,"enabled":true,"region":"eu","cc":"de","latitude":50.110924,"longitude":8.682127,"reserved":0,"last_update":"0001-01-01T00:00:00Z","name_a2s":"Uncletopia | Frankfurt | 6 | All Maps","protocol":17,"map":"pl_upward","folder":"tf","game":"Team Fortress","app_id":440,"player_count":23,"max_players":24,"Bots":0,"server_type":"Dedicated","server_os":"Linux","password":true,"vac":true,"version":"7757534","steam_id":85568392924504278,"keywords":["nocrits","nodmgspread","payload","uncletopia"],"game_id":440,"stv_port":27066,"stv_name":"Uncletopia | Frankfurt | 6 | All Maps | STV","players":[{"user_id":237,"name":"Gimli","steam_id":76561198004149706,"connected_time":359000000000,"state":"active","ping":80},{"user_id":243,"name":"pepper","steam_id":76561198059782462,"connected_time":233000000000,"state":"active","ping":57},{"user_id":161,"name":"bigwish | bmod.tf","steam_id":76561197997859723,"connected_time":6064000000000,"state":"active","ping":73},{"user_id":229,"name":"ÊÇ™","steam_id":76561198095879087,"connected_time":574000000000,"state":"active","ping":59},{"user_id":232,"name":"Dom trooper enjoyer","steam_id":76561198030483285,"connected_time":410000000000,"state":"active","ping":82},{"user_id":223,"name":"Doriian","steam_id":76561198071438810,"connected_time":1820000000000,"state":"active","ping":81},{"user_id":240,"name":"mt","steam_id":76561197961319303,"connected_time":313000000000,"state":"active","ping":59},{"user_id":241,"name":"The Nintendo Guy #killsavetf2","steam_id":76561199069995033,"connected_time":308000000000,"state":"active","ping":56},{"user_id":201,"name":"Nag","steam_id":76561197970488206,"connected_time":3403000000000,"state":"active","ping":81},{"user_id":207,"name":"Clitorina","steam_id":76561198077570815,"connected_time":2566000000000,"state":"active","ping":56},{"user_id":234,"name":"2023 Pegging Champion","steam_id":76561198060638325,"connected_time":395000000000,"state":"active","ping":45},{"user_id":216,"name":"Acanda","steam_id":76561198123246537,"connected_time":2196000000000,"state":"active","ping":54},{"user_id":224,"name":"w0rm","steam_id":76561197981402363,"connected_time":1376000000000,"state":"active","ping":57},{"user_id":208,"name":"After8","steam_id":76561198090750865,"connected_time":2522000000000,"state":"active","ping":65},{"user_id":182,"name":"decommandpro","steam_id":76561198971647041,"connected_time":4477000000000,"state":"active","ping":91},{"user_id":235,"name":"Space","steam_id":76561198021572167,"connected_time":392000000000,"state":"active","ping":59},{"user_id":157,"name":"Penis Contortionist","steam_id":76561198073663784,"connected_time":6318000000000,"state":"active","ping":53},{"user_id":219,"name":"Valoxi","steam_id":76561197995042938,"connected_time":2157000000000,"state":"active","ping":70},{"user_id":189,"name":"Trebox78","steam_id":76561198071963357,"connected_time":4007000000000,"state":"active","ping":80},{"user_id":236,"name":"ü¶ê Tust ü¶ê","steam_id":76561198045694677,"connected_time":387000000000,"state":"active","ping":60},{"user_id":244,"name":"sam-","steam_id":76561198013770973,"connected_time":128000000000,"state":"active","ping":133},{"user_id":227,"name":"Cheers Mate!","steam_id":76561198265192382,"connected_time":1263000000000,"state":"active","ping":62},{"user_id":245,"name":"Dorich","steam_id":76561198287126217,"connected_time":113000000000,"state":"active","ping":58}]},{"server_id":23,"name":"Uncletopia | Frankfurt | 7 | Stopwatch Beta","name_short":"frk-7","host":"frk-1.de.uncletopia.com","port":27075,"enabled":true,"region":"eu","cc":"de","latitude":50.110924,"longitude":8.682127,"reserved":0,"last_update":"0001-01-01T00:00:00Z","name_a2s":"Uncletopia | Frankfurt | 7 | Stopwatch Beta","protocol":17,"map":"workshop/koth_ramjam_rc1.ugc459778887","folder":"tf","game":"Team Fortress","app_id":440,"player_count":3,"max_players":24,"Bots":0,"server_type":"Dedicated","server_os":"Linux","password":true,"vac":true,"version":"7757534","steam_id":85568392924742827,"keywords":["cp","nocrits","nodmgspread","uncletopia"],"game_id":440,"stv_port":27076,"stv_name":"Uncletopia | Frankfurt | 7 | Stopwatch Beta | STV","players":[{"user_id":7,"name":"Truegr","steam_id":76561198811912339,"connected_time":2125000000000,"state":"active","ping":64},{"user_id":8,"name":"fried","steam_id":76561198307522022,"connected_time":2114000000000,"state":"active","ping":47},{"user_id":11,"name":"TheFox.tf","steam_id":76561197996851702,"connected_time":432000000000,"state":"active","ping":61}]},{"server_id":24,"name":"Uncletopia | Frankfurt | 8 | Community","name_short":"frk-8","host":"frk-1.de.uncletopia.com","port":27085,"enabled":true,"region":"eu","cc":"de","latitude":50.110924,"longitude":8.682127,"reserved":0,"last_update":"0001-01-01T00:00:00Z","name_a2s":"Uncletopia | Frankfurt | 8 | Community","protocol":17,"map":"workshop/koth_ashville_final.ugc2130459942","folder":"tf","game":"Team Fortress","app_id":440,"player_count":0,"max_players":24,"Bots":0,"server_type":"Dedicated","server_os":"Linux","password":true,"vac":true,"version":"7757534","steam_id":85568392924742828,"keywords":["cp","nocrits","nodmgspread","uncletopia"],"game_id":440,"stv_port":27086,"stv_name":"Uncletopia | Frankfurt | 8 | Community | STV","players":null},{"server_id":202,"name":"Uncletopia | Hong Kong | 1 | All Maps","name_short":"hgk-1","host":"hgk-1.hk.uncletopia.com","port":27015,"enabled":true,"region":"asia","cc":"hk","latitude":22.302711,"longitude":114.177216,"reserved":0,"last_update":"0001-01-01T00:00:00Z","name_a2s":"Uncletopia | Hong Kong | 1 | All Maps","protocol":17,"map":"koth_cascade","folder":"tf","game":"Team Fortress","app_id":440,"player_count":0,"max_players":24,"Bots":0,"server_type":"Dedicated","server_os":"Linux","password":true,"vac":true,"version":"7757534","steam_id":85568392924494504,"keywords":["cp","nocrits","nodmgspread","uncletopia"],"game_id":440,"stv_port":27016,"stv_name":"Uncletopia | Hong Kong | 1 | All Maps | STV","players":null},{"server_id":1,"name":"Uncletopia | Los Angeles | 1 | All Maps","name_short":"lax-1","host":"lax-1.us.uncletopia.com","port":27015,"enabled":true,"region":"us-west","cc":"us","latitude":33.94279,"longitude":-118.41004,"reserved":0,"last_update":"0001-01-01T00:00:00Z","name_a2s":"Uncletopia | Los Angeles | 1 | All Maps","protocol":17,"map":"koth_lakeside_final","folder":"tf","game":"Team Fortress","app_id":440,"player_count":0,"max_players":24,"Bots":0,"server_type":"Dedicated","server_os":"Linux","password":true,"vac":true,"version":"7757534","steam_id":85568392924469991,"keywords":["cp","nocrits","nodmgspread","uncletopia"],"game_id":440,"stv_port":27016,"stv_name":"Uncletopia | Los Angeles | 1 | All Maps | STV","players":null},{"server_id":112,"name":"Uncletopia | Los Angeles | 2 | All Maps","name_short":"lax-2","host":"lax-1.us.uncletopia.com","port":27025,"enabled":true,"region":"us-west","cc":"us","latitude":33.94279,"longitude":-118.41004,"reserved":0,"last_update":"0001-01-01T00:00:00Z","name_a2s":"Uncletopia | Los Angeles | 2 | All Maps","protocol":17,"map":"pl_badwater","folder":"tf","game":"Team Fortress","app_id":440,"player_count":0,"max_players":24,"Bots":0,"server_type":"Dedicated","server_os":"Linux","password":true,"vac":true,"version":"7757534","steam_id":85568392924469992,"keywords":["nocrits","nodmgspread","payload","uncletopia"],"game_id":440,"stv_port":27026,"stv_name":"Uncletopia | Los Angeles | 2 | All Maps | STV","players":null},{"server_id":324,"name":"Uncletopia | Los Angeles | 3 | All Maps","name_short":"lax-3","host":"lax-1.us.uncletopia.com","port":27035,"enabled":true,"region":"us-west","cc":"us","latitude":33.94279,"longitude":-118.41004,"reserved":0,"last_update":"0001-01-01T00:00:00Z","name_a2s":"Uncletopia | Los Angeles | 3 | All Maps","protocol":17,"map":"cp_steel","folder":"tf","game":"Team Fortress","app_id":440,"player_count":3,"max_players":24,"Bots":0,"server_type":"Dedicated","server_os":"Linux","password":true,"vac":true,"version":"7757534","steam_id":85568392924510198,"keywords":["cp","nocrits","nodmgspread","uncletopia"],"game_id":440,"stv_port":27036,"stv_name":"Uncletopia | Los Angeles | 3 | All Maps | STV","players":[{"user_id":3,"name":"ceo of sex 2","steam_id":76561198097328127,"connected_time":628000000000,"state":"active","ping":42},{"user_id":4,"name":"I am in key debt","steam_id":76561198206922028,"connected_time":157000000000,"state":"active","ping":47},{"user_id":5,"name":"nfseskimo","steam_id":76561198078745666,"connected_time":151000000000,"state":"active","ping":75}]},{"server_id":25,"name":"Uncletopia | Los Angeles | 4 | Stopwatch Beta","name_short":"lax-4","host":"lax-1.us.uncletopia.com","port":27045,"enabled":true,"region":"us-west","cc":"us","latitude":33.94279,"longitude":-118.41004,"reserved":0,"last_update":"0001-01-01T00:00:00Z","name_a2s":"Uncletopia | Los Angeles | 4 | Stopwatch Beta","protocol":17,"map":"pl_swiftwater_final1","folder":"tf","game":"Team Fortress","app_id":440,"player_count":0,"max_players":24,"Bots":0,"server_type":"Dedicated","server_os":"Linux","password":true,"vac":true,"version":"7757534","steam_id":85568392924510199,"keywords":["nocrits","nodmgspread","payload","uncletopia"],"game_id":440,"stv_port":27046,"stv_name":"Uncletopia | Los Angeles | 4 | Stopwatch Beta | STV","players":null},{"server_id":11,"name":"Uncletopia | London | 1 | All Maps","name_short":"lon-1","host":"lon-1.uk.uncletopia.com","port":27015,"enabled":true,"region":"eu","cc":"gb","latitude":51.509865,"longitude":-0.118092,"reserved":0,"last_update":"0001-01-01T00:00:00Z","name_a2s":"Uncletopia | London | 1 | All Maps","protocol":17,"map":"pl_barnblitz","folder":"tf","game":"Team Fortress","app_id":440,"player_count":19,"max_players":24,"Bots":0,"server_type":"Dedicated","server_os":"Linux","password":true,"vac":true,"version":"7757534","steam_id":85568392924367362,"keywords":["nocrits","nodmgspread","payload","uncletopia"],"game_id":440,"stv_port":27016,"stv_name":"Uncletopia | London | 1 | All Maps | STV","players":[{"user_id":480,"name":"on1on (roughly chopped)","steam_id":76561197995304137,"connected_time":3345000000000,"state":"active","ping":70},{"user_id":508,"name":"mike erhmentraut","steam_id":76561199025378498,"connected_time":1211000000000,"state":"active","ping":32},{"user_id":448,"name":"Bobirulez","steam_id":76561198009125458,"connected_time":5126000000000,"state":"active","ping":71},{"user_id":519,"name":"Mafew","steam_id":76561198119993886,"connected_time":58000000000,"state":"active","ping":47},{"user_id":520,"name":"Jag √§r ett anka","steam_id":76561198059978438,"connected_time":30000000000,"state":"spawning","ping":103},{"user_id":521,"name":"f l —è n","steam_id":76561198079595755,"connected_time":17000000000,"state":"active","ping":45},{"user_id":512,"name":"swagsam","steam_id":76561199023747241,"connected_time":1103000000000,"state":"active","ping":42},{"user_id":498,"name":"TheBeardedM1G","steam_id":76561198040208946,"connected_time":1823000000000,"state":"active","ping":49},{"user_id":513,"name":"jerf(god i want estrogen)","steam_id":76561199213901239,"connected_time":1024000000000,"state":"active","ping":44},{"user_id":475,"name":"cheriberry","steam_id":76561198093577036,"connected_time":3760000000000,"state":"active","ping":60},{"user_id":511,"name":"Lunar","steam_id":76561199077495290,"connected_time":1114000000000,"state":"active","ping":69},{"user_id":444,"name":"jge","steam_id":76561198123186387,"connected_time":5868000000000,"state":"active","ping":55},{"user_id":500,"name":"trite","steam_id":76561197983765323,"connected_time":1791000000000,"state":"active","ping":48},{"user_id":517,"name":"dunduu","steam_id":76561198875240717,"connected_time":405000000000,"state":"active","ping":77},{"user_id":495,"name":"Luk3","steam_id":76561198340519063,"connected_time":1976000000000,"state":"active","ping":54},{"user_id":452,"name":"Ged","steam_id":76561198079288943,"connected_time":4875000000000,"state":"active","ping":102},{"user_id":473,"name":"Carl","steam_id":76561198045638738,"connected_time":3780000000000,"state":"active","ping":82},{"user_id":499,"name":"Tomo -∆í$-","steam_id":76561199015097595,"connected_time":1819000000000,"state":"active","ping":47},{"user_id":443,"name":"‚Ñ¢‚Åß‚Åß‰πÉ»ΩOOD PRINCŒû","steam_id":76561198137835796,"connected_time":5943000000000,"state":"active","ping":58}]},{"server_id":114,"name":"Uncletopia | London | 2 | All Maps","name_short":"lon-2","host":"lon-1.uk.uncletopia.com","port":27025,"enabled":true,"region":"eu","cc":"gb","latitude":51.509865,"longitude":-0.118092,"reserved":0,"last_update":"0001-01-01T00:00:00Z","name_a2s":"Uncletopia | London | 2 | All Maps","protocol":17,"map":"pl_upward","folder":"tf","game":"Team Fortress","app_id":440,"player_count":24,"max_players":24,"Bots":0,"server_type":"Dedicated","server_os":"Linux","password":true,"vac":true,"version":"7757534","steam_id":85568392924470941,"keywords":["nocrits","nodmgspread","payload","uncletopia"],"game_id":440,"stv_port":27026,"stv_name":"Uncletopia | London | 2 | All Maps | STV","players":[{"user_id":303,"name":"tam","steam_id":76561199472600621,"connected_time":327000000000,"state":"active","ping":135},{"user_id":269,"name":"Trench_Hands","steam_id":76561198063348835,"connected_time":2421000000000,"state":"active","ping":65},{"user_id":292,"name":"„ÉÜ„Ç§„É´„Çπ","steam_id":76561198022403271,"connected_time":846000000000,"state":"active","ping":58},{"user_id":305,"name":"Big Al","steam_id":76561198067692439,"connected_time":310000000000,"state":"active","ping":100},{"user_id":307,"name":"pfear","steam_id":76561197999207328,"connected_time":243000000000,"state":"active","ping":76},{"user_id":255,"name":"Soup Dog","steam_id":76561198237878322,"connected_time":2738000000000,"state":"active","ping":73},{"user_id":293,"name":"quickfast","steam_id":76561199438900919,"connected_time":772000000000,"state":"active","ping":45},{"user_id":301,"name":"tapeworms!","steam_id":76561198069649097,"connected_time":403000000000,"state":"active","ping":47},{"user_id":294,"name":"Caliban","steam_id":76561197999696839,"connected_time":714000000000,"state":"active","ping":101},{"user_id":264,"name":"DocTwoEight","steam_id":76561198153488940,"connected_time":2536000000000,"state":"active","ping":74},{"user_id":279,"name":"madman hesus","steam_id":76561198159702599,"connected_time":1791000000000,"state":"active","ping":88},{"user_id":244,"name":"psilo","steam_id":76561198148059714,"connected_time":3058000000000,"state":"active","ping":113},{"user_id":245,"name":"Anonymous47007","steam_id":76561199005211417,"connected_time":3014000000000,"state":"active","ping":83},{"user_id":265,"name":"Carrot Arc","steam_id":76561198164957006,"connected_time":2534000000000,"state":"active","ping":84},{"user_id":312,"name":"aspect","steam_id":76561198315032412,"connected_time":155000000000,"state":"active","ping":67},{"user_id":295,"name":"Meki","steam_id":76561198108279631,"connected_time":686000000000,"state":"active","ping":104},{"user_id":296,"name":"Vezage","steam_id":76561198064916164,"connected_time":670000000000,"state":"active","ping":72},{"user_id":314,"name":"Doctor Pyro","steam_id":76561198240400118,"connected_time":8000000000,"state":"spawning","ping":156},{"user_id":309,"name":"EGirlGang","steam_id":76561198257435792,"connected_time":216000000000,"state":"active","ping":84},{"user_id":313,"name":"Topi","steam_id":76561198165732391,"connected_time":59000000000,"state":"active","ping":91},{"user_id":276,"name":"Edison Trent","steam_id":76561198067133145,"connected_time":2025000000000,"state":"active","ping":70},{"user_id":281,"name":"Weenie Hut Jr's","steam_id":76561198050515739,"connected_time":1683000000000,"state":"active","ping":46},{"user_id":310,"name":".::[SerafeTTiN]::.","steam_id":76561198009471724,"connected_time":181000000000,"state":"active","ping":101},{"user_id":311,"name":"Topia","steam_id":76561198163571788,"connected_time":173000000000,"state":"active","ping":100}]},{"server_id":320,"name":"Uncletopia | London | 3 | All Maps","name_short":"lon-3","host":"lon-1.uk.uncletopia.com","port":27035,"enabled":true,"region":"eu","cc":"gb","latitude":51.509865,"longitude":-0.118092,"reserved":0,"last_update":"0001-01-01T00:00:00Z","name_a2s":"Uncletopia | London | 3 | All Maps","protocol":17,"map":"pl_badwater","folder":"tf","game":"Team Fortress","app_id":440,"player_count":24,"max_players":24,"Bots":0,"server_type":"Dedicated","server_os":"Linux","password":true,"vac":true,"version":"7757534","steam_id":85568392924510192,"keywords":["nocrits","nodmgspread","payload","uncletopia"],"game_id":440,"stv_port":27036,"stv_name":"Uncletopia | London | 3 | All Maps | STV","players":[{"user_id":410,"name":"TheFallenFox","steam_id":76561199074190919,"connected_time":406000000000,"state":"active","ping":60},{"user_id":408,"name":"kotamine","steam_id":76561198068907991,"connected_time":434000000000,"state":"active","ping":75},{"user_id":395,"name":"Egor Pomidor","steam_id":76561199175688390,"connected_time":1159000000000,"state":"active","ping":87},{"user_id":414,"name":"Johan","steam_id":76561199380849468,"connected_time":267000000000,"state":"active","ping":65},{"user_id":415,"name":"poliakov.noam","steam_id":76561199259322961,"connected_time":19000000000,"state":"spawning","ping":90},{"user_id":416,"name":"Mowelic","steam_id":76561198873641222,"connected_time":0,"state":"spawning","ping":36},{"user_id":379,"name":"Butt taste tester","steam_id":76561198274105878,"connected_time":1822000000000,"state":"active","ping":101},{"user_id":305,"name":"ran is running","steam_id":76561199443185667,"connected_time":6758000000000,"state":"active","ping":127},{"user_id":403,"name":"bAdmon","steam_id":76561197961785793,"connected_time":592000000000,"state":"active","ping":51},{"user_id":372,"name":"Kestrel","steam_id":76561198144033005,"connected_time":2353000000000,"state":"active","ping":52},{"user_id":381,"name":"justin_ (f2p) (real)","steam_id":76561198839843428,"connected_time":1759000000000,"state":"active","ping":106},{"user_id":400,"name":"KR√ÅL PODSVƒöT√ç","steam_id":76561198060698967,"connected_time":793000000000,"state":"active","ping":52},{"user_id":399,"name":"THVG","steam_id":76561199156685368,"connected_time":832000000000,"state":"active","ping":71},{"user_id":406,"name":"SKFBoge","steam_id":76561198269038278,"connected_time":473000000000,"state":"active","ping":80},{"user_id":397,"name":"kojitori","steam_id":76561198838072150,"connected_time":872000000000,"state":"active","ping":45},{"user_id":323,"name":"Estamie","steam_id":76561198058527691,"connected_time":5093000000000,"state":"active","ping":73},{"user_id":401,"name":"IONYCH","steam_id":76561198378350040,"connected_time":720000000000,"state":"active","ping":86},{"user_id":343,"name":"Luuk","steam_id":76561198088266026,"connected_time":3906000000000,"state":"active","ping":45},{"user_id":405,"name":"Sirky","steam_id":76561198082407725,"connected_time":545000000000,"state":"active","ping":59},{"user_id":412,"name":"Michael","steam_id":76561198003146906,"connected_time":336000000000,"state":"active","ping":47},{"user_id":389,"name":"cyanic","steam_id":76561198047828651,"connected_time":1382000000000,"state":"active","ping":49},{"user_id":402,"name":"giclure :;","steam_id":76561197986362828,"connected_time":601000000000,"state":"active","ping":56},{"user_id":392,"name":"Bumblebee","steam_id":76561198033551105,"connected_time":1225000000000,"state":"active","ping":83},{"user_id":413,"name":"Pauler le one","steam_id":76561198398152855,"connected_time":319000000000,"state":"active","ping":87}]},{"server_id":321,"name":"Uncletopia | London | 4 | All Maps","name_short":"lon-4","host":"lon-1.uk.uncletopia.com","port":27045,"enabled":true,"region":"eu","cc":"gb","latitude":51.509865,"longitude":-0.118092,"reserved":0,"last_update":"0001-01-01T00:00:00Z","name_a2s":"Uncletopia | London | 4 | All Maps","protocol":17,"map":"koth_viaduct","folder":"tf","game":"Team Fortress","app_id":440,"player_count":0,"max_players":24,"Bots":0,"server_type":"Dedicated","server_os":"Linux","password":true,"vac":true,"version":"7757534","steam_id":85568392924510193,"keywords":["cp","nocrits","nodmgspread","uncletopia"],"game_id":440,"stv_port":27046,"stv_name":"Uncletopia | London | 4 | All Maps | STV","players":null},{"server_id":21,"name":"Uncletopia | London | 5 | All Maps","name_short":"lon-5","host":"lon-1.uk.uncletopia.com","port":27055,"enabled":true,"region":"eu","cc":"gb","latitude":51.509865,"longitude":-0.118092,"reserved":0,"last_update":"0001-01-01T00:00:00Z","name_a2s":"Uncletopia | London | 5 | All Maps","protocol":17,"map":"pl_upward","folder":"tf","game":"Team Fortress","app_id":440,"player_count":24,"max_players":24,"Bots":0,"server_type":"Dedicated","server_os":"Linux","password":true,"vac":true,"version":"7757534","steam_id":85568392924742829,"keywords":["nocrits","nodmgspread","payload","uncletopia"],"game_id":440,"stv_port":27056,"stv_name":"Uncletopia | London | 5 | All Maps | STV","players":[{"user_id":64,"name":"Raingnome @SaveTF2","steam_id":76561198007394958,"connected_time":650000000000,"state":"active","ping":56},{"user_id":70,"name":"Icaras","steam_id":76561198416724843,"connected_time":577000000000,"state":"active","ping":43},{"user_id":56,"name":"GrzMik","steam_id":76561198061951968,"connected_time":860000000000,"state":"active","ping":88},{"user_id":53,"name":"a freakin' knight","steam_id":76561198371341044,"connected_time":1175000000000,"state":"active","ping":171},{"user_id":31,"name":"Badass gangnam style minion","steam_id":76561198297602677,"connected_time":2701000000000,"state":"active","ping":87},{"user_id":54,"name":"meatsoupcube","steam_id":76561198276802249,"connected_time":1001000000000,"state":"active","ping":105},{"user_id":50,"name":"***** ***","steam_id":76561198048037379,"connected_time":1321000000000,"state":"active","ping":97},{"user_id":29,"name":"MGE Bro","steam_id":76561198796600155,"connected_time":2816000000000,"state":"active","ping":94},{"user_id":51,"name":"ZE DISPENSER GOES HEEYA!!","steam_id":76561198951441673,"connected_time":1312000000000,"state":"active","ping":43},{"user_id":43,"name":"Valentine","steam_id":76561198121343565,"connected_time":1477000000000,"state":"active","ping":60},{"user_id":45,"name":"donal rump","steam_id":76561198136239861,"connected_time":1409000000000,"state":"active","ping":48},{"user_id":63,"name":"hades","steam_id":76561199435854673,"connected_time":658000000000,"state":"active","ping":46},{"user_id":48,"name":"r0nja_","steam_id":76561197963298322,"connected_time":1378000000000,"state":"active","ping":74},{"user_id":57,"name":"nyanezt","steam_id":76561198253734265,"connected_time":753000000000,"state":"active","ping":99},{"user_id":58,"name":"Gearless","steam_id":76561198362367074,"connected_time":742000000000,"state":"active","ping":80},{"user_id":59,"name":"AYE","steam_id":76561198181368101,"connected_time":740000000000,"state":"active","ping":63},{"user_id":60,"name":"Tomau5","steam_id":76561198027409468,"connected_time":732000000000,"state":"active","ping":47},{"user_id":68,"name":"KFC Enjoyer","steam_id":76561198840259819,"connected_time":584000000000,"state":"active","ping":59},{"user_id":77,"name":"Arecibo","steam_id":76561198014359615,"connected_time":41000000000,"state":"active","ping":65},{"user_id":69,"name":"A Shiny Meat Bicycle","steam_id":76561198358757709,"connected_time":583000000000,"state":"active","ping":169},{"user_id":76,"name":"Dooble donk man look at me donk","steam_id":76561198225523596,"connected_time":348000000000,"state":"active","ping":67},{"user_id":75,"name":"ELON MUSK","steam_id":76561198132788284,"connected_time":486000000000,"state":"active","ping":54},{"user_id":73,"name":"Kek meister 8 mil","steam_id":76561197989904384,"connected_time":551000000000,"state":"active","ping":70},{"user_id":74,"name":"Abhorrent","steam_id":76561198056338288,"connected_time":524000000000,"state":"active","ping":45}]},{"server_id":22,"name":"Uncletopia | London | 6 | All Maps","name_short":"lon-6","host":"lon-1.uk.uncletopia.com","port":27065,"enabled":true,"region":"eu","cc":"gb","latitude":51.509865,"longitude":-0.118092,"reserved":0,"last_update":"0001-01-01T00:00:00Z","name_a2s":"Uncletopia | London | 6 | All Maps","protocol":17,"map":"cp_dustbowl","folder":"tf","game":"Team Fortress","app_id":440,"player_count":0,"max_players":24,"Bots":0,"server_type":"Dedicated","server_os":"Linux","password":true,"vac":true,"version":"7757534","steam_id":85568392924742830,"keywords":["cp","nocrits","nodmgspread","uncletopia"],"game_id":440,"stv_port":27066,"stv_name":"Uncletopia | London | 6 | All Maps | STV","players":null},{"server_id":40,"name":"Uncletopia | London | 7 | No Payload","name_short":"lon-7","host":"lon-1.uk.uncletopia.com","port":27075,"enabled":true,"region":"eu","cc":"gb","latitude":51.509865,"longitude":-0.118092,"reserved":0,"last_update":"0001-01-01T00:00:00Z","name_a2s":"Uncletopia | London | 7 | No Payload","protocol":17,"map":"cp_steel","folder":"tf","game":"Team Fortress","app_id":440,"player_count":18,"max_players":24,"Bots":0,"server_type":"Dedicated","server_os":"Linux","password":true,"vac":true,"version":"7757534","steam_id":85568392924964314,"keywords":["cp","nocrits","nodmgspread","uncletopia"],"game_id":440,"stv_port":27076,"stv_name":"Uncletopia | London | 7 | No Payload | STV","players":[{"user_id":73,"name":"Minimi","steam_id":76561198873850443,"connected_time":1400000000000,"state":"active","ping":44},{"user_id":76,"name":"Staffy #CommunityServers‚ô°‚ô°","steam_id":76561198859722036,"connected_time":1117000000000,"state":"active","ping":116},{"user_id":81,"name":"i am bread","steam_id":76561199180277321,"connected_time":97000000000,"state":"active","ping":62},{"user_id":82,"name":"Jered","steam_id":76561198834692136,"connected_time":51000000000,"state":"spawning","ping":72},{"user_id":8,"name":"Hugh J. Nus","steam_id":76561198170609049,"connected_time":4756000000000,"state":"active","ping":59},{"user_id":10,"name":"its me hi im the problem","steam_id":76561198097507847,"connected_time":4711000000000,"state":"active","ping":89},{"user_id":72,"name":"w presser","steam_id":76561197994600818,"connected_time":1558000000000,"state":"active","ping":32},{"user_id":14,"name":"TSx* Osa__PL","steam_id":76561198027016799,"connected_time":4462000000000,"state":"active","ping":75},{"user_id":15,"name":"TSx* Naxer","steam_id":76561198011986779,"connected_time":4423000000000,"state":"active","ping":66},{"user_id":55,"name":"Qwaden","steam_id":76561198881784698,"connected_time":2908000000000,"state":"active","ping":74},{"user_id":56,"name":"Chocofrolik","steam_id":76561198454779847,"connected_time":2685000000000,"state":"active","ping":58},{"user_id":78,"name":"Soldoux","steam_id":76561199093055113,"connected_time":553000000000,"state":"active","ping":52},{"user_id":53,"name":"Kotlet schabowy","steam_id":76561198048983509,"connected_time":3065000000000,"state":"active","ping":85},{"user_id":70,"name":"Mr.Cobretti","steam_id":76561198089905715,"connected_time":1754000000000,"state":"active","ping":79},{"user_id":71,"name":"Pinkchup","steam_id":76561198106802803,"connected_time":1742000000000,"state":"active","ping":75},{"user_id":58,"name":"nick murphy","steam_id":76561198086592534,"connected_time":2533000000000,"state":"active","ping":46},{"user_id":77,"name":"Dolcelatte","steam_id":76561198038501770,"connected_time":580000000000,"state":"active","ping":60},{"user_id":75,"name":"SaltyCupcakes","steam_id":76561198256386417,"connected_time":1202000000000,"state":"active","ping":40}]},{"server_id":41,"name":"Uncletopia | London | 8 | Community","name_short":"lon-8","host":"lon-1.uk.uncletopia.com","port":27085,"enabled":true,"region":"eu","cc":"gb","latitude":51.509865,"longitude":-0.118092,"reserved":0,"last_update":"0001-01-01T00:00:00Z","name_a2s":"Uncletopia | London | 8 | Community","protocol":17,"map":"workshop/pl_badwater_pro_v12.ugc2142942074","folder":"tf","game":"Team Fortress","app_id":440,"player_count":24,"max_players":24,"Bots":0,"server_type":"Dedicated","server_os":"Linux","password":true,"vac":true,"version":"7757534","steam_id":85568392924964315,"keywords":["nocrits","nodmgspread","payload","uncletopia"],"game_id":440,"stv_port":27086,"stv_name":"Uncletopia | London | 8 | Community | STV","players":[{"user_id":225,"name":"Er Pomata","steam_id":76561198133085347,"connected_time":1886000000000,"state":"active","ping":74},{"user_id":246,"name":"rabbitface26","steam_id":76561198327540113,"connected_time":134000000000,"state":"active","ping":44},{"user_id":165,"name":"PizzaPete123","steam_id":76561198089478290,"connected_time":7173000000000,"state":"active","ping":50},{"user_id":243,"name":"Spetse","steam_id":76561197990649972,"connected_time":567000000000,"state":"active","ping":90},{"user_id":247,"name":"fumo?","steam_id":76561198148074472,"connected_time":88000000000,"state":"active","ping":51},{"user_id":241,"name":"tired","steam_id":76561198046838168,"connected_time":612000000000,"state":"active","ping":61},{"user_id":230,"name":"wouris","steam_id":76561198876188003,"connected_time":1292000000000,"state":"active","ping":69},{"user_id":234,"name":"Angry Toast.exe","steam_id":76561198959812805,"connected_time":973000000000,"state":"active","ping":57},{"user_id":235,"name":"Dave The Sloth","steam_id":76561199135831355,"connected_time":954000000000,"state":"active","ping":424},{"user_id":248,"name":"akakez","steam_id":76561198095432821,"connected_time":82000000000,"state":"active","ping":111},{"user_id":228,"name":"Fat Pigeon","steam_id":76561198817940142,"connected_time":1531000000000,"state":"active","ping":46},{"user_id":233,"name":"static","steam_id":76561198836825741,"connected_time":1059000000000,"state":"active","ping":44},{"user_id":240,"name":"player","steam_id":76561198054474684,"connected_time":663000000000,"state":"active","ping":89},{"user_id":215,"name":"James ;)","steam_id":76561198123159605,"connected_time":2540000000000,"state":"active","ping":68},{"user_id":237,"name":"BELADIT","steam_id":76561198011911501,"connected_time":905000000000,"state":"active","ping":75},{"user_id":176,"name":"Topme","steam_id":76561198091734693,"connected_time":5888000000000,"state":"active","ping":60},{"user_id":245,"name":"Adrenaline","steam_id":76561197970852048,"connected_time":321000000000,"state":"active","ping":75},{"user_id":232,"name":"ALARM","steam_id":76561198120686521,"connected_time":1226000000000,"state":"active","ping":69},{"user_id":239,"name":"yaldabaoth","steam_id":76561198084606869,"connected_time":809000000000,"state":"active","ping":135},{"user_id":205,"name":"me when im walking into class","steam_id":76561198048250715,"connected_time":3144000000000,"state":"active","ping":67},{"user_id":220,"name":"Aregularhuman","steam_id":76561198343319848,"connected_time":2348000000000,"state":"active","ping":46},{"user_id":189,"name":"godmodule","steam_id":76561198165995444,"connected_time":4698000000000,"state":"active","ping":82},{"user_id":227,"name":"benibachi","steam_id":76561198190816499,"connected_time":1711000000000,"state":"active","ping":82},{"user_id":221,"name":"I AM DOT","steam_id":76561198354118090,"connected_time":2315000000000,"state":"active","ping":88}]},{"server_id":300,"name":"Uncletopia | Montr√©al | 1 | All Maps","name_short":"mtl-1","host":"mtl-1.ca.uncletopia.com","port":27015,"enabled":true,"region":"us-east","cc":"ca","latitude":45.50889,"longitude":-73.56167,"reserved":0,"last_update":"0001-01-01T00:00:00Z","name_a2s":"Uncletopia | Montr√©al | 1 | All Maps","protocol":17,"map":"koth_viaduct","folder":"tf","game":"Team Fortress","app_id":440,"player_count":0,"max_players":24,"Bots":0,"server_type":"Dedicated","server_os":"Linux","password":true,"vac":true,"version":"7757534","steam_id":85568392924500087,"keywords":["cp","nocrits","nodmgspread","uncletopia"],"game_id":440,"stv_port":27016,"stv_name":"Uncletopia | Montr√©al | 1 | All Maps | STV","players":null},{"server_id":301,"name":"Uncletopia | Montr√©al | 2 | All Maps","name_short":"mtl-2","host":"mtl-1.ca.uncletopia.com","port":27025,"enabled":true,"region":"us-east","cc":"ca","latitude":45.50889,"longitude":-73.56167,"reserved":0,"last_update":"0001-01-01T00:00:00Z","name_a2s":"Uncletopia | Montr√©al | 2 | All Maps","protocol":17,"map":"pl_snowycoast","folder":"tf","game":"Team Fortress","app_id":440,"player_count":0,"max_players":24,"Bots":0,"server_type":"Dedicated","server_os":"Linux","password":true,"vac":true,"version":"7757534","steam_id":85568392924500088,"keywords":["nocrits","nodmgspread","payload","uncletopia"],"game_id":440,"stv_port":27026,"stv_name":"Uncletopia | Montr√©al | 2 | All Maps | STV","players":null},{"server_id":302,"name":"Uncletopia | Montr√©al | 3 | All Maps","name_short":"mtl-3","host":"mtl-1.ca.uncletopia.com","port":27035,"enabled":true,"region":"us-east","cc":"ca","latitude":45.50889,"longitude":-73.56167,"reserved":0,"last_update":"0001-01-01T00:00:00Z","name_a2s":"Uncletopia | Montr√©al | 3 | All Maps","protocol":17,"map":"pl_swiftwater_final1","folder":"tf","game":"Team Fortress","app_id":440,"player_count":0,"max_players":24,"Bots":0,"server_type":"Dedicated","server_os":"Linux","password":true,"vac":true,"version":"7757534","steam_id":85568392924500089,"keywords":["nocrits","nodmgspread","payload","uncletopia"],"game_id":440,"stv_port":27036,"stv_name":"Uncletopia | Montr√©al | 3 | All Maps | STV","players":null},{"server_id":303,"name":"Uncletopia | Montr√©al | 4 | No Payload","name_short":"mtl-4","host":"mtl-1.ca.uncletopia.com","port":27045,"enabled":true,"region":"us-east","cc":"ca","latitude":45.50889,"longitude":-73.56167,"reserved":0,"last_update":"0001-01-01T00:00:00Z","name_a2s":"Uncletopia | Montr√©al | 4 | No Payload","protocol":17,"map":"cp_gravelpit","folder":"tf","game":"Team Fortress","app_id":440,"player_count":0,"max_players":24,"Bots":0,"server_type":"Dedicated","server_os":"Linux","password":true,"vac":true,"version":"7757534","steam_id":85568392924500090,"keywords":["cp","nocrits","nodmgspread","uncletopia"],"game_id":440,"stv_port":27046,"stv_name":"Uncletopia | Montr√©al | 4 | No Payload | STV","players":null},{"server_id":13,"name":"Uncletopia | New York City | 1 | All Maps","name_short":"nyc-1","host":"nyc-1.us.uncletopia.com","port":27015,"enabled":true,"region":"us-east","cc":"us","latitude":40.73061,"longitude":-73.93524,"reserved":0,"last_update":"0001-01-01T00:00:00Z","name_a2s":"Uncletopia | New York City | 1 | All Maps","protocol":17,"map":"koth_highpass","folder":"tf","game":"Team Fortress","app_id":440,"player_count":2,"max_players":24,"Bots":0,"server_type":"Dedicated","server_os":"Linux","password":true,"vac":true,"version":"7757534","steam_id":85568392924469993,"keywords":["cp","nocrits","nodmgspread","uncletopia"],"game_id":440,"stv_port":27016,"stv_name":"Uncletopia | New York City | 1 | All Maps | STV","players":[{"user_id":11,"name":"Zoro from Wano Country","steam_id":76561198221619936,"connected_time":3549000000000,"state":"active","ping":86},{"user_id":14,"name":"Conrad Murray","steam_id":76561198141682876,"connected_time":2986000000000,"state":"active","ping":52}]},{"server_id":14,"name":"Uncletopia | New York City | 2 | All Maps","name_short":"nyc-2","host":"nyc-1.us.uncletopia.com","port":27025,"enabled":true,"region":"us-east","cc":"us","latitude":40.73061,"longitude":-73.93524,"reserved":0,"last_update":"0001-01-01T00:00:00Z","name_a2s":"Uncletopia | New York City | 2 | All Maps","protocol":17,"map":"cp_badlands","folder":"tf","game":"Team Fortress","app_id":440,"player_count":24,"max_players":24,"Bots":0,"server_type":"Dedicated","server_os":"Linux","password":true,"vac":true,"version":"7757534","steam_id":85568392924469994,"keywords":["cp","nocrits","nodmgspread","uncletopia"],"game_id":440,"stv_port":27026,"stv_name":"Uncletopia | New York City | 2 | All Maps | STV","players":[{"user_id":228,"name":"white ray","steam_id":76561198026664629,"connected_time":760000000000,"state":"active","ping":50},{"user_id":218,"name":"TheFirstGlueBender","steam_id":76561199387319886,"connected_time":1224000000000,"state":"active","ping":105},{"user_id":194,"name":"The Land Admiral","steam_id":76561198159356609,"connected_time":2903000000000,"state":"active","ping":54},{"user_id":206,"name":"ROGUE-PLANET","steam_id":76561198116023052,"connected_time":1897000000000,"state":"active","ping":80},{"user_id":241,"name":"Romo","steam_id":76561198243101572,"connected_time":371000000000,"state":"active","ping":81},{"user_id":213,"name":"Coughdrop Addict [F2P]","steam_id":76561199254281550,"connected_time":1524000000000,"state":"active","ping":57},{"user_id":242,"name":"Reckless Sorcerer","steam_id":76561198062370413,"connected_time":366000000000,"state":"active","ping":69},{"user_id":232,"name":"gugu","steam_id":76561198077645526,"connected_time":662000000000,"state":"active","ping":87},{"user_id":243,"name":"Misty Blu ‚ô• Scout","steam_id":76561198011442255,"connected_time":303000000000,"state":"active","ping":121},{"user_id":244,"name":"LunarrD","steam_id":76561198811220107,"connected_time":301000000000,"state":"active","ping":68},{"user_id":223,"name":"Vl@iM@","steam_id":76561198044762641,"connected_time":997000000000,"state":"active","ping":103},{"user_id":240,"name":"PowderLinux","steam_id":76561198876653083,"connected_time":426000000000,"state":"active","ping":52},{"user_id":212,"name":"Resident Thrussy Lender","steam_id":76561198071790583,"connected_time":1528000000000,"state":"active","ping":60},{"user_id":200,"name":"Spaces","steam_id":76561198853826710,"connected_time":2538000000000,"state":"active","ping":68},{"user_id":248,"name":"turd ferguson","steam_id":76561198071620782,"connected_time":229000000000,"state":"active","ping":624},{"user_id":189,"name":"aiden","steam_id":76561198449527009,"connected_time":3336000000000,"state":"active","ping":60},{"user_id":230,"name":"nup noodle","steam_id":76561198101278181,"connected_time":700000000000,"state":"active","ping":583},{"user_id":207,"name":"NOAH FROM SUPER 3D NOAH'S ARK!","steam_id":76561198042011714,"connected_time":1822000000000,"state":"active","ping":68},{"user_id":246,"name":"megaboi796","steam_id":76561198122995438,"connected_time":274000000000,"state":"active","ping":67},{"user_id":247,"name":"WhisK√©y","steam_id":76561198041858587,"connected_time":263000000000,"state":"active","ping":193},{"user_id":234,"name":"BERBBLES","steam_id":76561198815107994,"connected_time":598000000000,"state":"active","ping":49},{"user_id":215,"name":"ChaoticAngel","steam_id":76561198293528217,"connected_time":1490000000000,"state":"active","ping":56},{"user_id":239,"name":"Idiot Prince (They/Them)","steam_id":76561198048205270,"connected_time":456000000000,"state":"active","ping":65},{"user_id":250,"name":"SuperFresh","steam_id":76561198200723198,"connected_time":113000000000,"state":"active","ping":58}]},{"server_id":15,"name":"Uncletopia | New York City | 3 | Stopwatch Beta","name_short":"nyc-3","host":"nyc-1.us.uncletopia.com","port":27035,"enabled":true,"region":"us-east","cc":"us","latitude":40.73061,"longitude":-73.93524,"reserved":0,"last_update":"0001-01-01T00:00:00Z","name_a2s":"Uncletopia | New York City | 3 | Stopwatch Beta","protocol":17,"map":"koth_lakeside_final","folder":"tf","game":"Team Fortress","app_id":440,"player_count":0,"max_players":24,"Bots":0,"server_type":"Dedicated","server_os":"Linux","password":true,"vac":true,"version":"7757534","steam_id":85568392924742820,"keywords":["cp","nocrits","nodmgspread","uncletopia"],"game_id":440,"stv_port":27036,"stv_name":"Uncletopia | New York City | 3 | Stopwatch Beta | STV","players":null},{"server_id":16,"name":"Uncletopia | New York City | 4 | Community","name_short":"nyc-4","host":"nyc-1.us.uncletopia.com","port":27045,"enabled":true,"region":"us-east","cc":"us","latitude":40.73061,"longitude":-73.93524,"reserved":0,"last_update":"0001-01-01T00:00:00Z","name_a2s":"Uncletopia | New York City | 4 | Community","protocol":17,"map":"pl_swiftwater_final1","folder":"tf","game":"Team Fortress","app_id":440,"player_count":0,"max_players":24,"Bots":0,"server_type":"Dedicated","server_os":"Linux","password":true,"vac":true,"version":"7757534","steam_id":85568392924742821,"keywords":["nocrits","nodmgspread","payload","uncletopia"],"game_id":440,"stv_port":27046,"stv_name":"Uncletopia | New York City | 4 | Community | STV","players":null},{"server_id":142,"name":"Uncletopia | S√£o Paulo | 1 | All Maps","name_short":"sao-1","host":"sao-1.br.uncletopia.com","port":27015,"enabled":true,"region":"sa","cc":"br","latitude":-23.533773,"longitude":-46.62529,"reserved":0,"last_update":"0001-01-01T00:00:00Z","name_a2s":"Uncletopia | S√£o Paulo | 1 | All Maps","protocol":17,"map":"koth_lakeside_final","folder":"tf","game":"Team Fortress","app_id":440,"player_count":0,"max_players":24,"Bots":0,"server_type":"Dedicated","server_os":"Linux","password":true,"vac":true,"version":"7757534","steam_id":85568392924469996,"keywords":["cp","nocrits","nodmgspread","uncletopia"],"game_id":440,"stv_port":27016,"stv_name":"Uncletopia | S√£o Paulo | 1 | All Maps | STV","players":null},{"server_id":143,"name":"Uncletopia | S√£o Paulo | 2 | All Maps","name_short":"sao-2","host":"sao-2.br.uncletopia.com","port":27015,"enabled":true,"region":"sa","cc":"br","latitude":-23.533773,"longitude":-46.62529,"reserved":0,"last_update":"0001-01-01T00:00:00Z","name_a2s":"Uncletopia | S√£o Paulo | 2 | All Maps","protocol":17,"map":"koth_cascade","folder":"tf","game":"Team Fortress","app_id":440,"player_count":0,"max_players":24,"Bots":0,"server_type":"Dedicated","server_os":"Linux","password":true,"vac":true,"version":"7757534","steam_id":85568392924485349,"keywords":["cp","nocrits","nodmgspread","uncletopia"],"game_id":440,"stv_port":27016,"stv_name":"Uncletopia | S√£o Paulo | 2 | All Maps | STV","players":null},{"server_id":7,"name":"Uncletopia | Seattle | 1 | All Maps","name_short":"sea-1","host":"sea-1.us.uncletopia.com","port":27015,"enabled":true,"region":"us-west","cc":"us","latitude":47.608013,"longitude":-122.33517,"reserved":0,"last_update":"0001-01-01T00:00:00Z","name_a2s":"Uncletopia | Seattle | 1 | All Maps","protocol":17,"map":"pl_upward","folder":"tf","game":"Team Fortress","app_id":440,"player_count":24,"max_players":24,"Bots":0,"server_type":"Dedicated","server_os":"Linux","password":true,"vac":true,"version":"7757534","steam_id":85568392924469997,"keywords":["nocrits","nodmgspread","payload","uncletopia"],"game_id":440,"stv_port":27016,"stv_name":"Uncletopia | Seattle | 1 | All Maps | STV","players":[{"user_id":206,"name":"[TrC] Dackstrus","steam_id":76561197973518509,"connected_time":2141000000000,"state":"active","ping":52},{"user_id":223,"name":"Tom","steam_id":76561198070630154,"connected_time":744000000000,"state":"active","ping":76},{"user_id":164,"name":"Lazy","steam_id":76561198802747832,"connected_time":5403000000000,"state":"active","ping":48},{"user_id":224,"name":"Taylor Swift","steam_id":76561198078130694,"connected_time":528000000000,"state":"active","ping":80},{"user_id":43,"name":"fancyfreak","steam_id":76561198326466375,"connected_time":13277000000000,"state":"active","ping":82},{"user_id":113,"name":"autumn","steam_id":76561199000378486,"connected_time":8613000000000,"state":"active","ping":67},{"user_id":217,"name":"Pubby","steam_id":76561198164984732,"connected_time":1188000000000,"state":"active","ping":236},{"user_id":214,"name":"Prof. Eggnog","steam_id":76561198193389166,"connected_time":1212000000000,"state":"active","ping":133},{"user_id":180,"name":"Prime Rizziler","steam_id":76561199100612353,"connected_time":4747000000000,"state":"active","ping":105},{"user_id":208,"name":"Tyler\u0026Fingers","steam_id":76561198085154485,"connected_time":1972000000000,"state":"active","ping":137},{"user_id":220,"name":"Marc G","steam_id":76561198062650363,"connected_time":979000000000,"state":"active","ping":100},{"user_id":225,"name":"man_of_all_time","steam_id":76561199059842532,"connected_time":492000000000,"state":"active","ping":111},{"user_id":199,"name":"Keamy","steam_id":76561199471434875,"connected_time":2844000000000,"state":"active","ping":39},{"user_id":215,"name":"toes","steam_id":76561198221151676,"connected_time":1203000000000,"state":"active","ping":50},{"user_id":181,"name":"1dk","steam_id":76561198135104742,"connected_time":4746000000000,"state":"active","ping":49},{"user_id":227,"name":"AmiableNebula","steam_id":76561198094306627,"connected_time":437000000000,"state":"active","ping":77},{"user_id":216,"name":"iMxmories","steam_id":76561198163295584,"connected_time":1198000000000,"state":"active","ping":76},{"user_id":229,"name":"Cousin Balki","steam_id":76561198070496395,"connected_time":111000000000,"state":"active","ping":134},{"user_id":185,"name":"DanielDaSavage9","steam_id":76561198401532367,"connected_time":4658000000000,"state":"active","ping":64},{"user_id":228,"name":"ËàπÂ∞æ","steam_id":76561198128764422,"connected_time":244000000000,"state":"active","ping":35},{"user_id":230,"name":"tailorturtle","steam_id":76561198107481127,"connected_time":105000000000,"state":"active","ping":123},{"user_id":163,"name":"my monitor is off","steam_id":76561198074499537,"connected_time":5448000000000,"state":"active","ping":82},{"user_id":231,"name":"jacix3 [gay wolfgirl]{she/it}","steam_id":76561198205004165,"connected_time":69000000000,"state":"active","ping":57},{"user_id":232,"name":"C U Next Tuesday","steam_id":76561198058493492,"connected_time":5000000000,"state":"spawning","ping":44}]},{"server_id":119,"name":"Uncletopia | Seattle | 2 | All Maps","name_short":"sea-2","host":"sea-1.us.uncletopia.com","port":27025,"enabled":true,"region":"us-west","cc":"us","latitude":47.608013,"longitude":-122.33517,"reserved":0,"last_update":"0001-01-01T00:00:00Z","name_a2s":"Uncletopia | Seattle | 2 | All Maps","protocol":17,"map":"pl_upward","folder":"tf","game":"Team Fortress","app_id":440,"player_count":0,"max_players":24,"Bots":0,"server_type":"Dedicated","server_os":"Linux","password":true,"vac":true,"version":"7757534","steam_id":85568392924469998,"keywords":["nocrits","nodmgspread","payload","uncletopia"],"game_id":440,"stv_port":27026,"stv_name":"Uncletopia | Seattle | 2 | All Maps | STV","players":null},{"server_id":406,"name":"Uncletopia | Seattle | 3 | Stopwatch Beta","name_short":"sea-3","host":"sea-1.us.uncletopia.com","port":27035,"enabled":true,"region":"us-west","cc":"us","latitude":47.608013,"longitude":-122.33517,"reserved":0,"last_update":"0001-01-01T00:00:00Z","name_a2s":"Uncletopia | Seattle | 3 | Stopwatch Beta","protocol":17,"map":"cp_dustbowl","folder":"tf","game":"Team Fortress","app_id":440,"player_count":0,"max_players":24,"Bots":0,"server_type":"Dedicated","server_os":"Linux","password":true,"vac":true,"version":"7757534","steam_id":85568392924515217,"keywords":["cp","nocrits","nodmgspread","uncletopia"],"game_id":440,"stv_port":27036,"stv_name":"Uncletopia | Seattle | 3 | Stopwatch Beta | STV","players":null},{"server_id":17,"name":"Uncletopia | San Francisco | 1 | All Maps","name_short":"sfo-1","host":"sfo-1.us.uncletopia.com","port":27015,"enabled":true,"region":"us-west","cc":"us","latitude":37.77397,"longitude":-122.4313,"reserved":0,"last_update":"0001-01-01T00:00:00Z","name_a2s":"Uncletopia | San Francisco | 1 | All Maps","protocol":17,"map":"cp_process_final","folder":"tf","game":"Team Fortress","app_id":440,"player_count":0,"max_players":24,"Bots":0,"server_type":"Dedicated","server_os":"Linux","password":true,"vac":true,"version":"7757534","steam_id":85568392924469999,"keywords":["cp","nocrits","nodmgspread","uncletopia"],"game_id":440,"stv_port":27016,"stv_name":"Uncletopia | San Francisco | 1 | All Maps | STV","players":null},{"server_id":18,"name":"Uncletopia | San Francisco | 2 | All Maps","name_short":"sfo-2","host":"sfo-1.us.uncletopia.com","port":27025,"enabled":true,"region":"us-west","cc":"us","latitude":37.77397,"longitude":-122.4313,"reserved":0,"last_update":"0001-01-01T00:00:00Z","name_a2s":"Uncletopia | San Francisco | 2 | All Maps","protocol":17,"map":"koth_highpass","folder":"tf","game":"Team Fortress","app_id":440,"player_count":0,"max_players":24,"Bots":0,"server_type":"Dedicated","server_os":"Linux","password":true,"vac":true,"version":"7757534","steam_id":85568392924470000,"keywords":["cp","nocrits","nodmgspread","uncletopia"],"game_id":440,"stv_port":27026,"stv_name":"Uncletopia | San Francisco | 2 | All Maps | STV","players":null},{"server_id":19,"name":"Uncletopia | San Francisco | 3 | Stopwatch Beta","name_short":"sfo-3","host":"sfo-1.us.uncletopia.com","port":27035,"enabled":true,"region":"us-west","cc":"us","latitude":37.77397,"longitude":-122.4313,"reserved":0,"last_update":"0001-01-01T00:00:00Z","name_a2s":"Uncletopia | San Francisco | 3 | Stopwatch Beta","protocol":17,"map":"koth_lakeside_final","folder":"tf","game":"Team Fortress","app_id":440,"player_count":0,"max_players":24,"Bots":0,"server_type":"Dedicated","server_os":"Linux","password":true,"vac":true,"version":"7757534","steam_id":85568392924742824,"keywords":["cp","nocrits","nodmgspread","uncletopia"],"game_id":440,"stv_port":27036,"stv_name":"Uncletopia | San Francisco | 3 | Stopwatch Beta | STV","players":null},{"server_id":20,"name":"Uncletopia | San Francisco | 4 | Community","name_short":"sfo-4","host":"sfo-1.us.uncletopia.com","port":27045,"enabled":true,"region":"us-west","cc":"us","latitude":37.77397,"longitude":-122.4313,"reserved":0,"last_update":"0001-01-01T00:00:00Z","name_a2s":"Uncletopia | San Francisco | 4 | Community","protocol":17,"map":"cp_altitude","folder":"tf","game":"Team Fortress","app_id":440,"player_count":0,"max_players":24,"Bots":0,"server_type":"Dedicated","server_os":"Linux","password":true,"vac":true,"version":"7757534","steam_id":85568392924742826,"keywords":["cp","nocrits","nodmgspread","uncletopia"],"game_id":440,"stv_port":27046,"stv_name":"Uncletopia | San Francisco | 4 | Community | STV","players":null},{"server_id":141,"name":"Uncletopia | Sydney | 1 | All Maps","name_short":"syd-1","host":"syd-1.au.uncletopia.com","port":27015,"enabled":true,"region":"au","cc":"au","latitude":-33.865143,"longitude":151.2099,"reserved":0,"last_update":"0001-01-01T00:00:00Z","name_a2s":"Uncletopia | Sydney | 1 | All Maps","protocol":17,"map":"koth_viaduct","folder":"tf","game":"Team Fortress","app_id":440,"player_count":2,"max_players":24,"Bots":0,"server_type":"Dedicated","server_os":"Linux","password":true,"vac":true,"version":"7757534","steam_id":85568392924470001,"keywords":["cp","nocrits","nodmgspread","uncletopia"],"game_id":440,"stv_port":27016,"stv_name":"Uncletopia | Sydney | 1 | All Maps | STV","players":[{"user_id":3,"name":"don't bully me, I'll cum :(","steam_id":76561198306660831,"connected_time":829000000000,"state":"active","ping":66},{"user_id":4,"name":"TheCardboardKing (BLU)","steam_id":76561199099769110,"connected_time":637000000000,"state":"active","ping":59}]},{"server_id":123,"name":"Uncletopia | Sydney | 2 | All Maps","name_short":"syd-2","host":"syd-1.au.uncletopia.com","port":27025,"enabled":true,"region":"au","cc":"au","latitude":-33.865143,"longitude":151.2099,"reserved":0,"last_update":"0001-01-01T00:00:00Z","name_a2s":"Uncletopia | Sydney | 2 | All Maps","protocol":17,"map":"cp_process_final","folder":"tf","game":"Team Fortress","app_id":440,"player_count":0,"max_players":24,"Bots":0,"server_type":"Dedicated","server_os":"Linux","password":true,"vac":true,"version":"7757534","steam_id":85568392924470002,"keywords":["cp","nocrits","nodmgspread","uncletopia"],"game_id":440,"stv_port":27026,"stv_name":"Uncletopia | Sydney | 2 | All Maps | STV","players":null},{"server_id":395,"name":"Uncletopia | Sydney | 3 | All Maps","name_short":"syd-3","host":"syd-1.au.uncletopia.com","port":27035,"enabled":true,"region":"au","cc":"au","latitude":-33.865143,"longitude":151.2099,"reserved":0,"last_update":"0001-01-01T00:00:00Z","name_a2s":"Uncletopia | Sydney | 3 | All Maps","protocol":17,"map":"pl_swiftwater_final1","folder":"tf","game":"Team Fortress","app_id":440,"player_count":0,"max_players":24,"Bots":0,"server_type":"Dedicated","server_os":"Linux","password":true,"vac":true,"version":"7757534","steam_id":85568392925194467,"keywords":["nocrits","nodmgspread","payload","uncletopia"],"game_id":440,"stv_port":27036,"stv_name":"Uncletopia | Sydney | 3 | All Maps | STV","players":null},{"server_id":396,"name":"Uncletopia | Sydney | 4 | All Maps","name_short":"syd-4","host":"syd-1.au.uncletopia.com","port":27045,"enabled":true,"region":"au","cc":"au","latitude":-33.865143,"longitude":151.2099,"reserved":0,"last_update":"0001-01-01T00:00:00Z","name_a2s":"Uncletopia | Sydney | 4 | All Maps","protocol":17,"map":"koth_highpass","folder":"tf","game":"Team Fortress","app_id":440,"player_count":0,"max_players":24,"Bots":0,"server_type":"Dedicated","server_os":"Linux","password":true,"vac":true,"version":"7757534","steam_id":85568392925397958,"keywords":["cp","nocrits","nodmgspread","uncletopia"],"game_id":440,"stv_port":27046,"stv_name":"Uncletopia | Sydney | 4 | All Maps | STV","players":null},{"server_id":58,"name":"Uncletopia | Sydney | 5 | Stopwatch Beta","name_short":"syd-5","host":"syd-1.au.uncletopia.com","port":27055,"enabled":true,"region":"au","cc":"au","latitude":-33.865143,"longitude":151.2099,"reserved":0,"last_update":"0001-01-01T00:00:00Z","name_a2s":"Uncletopia | Sydney | 5 | Stopwatch Beta","protocol":17,"map":"koth_cascade","folder":"tf","game":"Team Fortress","app_id":440,"player_count":0,"max_players":24,"Bots":0,"server_type":"Dedicated","server_os":"Linux","password":true,"vac":true,"version":"7757534","steam_id":85568392925397959,"keywords":["cp","nocrits","nodmgspread","uncletopia"],"game_id":440,"stv_port":27056,"stv_name":"Uncletopia | Sydney | 5 | Stopwatch Beta | STV","players":null},{"server_id":59,"name":"Uncletopia | Sydney | 6 | Community","name_short":"syd-6","host":"syd-1.au.uncletopia.com","port":27065,"enabled":true,"region":"au","cc":"au","latitude":-33.865143,"longitude":151.2099,"reserved":0,"last_update":"0001-01-01T00:00:00Z","name_a2s":"Uncletopia | Sydney | 6 | Community","protocol":17,"map":"cp_snakewater_final1","folder":"tf","game":"Team Fortress","app_id":440,"player_count":0,"max_players":24,"Bots":0,"server_type":"Dedicated","server_os":"Linux","password":true,"vac":true,"version":"7757534","steam_id":85568392925397960,"keywords":["cp","nocrits","nodmgspread","uncletopia"],"game_id":440,"stv_port":27066,"stv_name":"Uncletopia | Sydney | 6 | Community | STV","players":null},{"server_id":49,"name":"Uncletopia | Warsaw | 1 | All Maps","name_short":"waw-1","host":"waw-1.pl.uncletopia.com","port":27015,"enabled":true,"region":"eu","cc":"pl","latitude":52.2297,"longitude":21.017532,"reserved":0,"last_update":"0001-01-01T00:00:00Z","name_a2s":"","protocol":0,"map":"","folder":"","game":"","app_id":0,"player_count":0,"max_players":0,"Bots":0,"server_type":"","server_os":"","password":false,"vac":false,"version":"","steam_id":0,"keywords":null,"game_id":0,"stv_port":0,"stv_name":"","players":null},{"server_id":50,"name":"Uncletopia | Warsaw | 2 | All Maps","name_short":"waw-2","host":"waw-1.pl.uncletopia.com","port":27025,"enabled":true,"region":"eu","cc":"pl","latitude":52.2297,"longitude":21.017532,"reserved":0,"last_update":"0001-01-01T00:00:00Z","name_a2s":"Uncletopia | Warsaw | 2 | All Maps","protocol":17,"map":"koth_viaduct","folder":"tf","game":"Team Fortress","app_id":440,"player_count":0,"max_players":24,"Bots":0,"server_type":"Dedicated","server_os":"Linux","password":true,"vac":true,"version":"7757534","steam_id":85568392925397851,"keywords":["cp","nocrits","nodmgspread","uncletopia"],"game_id":440,"stv_port":27026,"stv_name":"Uncletopia | Warsaw | 2 | All Maps | STV","players":null},{"server_id":51,"name":"Uncletopia | Warsaw | 3 | All Maps","name_short":"waw-3","host":"waw-1.pl.uncletopia.com","port":27035,"enabled":true,"region":"eu","cc":"pl","latitude":52.2297,"longitude":21.017532,"reserved":0,"last_update":"0001-01-01T00:00:00Z","name_a2s":"Uncletopia | Warsaw | 3 | All Maps","protocol":17,"map":"pl_badwater","folder":"tf","game":"Team Fortress","app_id":440,"player_count":0,"max_players":24,"Bots":0,"server_type":"Dedicated","server_os":"Linux","password":true,"vac":true,"version":"7757534","steam_id":85568392925397852,"keywords":["nocrits","nodmgspread","payload","uncletopia"],"game_id":440,"stv_port":27036,"stv_name":"Uncletopia | Warsaw | 3 | All Maps | STV","players":null},{"server_id":52,"name":"Uncletopia | Warsaw | 4 | All Maps","name_short":"waw-4","host":"waw-1.pl.uncletopia.com","port":27045,"enabled":true,"region":"eu","cc":"pl","latitude":52.2297,"longitude":21.017532,"reserved":0,"last_update":"0001-01-01T00:00:00Z","name_a2s":"Uncletopia | Warsaw | 4 | All Maps","protocol":17,"map":"koth_lakeside_final","folder":"tf","game":"Team Fortress","app_id":440,"player_count":0,"max_players":24,"Bots":0,"server_type":"Dedicated","server_os":"Linux","password":true,"vac":true,"version":"7757534","steam_id":85568392925397853,"keywords":["cp","nocrits","nodmgspread","uncletopia"],"game_id":440,"stv_port":27046,"stv_name":"Uncletopia | Warsaw | 4 | All Maps | STV","players":null},{"server_id":53,"name":"Uncletopia | Warsaw | 5 | Stopwatch Beta","name_short":"waw-5","host":"waw-1.pl.uncletopia.com","port":27055,"enabled":true,"region":"eu","cc":"pl","latitude":52.2297,"longitude":21.017532,"reserved":0,"last_update":"0001-01-01T00:00:00Z","name_a2s":"Uncletopia | Warsaw | 5 | Stopwatch Beta","protocol":17,"map":"pl_borneo","folder":"tf","game":"Team Fortress","app_id":440,"player_count":0,"max_players":24,"Bots":0,"server_type":"Dedicated","server_os":"Linux","password":true,"vac":true,"version":"7757534","steam_id":85568392925397854,"keywords":["nocrits","nodmgspread","payload","uncletopia"],"game_id":440,"stv_port":27056,"stv_name":"Uncletopia | Warsaw | 5 | Stopwatch Beta | STV","players":null},{"server_id":54,"name":"Uncletopia | Warsaw | 6 | Community","name_short":"waw-6","host":"waw-1.pl.uncletopia.com","port":27065,"enabled":true,"region":"eu","cc":"pl","latitude":52.2297,"longitude":21.017532,"reserved":0,"last_update":"0001-01-01T00:00:00Z","name_a2s":"Uncletopia | Warsaw | 6 | Community","protocol":17,"map":"koth_lakeside_final","folder":"tf","game":"Team Fortress","app_id":440,"player_count":0,"max_players":24,"Bots":0,"server_type":"Dedicated","server_os":"Linux","password":true,"vac":true,"version":"7757534","steam_id":85568392925397856,"keywords":["cp","nocrits","nodmgspread","uncletopia"],"game_id":440,"stv_port":27066,"stv_name":"Uncletopia | Warsaw | 6 | Community | STV","players":null}]}