{"status":true,"message":"","result":[{"server_id":9,"name":"Uncletopia | Atlanta | 1 | All Maps","name_short":"atl-1","host":"atl-1.us.uncletopia.com","port":27015,"enabled":true,"region":"us-east","cc":"us","latitude":33.753746,"longitude":-84.38633,"reserved":0,"last_update":"0001-01-01T00:00:00Z","name_a2s":"Uncletopia | Atlanta | 1 | All Maps","protocol":17,"map":"pl_upward","folder":"tf","game":"Team Fortress","app_id":440,"player_count":24,"max_players":24,"Bots":0,"server_type":"Dedicated","server_os":"Linux","password":true,"vac":true,"version":"7961495","steam_id":85568392924469982,"keywords":["nocrits","nodmgspread","payload","uncletopia"],"game_id":440,"stv_port":27016,"stv_name":"Uncletopia | Atlanta | 1 | All Maps | STV","players":[{"user_id":511,"name":"Vee (very cool)","steam_id":76561198330432889,"connected_time":87000000000,"state":"active","ping":62},{"user_id":434,"name":"Jin","steam_id":76561198119873148,"connected_time":6329000000000,"state":"active","ping":65},{"user_id":474,"name":"Heathcliff","steam_id":76561198044288534,"connected_time":2569000000000,"state":"active","ping":68},{"user_id":371,"name":"Whisk #GOOD GAMER","steam_id":76561198272318229,"connected_time":10170000000000,"state":"active","ping":80},{"user_id":510,"name":"Maestro","steam_id":76561198157325020,"connected_time":726000000000,"state":"active","ping":66},{"user_id":421,"name":"cupcup","steam_id":76561198116227192,"connected_time":7433000000000,"state":"active","ping":102},{"user_id":495,"name":"Decolour","steam_id":76561199045608372,"connected_time":815000000000,"state":"active","ping":64},{"user_id":464,"name":"Albino Jellyfish","steam_id":76561198208561097,"connected_time":3604000000000,"state":"active","ping":54},{"user_id":500,"name":"lil hog","steam_id":76561199230929836,"connected_time":793000000000,"state":"active","ping":83},{"user_id":486,"name":"ATL1 | to4st","steam_id":76561198981009008,"connected_time":1314000000000,"state":"active","ping":73},{"user_id":506,"name":"Lylith!!!","steam_id":76561198386687546,"connected_time":767000000000,"state":"active","ping":56},{"user_id":503,"name":"Sucsubot","steam_id":76561198106456128,"connected_time":783000000000,"state":"active","ping":60},{"user_id":422,"name":"stink","steam_id":76561198099318923,"connected_time":7424000000000,"state":"active","ping":79},{"user_id":501,"name":"Flint","steam_id":76561198066547582,"connected_time":791000000000,"state":"active","ping":99},{"user_id":457,"name":"I HATE red team","steam_id":76561198064127012,"connected_time":5047000000000,"state":"active","ping":48},{"user_id":429,"name":"Le4n!!!","steam_id":76561198045522596,"connected_time":7134000000000,"state":"active","ping":72},{"user_id":465,"name":"Captain Malarkey","steam_id":76561198869924281,"connected_time":3540000000000,"state":"active","ping":61},{"user_id":508,"name":"eat salad","steam_id":76561198960183175,"connected_time":749000000000,"state":"active","ping":95},{"user_id":488,"name":"Laura Palmer Gaming","steam_id":76561198282965733,"connected_time":1071000000000,"state":"active","ping":67},{"user_id":455,"name":"gnome chompski (real)","steam_id":76561198150327877,"connected_time":5481000000000,"state":"active","ping":45},{"user_id":413,"name":"fortnite.jimmy.2014","steam_id":76561199177672325,"connected_time":8813000000000,"state":"active","ping":45},{"user_id":473,"name":"Ata","steam_id":76561198349085545,"connected_time":2903000000000,"state":"active","ping":87},{"user_id":491,"name":"Lily (she/her)","steam_id":76561198355495948,"connected_time":824000000000,"state":"active","ping":60},{"user_id":498,"name":"chexo4","steam_id":76561198150532531,"connected_time":814000000000,"state":"active","ping":54}]},{"server_id":104,"name":"Uncletopia | Atlanta | 2 | All Maps","name_short":"atl-2","host":"atl-1.us.uncletopia.com","port":27025,"enabled":true,"region":"us-east","cc":"us","latitude":33.753746,"longitude":-84.38633,"reserved":0,"last_update":"0001-01-01T00:00:00Z","name_a2s":"Uncletopia | Atlanta | 2 | All Maps","protocol":17,"map":"koth_viaduct","folder":"tf","game":"Team Fortress","app_id":440,"player_count":24,"max_players":24,"Bots":0,"server_type":"Dedicated","server_os":"Linux","password":true,"vac":true,"version":"7961495","steam_id":85568392924469983,"keywords":["cp","nocrits","nodmgspread","uncletopia"],"game_id":440,"stv_port":27026,"stv_name":"Uncletopia | Atlanta | 2 | All Maps | STV","players":[{"user_id":458,"name":"ACKNOWLEDGE ME ☝","steam_id":76561198288743767,"connected_time":1283000000000,"state":"active","ping":106},{"user_id":475,"name":"Krustyjared2","steam_id":76561199233015498,"connected_time":782000000000,"state":"active","ping":76},{"user_id":473,"name":"Reiner","steam_id":76561199201762178,"connected_time":917000000000,"state":"active","ping":85},{"user_id":451,"name":"Heavy Main","steam_id":76561198333746778,"connected_time":1667000000000,"state":"active","ping":90},{"user_id":459,"name":"Isbog_official","steam_id":76561198261081658,"connected_time":1238000000000,"state":"active","ping":91},{"user_id":463,"name":"Destroyerofallp","steam_id":76561198055765954,"connected_time":1169000000000,"state":"active","ping":80},{"user_id":476,"name":"doing the sponge","steam_id":76561198058209703,"connected_time":765000000000,"state":"active","ping":61},{"user_id":421,"name":"Branspes\\n","steam_id":76561198298364415,"connected_time":3383000000000,"state":"active","ping":106},{"user_id":470,"name":"MacawAbalone","steam_id":76561198015127948,"connected_time":1044000000000,"state":"active","ping":63},{"user_id":455,"name":"Itsagreyarea","steam_id":76561199496467388,"connected_time":1518000000000,"state":"active","ping":78},{"user_id":438,"name":"RokkitFrog","steam_id":76561198046465850,"connected_time":2255000000000,"state":"active","ping":73},{"user_id":471,"name":"PooperScooper9000","steam_id":76561199507852977,"connected_time":1015000000000,"state":"active","ping":57},{"user_id":486,"name":"melvyn","steam_id":76561198113226381,"connected_time":29000000000,"state":"active","ping":60},{"user_id":453,"name":"Goobs","steam_id":76561198059451278,"connected_time":1661000000000,"state":"active","ping":100},{"user_id":481,"name":"gorf?","steam_id":76561198142286417,"connected_time":601000000000,"state":"active","ping":76},{"user_id":446,"name":"Scooty.","steam_id":76561198138990283,"connected_time":2040000000000,"state":"active","ping":70},{"user_id":485,"name":"strawberry donut","steam_id":76561198354284591,"connected_time":137000000000,"state":"active","ping":67},{"user_id":429,"name":"Xx_Savage_Twerks_xX","steam_id":76561198011665915,"connected_time":2424000000000,"state":"active","ping":71},{"user_id":483,"name":"Beebo, Son of Beebo","steam_id":76561198055948497,"connected_time":513000000000,"state":"active","ping":73},{"user_id":397,"name":"Ghost","steam_id":76561198110914180,"connected_time":4920000000000,"state":"active","ping":175},{"user_id":467,"name":"mayoratheone","steam_id":76561199013353434,"connected_time":1076000000000,"state":"active","ping":109},{"user_id":456,"name":"Mr. Squirt","steam_id":76561198174755679,"connected_time":1498000000000,"state":"active","ping":58},{"user_id":472,"name":"Varveer","steam_id":76561198218897383,"connected_time":961000000000,"state":"active","ping":90},{"user_id":480,"name":"heiny :3","steam_id":76561197992551013,"connected_time":668000000000,"state":"active","ping":74}]},{"server_id":400,"name":"Uncletopia | Atlanta | 3 | Stopwatch","name_short":"atl-3","host":"atl-1.us.uncletopia.com","port":27035,"enabled":true,"region":"us-east","cc":"us","latitude":33.753746,"longitude":-84.38633,"reserved":0,"last_update":"0001-01-01T00:00:00Z","name_a2s":"Uncletopia | Atlanta | 3 | Stopwatch","protocol":17,"map":"workshop/koth_ashville_final.ugc2130459942","folder":"tf","game":"Team Fortress","app_id":440,"player_count":18,"max_players":24,"Bots":0,"server_type":"Dedicated","server_os":"Linux","password":true,"vac":true,"version":"7961495","steam_id":85568392924515187,"keywords":["cp","nocrits","nodmgspread","uncletopia"],"game_id":440,"stv_port":27036,"stv_name":"Uncletopia | Atlanta | 3 | Stopwatch | STV","players":[{"user_id":115,"name":"illa D","steam_id":76561198041468375,"connected_time":203000000000,"state":"active","ping":74},{"user_id":98,"name":"barbecuesteve","steam_id":76561198048819671,"connected_time":2009000000000,"state":"active","ping":40},{"user_id":103,"name":"Wiggee","steam_id":76561197972792989,"connected_time":1396000000000,"state":"active","ping":63},{"user_id":100,"name":"Bubby","steam_id":76561199163019490,"connected_time":1892000000000,"state":"active","ping":74},{"user_id":111,"name":"general.b","steam_id":76561198162480519,"connected_time":341000000000,"state":"active","ping":73},{"user_id":107,"name":"Aligote","steam_id":76561199188849493,"connected_time":530000000000,"state":"active","ping":75},{"user_id":102,"name":"Kay ☭","steam_id":76561198353432576,"connected_time":1599000000000,"state":"active","ping":45},{"user_id":67,"name":"Erebus","steam_id":76561199061956673,"connected_time":6706000000000,"state":"active","ping":87},{"user_id":106,"name":"Dr. Nobotnik","steam_id":76561198357339092,"connected_time":1033000000000,"state":"active","ping":70},{"user_id":108,"name":"WAAAAAAHRIO!!!","steam_id":76561198355576763,"connected_time":500000000000,"state":"active","ping":62},{"user_id":118,"name":"Cannon Fodder 668","steam_id":76561199242093570,"connected_time":160000000000,"state":"active","ping":73},{"user_id":110,"name":"MonkeeBoy","steam_id":76561199004097235,"connected_time":365000000000,"state":"active","ping":97},{"user_id":112,"name":"cranfordtheodore45","steam_id":76561199161577403,"connected_time":337000000000,"state":"active","ping":103},{"user_id":114,"name":"short bus enthusiast","steam_id":76561198069380992,"connected_time":273000000000,"state":"active","ping":64},{"user_id":116,"name":"Nyle","steam_id":76561198045652639,"connected_time":181000000000,"state":"active","ping":105},{"user_id":117,"name":"the milk man","steam_id":76561199247476314,"connected_time":179000000000,"state":"active","ping":72},{"user_id":120,"name":"Reconstitute","steam_id":76561199234523577,"connected_time":70000000000,"state":"spawning","ping":334},{"user_id":121,"name":"hboflexin","steam_id":76561198323411839,"connected_time":12000000000,"state":"spawning","ping":213}]},{"server_id":401,"name":"Uncletopia | Atlanta | 4 | Community","name_short":"atl-4","host":"atl-1.us.uncletopia.com","port":27045,"enabled":true,"region":"us-east","cc":"us","latitude":33.753746,"longitude":-84.38633,"reserved":0,"last_update":"0001-01-01T00:00:00Z","name_a2s":"Uncletopia | Atlanta | 4 | Community","protocol":17,"map":"workshop/pl_boundary_final1.ugc456799153","folder":"tf","game":"Team Fortress","app_id":440,"player_count":0,"max_players":24,"Bots":0,"server_type":"Dedicated","server_os":"Linux","password":true,"vac":true,"version":"7961495","steam_id":85568392924515188,"keywords":["nocrits","nodmgspread","payload","uncletopia"],"game_id":440,"stv_port":27046,"stv_name":"Uncletopia | Atlanta | 4 | Community | STV","players":null},{"server_id":2,"name":"Uncletopia | Chicago | 1 | All Maps","name_short":"chi-1","host":"chi-1.us.uncletopia.com","port":27015,"enabled":true,"region":"us-central","cc":"us","latitude":41.881832,"longitude":-87.62318,"reserved":0,"last_update":"0001-01-01T00:00:00Z","name_a2s":"Uncletopia | Chicago | 1 | All Maps","protocol":17,"map":"pl_frontier_final","folder":"tf","game":"Team Fortress","app_id":440,"player_count":24,"max_players":24,"Bots":0,"server_type":"Dedicated","server_os":"Linux","password":true,"vac":true,"version":"7961495","steam_id":85568392924469984,"keywords":["nocrits","nodmgspread","payload","uncletopia"],"game_id":440,"stv_port":27016,"stv_name":"Uncletopia | Chicago | 1 | All Maps | STV","players":[{"user_id":624,"name":"e doctor","steam_id":76561198081851446,"connected_time":1392000000000,"state":"active","ping":51},{"user_id":616,"name":"gregor","steam_id":76561198057076267,"connected_time":2043000000000,"state":"active","ping":93},{"user_id":492,"name":"troll","steam_id":76561198082680563,"connected_time":12725000000000,"state":"active","ping":57},{"user_id":573,"name":"spire","steam_id":76561198367664346,"connected_time":6107000000000,"state":"active","ping":56},{"user_id":613,"name":"Snom","steam_id":76561198333827920,"connected_time":2188000000000,"state":"active","ping":81},{"user_id":628,"name":"Mr. Fingers In His Ass Johnson","steam_id":76561199211305343,"connected_time":706000000000,"state":"active","ping":90},{"user_id":495,"name":"elpful","steam_id":76561198189659530,"connected_time":12445000000000,"state":"active","ping":77},{"user_id":611,"name":"Juan Pablo Gonzalez 2023","steam_id":76561199197961413,"connected_time":2858000000000,"state":"active","ping":60},{"user_id":618,"name":"Garfield","steam_id":76561198147300599,"connected_time":1939000000000,"state":"active","ping":54},{"user_id":622,"name":"I'm bad I know (controller)","steam_id":76561198058840477,"connected_time":1492000000000,"state":"active","ping":85},{"user_id":619,"name":"Farmer2145","steam_id":76561198217084115,"connected_time":1598000000000,"state":"active","ping":62},{"user_id":623,"name":"slep.py","steam_id":76561197988287144,"connected_time":1488000000000,"state":"active","ping":61},{"user_id":629,"name":"Drapph","steam_id":76561199384213314,"connected_time":696000000000,"state":"active","ping":56},{"user_id":627,"name":"Yarn","steam_id":76561199227148369,"connected_time":847000000000,"state":"active","ping":80},{"user_id":583,"name":"FinnaBust","steam_id":76561198397669078,"connected_time":4386000000000,"state":"active","ping":67},{"user_id":631,"name":"Ademar","steam_id":76561199391802581,"connected_time":255000000000,"state":"active","ping":54},{"user_id":617,"name":"playguy carter","steam_id":76561198080679337,"connected_time":1989000000000,"state":"active","ping":69},{"user_id":512,"name":"Tito","steam_id":76561198041702529,"connected_time":11395000000000,"state":"active","ping":74},{"user_id":625,"name":"Granny from Hoodwinked","steam_id":76561198116389072,"connected_time":1333000000000,"state":"active","ping":106},{"user_id":603,"name":"beara#5753","steam_id":76561198136973777,"connected_time":3207000000000,"state":"active","ping":48},{"user_id":633,"name":"Vin","steam_id":76561198043601929,"connected_time":176000000000,"state":"active","ping":123},{"user_id":549,"name":"tack","steam_id":76561198408477421,"connected_time":7846000000000,"state":"active","ping":77},{"user_id":607,"name":"Toottoot","steam_id":76561197992404836,"connected_time":3043000000000,"state":"active","ping":45},{"user_id":570,"name":"Kero","steam_id":76561198343231436,"connected_time":6397000000000,"state":"active","ping":64}]},{"server_id":106,"name":"Uncletopia | Chicago | 2 | All Maps","name_short":"chi-2","host":"chi-1.us.uncletopia.com","port":27025,"enabled":true,"region":"us-central","cc":"us","latitude":41.881832,"longitude":-87.62318,"reserved":0,"last_update":"0001-01-01T00:00:00Z","name_a2s":"Uncletopia | Chicago | 2 | All Maps","protocol":17,"map":"cp_sunshine","folder":"tf","game":"Team Fortress","app_id":440,"player_count":24,"max_players":24,"Bots":0,"server_type":"Dedicated","server_os":"Linux","password":true,"vac":true,"version":"7961495","steam_id":85568392924469985,"keywords":["cp","nocrits","nodmgspread","uncletopia"],"game_id":440,"stv_port":27026,"stv_name":"Uncletopia | Chicago | 2 | All Maps | STV","players":[{"user_id":663,"name":"Eiss","steam_id":76561198343183806,"connected_time":815000000000,"state":"active","ping":66},{"user_id":669,"name":"Dutchy","steam_id":76561198040969743,"connected_time":100000000000,"state":"spawning","ping":74},{"user_id":666,"name":"Stew Eater","steam_id":76561198978307159,"connected_time":434000000000,"state":"active","ping":57},{"user_id":646,"name":"moe","steam_id":76561198929586245,"connected_time":1313000000000,"state":"active","ping":99},{"user_id":665,"name":"?pengin","steam_id":76561198254236408,"connected_time":674000000000,"state":"active","ping":59},{"user_id":641,"name":"Grundle Thunder","steam_id":76561197960790338,"connected_time":1736000000000,"state":"active","ping":74},{"user_id":670,"name":"jazzy","steam_id":76561198003920085,"connected_time":1000000000,"state":"spawning","ping":85},{"user_id":627,"name":"Nestor","steam_id":76561198070782619,"connected_time":2969000000000,"state":"active","ping":52},{"user_id":647,"name":"Hazeyboi","steam_id":76561198130687838,"connected_time":1294000000000,"state":"active","ping":93},{"user_id":668,"name":"Zoramine Fae","steam_id":76561198346753422,"connected_time":192000000000,"state":"active","ping":44},{"user_id":656,"name":"RedZone","steam_id":76561197973665180,"connected_time":1149000000000,"state":"active","ping":60},{"user_id":419,"name":"runescape legend","steam_id":76561198077791373,"connected_time":9944000000000,"state":"active","ping":51},{"user_id":648,"name":"YummerBummer","steam_id":76561198094773987,"connected_time":1235000000000,"state":"active","ping":74},{"user_id":603,"name":"sock","steam_id":76561199117597830,"connected_time":3646000000000,"state":"active","ping":64},{"user_id":667,"name":"loscemo","steam_id":76561197994884609,"connected_time":221000000000,"state":"active","ping":58},{"user_id":640,"name":"TheHumanTaco119","steam_id":76561198996107520,"connected_time":1790000000000,"state":"active","ping":104},{"user_id":662,"name":"GoodleShoes/ttv","steam_id":76561198030993521,"connected_time":836000000000,"state":"active","ping":65},{"user_id":628,"name":"Fredrick","steam_id":76561197981419964,"connected_time":2887000000000,"state":"active","ping":59},{"user_id":583,"name":"I Know Right!","steam_id":76561198203817936,"connected_time":3962000000000,"state":"active","ping":42},{"user_id":631,"name":"hoos","steam_id":76561198045985910,"connected_time":2377000000000,"state":"active","ping":66},{"user_id":566,"name":"Stiffy Magnum","steam_id":76561198000036722,"connected_time":4279000000000,"state":"active","ping":95},{"user_id":658,"name":"BB Lorexav","steam_id":76561198207565988,"connected_time":1063000000000,"state":"active","ping":82},{"user_id":661,"name":"Dokkibai","steam_id":76561198355935693,"connected_time":862000000000,"state":"active","ping":46},{"user_id":664,"name":"HollyBlocky","steam_id":76561198030156100,"connected_time":717000000000,"state":"active","ping":75}]},{"server_id":402,"name":"Uncletopia | Chicago | 3 | All Maps","name_short":"chi-3","host":"chi-1.us.uncletopia.com","port":27035,"enabled":true,"region":"us-central","cc":"us","latitude":41.881832,"longitude":-87.62318,"reserved":0,"last_update":"0001-01-01T00:00:00Z","name_a2s":"Uncletopia | Chicago | 3 | All Maps","protocol":17,"map":"cp_sunshine","folder":"tf","game":"Team Fortress","app_id":440,"player_count":24,"max_players":24,"Bots":0,"server_type":"Dedicated","server_os":"Linux","password":true,"vac":true,"version":"7961495","steam_id":85568392924515191,"keywords":["cp","nocrits","nodmgspread","uncletopia"],"game_id":440,"stv_port":27036,"stv_name":"Uncletopia | Chicago | 3 | All Maps | STV","players":[{"user_id":263,"name":"R. Achael","steam_id":76561198133715771,"connected_time":2041000000000,"state":"active","ping":60},{"user_id":256,"name":"ol' musty","steam_id":76561198081075865,"connected_time":2533000000000,"state":"active","ping":60},{"user_id":281,"name":"Duncan","steam_id":76561198042148095,"connected_time":1008000000000,"state":"active","ping":44},{"user_id":288,"name":"Post nut clarity","steam_id":76561198060246831,"connected_time":738000000000,"state":"active","ping":90},{"user_id":277,"name":"metaroxSE","steam_id":76561199213215463,"connected_time":1141000000000,"state":"active","ping":131},{"user_id":266,"name":"PigPig","steam_id":76561198068190834,"connected_time":1721000000000,"state":"active","ping":104},{"user_id":268,"name":"DomesticAvocado","steam_id":76561199036492206,"connected_time":1596000000000,"state":"active","ping":51},{"user_id":278,"name":"Nick Nak the Tic Tac","steam_id":76561198061758497,"connected_time":1139000000000,"state":"active","ping":58},{"user_id":298,"name":"duBstep","steam_id":76561198353928965,"connected_time":86000000000,"state":"active","ping":60},{"user_id":229,"name":"CommodoreEvac","steam_id":76561198035694806,"connected_time":3803000000000,"state":"active","ping":75},{"user_id":212,"name":"Cyclops_672","steam_id":76561198080169497,"connected_time":4827000000000,"state":"active","ping":55},{"user_id":283,"name":"0","steam_id":76561198046065237,"connected_time":899000000000,"state":"active","ping":83},{"user_id":289,"name":"The Foreskin Knight","steam_id":76561197995525419,"connected_time":729000000000,"state":"active","ping":34},{"user_id":297,"name":"Knows.avi","steam_id":76561198188535337,"connected_time":221000000000,"state":"active","ping":49},{"user_id":285,"name":"Menachem","steam_id":76561198041226420,"connected_time":821000000000,"state":"active","ping":50},{"user_id":235,"name":"Fr3eD0m","steam_id":76561198014592811,"connected_time":3738000000000,"state":"active","ping":60},{"user_id":254,"name":"GlingGlop95","steam_id":76561198386865528,"connected_time":2627000000000,"state":"active","ping":84},{"user_id":236,"name":"get scrongled, idiot","steam_id":76561198115874625,"connected_time":3738000000000,"state":"active","ping":75},{"user_id":258,"name":"what the freak","steam_id":76561198080754727,"connected_time":2329000000000,"state":"active","ping":89},{"user_id":275,"name":"Mosh Ruum (Whydoitmc)","steam_id":76561198076328582,"connected_time":1417000000000,"state":"active","ping":60},{"user_id":257,"name":"Hovg9000","steam_id":76561199191556710,"connected_time":2527000000000,"state":"active","ping":77},{"user_id":286,"name":"McDonald","steam_id":76561199028533497,"connected_time":810000000000,"state":"active","ping":89},{"user_id":291,"name":"mkl","steam_id":76561197986401685,"connected_time":644000000000,"state":"active","ping":83},{"user_id":295,"name":"The local homeowner","steam_id":76561199508830634,"connected_time":451000000000,"state":"active","ping":81}]},{"server_id":403,"name":"Uncletopia | Chicago | 4 | All Maps","name_short":"chi-4","host":"chi-1.us.uncletopia.com","port":27045,"enabled":true,"region":"us-central","cc":"us","latitude":41.881832,"longitude":-87.62318,"reserved":0,"last_update":"0001-01-01T00:00:00Z","name_a2s":"Uncletopia | Chicago | 4 | All Maps","protocol":17,"map":"cp_dustbowl","folder":"tf","game":"Team Fortress","app_id":440,"player_count":24,"max_players":24,"Bots":0,"server_type":"Dedicated","server_os":"Linux","password":true,"vac":true,"version":"7961495","steam_id":85568392924515193,"keywords":["cp","nocrits","nodmgspread","uncletopia"],"game_id":440,"stv_port":27046,"stv_name":"Uncletopia | Chicago | 4 | All Maps | STV","players":[{"user_id":481,"name":"Stinky Boy","steam_id":76561198079634268,"connected_time":961000000000,"state":"active","ping":65},{"user_id":421,"name":"daffodil","steam_id":76561198049480053,"connected_time":4893000000000,"state":"active","ping":62},{"user_id":402,"name":"oppenheimer style","steam_id":76561198026664629,"connected_time":6162000000000,"state":"active","ping":51},{"user_id":482,"name":"ikaYaki","steam_id":76561198008415318,"connected_time":959000000000,"state":"active","ping":61},{"user_id":487,"name":"ThornFlare","steam_id":76561198099676361,"connected_time":818000000000,"state":"active","ping":69},{"user_id":478,"name":"Two-Ton Heavy Thing","steam_id":76561198201724274,"connected_time":1237000000000,"state":"active","ping":70},{"user_id":484,"name":"LilDreamer","steam_id":76561198804054102,"connected_time":945000000000,"state":"active","ping":35},{"user_id":488,"name":"Amtyk","steam_id":76561197979130554,"connected_time":292000000000,"state":"active","ping":50},{"user_id":475,"name":"Dr.StrangeGlove","steam_id":76561198286114229,"connected_time":1286000000000,"state":"active","ping":62},{"user_id":433,"name":"my money washed like george","steam_id":76561198115458307,"connected_time":4069000000000,"state":"active","ping":104},{"user_id":476,"name":"tweliever","steam_id":76561199016438320,"connected_time":1282000000000,"state":"active","ping":50},{"user_id":450,"name":"joosssh","steam_id":76561198072130805,"connected_time":2672000000000,"state":"active","ping":141},{"user_id":471,"name":"Satchamo","steam_id":76561198012968239,"connected_time":1466000000000,"state":"active","ping":76},{"user_id":292,"name":"Elias","steam_id":76561198106431732,"connected_time":12025000000000,"state":"active","ping":53},{"user_id":392,"name":"Zodyxajon","steam_id":76561198165561581,"connected_time":6496000000000,"state":"active","ping":75},{"user_id":432,"name":"Anthid","steam_id":76561198074493797,"connected_time":4137000000000,"state":"active","ping":60},{"user_id":454,"name":"Mr.Bady","steam_id":76561199094651706,"connected_time":2647000000000,"state":"active","ping":56},{"user_id":489,"name":"Gibs Degrossi","steam_id":76561198066152609,"connected_time":243000000000,"state":"active","ping":46},{"user_id":398,"name":"Lia_Rein","steam_id":76561198151569597,"connected_time":6342000000000,"state":"active","ping":157},{"user_id":453,"name":"OldRavensFan","steam_id":76561198043919562,"connected_time":2656000000000,"state":"active","ping":59},{"user_id":465,"name":"CHAI","steam_id":76561198119556082,"connected_time":1976000000000,"state":"active","ping":57},{"user_id":486,"name":"Bmann","steam_id":76561198116400753,"connected_time":925000000000,"state":"active","ping":90},{"user_id":321,"name":"HumFreY","steam_id":76561198076639682,"connected_time":10228000000000,"state":"active","ping":75},{"user_id":437,"name":"Oopsie Daisy ❋","steam_id":76561198042144492,"connected_time":3834000000000,"state":"active","ping":67}]},{"server_id":36,"name":"Uncletopia | Chicago | 5 | All Maps","name_short":"chi-5","host":"chi-2.us.uncletopia.com","port":27015,"enabled":true,"region":"us-central","cc":"us","latitude":41.881832,"longitude":-87.62318,"reserved":0,"last_update":"0001-01-01T00:00:00Z","name_a2s":"Uncletopia | Chicago | 5 | All Maps","protocol":17,"map":"pl_pier","folder":"tf","game":"Team Fortress","app_id":440,"player_count":24,"max_players":24,"Bots":0,"server_type":"Dedicated","server_os":"Linux","password":true,"vac":true,"version":"7961495","steam_id":85568392924866362,"keywords":["nocrits","nodmgspread","payload","uncletopia"],"game_id":440,"stv_port":27016,"stv_name":"Uncletopia | Chicago | 5 | All Maps | STV","players":[{"user_id":443,"name":"Jurls","steam_id":76561198138077990,"connected_time":1073000000000,"state":"active","ping":81},{"user_id":435,"name":"Sandbox","steam_id":76561198161977595,"connected_time":1291000000000,"state":"active","ping":74},{"user_id":305,"name":"Gheeotine","steam_id":76561198010181698,"connected_time":7467000000000,"state":"active","ping":87},{"user_id":329,"name":"Godmode","steam_id":76561198076240365,"connected_time":6654000000000,"state":"active","ping":65},{"user_id":426,"name":"C Papi","steam_id":76561198027779564,"connected_time":1616000000000,"state":"active","ping":59},{"user_id":434,"name":"Evenaris","steam_id":76561198087544319,"connected_time":1319000000000,"state":"active","ping":102},{"user_id":441,"name":"Shyki","steam_id":76561199146984256,"connected_time":1157000000000,"state":"active","ping":58},{"user_id":330,"name":"MillerWhite","steam_id":76561198076060357,"connected_time":6649000000000,"state":"active","ping":74},{"user_id":448,"name":"guy","steam_id":76561198163306561,"connected_time":551000000000,"state":"active","ping":77},{"user_id":437,"name":"THIRDPIERCE","steam_id":76561198405366314,"connected_time":1245000000000,"state":"active","ping":88},{"user_id":414,"name":"twinbl0ck","steam_id":76561198157414556,"connected_time":2777000000000,"state":"active","ping":74},{"user_id":442,"name":"Xquo","steam_id":76561198129005384,"connected_time":1078000000000,"state":"active","ping":60},{"user_id":386,"name":"chen","steam_id":76561198064872330,"connected_time":5131000000000,"state":"active","ping":76},{"user_id":454,"name":"Crescent","steam_id":76561198095124633,"connected_time":201000000000,"state":"active","ping":75},{"user_id":447,"name":"Jeremy","steam_id":76561198286240347,"connected_time":760000000000,"state":"active","ping":52},{"user_id":419,"name":"Ditto","steam_id":76561198259871363,"connected_time":2730000000000,"state":"active","ping":98},{"user_id":401,"name":"Provocator","steam_id":76561197961830410,"connected_time":3402000000000,"state":"active","ping":66},{"user_id":439,"name":"the","steam_id":76561198016826181,"connected_time":1222000000000,"state":"active","ping":76},{"user_id":429,"name":"Space⭐Taffy","steam_id":76561198002271720,"connected_time":1534000000000,"state":"active","ping":54},{"user_id":455,"name":"Will","steam_id":76561198098057581,"connected_time":140000000000,"state":"active","ping":366},{"user_id":452,"name":"Cbv isifjfofienentlgod","steam_id":76561198304661367,"connected_time":424000000000,"state":"active","ping":78},{"user_id":345,"name":"A Trigger Happy Chipmunk","steam_id":76561198013608736,"connected_time":6284000000000,"state":"active","ping":40},{"user_id":450,"name":"Waffle","steam_id":76561199000034608,"connected_time":528000000000,"state":"active","ping":53},{"user_id":331,"name":"Λlxium","steam_id":76561198131272900,"connected_time":6642000000000,"state":"active","ping":59}]},{"server_id":37,"name":"Uncletopia | Chicago | 6 | All Maps","name_short":"chi-6","host":"chi-2.us.uncletopia.com","port":27025,"enabled":true,"region":"us-central","cc":"us","latitude":41.881832,"longitude":-87.62318,"reserved":0,"last_update":"0001-01-01T00:00:00Z","name_a2s":"Uncletopia | Chicago | 6 | All Maps","protocol":17,"map":"pl_goldrush","folder":"tf","game":"Team Fortress","app_id":440,"player_count":24,"max_players":24,"Bots":0,"server_type":"Dedicated","server_os":"Linux","password":true,"vac":true,"version":"7961495","steam_id":85568392924866363,"keywords":["nocrits","nodmgspread","payload","uncletopia"],"game_id":440,"stv_port":27026,"stv_name":"Uncletopia | Chicago | 6 | All Maps | STV","players":[{"user_id":298,"name":"PigeonHen","steam_id":76561198285957459,"connected_time":1221000000000,"state":"active","ping":60},{"user_id":317,"name":"the dishtv1605","steam_id":76561198061284371,"connected_time":184000000000,"state":"active","ping":62},{"user_id":299,"name":"Forge","steam_id":76561198042751067,"connected_time":1143000000000,"state":"active","ping":74},{"user_id":307,"name":"chunk","steam_id":76561198134775401,"connected_time":615000000000,"state":"active","ping":64},{"user_id":322,"name":"Ghost \"With the Most\" Toastee","steam_id":76561198085410969,"connected_time":66000000000,"state":"active","ping":37},{"user_id":318,"name":"astrobob911","steam_id":76561199099110654,"connected_time":182000000000,"state":"active","ping":60},{"user_id":310,"name":"RagunCagun","steam_id":76561198132848008,"connected_time":595000000000,"state":"active","ping":48},{"user_id":296,"name":"notdoxed","steam_id":76561197992591404,"connected_time":1551000000000,"state":"active","ping":53},{"user_id":323,"name":"chicano.sorcerer.94","steam_id":76561198154449875,"connected_time":58000000000,"state":"spawning","ping":92},{"user_id":262,"name":"thecal","steam_id":76561198307893384,"connected_time":3521000000000,"state":"active","ping":55},{"user_id":321,"name":"minecraft_2.0","steam_id":76561198391819120,"connected_time":110000000000,"state":"active","ping":95},{"user_id":308,"name":"StudioMania (#SAVETF2)","steam_id":76561198211315795,"connected_time":611000000000,"state":"active","ping":58},{"user_id":303,"name":"Smoky Haus","steam_id":76561199040586542,"connected_time":775000000000,"state":"active","ping":60},{"user_id":291,"name":"Feet Bandit","steam_id":76561199152252878,"connected_time":1801000000000,"state":"active","ping":69},{"user_id":309,"name":"y0","steam_id":76561198143894333,"connected_time":611000000000,"state":"active","ping":51},{"user_id":222,"name":"hatsune.miku.2004","steam_id":76561198360184510,"connected_time":6401000000000,"state":"active","ping":71},{"user_id":293,"name":"[MRY] Sk-iLite","steam_id":76561198041797350,"connected_time":1741000000000,"state":"active","ping":69},{"user_id":319,"name":"Volteer","steam_id":76561198069395024,"connected_time":175000000000,"state":"active","ping":75},{"user_id":320,"name":"VAPORO","steam_id":76561198044186051,"connected_time":172000000000,"state":"active","ping":80},{"user_id":286,"name":"pyrotechnic","steam_id":76561198043558709,"connected_time":1946000000000,"state":"active","ping":94},{"user_id":313,"name":"REALLINUSJEWTIP.","steam_id":76561198056647983,"connected_time":576000000000,"state":"active","ping":62},{"user_id":314,"name":"paisano","steam_id":76561198065575472,"connected_time":573000000000,"state":"active","ping":60},{"user_id":294,"name":"Buttery","steam_id":76561198086053311,"connected_time":1741000000000,"state":"active","ping":75},{"user_id":295,"name":"HotHurricane","steam_id":76561198006989985,"connected_time":1717000000000,"state":"active","ping":65}]},{"server_id":38,"name":"Uncletopia | Chicago | 7 | Stopwatch","name_short":"chi-7","host":"chi-2.us.uncletopia.com","port":27035,"enabled":true,"region":"us-central","cc":"us","latitude":41.881832,"longitude":-87.62318,"reserved":0,"last_update":"0001-01-01T00:00:00Z","name_a2s":"Uncletopia | Chicago | 7 | Stopwatch","protocol":17,"map":"cp_sunshine","folder":"tf","game":"Team Fortress","app_id":440,"player_count":6,"max_players":24,"Bots":0,"server_type":"Dedicated","server_os":"Linux","password":true,"vac":true,"version":"7961495","steam_id":85568392924866364,"keywords":["cp","nocrits","nodmgspread","uncletopia"],"game_id":440,"stv_port":27036,"stv_name":"Uncletopia | Chicago | 7 | Stopwatch | STV","players":[{"user_id":319,"name":"Fernando Alonso","steam_id":76561198066822788,"connected_time":490000000000,"state":"active","ping":63},{"user_id":320,"name":"Eowunder777","steam_id":76561199375789984,"connected_time":481000000000,"state":"active","ping":74},{"user_id":321,"name":"(1)Eowunder777","steam_id":76561198186204375,"connected_time":470000000000,"state":"active","ping":73},{"user_id":322,"name":"Mista Boombastic","steam_id":76561197973121212,"connected_time":448000000000,"state":"active","ping":46},{"user_id":323,"name":"Papa Purpl3","steam_id":76561198868157358,"connected_time":436000000000,"state":"active","ping":74},{"user_id":295,"name":"arcticzero77","steam_id":76561198040874381,"connected_time":1826000000000,"state":"active","ping":51}]},{"server_id":39,"name":"Uncletopia | Chicago | 8 | Community","name_short":"chi-8","host":"chi-2.us.uncletopia.com","port":27045,"enabled":true,"region":"us-central","cc":"us","latitude":41.881832,"longitude":-87.62318,"reserved":0,"last_update":"0001-01-01T00:00:00Z","name_a2s":"Uncletopia | Chicago | 8 | Community","protocol":17,"map":"workshop/koth_trenchfoot_ab1.ugc731436616","folder":"tf","game":"Team Fortress","app_id":440,"player_count":11,"max_players":24,"Bots":0,"server_type":"Dedicated","server_os":"Linux","password":true,"vac":true,"version":"7961495","steam_id":85568392924866365,"keywords":["cp","nocrits","nodmgspread","uncletopia"],"game_id":440,"stv_port":27046,"stv_name":"Uncletopia | Chicago | 8 | Community | STV","players":[{"user_id":61,"name":"Would You Make Me A Sandwich?","steam_id":76561198152332211,"connected_time":199000000000,"state":"active","ping":49},{"user_id":41,"name":"Fire skys","steam_id":76561199260090417,"connected_time":2553000000000,"state":"active","ping":60},{"user_id":57,"name":"Rawhide Kobayashi","steam_id":76561198067051062,"connected_time":501000000000,"state":"active","ping":37},{"user_id":48,"name":"violent monkey porn","steam_id":76561199285074344,"connected_time":1871000000000,"state":"active","ping":48},{"user_id":56,"name":"Wescool121","steam_id":76561198351313234,"connected_time":761000000000,"state":"active","ping":81},{"user_id":51,"name":"Varie","steam_id":76561199454930210,"connected_time":1577000000000,"state":"active","ping":61},{"user_id":62,"name":"Mann Of Yes","steam_id":76561198910369652,"connected_time":119000000000,"state":"active","ping":86},{"user_id":63,"name":"JambaJuice","steam_id":76561198806736231,"connected_time":31000000000,"state":"active","ping":69},{"user_id":64,"name":"Orb","steam_id":76561198353963523,"connected_time":13000000000,"state":"spawning","ping":160},{"user_id":65,"name":"stampdawg","steam_id":76561198050500060,"connected_time":3000000000,"state":"spawning","ping":76},{"user_id":66,"name":"Zelumie","steam_id":76561198147335801,"connected_time":1000000000,"state":"spawning","ping":51}]},{"server_id":8,"name":"Uncletopia | Dallas | 1 | All Maps","name_short":"dal-1","host":"dal-1.us.uncletopia.com","port":27015,"enabled":true,"region":"us-central","cc":"us","latitude":32.779167,"longitude":-96.80889,"reserved":0,"last_update":"0001-01-01T00:00:00Z","name_a2s":"Uncletopia | Dallas | 1 | All Maps","protocol":17,"map":"koth_viaduct","folder":"tf","game":"Team Fortress","app_id":440,"player_count":24,"max_players":24,"Bots":0,"server_type":"Dedicated","server_os":"Linux","password":true,"vac":true,"version":"7961495","steam_id":85568392924469986,"keywords":["cp","nocrits","nodmgspread","uncletopia"],"game_id":440,"stv_port":27016,"stv_name":"Uncletopia | Dallas | 1 | All Maps | STV","players":[{"user_id":21,"name":"errant","steam_id":76561197961758410,"connected_time":6883000000000,"state":"active","ping":36},{"user_id":22,"name":"[cf] Captain Terror","steam_id":76561198028034742,"connected_time":6849000000000,"state":"active","ping":74},{"user_id":116,"name":"HOG RIDER","steam_id":76561198298589502,"connected_time":108000000000,"state":"active","ping":81},{"user_id":80,"name":"LAB8","steam_id":76561198047743526,"connected_time":3278000000000,"state":"active","ping":87},{"user_id":87,"name":"V@nn1e","steam_id":76561199099194994,"connected_time":2627000000000,"state":"active","ping":51},{"user_id":70,"name":"tsz","steam_id":76561199246231090,"connected_time":4232000000000,"state":"active","ping":73},{"user_id":114,"name":"Fireheart888","steam_id":76561198044555953,"connected_time":126000000000,"state":"active","ping":107},{"user_id":117,"name":"MoonWolf","steam_id":76561198095735033,"connected_time":45000000000,"state":"active","ping":52},{"user_id":93,"name":"FanaticSalt","steam_id":76561199380123059,"connected_time":1929000000000,"state":"active","ping":33},{"user_id":79,"name":"barker bill","steam_id":76561198018451994,"connected_time":3586000000000,"state":"active","ping":62},{"user_id":111,"name":"Frosti","steam_id":76561198332850064,"connected_time":200000000000,"state":"active","ping":82},{"user_id":118,"name":"sett ulting that kitty cat","steam_id":76561198298645133,"connected_time":40000000000,"state":"active","ping":86},{"user_id":109,"name":"DlTTO","steam_id":76561199427026752,"connected_time":1183000000000,"state":"active","ping":93},{"user_id":113,"name":"Wooden E","steam_id":76561198020308956,"connected_time":145000000000,"state":"active","ping":63},{"user_id":91,"name":"Evil little man","steam_id":76561198311053471,"connected_time":2004000000000,"state":"active","ping":55},{"user_id":101,"name":"tunaa","steam_id":76561198362763159,"connected_time":1867000000000,"state":"active","ping":80},{"user_id":98,"name":"cumgoblin","steam_id":76561198113270138,"connected_time":1904000000000,"state":"active","ping":39},{"user_id":119,"name":"Power","steam_id":76561197978508626,"connected_time":5000000000,"state":"spawning","ping":247},{"user_id":110,"name":"CeLeb144","steam_id":76561199089907740,"connected_time":1182000000000,"state":"active","ping":66},{"user_id":53,"name":"An Engineer","steam_id":76561198110381643,"connected_time":5112000000000,"state":"active","ping":60},{"user_id":89,"name":"Veil","steam_id":76561199177642251,"connected_time":2564000000000,"state":"active","ping":45},{"user_id":73,"name":"󠁳 ⁧homo56K","steam_id":76561198404564240,"connected_time":4003000000000,"state":"active","ping":83},{"user_id":81,"name":"SoftAvocado","steam_id":76561198278375987,"connected_time":3240000000000,"state":"active","ping":45},{"user_id":105,"name":"sebjzy ♥","steam_id":76561198009959034,"connected_time":1275000000000,"state":"active","ping":59}]},{"server_id":108,"name":"Uncletopia | Dallas | 2 | All Maps","name_short":"dal-2","host":"dal-1.us.uncletopia.com","port":27025,"enabled":true,"region":"us-central","cc":"us","latitude":32.779167,"longitude":-96.80889,"reserved":0,"last_update":"0001-01-01T00:00:00Z","name_a2s":"Uncletopia | Dallas | 2 | All Maps","protocol":17,"map":"pl_barnblitz","folder":"tf","game":"Team Fortress","app_id":440,"player_count":24,"max_players":24,"Bots":0,"server_type":"Dedicated","server_os":"Linux","password":true,"vac":true,"version":"7961495","steam_id":85568392924469988,"keywords":["nocrits","nodmgspread","payload","uncletopia"],"game_id":440,"stv_port":27026,"stv_name":"Uncletopia | Dallas | 2 | All Maps | STV","players":[{"user_id":366,"name":"on my backup mouse","steam_id":76561198072179483,"connected_time":118000000000,"state":"active","ping":114},{"user_id":357,"name":"GreenApples","steam_id":76561198120559543,"connected_time":835000000000,"state":"active","ping":91},{"user_id":363,"name":"Average GHOST (Vocaloid) Listen","steam_id":76561199471951160,"connected_time":462000000000,"state":"active","ping":48},{"user_id":364,"name":"donny burger","steam_id":76561198043862737,"connected_time":366000000000,"state":"active","ping":77},{"user_id":346,"name":"JSN","steam_id":76561198138876827,"connected_time":1155000000000,"state":"active","ping":80},{"user_id":325,"name":"bushy","steam_id":76561198138088830,"connected_time":2375000000000,"state":"active","ping":63},{"user_id":336,"name":"oncologist","steam_id":76561197997321386,"connected_time":1789000000000,"state":"active","ping":56},{"user_id":352,"name":"Bluedemon","steam_id":76561199212058684,"connected_time":1025000000000,"state":"active","ping":89},{"user_id":360,"name":"The Horny","steam_id":76561198863639459,"connected_time":770000000000,"state":"active","ping":481},{"user_id":351,"name":"MayKay","steam_id":76561199016092265,"connected_time":1117000000000,"state":"active","ping":67},{"user_id":316,"name":"Grumby","steam_id":76561198149175262,"connected_time":2928000000000,"state":"active","ping":48},{"user_id":367,"name":"Captain Crunch","steam_id":76561199141538581,"connected_time":78000000000,"state":"active","ping":85},{"user_id":320,"name":"BatMatt","steam_id":76561198045910433,"connected_time":2837000000000,"state":"active","ping":54},{"user_id":338,"name":"1.50 Costco Hotdog","steam_id":76561199083888017,"connected_time":1703000000000,"state":"active","ping":88},{"user_id":358,"name":"Butteryback","steam_id":76561198049642485,"connected_time":806000000000,"state":"active","ping":60},{"user_id":311,"name":"DMM","steam_id":76561198065426171,"connected_time":3018000000000,"state":"active","ping":60},{"user_id":361,"name":"femboy gaming","steam_id":76561199084226553,"connected_time":735000000000,"state":"active","ping":68},{"user_id":350,"name":"HeHedron","steam_id":76561199199667164,"connected_time":1130000000000,"state":"active","ping":77},{"user_id":359,"name":"Mr. Hankey","steam_id":76561198872852200,"connected_time":804000000000,"state":"active","ping":126},{"user_id":348,"name":"shannongram","steam_id":76561198047308326,"connected_time":1144000000000,"state":"active","ping":77},{"user_id":341,"name":"TrashPanda (she/her)","steam_id":76561198447864095,"connected_time":1393000000000,"state":"active","ping":54},{"user_id":355,"name":"Garry","steam_id":76561198070584586,"connected_time":929000000000,"state":"active","ping":77},{"user_id":321,"name":"wugmup","steam_id":76561199096287734,"connected_time":2806000000000,"state":"active","ping":79},{"user_id":319,"name":"TickTock|Mink","steam_id":76561198069809794,"connected_time":2876000000000,"state":"active","ping":61}]},{"server_id":404,"name":"Uncletopia | Dallas | 3 | All Maps","name_short":"dal-3","host":"dal-1.us.uncletopia.com","port":27035,"enabled":true,"region":"us-central","cc":"us","latitude":32.779167,"longitude":-96.80889,"reserved":0,"last_update":"0001-01-01T00:00:00Z","name_a2s":"Uncletopia | Dallas | 3 | All Maps","protocol":17,"map":"koth_lakeside_final","folder":"tf","game":"Team Fortress","app_id":440,"player_count":23,"max_players":24,"Bots":0,"server_type":"Dedicated","server_os":"Linux","password":true,"vac":true,"version":"7961495","steam_id":85568392924515219,"keywords":["cp","nocrits","nodmgspread","uncletopia"],"game_id":440,"stv_port":27036,"stv_name":"Uncletopia | Dallas | 3 | All Maps | STV","players":[{"user_id":141,"name":"Training Bot [Easy]","steam_id":76561199119473164,"connected_time":839000000000,"state":"active","ping":76},{"user_id":167,"name":"AWGER (don't uber)","steam_id":76561198284683624,"connected_time":226000000000,"state":"active","ping":78},{"user_id":157,"name":"Mr. Klauk","steam_id":76561199085666301,"connected_time":487000000000,"state":"active","ping":63},{"user_id":147,"name":"dragons2008","steam_id":76561199071151136,"connected_time":614000000000,"state":"active","ping":75},{"user_id":168,"name":"Bring Dat Bag Out","steam_id":76561198060553584,"connected_time":19000000000,"state":"active","ping":82},{"user_id":148,"name":"PROUD MUG MANIAC","steam_id":76561199231250776,"connected_time":595000000000,"state":"active","ping":53},{"user_id":112,"name":"theasianboisuper","steam_id":76561199496123466,"connected_time":2257000000000,"state":"active","ping":48},{"user_id":98,"name":"Spinch","steam_id":76561198296224166,"connected_time":3256000000000,"state":"active","ping":66},{"user_id":122,"name":"ShapedSilver","steam_id":76561199073305310,"connected_time":1822000000000,"state":"active","ping":68},{"user_id":99,"name":"Publo","steam_id":76561198161777140,"connected_time":3188000000000,"state":"active","ping":58},{"user_id":169,"name":"Spyfall","steam_id":76561198081729993,"connected_time":6000000000,"state":"spawning","ping":88},{"user_id":136,"name":"beardedchinchilla","steam_id":76561198106462464,"connected_time":1276000000000,"state":"active","ping":56},{"user_id":153,"name":"Rubby","steam_id":76561198967446392,"connected_time":515000000000,"state":"active","ping":77},{"user_id":154,"name":"herb","steam_id":76561198185980055,"connected_time":507000000000,"state":"active","ping":71},{"user_id":155,"name":"Letnap","steam_id":76561198025420549,"connected_time":505000000000,"state":"active","ping":62},{"user_id":156,"name":"Asanez3","steam_id":76561198037381436,"connected_time":491000000000,"state":"active","ping":85},{"user_id":119,"name":"artemisjackson2","steam_id":76561199094686268,"connected_time":1899000000000,"state":"active","ping":88},{"user_id":158,"name":"The Assistant Regional Manager","steam_id":76561199221484936,"connected_time":461000000000,"state":"active","ping":80},{"user_id":160,"name":"goober","steam_id":76561199102839784,"connected_time":439000000000,"state":"active","ping":97},{"user_id":162,"name":"manbug","steam_id":76561198169219561,"connected_time":428000000000,"state":"active","ping":67},{"user_id":146,"name":"The Pyro","steam_id":76561198041622040,"connected_time":650000000000,"state":"active","ping":60},{"user_id":135,"name":"plickles","steam_id":76561199032117349,"connected_time":1320000000000,"state":"active","ping":100},{"user_id":166,"name":"...","steam_id":76561199102883421,"connected_time":272000000000,"state":"active","ping":88}]},{"server_id":405,"name":"Uncletopia | Dallas | 4 | Community","name_short":"dal-4","host":"dal-1.us.uncletopia.com","port":27045,"enabled":true,"region":"us-central","cc":"us","latitude":32.779167,"longitude":-96.80889,"reserved":0,"last_update":"0001-01-01T00:00:00Z","name_a2s":"Uncletopia | Dallas | 4 | Community","protocol":17,"map":"workshop/koth_product_final.ugc454272353","folder":"tf","game":"Team Fortress","app_id":440,"player_count":0,"max_players":24,"Bots":0,"server_type":"Dedicated","server_os":"Linux","password":true,"vac":true,"version":"7961495","steam_id":85568392924515220,"keywords":["cp","nocrits","nodmgspread","uncletopia"],"game_id":440,"stv_port":27046,"stv_name":"Uncletopia | Dallas | 4 | Community | STV","players":null},{"server_id":5,"name":"Uncletopia | Frankfurt | 1 | All Maps","name_short":"frk-1","host":"frk-1.de.uncletopia.com","port":27015,"enabled":true,"region":"eu","cc":"de","latitude":50.110924,"longitude":8.682127,"reserved":0,"last_update":"0001-01-01T00:00:00Z","name_a2s":"Uncletopia | Frankfurt | 1 | All Maps","protocol":17,"map":"koth_cascade","folder":"tf","game":"Team Fortress","app_id":440,"player_count":0,"max_players":24,"Bots":0,"server_type":"Dedicated","server_os":"Linux","password":true,"vac":true,"version":"7961495","steam_id":85568392924469989,"keywords":["cp","nocrits","nodmgspread","uncletopia"],"game_id":440,"stv_port":27016,"stv_name":"Uncletopia | Frankfurt | 1 | All Maps | STV","players":null},{"server_id":110,"name":"Uncletopia | Frankfurt | 2 | All Maps","name_short":"frk-2","host":"frk-1.de.uncletopia.com","port":27025,"enabled":true,"region":"eu","cc":"de","latitude":50.110924,"longitude":8.682127,"reserved":0,"last_update":"0001-01-01T00:00:00Z","name_a2s":"Uncletopia | Frankfurt | 2 | All Maps","protocol":17,"map":"koth_cascade","folder":"tf","game":"Team Fortress","app_id":440,"player_count":0,"max_players":24,"Bots":0,"server_type":"Dedicated","server_os":"Linux","password":true,"vac":true,"version":"7961495","steam_id":85568392924469990,"keywords":["cp","nocrits","nodmgspread","uncletopia"],"game_id":440,"stv_port":27026,"stv_name":"Uncletopia | Frankfurt | 2 | All Maps | STV","players":null},{"server_id":308,"name":"Uncletopia | Frankfurt | 3 | All Maps","name_short":"frk-3","host":"frk-1.de.uncletopia.com","port":27035,"enabled":true,"region":"eu","cc":"de","latitude":50.110924,"longitude":8.682127,"reserved":0,"last_update":"0001-01-01T00:00:00Z","name_a2s":"Uncletopia | Frankfurt | 3 | All Maps","protocol":17,"map":"koth_cascade","folder":"tf","game":"Team Fortress","app_id":440,"player_count":3,"max_players":24,"Bots":0,"server_type":"Dedicated","server_os":"Linux","password":true,"vac":true,"version":"7961495","steam_id":85568392924504274,"keywords":["cp","nocrits","nodmgspread","uncletopia"],"game_id":440,"stv_port":27036,"stv_name":"Uncletopia | Frankfurt | 3 | All Maps | STV","players":[{"user_id":507,"name":"ChesseKnight","steam_id":76561198102476339,"connected_time":8102000000000,"state":"active","ping":61},{"user_id":517,"name":"Dr Bondus Bolongus Dongus","steam_id":76561198378657692,"connected_time":7250000000000,"state":"active","ping":51},{"user_id":545,"name":"Bagel","steam_id":76561198167747447,"connected_time":4830000000000,"state":"active","ping":135}]},{"server_id":309,"name":"Uncletopia | Frankfurt | 4 | All Maps","name_short":"frk-4","host":"frk-1.de.uncletopia.com","port":27045,"enabled":true,"region":"eu","cc":"de","latitude":50.110924,"longitude":8.682127,"reserved":0,"last_update":"0001-01-01T00:00:00Z","name_a2s":"Uncletopia | Frankfurt | 4 | All Maps","protocol":17,"map":"koth_lakeside_final","folder":"tf","game":"Team Fortress","app_id":440,"player_count":0,"max_players":24,"Bots":0,"server_type":"Dedicated","server_os":"Linux","password":true,"vac":true,"version":"7961495","steam_id":85568392924504275,"keywords":["cp","nocrits","nodmgspread","uncletopia"],"game_id":440,"stv_port":27046,"stv_name":"Uncletopia | Frankfurt | 4 | All Maps | STV","players":null},{"server_id":310,"name":"Uncletopia | Frankfurt | 5 | All Maps","name_short":"frk-5","host":"frk-1.de.uncletopia.com","port":27055,"enabled":true,"region":"eu","cc":"de","latitude":50.110924,"longitude":8.682127,"reserved":0,"last_update":"0001-01-01T00:00:00Z","name_a2s":"Uncletopia | Frankfurt | 5 | All Maps","protocol":17,"map":"pl_upward","folder":"tf","game":"Team Fortress","app_id":440,"player_count":0,"max_players":24,"Bots":0,"server_type":"Dedicated","server_os":"Linux","password":true,"vac":true,"version":"7961495","steam_id":85568392924504277,"keywords":["nocrits","nodmgspread","payload","uncletopia"],"game_id":440,"stv_port":27056,"stv_name":"Uncletopia | Frankfurt | 5 | All Maps | STV","players":null},{"server_id":311,"name":"Uncletopia | Frankfurt | 6 | All Maps","name_short":"frk-6","host":"frk-1.de.uncletopia.com","port":27065,"enabled":true,"region":"eu","cc":"de","latitude":50.110924,"longitude":8.682127,"reserved":0,"last_update":"0001-01-01T00:00:00Z","name_a2s":"Uncletopia | Frankfurt | 6 | All Maps","protocol":17,"map":"koth_lakeside_final","folder":"tf","game":"Team Fortress","app_id":440,"player_count":0,"max_players":24,"Bots":0,"server_type":"Dedicated","server_os":"Linux","password":true,"vac":true,"version":"7961495","steam_id":85568392924504278,"keywords":["cp","nocrits","nodmgspread","uncletopia"],"game_id":440,"stv_port":27066,"stv_name":"Uncletopia | Frankfurt | 6 | All Maps | STV","players":null},{"server_id":23,"name":"Uncletopia | Frankfurt | 7 | Stopwatch","name_short":"frk-7","host":"frk-1.de.uncletopia.com","port":27075,"enabled":true,"region":"eu","cc":"de","latitude":50.110924,"longitude":8.682127,"reserved":0,"last_update":"0001-01-01T00:00:00Z","name_a2s":"Uncletopia | Frankfurt | 7 | Stopwatch","protocol":17,"map":"workshop/cp_process_f12.ugc2302948105","folder":"tf","game":"Team Fortress","app_id":440,"player_count":0,"max_players":24,"Bots":0,"server_type":"Dedicated","server_os":"Linux","password":true,"vac":true,"version":"7961495","steam_id":85568392924742827,"keywords":["cp","nocrits","nodmgspread","uncletopia"],"game_id":440,"stv_port":27076,"stv_name":"Uncletopia | Frankfurt | 7 | Stopwatch | STV","players":null},{"server_id":24,"name":"Uncletopia | Frankfurt | 8 | Community","name_short":"frk-8","host":"frk-1.de.uncletopia.com","port":27085,"enabled":true,"region":"eu","cc":"de","latitude":50.110924,"longitude":8.682127,"reserved":0,"last_update":"0001-01-01T00:00:00Z","name_a2s":"Uncletopia | Frankfurt | 8 | Community","protocol":17,"map":"workshop/koth_trenchfoot_ab1.ugc731436616","folder":"tf","game":"Team Fortress","app_id":440,"player_count":0,"max_players":24,"Bots":0,"server_type":"Dedicated","server_os":"Linux","password":true,"vac":true,"version":"7961495","steam_id":85568392924742828,"keywords":["cp","nocrits","nodmgspread","uncletopia"],"game_id":440,"stv_port":27086,"stv_name":"Uncletopia | Frankfurt | 8 | Community | STV","players":null},{"server_id":202,"name":"Uncletopia | Hong Kong | 1 | All Maps","name_short":"hgk-1","host":"hgk-1.hk.uncletopia.com","port":27015,"enabled":true,"region":"asia","cc":"hk","latitude":22.302711,"longitude":114.177216,"reserved":0,"last_update":"0001-01-01T00:00:00Z","name_a2s":"Uncletopia | Hong Kong | 1 | All Maps","protocol":17,"map":"koth_cascade","folder":"tf","game":"Team Fortress","app_id":440,"player_count":0,"max_players":24,"Bots":0,"server_type":"Dedicated","server_os":"Linux","password":true,"vac":true,"version":"7961495","steam_id":85568392924494504,"keywords":["cp","nocrits","nodmgspread","uncletopia"],"game_id":440,"stv_port":27016,"stv_name":"Uncletopia | Hong Kong | 1 | All Maps | STV","players":null},{"server_id":1,"name":"Uncletopia | Los Angeles | 1 | All Maps","name_short":"lax-1","host":"lax-1.us.uncletopia.com","port":27015,"enabled":true,"region":"us-west","cc":"us","latitude":33.94279,"longitude":-118.41004,"reserved":0,"last_update":"0001-01-01T00:00:00Z","name_a2s":"Uncletopia | Los Angeles | 1 | All Maps","protocol":17,"map":"pl_barnblitz","folder":"tf","game":"Team Fortress","app_id":440,"player_count":0,"max_players":24,"Bots":0,"server_type":"Dedicated","server_os":"Linux","password":true,"vac":true,"version":"7961495","steam_id":85568392924469991,"keywords":["nocrits","nodmgspread","payload","uncletopia"],"game_id":440,"stv_port":27016,"stv_name":"Uncletopia | Los Angeles | 1 | All Maps | STV","players":null},{"server_id":112,"name":"Uncletopia | Los Angeles | 2 | All Maps","name_short":"lax-2","host":"lax-1.us.uncletopia.com","port":27025,"enabled":true,"region":"us-west","cc":"us","latitude":33.94279,"longitude":-118.41004,"reserved":0,"last_update":"0001-01-01T00:00:00Z","name_a2s":"Uncletopia | Los Angeles | 2 | All Maps","protocol":17,"map":"koth_cascade","folder":"tf","game":"Team Fortress","app_id":440,"player_count":0,"max_players":24,"Bots":0,"server_type":"Dedicated","server_os":"Linux","password":true,"vac":true,"version":"7961495","steam_id":85568392924469992,"keywords":["cp","nocrits","nodmgspread","uncletopia"],"game_id":440,"stv_port":27026,"stv_name":"Uncletopia | Los Angeles | 2 | All Maps | STV","players":null},{"server_id":324,"name":"Uncletopia | Los Angeles | 3 | All Maps","name_short":"lax-3","host":"lax-1.us.uncletopia.com","port":27035,"enabled":true,"region":"us-west","cc":"us","latitude":33.94279,"longitude":-118.41004,"reserved":0,"last_update":"0001-01-01T00:00:00Z","name_a2s":"Uncletopia | Los Angeles | 3 | All Maps","protocol":17,"map":"cp_mossrock","folder":"tf","game":"Team Fortress","app_id":440,"player_count":24,"max_players":24,"Bots":0,"server_type":"Dedicated","server_os":"Linux","password":true,"vac":true,"version":"7961495","steam_id":85568392924510198,"keywords":["cp","nocrits","nodmgspread","uncletopia"],"game_id":440,"stv_port":27036,"stv_name":"Uncletopia | Los Angeles | 3 | All Maps | STV","players":[{"user_id":150,"name":"on a sick one","steam_id":76561198327633561,"connected_time":277000000000,"state":"active","ping":55},{"user_id":143,"name":"day6","steam_id":76561198168492250,"connected_time":521000000000,"state":"active","ping":57},{"user_id":130,"name":"BadeNce","steam_id":76561198211632073,"connected_time":1433000000000,"state":"active","ping":51},{"user_id":93,"name":"Peluche Marisa","steam_id":76561199011452659,"connected_time":4376000000000,"state":"active","ping":140},{"user_id":144,"name":"IMPROBABLE FLIPPING","steam_id":76561198045964573,"connected_time":515000000000,"state":"active","ping":48},{"user_id":88,"name":"noceof","steam_id":76561198043656816,"connected_time":4971000000000,"state":"active","ping":163},{"user_id":91,"name":"Why Me...","steam_id":76561199124019937,"connected_time":4464000000000,"state":"active","ping":53},{"user_id":156,"name":"chunkysquare","steam_id":76561199076468383,"connected_time":64000000000,"state":"active","ping":46},{"user_id":131,"name":"ena - d","steam_id":76561198072329335,"connected_time":1365000000000,"state":"active","ping":101},{"user_id":157,"name":"cope2","steam_id":76561198158952440,"connected_time":49000000000,"state":"active","ping":67},{"user_id":151,"name":"Looge","steam_id":76561198155483586,"connected_time":253000000000,"state":"active","ping":95},{"user_id":152,"name":"Racecar_Driver","steam_id":76561198054176223,"connected_time":238000000000,"state":"active","ping":79},{"user_id":128,"name":"mrthugpug1732","steam_id":76561198881200768,"connected_time":1608000000000,"state":"active","ping":47},{"user_id":148,"name":"The All-Seeing Tim","steam_id":76561198075510786,"connected_time":360000000000,"state":"active","ping":75},{"user_id":136,"name":"asmr eater (deaf)","steam_id":76561198067053408,"connected_time":884000000000,"state":"active","ping":50},{"user_id":141,"name":"Civilian","steam_id":76561198816443695,"connected_time":682000000000,"state":"active","ping":51},{"user_id":149,"name":"nav","steam_id":76561198872608266,"connected_time":359000000000,"state":"active","ping":117},{"user_id":138,"name":"EatSomeBEES","steam_id":76561198047334307,"connected_time":818000000000,"state":"active","ping":68},{"user_id":155,"name":"małię","steam_id":76561198337705174,"connected_time":209000000000,"state":"active","ping":75},{"user_id":137,"name":"Yoyos","steam_id":76561198061035695,"connected_time":834000000000,"state":"active","ping":45},{"user_id":90,"name":"Eden","steam_id":76561198081284664,"connected_time":4657000000000,"state":"active","ping":49},{"user_id":142,"name":"Pie","steam_id":76561198236973006,"connected_time":570000000000,"state":"active","ping":68},{"user_id":124,"name":"Drake from State Farm","steam_id":76561199069029812,"connected_time":2139000000000,"state":"active","ping":74},{"user_id":146,"name":"Penis Mike","steam_id":76561198151211444,"connected_time":491000000000,"state":"active","ping":72}]},{"server_id":25,"name":"Uncletopia | Los Angeles | 4 | Stopwatch","name_short":"lax-4","host":"lax-1.us.uncletopia.com","port":27045,"enabled":true,"region":"us-west","cc":"us","latitude":33.94279,"longitude":-118.41004,"reserved":0,"last_update":"0001-01-01T00:00:00Z","name_a2s":"Uncletopia | Los Angeles | 4 | Stopwatch","protocol":17,"map":"koth_highpass","folder":"tf","game":"Team Fortress","app_id":440,"player_count":3,"max_players":24,"Bots":0,"server_type":"Dedicated","server_os":"Linux","password":true,"vac":true,"version":"7961495","steam_id":85568392924510199,"keywords":["cp","nocrits","nodmgspread","uncletopia"],"game_id":440,"stv_port":27046,"stv_name":"Uncletopia | Los Angeles | 4 | Stopwatch | STV","players":[{"user_id":14,"name":"harambe 101","steam_id":76561198366850003,"connected_time":182000000000,"state":"active","ping":46},{"user_id":15,"name":"tigermouse1939","steam_id":76561199078976251,"connected_time":115000000000,"state":"active","ping":48},{"user_id":16,"name":"jonny.mac72","steam_id":76561198111509054,"connected_time":106000000000,"state":"active","ping":101}]},{"server_id":11,"name":"Uncletopia | London | 1 | All Maps","name_short":"lon-1","host":"lon-1.uk.uncletopia.com","port":27015,"enabled":true,"region":"eu","cc":"gb","latitude":51.509865,"longitude":-0.118092,"reserved":0,"last_update":"0001-01-01T00:00:00Z","name_a2s":"Uncletopia | London | 1 | All Maps","protocol":17,"map":"pl_barnblitz","folder":"tf","game":"Team Fortress","app_id":440,"player_count":15,"max_players":24,"Bots":0,"server_type":"Dedicated","server_os":"Linux","password":true,"vac":true,"version":"7961495","steam_id":85568392924367362,"keywords":["nocrits","nodmgspread","payload","uncletopia"],"game_id":440,"stv_port":27016,"stv_name":"Uncletopia | London | 1 | All Maps | STV","players":[{"user_id":1277,"name":"RBV","steam_id":76561198370445644,"connected_time":1122000000000,"state":"active","ping":75},{"user_id":1287,"name":"Joe","steam_id":76561198145639903,"connected_time":497000000000,"state":"active","ping":95},{"user_id":1289,"name":"Fearly","steam_id":76561198798684016,"connected_time":354000000000,"state":"active","ping":44},{"user_id":1275,"name":"squog","steam_id":76561198399996680,"connected_time":1339000000000,"state":"active","ping":82},{"user_id":1213,"name":"pezza","steam_id":76561197995173247,"connected_time":4052000000000,"state":"active","ping":90},{"user_id":1291,"name":"Nyhde","steam_id":76561198012771416,"connected_time":153000000000,"state":"active","ping":98},{"user_id":1281,"name":"Slowdive w/ EATEOF","steam_id":76561198047856328,"connected_time":1017000000000,"state":"active","ping":55},{"user_id":1286,"name":"scooter","steam_id":76561198168641792,"connected_time":641000000000,"state":"active","ping":44},{"user_id":1259,"name":"Galzra87","steam_id":76561198063414443,"connected_time":2330000000000,"state":"active","ping":71},{"user_id":1246,"name":"froglids","steam_id":76561198045466919,"connected_time":2568000000000,"state":"active","ping":62},{"user_id":1264,"name":"Ran33","steam_id":76561197991474499,"connected_time":2061000000000,"state":"active","ping":80},{"user_id":1215,"name":"Proto-arc","steam_id":76561198012776747,"connected_time":3904000000000,"state":"active","ping":47},{"user_id":1216,"name":"Piellino","steam_id":76561198156873276,"connected_time":3898000000000,"state":"active","ping":101},{"user_id":1204,"name":"SuperBob103","steam_id":76561199175360012,"connected_time":4498000000000,"state":"active","ping":59},{"user_id":1222,"name":"Jussukka","steam_id":76561198122894683,"connected_time":3557000000000,"state":"active","ping":79}]},{"server_id":114,"name":"Uncletopia | London | 2 | All Maps","name_short":"lon-2","host":"lon-1.uk.uncletopia.com","port":27025,"enabled":true,"region":"eu","cc":"gb","latitude":51.509865,"longitude":-0.118092,"reserved":0,"last_update":"0001-01-01T00:00:00Z","name_a2s":"Uncletopia | London | 2 | All Maps","protocol":17,"map":"pl_upward","folder":"tf","game":"Team Fortress","app_id":440,"player_count":21,"max_players":24,"Bots":0,"server_type":"Dedicated","server_os":"Linux","password":true,"vac":true,"version":"7961495","steam_id":85568392924470941,"keywords":["nocrits","nodmgspread","payload","uncletopia"],"game_id":440,"stv_port":27026,"stv_name":"Uncletopia | London | 2 | All Maps | STV","players":[{"user_id":592,"name":"the rat","steam_id":76561198079101313,"connected_time":1624000000000,"state":"active","ping":44},{"user_id":613,"name":"leminsc8","steam_id":76561198825084995,"connected_time":176000000000,"state":"active","ping":50},{"user_id":603,"name":"Junkrat simp","steam_id":76561198134378108,"connected_time":731000000000,"state":"active","ping":68},{"user_id":607,"name":"skelebin","steam_id":76561199480942903,"connected_time":629000000000,"state":"active","ping":75},{"user_id":601,"name":"dafran of tf2","steam_id":76561198066287815,"connected_time":835000000000,"state":"active","ping":120},{"user_id":525,"name":"Kiogeki","steam_id":76561197996707843,"connected_time":6633000000000,"state":"active","ping":44},{"user_id":599,"name":"tobs","steam_id":76561197987616937,"connected_time":1051000000000,"state":"active","ping":63},{"user_id":611,"name":"bryophyta","steam_id":76561197968945306,"connected_time":221000000000,"state":"active","ping":68},{"user_id":582,"name":"sticks","steam_id":76561198127099299,"connected_time":2415000000000,"state":"active","ping":44},{"user_id":575,"name":"cora","steam_id":76561199474154775,"connected_time":2967000000000,"state":"active","ping":57},{"user_id":588,"name":"Perpetual Pub Push","steam_id":76561198256714846,"connected_time":1751000000000,"state":"active","ping":30},{"user_id":606,"name":"bleach enjoyer","steam_id":76561198120569764,"connected_time":647000000000,"state":"active","ping":121},{"user_id":598,"name":"randem_","steam_id":76561198338793755,"connected_time":1386000000000,"state":"active","ping":41},{"user_id":563,"name":"alternative","steam_id":76561199089684702,"connected_time":3358000000000,"state":"active","ping":61},{"user_id":574,"name":"Seamoose","steam_id":76561198018571653,"connected_time":3070000000000,"state":"active","ping":53},{"user_id":608,"name":"George W Bush","steam_id":76561198846784757,"connected_time":604000000000,"state":"active","ping":50},{"user_id":597,"name":"WI†CHER","steam_id":76561198993796666,"connected_time":1448000000000,"state":"active","ping":46},{"user_id":591,"name":"Nag","steam_id":76561197970488206,"connected_time":1676000000000,"state":"active","ping":64},{"user_id":560,"name":"Rogue","steam_id":76561199143593182,"connected_time":4450000000000,"state":"active","ping":50},{"user_id":609,"name":"Triploon","steam_id":76561198173304074,"connected_time":541000000000,"state":"active","ping":46},{"user_id":614,"name":"JujuBalu","steam_id":76561198207253071,"connected_time":170000000000,"state":"active","ping":31}]},{"server_id":320,"name":"Uncletopia | London | 3 | All Maps","name_short":"lon-3","host":"lon-1.uk.uncletopia.com","port":27035,"enabled":true,"region":"eu","cc":"gb","latitude":51.509865,"longitude":-0.118092,"reserved":0,"last_update":"0001-01-01T00:00:00Z","name_a2s":"Uncletopia | London | 3 | All Maps","protocol":17,"map":"koth_lakeside_final","folder":"tf","game":"Team Fortress","app_id":440,"player_count":0,"max_players":24,"Bots":0,"server_type":"Dedicated","server_os":"Linux","password":true,"vac":true,"version":"7961495","steam_id":85568392924510192,"keywords":["cp","nocrits","nodmgspread","uncletopia"],"game_id":440,"stv_port":27036,"stv_name":"Uncletopia | London | 3 | All Maps | STV","players":null},{"server_id":321,"name":"Uncletopia | London | 4 | All Maps","name_short":"lon-4","host":"lon-1.uk.uncletopia.com","port":27045,"enabled":true,"region":"eu","cc":"gb","latitude":51.509865,"longitude":-0.118092,"reserved":0,"last_update":"0001-01-01T00:00:00Z","name_a2s":"Uncletopia | London | 4 | All Maps","protocol":17,"map":"cp_egypt_final","folder":"tf","game":"Team Fortress","app_id":440,"player_count":22,"max_players":24,"Bots":0,"server_type":"Dedicated","server_os":"Linux","password":true,"vac":true,"version":"7961495","steam_id":85568392924510193,"keywords":["cp","nocrits","nodmgspread","uncletopia"],"game_id":440,"stv_port":27046,"stv_name":"Uncletopia | London | 4 | All Maps | STV","players":[{"user_id":551,"name":"Iris","steam_id":76561198430295815,"connected_time":934000000000,"state":"active","ping":74},{"user_id":481,"name":"Squishie #SaveTF2","steam_id":76561198321025400,"connected_time":7191000000000,"state":"active","ping":45},{"user_id":552,"name":"gaming gamer","steam_id":76561198212488780,"connected_time":872000000000,"state":"active","ping":65},{"user_id":553,"name":"sam_","steam_id":76561198814734120,"connected_time":637000000000,"state":"active","ping":105},{"user_id":543,"name":"cock fucker pussy smacker","steam_id":76561198097515215,"connected_time":1666000000000,"state":"active","ping":69},{"user_id":528,"name":"Maker’s_Mark","steam_id":76561198198371445,"connected_time":2469000000000,"state":"active","ping":137},{"user_id":533,"name":"mugshot","steam_id":76561198363841749,"connected_time":2266000000000,"state":"active","ping":74},{"user_id":550,"name":"Mayonezz","steam_id":76561198958129603,"connected_time":972000000000,"state":"active","ping":83},{"user_id":505,"name":"agent youppii","steam_id":76561198055264447,"connected_time":5279000000000,"state":"active","ping":58},{"user_id":558,"name":"Clear Sights","steam_id":76561198006215683,"connected_time":39000000000,"state":"active","ping":158},{"user_id":546,"name":"hedren","steam_id":76561198146075691,"connected_time":1526000000000,"state":"active","ping":52},{"user_id":538,"name":"nrvvs","steam_id":76561199134714492,"connected_time":1882000000000,"state":"active","ping":152},{"user_id":449,"name":"Luchar","steam_id":76561198065089732,"connected_time":9026000000000,"state":"active","ping":66},{"user_id":549,"name":"CumbustiblePunda","steam_id":76561197974274677,"connected_time":1234000000000,"state":"active","ping":60},{"user_id":521,"name":"Infantile Pillock","steam_id":76561198283851362,"connected_time":3409000000000,"state":"active","ping":72},{"user_id":526,"name":"Snowmotion","steam_id":76561198075022454,"connected_time":2964000000000,"state":"active","ping":57},{"user_id":556,"name":"Viewie","steam_id":76561198280108853,"connected_time":242000000000,"state":"active","ping":122},{"user_id":557,"name":"Drunk russian with pyromania","steam_id":76561198195527328,"connected_time":141000000000,"state":"active","ping":46},{"user_id":548,"name":"my fault og","steam_id":76561198256811438,"connected_time":1366000000000,"state":"active","ping":97},{"user_id":503,"name":"Vershal Smershal","steam_id":76561198116223995,"connected_time":5514000000000,"state":"active","ping":55},{"user_id":539,"name":"Bearbot5","steam_id":76561198883262617,"connected_time":1875000000000,"state":"active","ping":148},{"user_id":540,"name":"dools18","steam_id":76561198880768062,"connected_time":1851000000000,"state":"active","ping":52}]},{"server_id":21,"name":"Uncletopia | London | 5 | All Maps","name_short":"lon-5","host":"lon-1.uk.uncletopia.com","port":27055,"enabled":true,"region":"eu","cc":"gb","latitude":51.509865,"longitude":-0.118092,"reserved":0,"last_update":"0001-01-01T00:00:00Z","name_a2s":"Uncletopia | London | 5 | All Maps","protocol":17,"map":"pl_pier","folder":"tf","game":"Team Fortress","app_id":440,"player_count":0,"max_players":24,"Bots":0,"server_type":"Dedicated","server_os":"Linux","password":true,"vac":true,"version":"7961495","steam_id":85568392924742829,"keywords":["nocrits","nodmgspread","payload","uncletopia"],"game_id":440,"stv_port":27056,"stv_name":"Uncletopia | London | 5 | All Maps | STV","players":null},{"server_id":22,"name":"Uncletopia | London | 6 | All Maps","name_short":"lon-6","host":"lon-1.uk.uncletopia.com","port":27065,"enabled":true,"region":"eu","cc":"gb","latitude":51.509865,"longitude":-0.118092,"reserved":0,"last_update":"0001-01-01T00:00:00Z","name_a2s":"Uncletopia | London | 6 | All Maps","protocol":17,"map":"koth_highpass","folder":"tf","game":"Team Fortress","app_id":440,"player_count":0,"max_players":24,"Bots":0,"server_type":"Dedicated","server_os":"Linux","password":true,"vac":true,"version":"7961495","steam_id":85568392924742830,"keywords":["cp","nocrits","nodmgspread","uncletopia"],"game_id":440,"stv_port":27066,"stv_name":"Uncletopia | London | 6 | All Maps | STV","players":null},{"server_id":40,"name":"Uncletopia | London | 7 | Stopwatch","name_short":"lon-7","host":"lon-1.uk.uncletopia.com","port":27075,"enabled":true,"region":"eu","cc":"gb","latitude":51.509865,"longitude":-0.118092,"reserved":0,"last_update":"0001-01-01T00:00:00Z","name_a2s":"Uncletopia | London | 7 | Stopwatch","protocol":17,"map":"workshop/koth_clearcut_b15.ugc2107050255","folder":"tf","game":"Team Fortress","app_id":440,"player_count":0,"max_players":24,"Bots":0,"server_type":"Dedicated","server_os":"Linux","password":true,"vac":true,"version":"7961495","steam_id":85568392924964314,"keywords":["cp","nocrits","nodmgspread","uncletopia"],"game_id":440,"stv_port":27076,"stv_name":"Uncletopia | London | 7 | Stopwatch | STV","players":null},{"server_id":41,"name":"Uncletopia | London | 8 | Community","name_short":"lon-8","host":"lon-1.uk.uncletopia.com","port":27085,"enabled":true,"region":"eu","cc":"gb","latitude":51.509865,"longitude":-0.118092,"reserved":0,"last_update":"0001-01-01T00:00:00Z","name_a2s":"Uncletopia | London | 8 | Community","protocol":17,"map":"workshop/pl_boundary_final1.ugc456799153","folder":"tf","game":"Team Fortress","app_id":440,"player_count":0,"max_players":24,"Bots":0,"server_type":"Dedicated","server_os":"Linux","password":true,"vac":true,"version":"7961495","steam_id":85568392924964315,"keywords":["nocrits","nodmgspread","payload","uncletopia"],"game_id":440,"stv_port":27086,"stv_name":"Uncletopia | London | 8 | Community | STV","players":null},{"server_id":300,"name":"Uncletopia | Montréal | 1 | One Thousand Uncles","name_short":"mtl-1","host":"mtl-1.ca.uncletopia.com","port":27015,"enabled":true,"region":"us-east","cc":"ca","latitude":45.50889,"longitude":-73.56167,"reserved":0,"last_update":"0001-01-01T00:00:00Z","name_a2s":"Uncletopia | Montréal | 1 | One Thousand Uncles","protocol":17,"map":"pl_goldrush","folder":"tf","game":"Team Fortress","app_id":440,"player_count":28,"max_players":32,"Bots":16,"server_type":"Dedicated","server_os":"Linux","password":true,"vac":true,"version":"7961495","steam_id":85568392924500087,"keywords":["alltalk","bots","danepve","increased_maxplayers","norespawntime","payload","uncletopia"],"game_id":440,"stv_port":0,"stv_name":"","players":[{"user_id":406,"name":"Linguard","steam_id":76561198406757557,"connected_time":1437000000000,"state":"active","ping":38},{"user_id":369,"name":"Rhutebeer","steam_id":76561198018302761,"connected_time":3192000000000,"state":"active","ping":101},{"user_id":407,"name":"herobrineeko","steam_id":76561199112198245,"connected_time":1171000000000,"state":"active","ping":74},{"user_id":370,"name":"A4Brogan","steam_id":76561198010225078,"connected_time":3018000000000,"state":"active","ping":69},{"user_id":409,"name":"Albert Whiskers","steam_id":76561198124081839,"connected_time":1087000000000,"state":"active","ping":76},{"user_id":401,"name":"Im Groot","steam_id":76561198294943420,"connected_time":1893000000000,"state":"active","ping":91},{"user_id":399,"name":"Ze Healing","steam_id":76561198292152075,"connected_time":1921000000000,"state":"active","ping":54},{"user_id":400,"name":"Canada Dry (Makkis)","steam_id":76561198203590980,"connected_time":1909000000000,"state":"active","ping":60},{"user_id":410,"name":"wylss.","steam_id":76561198234851276,"connected_time":978000000000,"state":"active","ping":68},{"user_id":403,"name":"BIG 8 ginger ale (Owensters)","steam_id":76561198406408404,"connected_time":1781000000000,"state":"active","ping":298},{"user_id":413,"name":"morbidly a beast","steam_id":76561198061653298,"connected_time":211000000000,"state":"active","ping":58},{"user_id":414,"name":"Boykissing Gaming","steam_id":76561199504472610,"connected_time":37000000000,"state":"active","ping":114}]},{"server_id":301,"name":"Uncletopia | Montréal | 2 | One Thousand Uncles","name_short":"mtl-2","host":"mtl-1.ca.uncletopia.com","port":27025,"enabled":true,"region":"us-east","cc":"ca","latitude":45.50889,"longitude":-73.56167,"reserved":0,"last_update":"0001-01-01T00:00:00Z","name_a2s":"Uncletopia | Montréal | 2 | One Thousand Uncles","protocol":17,"map":"pl_chilly","folder":"tf","game":"Team Fortress","app_id":440,"player_count":0,"max_players":32,"Bots":0,"server_type":"Dedicated","server_os":"Linux","password":true,"vac":true,"version":"7961495","steam_id":85568392924500088,"keywords":["alltalk","danepve","increased_maxplayers","norespawntime","payload","uncletopia"],"game_id":440,"stv_port":0,"stv_name":"","players":null},{"server_id":302,"name":"Uncletopia | Montréal | 3 | One Thousand Uncles","name_short":"mtl-3","host":"mtl-1.ca.uncletopia.com","port":27035,"enabled":true,"region":"us-east","cc":"ca","latitude":45.50889,"longitude":-73.56167,"reserved":0,"last_update":"0001-01-01T00:00:00Z","name_a2s":"Uncletopia | Montréal | 3 | One Thousand Uncles","protocol":17,"map":"pl_upward","folder":"tf","game":"Team Fortress","app_id":440,"player_count":21,"max_players":32,"Bots":16,"server_type":"Dedicated","server_os":"Linux","password":true,"vac":true,"version":"7961495","steam_id":85568392924500089,"keywords":["alltalk","bots","danepve","increased_maxplayers","norespawntime","payload","uncletopia"],"game_id":440,"stv_port":0,"stv_name":"","players":[{"user_id":182,"name":"kevin_minion","steam_id":76561198801147541,"connected_time":5060000000000,"state":"active","ping":88},{"user_id":171,"name":"bruhuk obama","steam_id":76561199465581064,"connected_time":8173000000000,"state":"active","ping":86},{"user_id":192,"name":"jg125","steam_id":76561198824953530,"connected_time":403000000000,"state":"active","ping":145},{"user_id":188,"name":"gamer.mephit","steam_id":76561199112861361,"connected_time":2166000000000,"state":"active","ping":89},{"user_id":193,"name":"algebruh","steam_id":76561199379415267,"connected_time":94000000000,"state":"active","ping":69}]},{"server_id":13,"name":"Uncletopia | New York City | 1 | All Maps","name_short":"nyc-1","host":"nyc-1.us.uncletopia.com","port":27015,"enabled":true,"region":"us-east","cc":"us","latitude":40.73061,"longitude":-73.93524,"reserved":0,"last_update":"0001-01-01T00:00:00Z","name_a2s":"Uncletopia | New York City | 1 | All Maps","protocol":17,"map":"cp_process_final","folder":"tf","game":"Team Fortress","app_id":440,"player_count":25,"max_players":24,"Bots":0,"server_type":"Dedicated","server_os":"Linux","password":true,"vac":true,"version":"7961495","steam_id":85568392924469993,"keywords":["cp","nocrits","nodmgspread","uncletopia"],"game_id":440,"stv_port":27016,"stv_name":"Uncletopia | New York City | 1 | All Maps | STV","players":[{"user_id":64,"name":"The State of Yo","steam_id":76561198057420746,"connected_time":1924000000000,"state":"active","ping":67},{"user_id":61,"name":"bingus cheese","steam_id":76561198069010944,"connected_time":1968000000000,"state":"active","ping":74},{"user_id":62,"name":"TheGingerOne","steam_id":76561198354203847,"connected_time":1961000000000,"state":"active","ping":74},{"user_id":114,"name":"GooBer","steam_id":76561198402241505,"connected_time":195000000000,"state":"active","ping":79},{"user_id":107,"name":"Mattie43","steam_id":76561198012053433,"connected_time":397000000000,"state":"active","ping":35},{"user_id":67,"name":"CringeyGamer1234","steam_id":76561199076168023,"connected_time":1866000000000,"state":"active","ping":94},{"user_id":104,"name":"Samrizo el Chorizo","steam_id":76561198009838162,"connected_time":481000000000,"state":"active","ping":40},{"user_id":105,"name":"FLiP aSiAN coNneCtioNz+-","steam_id":76561198120757569,"connected_time":468000000000,"state":"active","ping":60},{"user_id":110,"name":"toastman","steam_id":76561198207073088,"connected_time":284000000000,"state":"active","ping":72},{"user_id":90,"name":"the infected....","steam_id":76561198110314362,"connected_time":836000000000,"state":"active","ping":62},{"user_id":91,"name":"SpaceSanctum","steam_id":76561198805242305,"connected_time":736000000000,"state":"active","ping":45},{"user_id":79,"name":"Dann1526","steam_id":76561199121864838,"connected_time":1371000000000,"state":"active","ping":52},{"user_id":111,"name":"LocaKola","steam_id":76561198173435430,"connected_time":264000000000,"state":"active","ping":52},{"user_id":88,"name":"i hate my bitchmade son","steam_id":76561198044034546,"connected_time":956000000000,"state":"active","ping":57},{"user_id":92,"name":"googa","steam_id":76561198133130452,"connected_time":732000000000,"state":"active","ping":45},{"user_id":112,"name":"Xlander","steam_id":76561199345823430,"connected_time":235000000000,"state":"active","ping":44},{"user_id":94,"name":"Jim Jimson","steam_id":76561199086930078,"connected_time":622000000000,"state":"active","ping":90},{"user_id":96,"name":"㋛ countblanc","steam_id":76561197993171771,"connected_time":608000000000,"state":"active","ping":60},{"user_id":115,"name":"FireStormDarkClash","steam_id":76561198066476188,"connected_time":6000000000,"state":"spawning","ping":47},{"user_id":99,"name":"ToyBox","steam_id":76561199074735423,"connected_time":584000000000,"state":"active","ping":52},{"user_id":100,"name":"TheGrassMan (He/Him)","steam_id":76561198118984048,"connected_time":578000000000,"state":"active","ping":62},{"user_id":101,"name":"Bombbird205","steam_id":76561198342953540,"connected_time":567000000000,"state":"active","ping":74},{"user_id":102,"name":"Sailedpiano","steam_id":76561198093961225,"connected_time":550000000000,"state":"active","ping":86},{"user_id":109,"name":"ThatOneKaiser","steam_id":76561198799231254,"connected_time":313000000000,"state":"active","ping":56},{"user_id":116,"name":"heheheheheh","steam_id":76561198884486994,"connected_time":6000000000,"state":"spawning","ping":63}]},{"server_id":14,"name":"Uncletopia | New York City | 2 | All Maps","name_short":"nyc-2","host":"nyc-1.us.uncletopia.com","port":27025,"enabled":true,"region":"us-east","cc":"us","latitude":40.73061,"longitude":-73.93524,"reserved":0,"last_update":"0001-01-01T00:00:00Z","name_a2s":"Uncletopia | New York City | 2 | All Maps","protocol":17,"map":"cp_dustbowl","folder":"tf","game":"Team Fortress","app_id":440,"player_count":24,"max_players":24,"Bots":0,"server_type":"Dedicated","server_os":"Linux","password":true,"vac":true,"version":"7961495","steam_id":85568392924469994,"keywords":["cp","nocrits","nodmgspread","uncletopia"],"game_id":440,"stv_port":27026,"stv_name":"Uncletopia | New York City | 2 | All Maps | STV","players":[{"user_id":191,"name":"Owen","steam_id":76561198025446908,"connected_time":1275000000000,"state":"active","ping":47},{"user_id":180,"name":"ndvr (femboy (REAL))","steam_id":76561199379200102,"connected_time":1530000000000,"state":"active","ping":43},{"user_id":202,"name":"maelis","steam_id":76561198008673282,"connected_time":138000000000,"state":"active","ping":46},{"user_id":178,"name":"-π- BakaD","steam_id":76561197960559169,"connected_time":1786000000000,"state":"active","ping":49},{"user_id":193,"name":"Belgorod Border Patrol Agent","steam_id":76561199134895220,"connected_time":1071000000000,"state":"active","ping":46},{"user_id":155,"name":"Al Cabone","steam_id":76561198956823243,"connected_time":4036000000000,"state":"active","ping":58},{"user_id":195,"name":"Sin","steam_id":76561198940055557,"connected_time":993000000000,"state":"active","ping":48},{"user_id":194,"name":"Satan-2","steam_id":76561199231742764,"connected_time":1063000000000,"state":"active","ping":49},{"user_id":181,"name":"Gaiduk","steam_id":76561198112323877,"connected_time":1527000000000,"state":"active","ping":78},{"user_id":197,"name":"KingsCastle44","steam_id":76561198343256870,"connected_time":809000000000,"state":"active","ping":45},{"user_id":182,"name":"Lord_HoboJo","steam_id":76561198039800002,"connected_time":1526000000000,"state":"active","ping":53},{"user_id":176,"name":"Toast","steam_id":76561199207957224,"connected_time":2081000000000,"state":"active","ping":103},{"user_id":163,"name":"nhbiker","steam_id":76561198081277675,"connected_time":2962000000000,"state":"active","ping":45},{"user_id":199,"name":"Goodjt","steam_id":76561198108357204,"connected_time":703000000000,"state":"active","ping":61},{"user_id":204,"name":"Jermaphobe","steam_id":76561198121831789,"connected_time":69000000000,"state":"active","ping":68},{"user_id":108,"name":"Harry S. Truman","steam_id":76561197993339757,"connected_time":7276000000000,"state":"active","ping":59},{"user_id":184,"name":"Chewbacca","steam_id":76561198041927925,"connected_time":1508000000000,"state":"active","ping":47},{"user_id":99,"name":"Bootes","steam_id":76561197968255551,"connected_time":7600000000000,"state":"active","ping":51},{"user_id":196,"name":"izzydex","steam_id":76561199101531034,"connected_time":852000000000,"state":"active","ping":75},{"user_id":121,"name":"Fishybros","steam_id":76561198182045699,"connected_time":6226000000000,"state":"active","ping":48},{"user_id":192,"name":"Sone","steam_id":76561198069601032,"connected_time":1150000000000,"state":"active","ping":60},{"user_id":177,"name":"PiRA","steam_id":76561197962440292,"connected_time":2000000000000,"state":"active","ping":63},{"user_id":201,"name":"Rummy the Blargh-gineer","steam_id":76561197997192800,"connected_time":146000000000,"state":"active","ping":55},{"user_id":158,"name":"Draconis","steam_id":76561198151381256,"connected_time":3435000000000,"state":"active","ping":66}]},{"server_id":15,"name":"Uncletopia | New York City | 3 | Stopwatch","name_short":"nyc-3","host":"nyc-1.us.uncletopia.com","port":27035,"enabled":true,"region":"us-east","cc":"us","latitude":40.73061,"longitude":-73.93524,"reserved":0,"last_update":"0001-01-01T00:00:00Z","name_a2s":"Uncletopia | New York City | 3 | Stopwatch","protocol":17,"map":"workshop/cp_reckoner_rc6.ugc674719999","folder":"tf","game":"Team Fortress","app_id":440,"player_count":0,"max_players":24,"Bots":0,"server_type":"Dedicated","server_os":"Linux","password":true,"vac":true,"version":"7961495","steam_id":85568392924742820,"keywords":["cp","nocrits","nodmgspread","uncletopia"],"game_id":440,"stv_port":27036,"stv_name":"Uncletopia | New York City | 3 | Stopwatch | STV","players":null},{"server_id":16,"name":"Uncletopia | New York City | 4 | Community","name_short":"nyc-4","host":"nyc-1.us.uncletopia.com","port":27045,"enabled":true,"region":"us-east","cc":"us","latitude":40.73061,"longitude":-73.93524,"reserved":0,"last_update":"0001-01-01T00:00:00Z","name_a2s":"Uncletopia | New York City | 4 | Community","protocol":17,"map":"workshop/cp_coilblaze_rc7.ugc1272700588","folder":"tf","game":"Team Fortress","app_id":440,"player_count":0,"max_players":24,"Bots":0,"server_type":"Dedicated","server_os":"Linux","password":true,"vac":true,"version":"7961495","steam_id":85568392924742821,"keywords":["cp","nocrits","nodmgspread","uncletopia"],"game_id":440,"stv_port":27046,"stv_name":"Uncletopia | New York City | 4 | Community | STV","players":null},{"server_id":142,"name":"Uncletopia | São Paulo | 1 | All Maps","name_short":"sao-1","host":"sao-1.br.uncletopia.com","port":27015,"enabled":true,"region":"sa","cc":"br","latitude":-23.533773,"longitude":-46.62529,"reserved":0,"last_update":"0001-01-01T00:00:00Z","name_a2s":"Uncletopia | São Paulo | 1 | All Maps","protocol":17,"map":"koth_cascade","folder":"tf","game":"Team Fortress","app_id":440,"player_count":0,"max_players":24,"Bots":0,"server_type":"Dedicated","server_os":"Linux","password":true,"vac":true,"version":"7961495","steam_id":85568392924469996,"keywords":["cp","nocrits","nodmgspread","uncletopia"],"game_id":440,"stv_port":27016,"stv_name":"Uncletopia | São Paulo | 1 | All Maps | STV","players":null},{"server_id":143,"name":"Uncletopia | São Paulo | 2 | Community","name_short":"sao-2","host":"sao-2.br.uncletopia.com","port":27015,"enabled":true,"region":"sa","cc":"br","latitude":-23.533773,"longitude":-46.62529,"reserved":0,"last_update":"0001-01-01T00:00:00Z","name_a2s":"Uncletopia | São Paulo | 2 | Community","protocol":17,"map":"workshop/koth_product_final.ugc454272353","folder":"tf","game":"Team Fortress","app_id":440,"player_count":0,"max_players":24,"Bots":0,"server_type":"Dedicated","server_os":"Linux","password":true,"vac":true,"version":"7961495","steam_id":85568392924485349,"keywords":["cp","nocrits","nodmgspread","uncletopia"],"game_id":440,"stv_port":27016,"stv_name":"Uncletopia | São Paulo | 2 | Community | STV","players":null},{"server_id":7,"name":"Uncletopia | Seattle | 1 | All Maps","name_short":"sea-1","host":"sea-1.us.uncletopia.com","port":27015,"enabled":true,"region":"us-west","cc":"us","latitude":47.608013,"longitude":-122.33517,"reserved":0,"last_update":"0001-01-01T00:00:00Z","name_a2s":"Uncletopia | Seattle | 1 | All Maps","protocol":17,"map":"pl_badwater","folder":"tf","game":"Team Fortress","app_id":440,"player_count":24,"max_players":24,"Bots":0,"server_type":"Dedicated","server_os":"Linux","password":true,"vac":true,"version":"7961495","steam_id":85568392924469997,"keywords":["nocrits","nodmgspread","payload","uncletopia"],"game_id":440,"stv_port":27016,"stv_name":"Uncletopia | Seattle | 1 | All Maps | STV","players":[{"user_id":578,"name":"The Businessman","steam_id":76561198352531234,"connected_time":655000000000,"state":"active","ping":81},{"user_id":558,"name":"pudge","steam_id":76561198372513219,"connected_time":1653000000000,"state":"active","ping":51},{"user_id":567,"name":"OGBobbyJohns","steam_id":76561197964339077,"connected_time":930000000000,"state":"active","ping":48},{"user_id":535,"name":"Dextersbrain","steam_id":76561198011831579,"connected_time":3336000000000,"state":"active","ping":49},{"user_id":543,"name":"Dongus","steam_id":76561197979056451,"connected_time":2900000000000,"state":"active","ping":57},{"user_id":531,"name":"perfectemu","steam_id":76561199147866624,"connected_time":4013000000000,"state":"active","ping":103},{"user_id":560,"name":"Aardappel","steam_id":76561198030894676,"connected_time":1512000000000,"state":"active","ping":60},{"user_id":583,"name":"Can of Oranges","steam_id":76561199121813529,"connected_time":540000000000,"state":"active","ping":43},{"user_id":532,"name":"tmm (theManMan)","steam_id":76561199488457138,"connected_time":3997000000000,"state":"active","ping":55},{"user_id":584,"name":"Set","steam_id":76561198063949642,"connected_time":535000000000,"state":"active","ping":42},{"user_id":585,"name":"ono","steam_id":76561198024377986,"connected_time":532000000000,"state":"active","ping":77},{"user_id":580,"name":"Sleuth","steam_id":76561198418288939,"connected_time":590000000000,"state":"active","ping":63},{"user_id":587,"name":"ronald","steam_id":76561197960691622,"connected_time":345000000000,"state":"active","ping":77},{"user_id":486,"name":"Nom Skirrett","steam_id":76561198014600788,"connected_time":7935000000000,"state":"active","ping":63},{"user_id":515,"name":"MrYadaization","steam_id":76561198050770818,"connected_time":5848000000000,"state":"active","ping":57},{"user_id":581,"name":"J O S H³²","steam_id":76561198122603779,"connected_time":583000000000,"state":"active","ping":82},{"user_id":577,"name":"Throws Before Bros󠀡","steam_id":76561197992905530,"connected_time":685000000000,"state":"active","ping":59},{"user_id":582,"name":"Krow Lincoln","steam_id":76561198085410622,"connected_time":580000000000,"state":"active","ping":43},{"user_id":538,"name":"SolarusD","steam_id":76561198029279861,"connected_time":3094000000000,"state":"active","ping":66},{"user_id":566,"name":"Cat on the Moon","steam_id":76561198272661627,"connected_time":1056000000000,"state":"active","ping":73},{"user_id":586,"name":"StockLlama","steam_id":76561199155283653,"connected_time":531000000000,"state":"active","ping":53},{"user_id":576,"name":"Copy","steam_id":76561198025031590,"connected_time":714000000000,"state":"active","ping":48},{"user_id":579,"name":"Toastedtoast222","steam_id":76561198120756409,"connected_time":653000000000,"state":"active","ping":65},{"user_id":564,"name":"minerkid2004","steam_id":76561198044262827,"connected_time":1271000000000,"state":"active","ping":66}]},{"server_id":119,"name":"Uncletopia | Seattle | 2 | All Maps","name_short":"sea-2","host":"sea-1.us.uncletopia.com","port":27025,"enabled":true,"region":"us-west","cc":"us","latitude":47.608013,"longitude":-122.33517,"reserved":0,"last_update":"0001-01-01T00:00:00Z","name_a2s":"Uncletopia | Seattle | 2 | All Maps","protocol":17,"map":"koth_lakeside_final","folder":"tf","game":"Team Fortress","app_id":440,"player_count":0,"max_players":24,"Bots":0,"server_type":"Dedicated","server_os":"Linux","password":true,"vac":true,"version":"7961495","steam_id":85568392924469998,"keywords":["cp","nocrits","nodmgspread","uncletopia"],"game_id":440,"stv_port":27026,"stv_name":"Uncletopia | Seattle | 2 | All Maps | STV","players":null},{"server_id":406,"name":"Uncletopia | Seattle | 3 | Stopwatch","name_short":"sea-3","host":"sea-1.us.uncletopia.com","port":27035,"enabled":true,"region":"us-west","cc":"us","latitude":47.608013,"longitude":-122.33517,"reserved":0,"last_update":"0001-01-01T00:00:00Z","name_a2s":"Uncletopia | Seattle | 3 | Stopwatch","protocol":17,"map":"workshop/koth_jamram_rc1a.ugc2964065613","folder":"tf","game":"Team Fortress","app_id":440,"player_count":0,"max_players":24,"Bots":0,"server_type":"Dedicated","server_os":"Linux","password":true,"vac":true,"version":"7961495","steam_id":85568392924515217,"keywords":["cp","nocrits","nodmgspread","uncletopia"],"game_id":440,"stv_port":27036,"stv_name":"Uncletopia | Seattle | 3 | Stopwatch | STV","players":null},{"server_id":17,"name":"Uncletopia | San Francisco | 1 | All Maps","name_short":"sfo-1","host":"sfo-1.us.uncletopia.com","port":27015,"enabled":true,"region":"us-west","cc":"us","latitude":37.77397,"longitude":-122.4313,"reserved":0,"last_update":"0001-01-01T00:00:00Z","name_a2s":"Uncletopia | San Francisco | 1 | All Maps","protocol":17,"map":"pl_frontier_final","folder":"tf","game":"Team Fortress","app_id":440,"player_count":24,"max_players":24,"Bots":0,"server_type":"Dedicated","server_os":"Linux","password":true,"vac":true,"version":"7961495","steam_id":85568392924469999,"keywords":["nocrits","nodmgspread","payload","uncletopia"],"game_id":440,"stv_port":27016,"stv_name":"Uncletopia | San Francisco | 1 | All Maps | STV","players":[{"user_id":77,"name":"Liminality","steam_id":76561198002601402,"connected_time":1749000000000,"state":"active","ping":46},{"user_id":72,"name":"Buswolley","steam_id":76561197995205571,"connected_time":1869000000000,"state":"active","ping":35},{"user_id":70,"name":"👁 sumixodic","steam_id":76561198090770710,"connected_time":2601000000000,"state":"active","ping":64},{"user_id":96,"name":"Laventhey","steam_id":76561198977523626,"connected_time":44000000000,"state":"active","ping":63},{"user_id":90,"name":"Kia_the_car","steam_id":76561198882171095,"connected_time":1177000000000,"state":"active","ping":73},{"user_id":91,"name":"bottom pride burger","steam_id":76561198322247602,"connected_time":1086000000000,"state":"active","ping":53},{"user_id":67,"name":"Always Here for You","steam_id":76561198219252313,"connected_time":2917000000000,"state":"active","ping":119},{"user_id":81,"name":"bigchungusgaming(real)","steam_id":76561198273392037,"connected_time":1616000000000,"state":"active","ping":54},{"user_id":73,"name":"NASA PEEPO","steam_id":76561198024982267,"connected_time":1865000000000,"state":"active","ping":46},{"user_id":92,"name":"Stoopnagle","steam_id":76561198011942560,"connected_time":928000000000,"state":"active","ping":62},{"user_id":27,"name":"fish (2:3)","steam_id":76561198134331073,"connected_time":4064000000000,"state":"active","ping":69},{"user_id":82,"name":"udon","steam_id":76561198165872348,"connected_time":1613000000000,"state":"active","ping":62},{"user_id":29,"name":"gas station tweaker","steam_id":76561198264288798,"connected_time":4028000000000,"state":"active","ping":72},{"user_id":62,"name":"Eido","steam_id":76561198057856669,"connected_time":3091000000000,"state":"active","ping":58},{"user_id":83,"name":"Tassde","steam_id":76561197989374405,"connected_time":1607000000000,"state":"active","ping":79},{"user_id":32,"name":"Jaxonian Dante","steam_id":76561198844488869,"connected_time":3923000000000,"state":"active","ping":58},{"user_id":93,"name":"Igrium","steam_id":76561198119549811,"connected_time":589000000000,"state":"active","ping":50},{"user_id":63,"name":"hyejooz 「weather report」","steam_id":76561198050927199,"connected_time":3074000000000,"state":"active","ping":69},{"user_id":35,"name":"Giorno Giovanna","steam_id":76561198044106874,"connected_time":3872000000000,"state":"active","ping":68},{"user_id":36,"name":"PizzaFratello","steam_id":76561199059951970,"connected_time":3858000000000,"state":"active","ping":87},{"user_id":85,"name":"Dallas","steam_id":76561198066542919,"connected_time":1493000000000,"state":"active","ping":73},{"user_id":65,"name":"LeFunnyMan","steam_id":76561199081645289,"connected_time":3010000000000,"state":"active","ping":80},{"user_id":84,"name":"Danzuniverse","steam_id":76561198179817943,"connected_time":1598000000000,"state":"active","ping":77},{"user_id":43,"name":"Ephemeral-chan","steam_id":76561197996001672,"connected_time":3652000000000,"state":"active","ping":56}]},{"server_id":18,"name":"Uncletopia | San Francisco | 2 | All Maps","name_short":"sfo-2","host":"sfo-1.us.uncletopia.com","port":27025,"enabled":true,"region":"us-west","cc":"us","latitude":37.77397,"longitude":-122.4313,"reserved":0,"last_update":"0001-01-01T00:00:00Z","name_a2s":"Uncletopia | San Francisco | 2 | All Maps","protocol":17,"map":"koth_cascade","folder":"tf","game":"Team Fortress","app_id":440,"player_count":0,"max_players":24,"Bots":0,"server_type":"Dedicated","server_os":"Linux","password":true,"vac":true,"version":"7961495","steam_id":85568392924470000,"keywords":["cp","nocrits","nodmgspread","uncletopia"],"game_id":440,"stv_port":27026,"stv_name":"Uncletopia | San Francisco | 2 | All Maps | STV","players":null},{"server_id":19,"name":"Uncletopia | San Francisco | 3 | Stopwatch","name_short":"sfo-3","host":"sfo-1.us.uncletopia.com","port":27035,"enabled":true,"region":"us-west","cc":"us","latitude":37.77397,"longitude":-122.4313,"reserved":0,"last_update":"0001-01-01T00:00:00Z","name_a2s":"Uncletopia | San Francisco | 3 | Stopwatch","protocol":17,"map":"pl_swiftwater_final1","folder":"tf","game":"Team Fortress","app_id":440,"player_count":0,"max_players":24,"Bots":0,"server_type":"Dedicated","server_os":"Linux","password":true,"vac":true,"version":"7961495","steam_id":85568392924742824,"keywords":["nocrits","nodmgspread","payload","uncletopia"],"game_id":440,"stv_port":27036,"stv_name":"Uncletopia | San Francisco | 3 | Stopwatch | STV","players":null},{"server_id":20,"name":"Uncletopia | San Francisco | 4 | Community","name_short":"sfo-4","host":"sfo-1.us.uncletopia.com","port":27045,"enabled":true,"region":"us-west","cc":"us","latitude":37.77397,"longitude":-122.4313,"reserved":0,"last_update":"0001-01-01T00:00:00Z","name_a2s":"Uncletopia | San Francisco | 4 | Community","protocol":17,"map":"workshop/pl_shoreleave_rc2.ugc1238849347","folder":"tf","game":"Team Fortress","app_id":440,"player_count":0,"max_players":24,"Bots":0,"server_type":"Dedicated","server_os":"Linux","password":true,"vac":true,"version":"7961495","steam_id":85568392924742826,"keywords":["nocrits","nodmgspread","payload","uncletopia"],"game_id":440,"stv_port":27046,"stv_name":"Uncletopia | San Francisco | 4 | Community | STV","players":null},{"server_id":141,"name":"Uncletopia | Sydney | 1 | All Maps","name_short":"syd-1","host":"syd-1.au.uncletopia.com","port":27015,"enabled":true,"region":"au","cc":"au","latitude":-33.865143,"longitude":151.2099,"reserved":0,"last_update":"0001-01-01T00:00:00Z","name_a2s":"Uncletopia | Sydney | 1 | All Maps","protocol":17,"map":"koth_nucleus","folder":"tf","game":"Team Fortress","app_id":440,"player_count":0,"max_players":24,"Bots":0,"server_type":"Dedicated","server_os":"Linux","password":true,"vac":true,"version":"7961495","steam_id":85568392924470001,"keywords":["cp","nocrits","nodmgspread","uncletopia"],"game_id":440,"stv_port":27016,"stv_name":"Uncletopia | Sydney | 1 | All Maps | STV","players":null},{"server_id":123,"name":"Uncletopia | Sydney | 2 | All Maps","name_short":"syd-2","host":"syd-1.au.uncletopia.com","port":27025,"enabled":true,"region":"au","cc":"au","latitude":-33.865143,"longitude":151.2099,"reserved":0,"last_update":"0001-01-01T00:00:00Z","name_a2s":"Uncletopia | Sydney | 2 | All Maps","protocol":17,"map":"cp_fastlane","folder":"tf","game":"Team Fortress","app_id":440,"player_count":0,"max_players":24,"Bots":0,"server_type":"Dedicated","server_os":"Linux","password":true,"vac":true,"version":"7961495","steam_id":85568392924470002,"keywords":["cp","nocrits","nodmgspread","uncletopia"],"game_id":440,"stv_port":27026,"stv_name":"Uncletopia | Sydney | 2 | All Maps | STV","players":null},{"server_id":395,"name":"Uncletopia | Sydney | 3 | All Maps","name_short":"syd-3","host":"syd-1.au.uncletopia.com","port":27035,"enabled":true,"region":"au","cc":"au","latitude":-33.865143,"longitude":151.2099,"reserved":0,"last_update":"0001-01-01T00:00:00Z","name_a2s":"Uncletopia | Sydney | 3 | All Maps","protocol":17,"map":"cp_metalworks","folder":"tf","game":"Team Fortress","app_id":440,"player_count":0,"max_players":24,"Bots":0,"server_type":"Dedicated","server_os":"Linux","password":true,"vac":true,"version":"7961495","steam_id":85568392925194467,"keywords":["cp","nocrits","nodmgspread","uncletopia"],"game_id":440,"stv_port":27036,"stv_name":"Uncletopia | Sydney | 3 | All Maps | STV","players":null},{"server_id":396,"name":"Uncletopia | Sydney | 4 | All Maps","name_short":"syd-4","host":"syd-1.au.uncletopia.com","port":27045,"enabled":true,"region":"au","cc":"au","latitude":-33.865143,"longitude":151.2099,"reserved":0,"last_update":"0001-01-01T00:00:00Z","name_a2s":"Uncletopia | Sydney | 4 | All Maps","protocol":17,"map":"koth_cascade","folder":"tf","game":"Team Fortress","app_id":440,"player_count":0,"max_players":24,"Bots":0,"server_type":"Dedicated","server_os":"Linux","password":true,"vac":true,"version":"7961495","steam_id":85568392925397958,"keywords":["cp","nocrits","nodmgspread","uncletopia"],"game_id":440,"stv_port":27046,"stv_name":"Uncletopia | Sydney | 4 | All Maps | STV","players":null},{"server_id":58,"name":"Uncletopia | Sydney | 5 | Stopwatch","name_short":"syd-5","host":"syd-1.au.uncletopia.com","port":27055,"enabled":true,"region":"au","cc":"au","latitude":-33.865143,"longitude":151.2099,"reserved":0,"last_update":"0001-01-01T00:00:00Z","name_a2s":"Uncletopia | Sydney | 5 | Stopwatch","protocol":17,"map":"workshop/koth_product_final.ugc454272353","folder":"tf","game":"Team Fortress","app_id":440,"player_count":0,"max_players":24,"Bots":0,"server_type":"Dedicated","server_os":"Linux","password":true,"vac":true,"version":"7961495","steam_id":85568392925397959,"keywords":["cp","nocrits","nodmgspread","uncletopia"],"game_id":440,"stv_port":27056,"stv_name":"Uncletopia | Sydney | 5 | Stopwatch | STV","players":null},{"server_id":59,"name":"Uncletopia | Sydney | 6 | Community","name_short":"syd-6","host":"syd-1.au.uncletopia.com","port":27065,"enabled":true,"region":"au","cc":"au","latitude":-33.865143,"longitude":151.2099,"reserved":0,"last_update":"0001-01-01T00:00:00Z","name_a2s":"Uncletopia | Sydney | 6 | Community","protocol":17,"map":"workshop/koth_trenchfoot_ab1.ugc731436616","folder":"tf","game":"Team Fortress","app_id":440,"player_count":0,"max_players":24,"Bots":0,"server_type":"Dedicated","server_os":"Linux","password":true,"vac":true,"version":"7961495","steam_id":85568392925397960,"keywords":["cp","nocrits","nodmgspread","uncletopia"],"game_id":440,"stv_port":27066,"stv_name":"Uncletopia | Sydney | 6 | Community | STV","players":null},{"server_id":49,"name":"Uncletopia | Warsaw | 1 | One Thousand Uncles","name_short":"waw-1","host":"waw-1.pl.uncletopia.com","port":27015,"enabled":true,"region":"eu","cc":"pl","latitude":52.2297,"longitude":21.017532,"reserved":0,"last_update":"0001-01-01T00:00:00Z","name_a2s":"Uncletopia | Warsaw | 1 | One Thousand Uncles","protocol":17,"map":"pl_swiftwater_final1","folder":"tf","game":"Team Fortress","app_id":440,"player_count":0,"max_players":32,"Bots":0,"server_type":"Dedicated","server_os":"Linux","password":true,"vac":true,"version":"7961495","steam_id":85568392925397850,"keywords":["alltalk","danepve","increased_maxplayers","norespawntime","payload","uncletopia"],"game_id":440,"stv_port":0,"stv_name":"","players":null},{"server_id":50,"name":"Uncletopia | Warsaw | 2 | One Thousand Uncles","name_short":"waw-2","host":"waw-1.pl.uncletopia.com","port":27025,"enabled":true,"region":"eu","cc":"pl","latitude":52.2297,"longitude":21.017532,"reserved":0,"last_update":"0001-01-01T00:00:00Z","name_a2s":"Uncletopia | Warsaw | 2 | One Thousand Uncles","protocol":17,"map":"pl_pier","folder":"tf","game":"Team Fortress","app_id":440,"player_count":0,"max_players":32,"Bots":0,"server_type":"Dedicated","server_os":"Linux","password":true,"vac":true,"version":"7961495","steam_id":85568392925397851,"keywords":["alltalk","danepve","increased_maxplayers","norespawntime","payload","uncletopia"],"game_id":440,"stv_port":0,"stv_name":"","players":null},{"server_id":51,"name":"Uncletopia | Warsaw | 3 | All Maps","name_short":"waw-3","host":"waw-1.pl.uncletopia.com","port":27035,"enabled":true,"region":"eu","cc":"pl","latitude":52.2297,"longitude":21.017532,"reserved":0,"last_update":"0001-01-01T00:00:00Z","name_a2s":"Uncletopia | Warsaw | 3 | All Maps","protocol":17,"map":"cp_dustbowl","folder":"tf","game":"Team Fortress","app_id":440,"player_count":0,"max_players":24,"Bots":0,"server_type":"Dedicated","server_os":"Linux","password":true,"vac":true,"version":"7961495","steam_id":85568392925397852,"keywords":["cp","nocrits","nodmgspread","uncletopia"],"game_id":440,"stv_port":27036,"stv_name":"Uncletopia | Warsaw | 3 | All Maps | STV","players":null},{"server_id":52,"name":"Uncletopia | Warsaw | 4 | All Maps","name_short":"waw-4","host":"waw-1.pl.uncletopia.com","port":27045,"enabled":true,"region":"eu","cc":"pl","latitude":52.2297,"longitude":21.017532,"reserved":0,"last_update":"0001-01-01T00:00:00Z","name_a2s":"Uncletopia | Warsaw | 4 | All Maps","protocol":17,"map":"koth_cascade","folder":"tf","game":"Team Fortress","app_id":440,"player_count":0,"max_players":24,"Bots":0,"server_type":"Dedicated","server_os":"Linux","password":true,"vac":true,"version":"7961495","steam_id":85568392925397853,"keywords":["cp","nocrits","nodmgspread","uncletopia"],"game_id":440,"stv_port":27046,"stv_name":"Uncletopia | Warsaw | 4 | All Maps | STV","players":null},{"server_id":53,"name":"Uncletopia | Warsaw | 5 | Stopwatch","name_short":"waw-5","host":"waw-1.pl.uncletopia.com","port":27055,"enabled":true,"region":"eu","cc":"pl","latitude":52.2297,"longitude":21.017532,"reserved":0,"last_update":"0001-01-01T00:00:00Z","name_a2s":"Uncletopia | Warsaw | 5 | Stopwatch","protocol":17,"map":"koth_highpass","folder":"tf","game":"Team Fortress","app_id":440,"player_count":0,"max_players":24,"Bots":0,"server_type":"Dedicated","server_os":"Linux","password":true,"vac":true,"version":"7961495","steam_id":85568392925397854,"keywords":["cp","nocrits","nodmgspread","uncletopia"],"game_id":440,"stv_port":27056,"stv_name":"Uncletopia | Warsaw | 5 | Stopwatch | STV","players":null},{"server_id":54,"name":"Uncletopia | Warsaw | 6 | Community","name_short":"waw-6","host":"waw-1.pl.uncletopia.com","port":27065,"enabled":true,"region":"eu","cc":"pl","latitude":52.2297,"longitude":21.017532,"reserved":0,"last_update":"0001-01-01T00:00:00Z","name_a2s":"Uncletopia | Warsaw | 6 | Community","protocol":17,"map":"workshop/cp_overgrown_rc8.ugc503939302","folder":"tf","game":"Team Fortress","app_id":440,"player_count":0,"max_players":24,"Bots":0,"server_type":"Dedicated","server_os":"Linux","password":true,"vac":true,"version":"7961495","steam_id":85568392925397856,"keywords":["cp","nocrits","nodmgspread","uncletopia"],"game_id":440,"stv_port":27066,"stv_name":"Uncletopia | Warsaw | 6 | Community | STV","players":null}]}