{"status":true,"message":"","result":[{"server_id":9,"name":"Uncletopia | Atlanta | 1 | All Maps","name_short":"atl-1","host":"atl-1.us.uncletopia.com","port":27015,"enabled":true,"region":"us-east","cc":"us","latitude":33.753746,"longitude":-84.38633,"reserved":0,"last_update":"0001-01-01T00:00:00Z","name_a2s":"Uncletopia | Atlanta | 1 | All Maps","protocol":17,"map":"pl_badwater","folder":"tf","game":"Team Fortress","app_id":440,"player_count":24,"max_players":24,"Bots":0,"server_type":"Dedicated","server_os":"Linux","password":true,"vac":true,"version":"7723704","steam_id":85568392924469982,"keywords":["nocrits","nodmgspread","payload","uncletopia"],"game_id":440,"stv_port":27016,"stv_name":"Uncletopia | Atlanta | 1 | All Maps | STV","players":[{"user_id":1000,"name":"ATL0 Dedi Le4n!!!","steam_id":76561198045522596,"connected_time":3455000000000,"state":"active","ping":71},{"user_id":932,"name":"stink","steam_id":76561198099318923,"connected_time":4845000000000,"state":"active","ping":77},{"user_id":1094,"name":"MaliconThet","steam_id":76561198403960626,"connected_time":1442000000000,"state":"active","ping":59},{"user_id":900,"name":"ena - d","steam_id":76561198072329335,"connected_time":5760000000000,"state":"active","ping":168},{"user_id":1097,"name":"ATL1 | J O V A","steam_id":76561198090333536,"connected_time":815000000000,"state":"active","ping":74},{"user_id":809,"name":"mommy claus","steam_id":76561199230929836,"connected_time":8527000000000,"state":"active","ping":81},{"user_id":1085,"name":"Luigi4tl","steam_id":76561198051862389,"connected_time":2548000000000,"state":"active","ping":60},{"user_id":999,"name":"LexxyLooLoo","steam_id":76561198958811555,"connected_time":3461000000000,"state":"active","ping":64},{"user_id":1098,"name":"ATL1 | Kramer","steam_id":76561198083595936,"connected_time":378000000000,"state":"active","ping":92},{"user_id":983,"name":"craf","steam_id":76561198163535075,"connected_time":3751000000000,"state":"active","ping":74},{"user_id":683,"name":"ATL1 | eish","steam_id":76561198089463603,"connected_time":14814000000000,"state":"active","ping":126},{"user_id":861,"name":"bogginwater","steam_id":76561198155547142,"connected_time":6449000000000,"state":"active","ping":60},{"user_id":1088,"name":"Lemur","steam_id":76561198065300466,"connected_time":2331000000000,"state":"active","ping":86},{"user_id":1091,"name":"Bingus Gaming","steam_id":76561198035619419,"connected_time":1854000000000,"state":"active","ping":75},{"user_id":991,"name":"Quiggles lft","steam_id":76561199177247655,"connected_time":3651000000000,"state":"active","ping":57},{"user_id":1102,"name":"Admiral Shackleford","steam_id":76561198051952755,"connected_time":6000000000,"state":"spawning","ping":104},{"user_id":1100,"name":"Magpies Know All","steam_id":76561198868286632,"connected_time":118000000000,"state":"active","ping":57},{"user_id":1101,"name":"lu","steam_id":76561198080731872,"connected_time":96000000000,"state":"active","ping":76},{"user_id":801,"name":"Sheembs","steam_id":76561199010524390,"connected_time":9427000000000,"state":"active","ping":54},{"user_id":1092,"name":"☙ Corrupt ❧","steam_id":76561197977631915,"connected_time":1853000000000,"state":"active","ping":70},{"user_id":698,"name":"Twa","steam_id":76561198295529541,"connected_time":13135000000000,"state":"active","ping":70},{"user_id":942,"name":"vid_","steam_id":76561198065159053,"connected_time":4579000000000,"state":"active","ping":52},{"user_id":1096,"name":"NEW AP NO TIMEX","steam_id":76561198904898274,"connected_time":837000000000,"state":"active","ping":66}]},{"server_id":400,"name":"Uncletopia | Atlanta | 3 | Stopwatch Beta","name_short":"atl-3","host":"atl-1.us.uncletopia.com","port":27035,"enabled":true,"region":"us-east","cc":"us","latitude":33.753746,"longitude":-84.38633,"reserved":0,"last_update":"0001-01-01T00:00:00Z","name_a2s":"Uncletopia | Atlanta | 3 | Stopwatch Beta","protocol":17,"map":"workshop/cp_process_f11.ugc2302948105","folder":"tf","game":"Team Fortress","app_id":440,"player_count":19,"max_players":24,"Bots":0,"server_type":"Dedicated","server_os":"Linux","password":true,"vac":true,"version":"7723704","steam_id":85568392924515187,"keywords":["cp","nocrits","nodmgspread","uncletopia"],"game_id":440,"stv_port":27036,"stv_name":"Uncletopia | Atlanta | 3 | Stopwatch Beta | STV","players":[{"user_id":168,"name":"Buttons :)","steam_id":76561198139478534,"connected_time":1001000000000,"state":"active","ping":99},{"user_id":148,"name":"brian emo","steam_id":76561198109901138,"connected_time":3034000000000,"state":"active","ping":77},{"user_id":171,"name":"A Fruit","steam_id":76561198951830050,"connected_time":697000000000,"state":"active","ping":58},{"user_id":184,"name":"WitheringLeo","steam_id":76561198046722918,"connected_time":196000000000,"state":"active","ping":81},{"user_id":145,"name":"Communist Party of Wutville","steam_id":76561198844003641,"connected_time":3285000000000,"state":"active","ping":107},{"user_id":169,"name":"mr.edderkopper","steam_id":76561198152614478,"connected_time":991000000000,"state":"active","ping":97},{"user_id":187,"name":"THE SUN","steam_id":76561198357428939,"connected_time":163000000000,"state":"active","ping":52},{"user_id":134,"name":"Lorelius Hogglefart","steam_id":76561198936120487,"connected_time":3634000000000,"state":"active","ping":111},{"user_id":162,"name":"kob","steam_id":76561198065109021,"connected_time":1639000000000,"state":"active","ping":73},{"user_id":173,"name":"kris736","steam_id":76561198038208255,"connected_time":662000000000,"state":"active","ping":75},{"user_id":129,"name":"Trexolythe","steam_id":76561198047227030,"connected_time":4023000000000,"state":"active","ping":89},{"user_id":183,"name":"totally not a pile of beans","steam_id":76561198119851931,"connected_time":251000000000,"state":"active","ping":67},{"user_id":111,"name":"carrion goat","steam_id":76561198262064871,"connected_time":4630000000000,"state":"active","ping":63},{"user_id":181,"name":"david","steam_id":76561198086889395,"connected_time":399000000000,"state":"active","ping":69},{"user_id":57,"name":"Smuggs","steam_id":76561197999456003,"connected_time":7512000000000,"state":"active","ping":127},{"user_id":178,"name":"Skate","steam_id":76561199377227541,"connected_time":529000000000,"state":"active","ping":69},{"user_id":165,"name":"Bobbn","steam_id":76561198876124683,"connected_time":1415000000000,"state":"active","ping":77},{"user_id":182,"name":"veno","steam_id":76561198110261781,"connected_time":328000000000,"state":"active","ping":68},{"user_id":163,"name":"StarB","steam_id":76561198149605368,"connected_time":1628000000000,"state":"active","ping":72}]},{"server_id":401,"name":"Uncletopia | Atlanta | 4 | No Payload","name_short":"atl-4","host":"atl-1.us.uncletopia.com","port":27045,"enabled":true,"region":"us-east","cc":"us","latitude":33.753746,"longitude":-84.38633,"reserved":0,"last_update":"0001-01-01T00:00:00Z","name_a2s":"Uncletopia | Atlanta | 4 | No Payload","protocol":17,"map":"koth_badlands","folder":"tf","game":"Team Fortress","app_id":440,"player_count":0,"max_players":24,"Bots":0,"server_type":"Dedicated","server_os":"Linux","password":true,"vac":true,"version":"7723704","steam_id":85568392924515188,"keywords":["cp","nocrits","nodmgspread","uncletopia"],"game_id":440,"stv_port":27046,"stv_name":"Uncletopia | Atlanta | 4 | No Payload | STV","players":null},{"server_id":2,"name":"Uncletopia | Chicago | 1 | All Maps","name_short":"chi-1","host":"chi-1.us.uncletopia.com","port":27015,"enabled":true,"region":"us-central","cc":"us","latitude":41.881832,"longitude":-87.62318,"reserved":0,"last_update":"0001-01-01T00:00:00Z","name_a2s":"Uncletopia | Chicago | 1 | All Maps","protocol":17,"map":"pl_wutville_event","folder":"tf","game":"Team Fortress","app_id":440,"player_count":23,"max_players":24,"Bots":0,"server_type":"Dedicated","server_os":"Linux","password":true,"vac":true,"version":"7723704","steam_id":85568392924469984,"keywords":["nocrits","nodmgspread","payload","uncletopia"],"game_id":440,"stv_port":27016,"stv_name":"Uncletopia | Chicago | 1 | All Maps | STV","players":[{"user_id":670,"name":"420_xXx_HEADSHOTZ_ONLY_xXx_420","steam_id":76561198059602545,"connected_time":1551000000000,"state":"active","ping":46},{"user_id":679,"name":"Richard Cheddar","steam_id":76561198097425350,"connected_time":106000000000,"state":"active","ping":50},{"user_id":664,"name":"doofenshmirtz","steam_id":76561198447100051,"connected_time":1799000000000,"state":"active","ping":56},{"user_id":634,"name":"SparksKitsune","steam_id":76561198066890691,"connected_time":3863000000000,"state":"active","ping":61},{"user_id":657,"name":"THE CUM WIZARD","steam_id":76561198131532406,"connected_time":2501000000000,"state":"active","ping":86},{"user_id":672,"name":"IDKonnie","steam_id":76561198317602350,"connected_time":1120000000000,"state":"active","ping":72},{"user_id":653,"name":"Myracle","steam_id":76561198070916920,"connected_time":2861000000000,"state":"active","ping":47},{"user_id":674,"name":"CHIPS","steam_id":76561199085414584,"connected_time":974000000000,"state":"active","ping":57},{"user_id":585,"name":"Ademar","steam_id":76561199391802581,"connected_time":7682000000000,"state":"active","ping":59},{"user_id":676,"name":"Tyco","steam_id":76561197978414167,"connected_time":336000000000,"state":"active","ping":71},{"user_id":667,"name":"richard clock","steam_id":76561198048455671,"connected_time":1730000000000,"state":"active","ping":59},{"user_id":662,"name":"xJx","steam_id":76561199211753062,"connected_time":2308000000000,"state":"active","ping":81},{"user_id":680,"name":"Smet19","steam_id":76561198118455606,"connected_time":74000000000,"state":"active","ping":63},{"user_id":669,"name":"Torque","steam_id":76561197997551936,"connected_time":1682000000000,"state":"active","ping":77},{"user_id":678,"name":"Jacck916","steam_id":76561198176874157,"connected_time":139000000000,"state":"active","ping":112},{"user_id":576,"name":"Now I'm a Little Motivated","steam_id":76561198069580305,"connected_time":8608000000000,"state":"active","ping":46},{"user_id":567,"name":"pie gaming","steam_id":76561198072592880,"connected_time":9349000000000,"state":"active","ping":44},{"user_id":593,"name":"IIP","steam_id":76561198286102406,"connected_time":7136000000000,"state":"active","ping":61},{"user_id":681,"name":"Daksuki","steam_id":76561198084127751,"connected_time":7000000000,"state":"spawning","ping":120},{"user_id":658,"name":"Hellgasims","steam_id":76561198028289883,"connected_time":2494000000000,"state":"active","ping":90},{"user_id":675,"name":"KingTinkerer","steam_id":76561198226856548,"connected_time":795000000000,"state":"active","ping":81},{"user_id":660,"name":"Phillip Jeffries","steam_id":76561198064052174,"connected_time":2435000000000,"state":"active","ping":61},{"user_id":525,"name":"Astoriæ!","steam_id":76561199090168858,"connected_time":12185000000000,"state":"active","ping":59}]},{"server_id":106,"name":"Uncletopia | Chicago | 2 | All Maps","name_short":"chi-2","host":"chi-1.us.uncletopia.com","port":27025,"enabled":true,"region":"us-central","cc":"us","latitude":41.881832,"longitude":-87.62318,"reserved":0,"last_update":"0001-01-01T00:00:00Z","name_a2s":"Uncletopia | Chicago | 2 | All Maps","protocol":17,"map":"cp_dustbowl","folder":"tf","game":"Team Fortress","app_id":440,"player_count":21,"max_players":24,"Bots":0,"server_type":"Dedicated","server_os":"Linux","password":true,"vac":true,"version":"7723704","steam_id":85568392924469985,"keywords":["cp","nocrits","nodmgspread","uncletopia"],"game_id":440,"stv_port":27026,"stv_name":"Uncletopia | Chicago | 2 | All Maps | STV","players":[{"user_id":558,"name":"MedRed™ #IATAH","steam_id":76561198002962970,"connected_time":272000000000,"state":"active","ping":97},{"user_id":566,"name":"Prison mike","steam_id":76561198408774196,"connected_time":98000000000,"state":"active","ping":77},{"user_id":552,"name":"300 Ping Gaming [WLP]","steam_id":76561199042160997,"connected_time":1555000000000,"state":"active","ping":135},{"user_id":503,"name":"Bear bird","steam_id":76561198166769479,"connected_time":6377000000000,"state":"active","ping":85},{"user_id":518,"name":"Space⭐Taffy","steam_id":76561198002271720,"connected_time":5083000000000,"state":"active","ping":55},{"user_id":548,"name":"「Saint」","steam_id":76561198241943070,"connected_time":2232000000000,"state":"active","ping":73},{"user_id":559,"name":"superplayer1113","steam_id":76561199446688578,"connected_time":271000000000,"state":"active","ping":59},{"user_id":544,"name":"oakosaurus rex","steam_id":76561198092135570,"connected_time":2274000000000,"state":"active","ping":68},{"user_id":560,"name":"Abbreviated","steam_id":76561198088423054,"connected_time":244000000000,"state":"active","ping":68},{"user_id":530,"name":"Second Hand Smoke Gaming","steam_id":76561198380926090,"connected_time":3580000000000,"state":"active","ping":46},{"user_id":562,"name":"Mommy Cloud Audios Gaming","steam_id":76561198880304614,"connected_time":143000000000,"state":"active","ping":51},{"user_id":564,"name":"Lots0","steam_id":76561198043143145,"connected_time":133000000000,"state":"active","ping":81},{"user_id":546,"name":"McNamJam","steam_id":76561198028128686,"connected_time":2262000000000,"state":"active","ping":100},{"user_id":563,"name":"Ze_Über_Nerd","steam_id":76561198091148675,"connected_time":137000000000,"state":"active","ping":64},{"user_id":565,"name":"The unsung hero","steam_id":76561199198863237,"connected_time":114000000000,"state":"active","ping":81},{"user_id":567,"name":"Quincunx Ölaavgäärden","steam_id":76561198035618952,"connected_time":42000000000,"state":"connecting","ping":0},{"user_id":555,"name":"Blake Belladonna","steam_id":76561198010169911,"connected_time":352000000000,"state":"active","ping":79},{"user_id":531,"name":"beatwice from uwumineko","steam_id":76561198114679256,"connected_time":3560000000000,"state":"active","ping":64},{"user_id":514,"name":"Piyono","steam_id":76561197962188504,"connected_time":5304000000000,"state":"active","ping":61},{"user_id":556,"name":"riley","steam_id":76561198133142520,"connected_time":318000000000,"state":"active","ping":78},{"user_id":515,"name":"hej","steam_id":76561197996366940,"connected_time":5296000000000,"state":"active","ping":62}]},{"server_id":402,"name":"Uncletopia | Chicago | 3 | All Maps","name_short":"chi-3","host":"chi-1.us.uncletopia.com","port":27035,"enabled":true,"region":"us-central","cc":"us","latitude":41.881832,"longitude":-87.62318,"reserved":0,"last_update":"0001-01-01T00:00:00Z","name_a2s":"Uncletopia | Chicago | 3 | All Maps","protocol":17,"map":"pl_upward","folder":"tf","game":"Team Fortress","app_id":440,"player_count":24,"max_players":24,"Bots":0,"server_type":"Dedicated","server_os":"Linux","password":true,"vac":true,"version":"7723704","steam_id":85568392924515191,"keywords":["nocrits","nodmgspread","payload","uncletopia"],"game_id":440,"stv_port":27036,"stv_name":"Uncletopia | Chicago | 3 | All Maps | STV","players":[{"user_id":440,"name":"what the fuck is up denny's","steam_id":76561198282764599,"connected_time":660000000000,"state":"active","ping":48},{"user_id":447,"name":"Lore","steam_id":76561198098407538,"connected_time":561000000000,"state":"active","ping":53},{"user_id":339,"name":"Santa","steam_id":76561198044130442,"connected_time":7025000000000,"state":"active","ping":67},{"user_id":452,"name":"VX Ghost (Holiday)","steam_id":76561198072541436,"connected_time":419000000000,"state":"active","ping":43},{"user_id":402,"name":"Samus","steam_id":76561198045943019,"connected_time":3652000000000,"state":"active","ping":150},{"user_id":411,"name":"ghostedghost","steam_id":76561198111410905,"connected_time":3392000000000,"state":"active","ping":75},{"user_id":426,"name":"Jousty","steam_id":76561199162677853,"connected_time":2152000000000,"state":"active","ping":86},{"user_id":443,"name":"Fisherman","steam_id":76561198071026825,"connected_time":621000000000,"state":"active","ping":65},{"user_id":413,"name":"atserc","steam_id":76561197997570349,"connected_time":3315000000000,"state":"active","ping":95},{"user_id":389,"name":"savagedachshund","steam_id":76561199208468955,"connected_time":4028000000000,"state":"active","ping":90},{"user_id":453,"name":"Dahrealjerry","steam_id":76561199114254890,"connected_time":226000000000,"state":"active","ping":111},{"user_id":425,"name":"GUINNESS ANYONE?","steam_id":76561197985970131,"connected_time":2198000000000,"state":"active","ping":60},{"user_id":444,"name":"Parpa","steam_id":76561198066252787,"connected_time":612000000000,"state":"active","ping":61},{"user_id":445,"name":"GrapaJuice","steam_id":76561198880644890,"connected_time":603000000000,"state":"active","ping":122},{"user_id":404,"name":"TurboTabs","steam_id":76561198009785131,"connected_time":3619000000000,"state":"active","ping":152},{"user_id":414,"name":"SRV","steam_id":76561198026589960,"connected_time":3209000000000,"state":"active","ping":52},{"user_id":416,"name":"Crabbymic","steam_id":76561197979418745,"connected_time":3081000000000,"state":"active","ping":62},{"user_id":423,"name":"[S]Mr. X [No Monitor]","steam_id":76561197963746035,"connected_time":2260000000000,"state":"active","ping":105},{"user_id":446,"name":"Walking Talking Stephen Hawking","steam_id":76561198173462306,"connected_time":590000000000,"state":"active","ping":75},{"user_id":430,"name":"Dougtherouge","steam_id":76561198211300573,"connected_time":2058000000000,"state":"active","ping":67},{"user_id":448,"name":"footoftheday","steam_id":76561198052712449,"connected_time":561000000000,"state":"active","ping":75},{"user_id":449,"name":"Liquid Oxycodone","steam_id":76561198154162664,"connected_time":559000000000,"state":"active","ping":85},{"user_id":451,"name":"Azaheth","steam_id":76561198253616898,"connected_time":422000000000,"state":"active","ping":101},{"user_id":434,"name":"BigBeefinDong","steam_id":76561198864096803,"connected_time":2023000000000,"state":"active","ping":79}]},{"server_id":403,"name":"Uncletopia | Chicago | 4 | All Maps","name_short":"chi-4","host":"chi-1.us.uncletopia.com","port":27045,"enabled":true,"region":"us-central","cc":"us","latitude":41.881832,"longitude":-87.62318,"reserved":0,"last_update":"0001-01-01T00:00:00Z","name_a2s":"Uncletopia | Chicago | 4 | All Maps","protocol":17,"map":"pl_swiftwater_final1","folder":"tf","game":"Team Fortress","app_id":440,"player_count":24,"max_players":24,"Bots":0,"server_type":"Dedicated","server_os":"Linux","password":true,"vac":true,"version":"7723704","steam_id":85568392924515193,"keywords":["nocrits","nodmgspread","payload","uncletopia"],"game_id":440,"stv_port":27046,"stv_name":"Uncletopia | Chicago | 4 | All Maps | STV","players":[{"user_id":425,"name":"pee pee poo poo","steam_id":76561198930017260,"connected_time":404000000000,"state":"active","ping":58},{"user_id":376,"name":"shrive","steam_id":76561198070063578,"connected_time":4117000000000,"state":"active","ping":46},{"user_id":415,"name":"maS","steam_id":76561198033846407,"connected_time":899000000000,"state":"active","ping":42},{"user_id":414,"name":"Jako","steam_id":76561198061899623,"connected_time":918000000000,"state":"active","ping":97},{"user_id":389,"name":"TOKENLIZARD","steam_id":76561198218765205,"connected_time":3117000000000,"state":"active","ping":68},{"user_id":428,"name":"Alt","steam_id":76561197992591984,"connected_time":146000000000,"state":"active","ping":61},{"user_id":408,"name":"mrshruggie","steam_id":76561198274278694,"connected_time":1806000000000,"state":"active","ping":54},{"user_id":417,"name":"Copter_Boy","steam_id":76561198322921312,"connected_time":849000000000,"state":"active","ping":70},{"user_id":409,"name":"Kitten_Named_Marly","steam_id":76561199388982523,"connected_time":1724000000000,"state":"active","ping":107},{"user_id":411,"name":"Ok then","steam_id":76561198891914787,"connected_time":1417000000000,"state":"active","ping":120},{"user_id":429,"name":"Lumpy","steam_id":76561198058840585,"connected_time":123000000000,"state":"active","ping":73},{"user_id":424,"name":"a soul must somehow strive","steam_id":76561198096806703,"connected_time":721000000000,"state":"active","ping":72},{"user_id":333,"name":"TheToastingToaster","steam_id":76561198439391966,"connected_time":7818000000000,"state":"active","ping":60},{"user_id":420,"name":"dan","steam_id":76561198061589465,"connected_time":786000000000,"state":"active","ping":101},{"user_id":305,"name":"(◔) Neville","steam_id":76561198025637970,"connected_time":9974000000000,"state":"active","ping":71},{"user_id":410,"name":"task","steam_id":76561198284992433,"connected_time":1693000000000,"state":"active","ping":47},{"user_id":407,"name":"Apetometrist","steam_id":76561198045391635,"connected_time":1836000000000,"state":"active","ping":63},{"user_id":421,"name":"nox","steam_id":76561198054390505,"connected_time":764000000000,"state":"active","ping":48},{"user_id":395,"name":"United Bank of M O N E Y","steam_id":76561198251647556,"connected_time":2818000000000,"state":"active","ping":96},{"user_id":403,"name":"Animal Slices","steam_id":76561198137545511,"connected_time":2470000000000,"state":"active","ping":63},{"user_id":413,"name":"Protoshake","steam_id":76561198840276176,"connected_time":1147000000000,"state":"active","ping":64},{"user_id":423,"name":"sticky earth monkey","steam_id":76561198062763756,"connected_time":752000000000,"state":"active","ping":46},{"user_id":427,"name":"turnip","steam_id":76561197999375941,"connected_time":332000000000,"state":"active","ping":76},{"user_id":387,"name":"Camtec","steam_id":76561198110562804,"connected_time":3432000000000,"state":"active","ping":79}]},{"server_id":36,"name":"Uncletopia | Chicago | 5 | All Maps","name_short":"chi-5","host":"chi-2.us.uncletopia.com","port":27015,"enabled":true,"region":"us-central","cc":"us","latitude":41.881832,"longitude":-87.62318,"reserved":0,"last_update":"0001-01-01T00:00:00Z","name_a2s":"Uncletopia | Chicago | 5 | All Maps","protocol":17,"map":"pl_frontier_final","folder":"tf","game":"Team Fortress","app_id":440,"player_count":22,"max_players":24,"Bots":0,"server_type":"Dedicated","server_os":"Linux","password":true,"vac":true,"version":"7723704","steam_id":85568392924866362,"keywords":["nocrits","nodmgspread","payload","uncletopia"],"game_id":440,"stv_port":27016,"stv_name":"Uncletopia | Chicago | 5 | All Maps | STV","players":[{"user_id":189,"name":"who ate the cheese","steam_id":76561198275408467,"connected_time":1809000000000,"state":"active","ping":45},{"user_id":203,"name":"Jolly evil little man","steam_id":76561198311053471,"connected_time":504000000000,"state":"active","ping":153},{"user_id":196,"name":"انتحر يا ابن المت","steam_id":76561198326987939,"connected_time":857000000000,"state":"active","ping":88},{"user_id":165,"name":"Vladikr1","steam_id":76561198401495362,"connected_time":4230000000000,"state":"active","ping":51},{"user_id":190,"name":"slep.py","steam_id":76561197988287144,"connected_time":1803000000000,"state":"active","ping":54},{"user_id":192,"name":"Bee","steam_id":76561198074681324,"connected_time":1258000000000,"state":"active","ping":66},{"user_id":198,"name":"dyragu","steam_id":76561198172046883,"connected_time":842000000000,"state":"active","ping":50},{"user_id":186,"name":"sky_guy","steam_id":76561198058668342,"connected_time":1910000000000,"state":"active","ping":74},{"user_id":146,"name":"Adam (Cursed Confetti Creature)","steam_id":76561198317690197,"connected_time":4695000000000,"state":"active","ping":45},{"user_id":193,"name":"Doug Dimmadamndimmadimmadougdim","steam_id":76561198136169355,"connected_time":986000000000,"state":"active","ping":50},{"user_id":201,"name":"frank","steam_id":76561198045436159,"connected_time":718000000000,"state":"active","ping":73},{"user_id":181,"name":"Strange Festive Femboy","steam_id":76561198050385093,"connected_time":2682000000000,"state":"active","ping":76},{"user_id":179,"name":"Born_In_Xixax","steam_id":76561197960464479,"connected_time":3116000000000,"state":"active","ping":60},{"user_id":112,"name":"C papi","steam_id":76561198027779564,"connected_time":8597000000000,"state":"active","ping":58},{"user_id":157,"name":"Bob Ross","steam_id":76561198932623728,"connected_time":4434000000000,"state":"active","ping":67},{"user_id":202,"name":"pigman3000","steam_id":76561198020374829,"connected_time":534000000000,"state":"active","ping":72},{"user_id":89,"name":"merry trapmas","steam_id":76561198402801140,"connected_time":10547000000000,"state":"active","ping":61},{"user_id":116,"name":"jpuck","steam_id":76561198025018960,"connected_time":8142000000000,"state":"active","ping":73},{"user_id":86,"name":"daemon","steam_id":76561198001541433,"connected_time":10832000000000,"state":"active","ping":52},{"user_id":183,"name":"mr. wonderful","steam_id":76561198083175190,"connected_time":2438000000000,"state":"active","ping":61},{"user_id":180,"name":"Bird","steam_id":76561198247484514,"connected_time":2892000000000,"state":"active","ping":72},{"user_id":141,"name":"Team Fortress 2","steam_id":76561198330697854,"connected_time":4954000000000,"state":"active","ping":171}]},{"server_id":37,"name":"Uncletopia | Chicago | 6 | All Maps","name_short":"chi-6","host":"chi-2.us.uncletopia.com","port":27025,"enabled":true,"region":"us-central","cc":"us","latitude":41.881832,"longitude":-87.62318,"reserved":0,"last_update":"0001-01-01T00:00:00Z","name_a2s":"Uncletopia | Chicago | 6 | All Maps","protocol":17,"map":"koth_cascade","folder":"tf","game":"Team Fortress","app_id":440,"player_count":0,"max_players":24,"Bots":0,"server_type":"Dedicated","server_os":"Linux","password":true,"vac":true,"version":"7723704","steam_id":85568392924866363,"keywords":["cp","nocrits","nodmgspread","uncletopia"],"game_id":440,"stv_port":27026,"stv_name":"Uncletopia | Chicago | 6 | All Maps | STV","players":null},{"server_id":38,"name":"Uncletopia | Chicago | 7 | Stopwatch Beta","name_short":"chi-7","host":"chi-2.us.uncletopia.com","port":27035,"enabled":true,"region":"us-central","cc":"us","latitude":41.881832,"longitude":-87.62318,"reserved":0,"last_update":"0001-01-01T00:00:00Z","name_a2s":"Uncletopia | Chicago | 7 | Stopwatch Beta","protocol":17,"map":"workshop/koth_clearcut_b15.ugc2107050255","folder":"tf","game":"Team Fortress","app_id":440,"player_count":0,"max_players":24,"Bots":0,"server_type":"Dedicated","server_os":"Linux","password":true,"vac":true,"version":"7723704","steam_id":85568392924866364,"keywords":["cp","nocrits","nodmgspread","uncletopia"],"game_id":440,"stv_port":27036,"stv_name":"Uncletopia | Chicago | 7 | Stopwatch Beta | STV","players":null},{"server_id":39,"name":"Uncletopia | Chicago | 8 | Community","name_short":"chi-8","host":"chi-2.us.uncletopia.com","port":27045,"enabled":true,"region":"us-central","cc":"us","latitude":41.881832,"longitude":-87.62318,"reserved":0,"last_update":"0001-01-01T00:00:00Z","name_a2s":"Uncletopia | Chicago | 8 | Community","protocol":17,"map":"workshop/cp_overgrown_rc7b.ugc503939302","folder":"tf","game":"Team Fortress","app_id":440,"player_count":0,"max_players":24,"Bots":0,"server_type":"Dedicated","server_os":"Linux","password":true,"vac":true,"version":"7723704","steam_id":85568392924866365,"keywords":["cp","nocrits","nodmgspread","uncletopia"],"game_id":440,"stv_port":27046,"stv_name":"Uncletopia | Chicago | 8 | Community | STV","players":null},{"server_id":8,"name":"Uncletopia | Dallas | 1 | All Maps","name_short":"dal-1","host":"dal-1.us.uncletopia.com","port":27015,"enabled":true,"region":"us-central","cc":"us","latitude":32.779167,"longitude":-96.80889,"reserved":0,"last_update":"0001-01-01T00:00:00Z","name_a2s":"Uncletopia | Dallas | 1 | All Maps","protocol":17,"map":"pl_badwater","folder":"tf","game":"Team Fortress","app_id":440,"player_count":24,"max_players":24,"Bots":0,"server_type":"Dedicated","server_os":"Linux","password":true,"vac":true,"version":"7723704","steam_id":85568392924469986,"keywords":["nocrits","nodmgspread","payload","uncletopia"],"game_id":440,"stv_port":27016,"stv_name":"Uncletopia | Dallas | 1 | All Maps | STV","players":[{"user_id":668,"name":"R","steam_id":76561198278030353,"connected_time":1167000000000,"state":"active","ping":74},{"user_id":678,"name":"Bassman","steam_id":76561198083440914,"connected_time":327000000000,"state":"active","ping":84},{"user_id":679,"name":"Snuuuz","steam_id":76561198289051061,"connected_time":318000000000,"state":"active","ping":85},{"user_id":652,"name":"Varius","steam_id":76561198384409154,"connected_time":1651000000000,"state":"active","ping":44},{"user_id":654,"name":"JimmY","steam_id":76561198386339252,"connected_time":1626000000000,"state":"active","ping":95},{"user_id":603,"name":"+","steam_id":76561198262422184,"connected_time":6057000000000,"state":"active","ping":56},{"user_id":656,"name":"Santa Claus","steam_id":76561199012771039,"connected_time":1581000000000,"state":"active","ping":64},{"user_id":674,"name":"REAL Flare gun - Flare/them","steam_id":76561198182589975,"connected_time":884000000000,"state":"active","ping":92},{"user_id":659,"name":"Chagalicious","steam_id":76561198044128240,"connected_time":1424000000000,"state":"active","ping":61},{"user_id":633,"name":"gyroFSnoob","steam_id":76561198158404683,"connected_time":3138000000000,"state":"active","ping":111},{"user_id":634,"name":"eyepen","steam_id":76561198381154476,"connected_time":3135000000000,"state":"active","ping":61},{"user_id":675,"name":"Bonesala","steam_id":76561199052450127,"connected_time":670000000000,"state":"active","ping":71},{"user_id":680,"name":"The Krinkler","steam_id":76561198020308956,"connected_time":297000000000,"state":"active","ping":64},{"user_id":662,"name":"ObiWonJacobi","steam_id":76561198041921071,"connected_time":1305000000000,"state":"active","ping":50},{"user_id":663,"name":"Piper","steam_id":76561198059054032,"connected_time":1299000000000,"state":"active","ping":52},{"user_id":681,"name":"SuckDicker3499","steam_id":76561198848989773,"connected_time":291000000000,"state":"active","ping":91},{"user_id":682,"name":"benjamin","steam_id":76561198084679502,"connected_time":288000000000,"state":"active","ping":64},{"user_id":665,"name":"timestew","steam_id":76561198367583372,"connected_time":1219000000000,"state":"active","ping":89},{"user_id":673,"name":"AjProductions","steam_id":76561198217950125,"connected_time":949000000000,"state":"active","ping":101},{"user_id":676,"name":"cy","steam_id":76561198885893295,"connected_time":617000000000,"state":"active","ping":76},{"user_id":683,"name":"Wendy's Four for Four","steam_id":76561198872639861,"connected_time":285000000000,"state":"active","ping":74},{"user_id":687,"name":"paper","steam_id":76561199075241499,"connected_time":150000000000,"state":"active","ping":51},{"user_id":685,"name":"wepeat","steam_id":76561198085943550,"connected_time":266000000000,"state":"active","ping":111},{"user_id":686,"name":"Charles Wagon","steam_id":76561198007906671,"connected_time":256000000000,"state":"active","ping":62}]},{"server_id":108,"name":"Uncletopia | Dallas | 2 | All Maps","name_short":"dal-2","host":"dal-1.us.uncletopia.com","port":27025,"enabled":true,"region":"us-central","cc":"us","latitude":32.779167,"longitude":-96.80889,"reserved":0,"last_update":"0001-01-01T00:00:00Z","name_a2s":"Uncletopia | Dallas | 2 | All Maps","protocol":17,"map":"koth_viaduct","folder":"tf","game":"Team Fortress","app_id":440,"player_count":19,"max_players":24,"Bots":0,"server_type":"Dedicated","server_os":"Linux","password":true,"vac":true,"version":"7723704","steam_id":85568392924469988,"keywords":["cp","nocrits","nodmgspread","uncletopia"],"game_id":440,"stv_port":27026,"stv_name":"Uncletopia | Dallas | 2 | All Maps | STV","players":[{"user_id":518,"name":"Gloomy Vader","steam_id":76561199201592365,"connected_time":4259000000000,"state":"active","ping":71},{"user_id":551,"name":"Teh Lemon","steam_id":76561199223429767,"connected_time":907000000000,"state":"active","ping":100},{"user_id":569,"name":"a pimp named sniplax","steam_id":76561198126783872,"connected_time":115000000000,"state":"active","ping":30},{"user_id":568,"name":"Jag_Samurott","steam_id":76561198262036126,"connected_time":229000000000,"state":"active","ping":65},{"user_id":554,"name":"darkjustin54","steam_id":76561198060056280,"connected_time":831000000000,"state":"active","ping":83},{"user_id":564,"name":"kr1tsurf3r","steam_id":76561198076402476,"connected_time":450000000000,"state":"active","ping":92},{"user_id":556,"name":"Zell Da Sheepy","steam_id":76561198978753666,"connected_time":800000000000,"state":"active","ping":71},{"user_id":516,"name":"iluvtoust","steam_id":76561198869269207,"connected_time":4335000000000,"state":"active","ping":45},{"user_id":558,"name":"mola","steam_id":76561198036283992,"connected_time":752000000000,"state":"active","ping":73},{"user_id":520,"name":"Zultrafury","steam_id":76561198099284163,"connected_time":4199000000000,"state":"active","ping":63},{"user_id":546,"name":"rumes","steam_id":76561198349219467,"connected_time":1699000000000,"state":"active","ping":70},{"user_id":559,"name":"Superplay64","steam_id":76561198172471162,"connected_time":729000000000,"state":"active","ping":79},{"user_id":524,"name":"You're Bad","steam_id":76561198051812661,"connected_time":3991000000000,"state":"active","ping":104},{"user_id":560,"name":"Nebulon-B_Frigate_FTW","steam_id":76561198040955960,"connected_time":708000000000,"state":"active","ping":125},{"user_id":545,"name":"Heckin Chonker","steam_id":76561199016285746,"connected_time":1999000000000,"state":"active","ping":76},{"user_id":566,"name":"Goob","steam_id":76561198326469586,"connected_time":380000000000,"state":"active","ping":58},{"user_id":563,"name":"Yiff Police","steam_id":76561198103938356,"connected_time":573000000000,"state":"active","ping":60},{"user_id":522,"name":"MaximusPrime","steam_id":76561198114949521,"connected_time":4183000000000,"state":"active","ping":99},{"user_id":565,"name":"LegitGeek","steam_id":76561198345668132,"connected_time":398000000000,"state":"active","ping":70}]},{"server_id":5,"name":"Uncletopia | Frankfurt | 1 | All Maps","name_short":"frk-1","host":"frk-1.de.uncletopia.com","port":27015,"enabled":true,"region":"eu","cc":"de","latitude":50.110924,"longitude":8.682127,"reserved":0,"last_update":"0001-01-01T00:00:00Z","name_a2s":"Uncletopia | Frankfurt | 1 | All Maps","protocol":17,"map":"koth_viaduct","folder":"tf","game":"Team Fortress","app_id":440,"player_count":0,"max_players":24,"Bots":0,"server_type":"Dedicated","server_os":"Linux","password":true,"vac":true,"version":"7723704","steam_id":85568392924469989,"keywords":["cp","nocrits","nodmgspread","uncletopia"],"game_id":440,"stv_port":27016,"stv_name":"Uncletopia | Frankfurt | 1 | All Maps | STV","players":null},{"server_id":110,"name":"Uncletopia | Frankfurt | 2 | All Maps","name_short":"frk-2","host":"frk-1.de.uncletopia.com","port":27025,"enabled":true,"region":"eu","cc":"de","latitude":50.110924,"longitude":8.682127,"reserved":0,"last_update":"0001-01-01T00:00:00Z","name_a2s":"Uncletopia | Frankfurt | 2 | All Maps","protocol":17,"map":"koth_viaduct","folder":"tf","game":"Team Fortress","app_id":440,"player_count":0,"max_players":24,"Bots":0,"server_type":"Dedicated","server_os":"Linux","password":true,"vac":true,"version":"7723704","steam_id":85568392924469990,"keywords":["cp","nocrits","nodmgspread","uncletopia"],"game_id":440,"stv_port":27026,"stv_name":"Uncletopia | Frankfurt | 2 | All Maps | STV","players":null},{"server_id":308,"name":"Uncletopia | Frankfurt | 3 | All Maps","name_short":"frk-3","host":"frk-1.de.uncletopia.com","port":27035,"enabled":true,"region":"eu","cc":"de","latitude":50.110924,"longitude":8.682127,"reserved":0,"last_update":"0001-01-01T00:00:00Z","name_a2s":"Uncletopia | Frankfurt | 3 | All Maps","protocol":17,"map":"pl_pier","folder":"tf","game":"Team Fortress","app_id":440,"player_count":0,"max_players":24,"Bots":0,"server_type":"Dedicated","server_os":"Linux","password":true,"vac":true,"version":"7723704","steam_id":85568392924504274,"keywords":["nocrits","nodmgspread","payload","uncletopia"],"game_id":440,"stv_port":27036,"stv_name":"Uncletopia | Frankfurt | 3 | All Maps | STV","players":null},{"server_id":309,"name":"Uncletopia | Frankfurt | 4 | All Maps","name_short":"frk-4","host":"frk-1.de.uncletopia.com","port":27045,"enabled":true,"region":"eu","cc":"de","latitude":50.110924,"longitude":8.682127,"reserved":0,"last_update":"0001-01-01T00:00:00Z","name_a2s":"Uncletopia | Frankfurt | 4 | All Maps","protocol":17,"map":"cp_altitude","folder":"tf","game":"Team Fortress","app_id":440,"player_count":0,"max_players":24,"Bots":0,"server_type":"Dedicated","server_os":"Linux","password":true,"vac":true,"version":"7723704","steam_id":85568392924504275,"keywords":["cp","nocrits","nodmgspread","uncletopia"],"game_id":440,"stv_port":27046,"stv_name":"Uncletopia | Frankfurt | 4 | All Maps | STV","players":null},{"server_id":310,"name":"Uncletopia | Frankfurt | 5 | All Maps","name_short":"frk-5","host":"frk-1.de.uncletopia.com","port":27055,"enabled":true,"region":"eu","cc":"de","latitude":50.110924,"longitude":8.682127,"reserved":0,"last_update":"0001-01-01T00:00:00Z","name_a2s":"Uncletopia | Frankfurt | 5 | All Maps","protocol":17,"map":"cp_dustbowl","folder":"tf","game":"Team Fortress","app_id":440,"player_count":0,"max_players":24,"Bots":0,"server_type":"Dedicated","server_os":"Linux","password":true,"vac":true,"version":"7723704","steam_id":85568392924504277,"keywords":["cp","nocrits","nodmgspread","uncletopia"],"game_id":440,"stv_port":27056,"stv_name":"Uncletopia | Frankfurt | 5 | All Maps | STV","players":null},{"server_id":311,"name":"Uncletopia | Frankfurt | 6 | All Maps","name_short":"frk-6","host":"frk-1.de.uncletopia.com","port":27065,"enabled":true,"region":"eu","cc":"de","latitude":50.110924,"longitude":8.682127,"reserved":0,"last_update":"0001-01-01T00:00:00Z","name_a2s":"Uncletopia | Frankfurt | 6 | All Maps","protocol":17,"map":"pl_barnblitz","folder":"tf","game":"Team Fortress","app_id":440,"player_count":0,"max_players":24,"Bots":0,"server_type":"Dedicated","server_os":"Linux","password":true,"vac":true,"version":"7723704","steam_id":85568392924504278,"keywords":["nocrits","nodmgspread","payload","uncletopia"],"game_id":440,"stv_port":27066,"stv_name":"Uncletopia | Frankfurt | 6 | All Maps | STV","players":null},{"server_id":23,"name":"Uncletopia | Frankfurt | 7 | Stopwatch Beta","name_short":"frk-7","host":"frk-1.de.uncletopia.com","port":27075,"enabled":true,"region":"eu","cc":"de","latitude":50.110924,"longitude":8.682127,"reserved":0,"last_update":"0001-01-01T00:00:00Z","name_a2s":"Uncletopia | Frankfurt | 7 | Stopwatch Beta","protocol":17,"map":"workshop/pl_barnblitz_pro7.ugc582280235","folder":"tf","game":"Team Fortress","app_id":440,"player_count":0,"max_players":24,"Bots":0,"server_type":"Dedicated","server_os":"Linux","password":true,"vac":true,"version":"7723704","steam_id":85568392924742827,"keywords":["nocrits","nodmgspread","payload","uncletopia"],"game_id":440,"stv_port":27076,"stv_name":"Uncletopia | Frankfurt | 7 | Stopwatch Beta | STV","players":null},{"server_id":24,"name":"Uncletopia | Frankfurt | 8 | Community","name_short":"frk-8","host":"frk-1.de.uncletopia.com","port":27085,"enabled":true,"region":"eu","cc":"de","latitude":50.110924,"longitude":8.682127,"reserved":0,"last_update":"0001-01-01T00:00:00Z","name_a2s":"Uncletopia | Frankfurt | 8 | Community","protocol":17,"map":"workshop/koth_synthetic_rc6a.ugc1549817316","folder":"tf","game":"Team Fortress","app_id":440,"player_count":0,"max_players":24,"Bots":0,"server_type":"Dedicated","server_os":"Linux","password":true,"vac":true,"version":"7723704","steam_id":85568392924742828,"keywords":["cp","nocrits","nodmgspread","uncletopia"],"game_id":440,"stv_port":27086,"stv_name":"Uncletopia | Frankfurt | 8 | Community | STV","players":null},{"server_id":202,"name":"Uncletopia | Hong Kong | 1 | All Maps","name_short":"hgk-1","host":"hgk-1.hk.uncletopia.com","port":27015,"enabled":true,"region":"asia","cc":"hk","latitude":22.302711,"longitude":114.177216,"reserved":0,"last_update":"0001-01-01T00:00:00Z","name_a2s":"Uncletopia | Hong Kong | 1 | All Maps","protocol":17,"map":"pl_frontier_final","folder":"tf","game":"Team Fortress","app_id":440,"player_count":18,"max_players":24,"Bots":0,"server_type":"Dedicated","server_os":"Linux","password":true,"vac":true,"version":"7723704","steam_id":85568392924494504,"keywords":["nocrits","nodmgspread","payload","uncletopia"],"game_id":440,"stv_port":27016,"stv_name":"Uncletopia | Hong Kong | 1 | All Maps | STV","players":[{"user_id":124,"name":"German 1939","steam_id":76561199231294382,"connected_time":771000000000,"state":"active","ping":108},{"user_id":125,"name":"Festive Sev","steam_id":76561198864660173,"connected_time":760000000000,"state":"active","ping":97},{"user_id":115,"name":"JayJ","steam_id":76561198324008555,"connected_time":1208000000000,"state":"active","ping":54},{"user_id":111,"name":"iLikeMudrock ᗜ‸ᗜ","steam_id":76561199352285088,"connected_time":1329000000000,"state":"active","ping":82},{"user_id":126,"name":"StoopidGaming","steam_id":76561199233358565,"connected_time":755000000000,"state":"active","ping":87},{"user_id":127,"name":"BOK","steam_id":76561198095872644,"connected_time":744000000000,"state":"active","ping":82},{"user_id":109,"name":"DC","steam_id":76561198837122605,"connected_time":1558000000000,"state":"active","ping":59},{"user_id":130,"name":"mr.daze","steam_id":76561199202109121,"connected_time":640000000000,"state":"active","ping":80},{"user_id":116,"name":"o2","steam_id":76561199262570913,"connected_time":1206000000000,"state":"active","ping":91},{"user_id":71,"name":"vintage","steam_id":76561198230213828,"connected_time":4329000000000,"state":"active","ping":61},{"user_id":117,"name":"Lym0n","steam_id":76561199192420260,"connected_time":1179000000000,"state":"active","ping":102},{"user_id":120,"name":"Corhix","steam_id":76561198968706355,"connected_time":1148000000000,"state":"active","ping":42},{"user_id":133,"name":"no_op","steam_id":76561197967217488,"connected_time":430000000000,"state":"active","ping":61},{"user_id":131,"name":"Festive Redmond :D","steam_id":76561198056390902,"connected_time":521000000000,"state":"active","ping":57},{"user_id":135,"name":"no more half measures waltuh","steam_id":76561199232769556,"connected_time":372000000000,"state":"active","ping":113},{"user_id":136,"name":"Jimmy Neutron","steam_id":76561199090796146,"connected_time":337000000000,"state":"active","ping":81},{"user_id":137,"name":"Me is gaming","steam_id":76561199025438331,"connected_time":270000000000,"state":"active","ping":60},{"user_id":55,"name":"Lud","steam_id":76561198828840546,"connected_time":5036000000000,"state":"active","ping":73}]},{"server_id":1,"name":"Uncletopia | Los Angeles | 1 | All Maps","name_short":"lax-1","host":"lax-1.us.uncletopia.com","port":27015,"enabled":true,"region":"us-west","cc":"us","latitude":33.94279,"longitude":-118.41004,"reserved":0,"last_update":"0001-01-01T00:00:00Z","name_a2s":"Uncletopia | Los Angeles | 1 | All Maps","protocol":17,"map":"pl_barnblitz","folder":"tf","game":"Team Fortress","app_id":440,"player_count":23,"max_players":24,"Bots":0,"server_type":"Dedicated","server_os":"Linux","password":true,"vac":true,"version":"7723704","steam_id":85568392924469991,"keywords":["nocrits","nodmgspread","payload","uncletopia"],"game_id":440,"stv_port":27016,"stv_name":"Uncletopia | Los Angeles | 1 | All Maps | STV","players":[{"user_id":307,"name":"Seriously Bruh","steam_id":76561198070408485,"connected_time":5910000000000,"state":"active","ping":98},{"user_id":352,"name":"yin bin","steam_id":76561199045840815,"connected_time":1267000000000,"state":"active","ping":63},{"user_id":353,"name":"pure sun","steam_id":76561198089225457,"connected_time":1205000000000,"state":"active","ping":65},{"user_id":361,"name":"WalkinMan","steam_id":76561198047941142,"connected_time":874000000000,"state":"active","ping":52},{"user_id":354,"name":"CFGU || RAWRWAFL","steam_id":76561198032118386,"connected_time":1159000000000,"state":"active","ping":99},{"user_id":328,"name":"sun sugar","steam_id":76561198385085005,"connected_time":4607000000000,"state":"active","ping":60},{"user_id":355,"name":"Bär","steam_id":76561198072172678,"connected_time":1105000000000,"state":"active","ping":76},{"user_id":326,"name":"SmallErection","steam_id":76561198071770147,"connected_time":4674000000000,"state":"active","ping":82},{"user_id":350,"name":"LOL","steam_id":76561198081568692,"connected_time":1374000000000,"state":"active","ping":154},{"user_id":356,"name":"HUIEI","steam_id":76561198073763735,"connected_time":1062000000000,"state":"active","ping":57},{"user_id":351,"name":"zogs","steam_id":76561198323491654,"connected_time":1319000000000,"state":"active","ping":74},{"user_id":338,"name":"the","steam_id":76561198079418310,"connected_time":2683000000000,"state":"active","ping":79},{"user_id":357,"name":"Mr Baseball","steam_id":76561198960521363,"connected_time":1044000000000,"state":"active","ping":77},{"user_id":321,"name":"Sleeping_Penguin❤","steam_id":76561198424771117,"connected_time":5069000000000,"state":"active","ping":57},{"user_id":330,"name":"COLLECT YOUR FACE AS TITHE","steam_id":76561198011675372,"connected_time":4572000000000,"state":"active","ping":77},{"user_id":367,"name":"Infentdegree211","steam_id":76561198385234127,"connected_time":395000000000,"state":"active","ping":59},{"user_id":363,"name":"Coyote Bongwater (coffee addict","steam_id":76561199375501871,"connected_time":477000000000,"state":"active","ping":53},{"user_id":345,"name":"Muerte","steam_id":76561198045719490,"connected_time":2358000000000,"state":"active","ping":60},{"user_id":366,"name":"Trooper5k","steam_id":76561198308230713,"connected_time":430000000000,"state":"active","ping":79},{"user_id":346,"name":"tN|SpiritofLight","steam_id":76561197967936643,"connected_time":2221000000000,"state":"active","ping":64},{"user_id":358,"name":"xbox record that","steam_id":76561198150117455,"connected_time":995000000000,"state":"active","ping":51},{"user_id":368,"name":"The Biggest Nobody of Them All","steam_id":76561198168730243,"connected_time":108000000000,"state":"active","ping":53},{"user_id":365,"name":"santa christ","steam_id":76561198183894834,"connected_time":472000000000,"state":"active","ping":58}]},{"server_id":112,"name":"Uncletopia | Los Angeles | 2 | All Maps","name_short":"lax-2","host":"lax-1.us.uncletopia.com","port":27025,"enabled":true,"region":"us-west","cc":"us","latitude":33.94279,"longitude":-118.41004,"reserved":0,"last_update":"0001-01-01T00:00:00Z","name_a2s":"Uncletopia | Los Angeles | 2 | All Maps","protocol":17,"map":"pl_snowycoast","folder":"tf","game":"Team Fortress","app_id":440,"player_count":5,"max_players":24,"Bots":0,"server_type":"Dedicated","server_os":"Linux","password":true,"vac":true,"version":"7723704","steam_id":85568392924469992,"keywords":["nocrits","nodmgspread","payload","uncletopia"],"game_id":440,"stv_port":27026,"stv_name":"Uncletopia | Los Angeles | 2 | All Maps | STV","players":[{"user_id":220,"name":"johnman gooberguy","steam_id":76561199014859764,"connected_time":520000000000,"state":"active","ping":62},{"user_id":222,"name":"goatz","steam_id":76561198163662622,"connected_time":139000000000,"state":"active","ping":56},{"user_id":207,"name":"Sad Sapling","steam_id":76561198075612150,"connected_time":1605000000000,"state":"active","ping":53},{"user_id":175,"name":"10 Years in the Joint","steam_id":76561198823083676,"connected_time":4346000000000,"state":"active","ping":58},{"user_id":199,"name":"primordialheath","steam_id":76561199386942638,"connected_time":1972000000000,"state":"active","ping":114}]},{"server_id":324,"name":"Uncletopia | Los Angeles | 3 | All Maps","name_short":"lax-3","host":"lax-1.us.uncletopia.com","port":27035,"enabled":true,"region":"us-west","cc":"us","latitude":33.94279,"longitude":-118.41004,"reserved":0,"last_update":"0001-01-01T00:00:00Z","name_a2s":"Uncletopia | Los Angeles | 3 | All Maps","protocol":17,"map":"cp_process_final","folder":"tf","game":"Team Fortress","app_id":440,"player_count":24,"max_players":24,"Bots":0,"server_type":"Dedicated","server_os":"Linux","password":true,"vac":true,"version":"7723704","steam_id":85568392924510198,"keywords":["cp","nocrits","nodmgspread","uncletopia"],"game_id":440,"stv_port":27036,"stv_name":"Uncletopia | Los Angeles | 3 | All Maps | STV","players":[{"user_id":245,"name":"RainbowHeavy","steam_id":76561198070800159,"connected_time":808000000000,"state":"active","ping":63},{"user_id":246,"name":"MarshallMellows","steam_id":76561198231561020,"connected_time":777000000000,"state":"active","ping":59},{"user_id":225,"name":"Alltrex","steam_id":76561198202254225,"connected_time":1578000000000,"state":"active","ping":75},{"user_id":261,"name":"The CEO of cement","steam_id":76561199107177460,"connected_time":118000000000,"state":"active","ping":89},{"user_id":242,"name":"jazztree14","steam_id":76561199239395356,"connected_time":1123000000000,"state":"active","ping":95},{"user_id":186,"name":"Rain Check","steam_id":76561198049238840,"connected_time":3859000000000,"state":"active","ping":75},{"user_id":260,"name":"FiddyFoMike","steam_id":76561198057072581,"connected_time":159000000000,"state":"active","ping":55},{"user_id":258,"name":"YES, I AM!","steam_id":76561198062356650,"connected_time":571000000000,"state":"active","ping":115},{"user_id":226,"name":"existential dread","steam_id":76561198041907345,"connected_time":1561000000000,"state":"active","ping":52},{"user_id":229,"name":"rimble","steam_id":76561198150137369,"connected_time":1545000000000,"state":"active","ping":54},{"user_id":197,"name":"lili.winters","steam_id":76561199391478575,"connected_time":3575000000000,"state":"active","ping":95},{"user_id":257,"name":"Sir Severus","steam_id":76561198061295188,"connected_time":600000000000,"state":"active","ping":78},{"user_id":201,"name":"⛧Alkahestry","steam_id":76561198109641497,"connected_time":3396000000000,"state":"active","ping":46},{"user_id":254,"name":"daud","steam_id":76561198172714142,"connected_time":680000000000,"state":"active","ping":62},{"user_id":239,"name":"heisenbones","steam_id":76561198071149521,"connected_time":1225000000000,"state":"active","ping":40},{"user_id":240,"name":"LadiesMan217","steam_id":76561198118205621,"connected_time":1219000000000,"state":"active","ping":50},{"user_id":259,"name":"E-Spliff","steam_id":76561199093733603,"connected_time":230000000000,"state":"active","ping":49},{"user_id":191,"name":"cielael","steam_id":76561198043971956,"connected_time":3805000000000,"state":"active","ping":45},{"user_id":250,"name":"terrapieseven","steam_id":76561198072062415,"connected_time":742000000000,"state":"active","ping":125},{"user_id":251,"name":"Alpharius","steam_id":76561197996284353,"connected_time":714000000000,"state":"active","ping":107},{"user_id":234,"name":"Duck on Quack","steam_id":76561198402891259,"connected_time":1336000000000,"state":"active","ping":66},{"user_id":262,"name":"TheGameRebel","steam_id":76561198904438872,"connected_time":35000000000,"state":"spawning","ping":58},{"user_id":256,"name":"ogre","steam_id":76561198003883121,"connected_time":645000000000,"state":"active","ping":44},{"user_id":253,"name":"PandaWithHat2313","steam_id":76561199116285411,"connected_time":708000000000,"state":"active","ping":53}]},{"server_id":25,"name":"Uncletopia | Los Angeles | 4 | Stopwatch Beta","name_short":"lax-4","host":"lax-1.us.uncletopia.com","port":27045,"enabled":true,"region":"us-west","cc":"us","latitude":33.94279,"longitude":-118.41004,"reserved":0,"last_update":"0001-01-01T00:00:00Z","name_a2s":"Uncletopia | Los Angeles | 4 | Stopwatch Beta","protocol":17,"map":"workshop/pl_barnblitz_pro7.ugc582280235","folder":"tf","game":"Team Fortress","app_id":440,"player_count":0,"max_players":24,"Bots":0,"server_type":"Dedicated","server_os":"Linux","password":true,"vac":true,"version":"7723704","steam_id":85568392924510199,"keywords":["nocrits","nodmgspread","payload","uncletopia"],"game_id":440,"stv_port":27046,"stv_name":"Uncletopia | Los Angeles | 4 | Stopwatch Beta | STV","players":null},{"server_id":11,"name":"Uncletopia | London | 1 | All Maps","name_short":"lon-1","host":"lon-1.uk.uncletopia.com","port":27015,"enabled":true,"region":"eu","cc":"gb","latitude":51.509865,"longitude":-0.118092,"reserved":0,"last_update":"0001-01-01T00:00:00Z","name_a2s":"Uncletopia | London | 1 | All Maps","protocol":17,"map":"cp_process_final","folder":"tf","game":"Team Fortress","app_id":440,"player_count":0,"max_players":24,"Bots":0,"server_type":"Dedicated","server_os":"Linux","password":true,"vac":true,"version":"7723704","steam_id":85568392924367362,"keywords":["cp","nocrits","nodmgspread","uncletopia"],"game_id":440,"stv_port":27016,"stv_name":"Uncletopia | London | 1 | All Maps | STV","players":null},{"server_id":114,"name":"Uncletopia | London | 2 | All Maps","name_short":"lon-2","host":"lon-1.uk.uncletopia.com","port":27025,"enabled":true,"region":"eu","cc":"gb","latitude":51.509865,"longitude":-0.118092,"reserved":0,"last_update":"0001-01-01T00:00:00Z","name_a2s":"Uncletopia | London | 2 | All Maps","protocol":17,"map":"pl_wutville_event","folder":"tf","game":"Team Fortress","app_id":440,"player_count":6,"max_players":24,"Bots":0,"server_type":"Dedicated","server_os":"Linux","password":true,"vac":true,"version":"7723704","steam_id":85568392924470941,"keywords":["nocrits","nodmgspread","payload","uncletopia"],"game_id":440,"stv_port":27026,"stv_name":"Uncletopia | London | 2 | All Maps | STV","players":[{"user_id":962,"name":"Radiculit","steam_id":76561198379290066,"connected_time":43000000000,"state":"active","ping":162},{"user_id":961,"name":"THGAwesome","steam_id":76561198162847218,"connected_time":198000000000,"state":"active","ping":117},{"user_id":947,"name":"Труп Володя","steam_id":76561198035718457,"connected_time":2635000000000,"state":"active","ping":90},{"user_id":920,"name":"ACG_Dubsy","steam_id":76561198797308565,"connected_time":5224000000000,"state":"active","ping":48},{"user_id":949,"name":"Niyaah","steam_id":76561198110209191,"connected_time":2192000000000,"state":"active","ping":74},{"user_id":935,"name":"Harry Ball","steam_id":76561198017510665,"connected_time":3256000000000,"state":"active","ping":45}]},{"server_id":320,"name":"Uncletopia | London | 3 | All Maps","name_short":"lon-3","host":"lon-1.uk.uncletopia.com","port":27035,"enabled":true,"region":"eu","cc":"gb","latitude":51.509865,"longitude":-0.118092,"reserved":0,"last_update":"0001-01-01T00:00:00Z","name_a2s":"Uncletopia | London | 3 | All Maps","protocol":17,"map":"pl_barnblitz","folder":"tf","game":"Team Fortress","app_id":440,"player_count":0,"max_players":24,"Bots":0,"server_type":"Dedicated","server_os":"Linux","password":true,"vac":true,"version":"7723704","steam_id":85568392924510192,"keywords":["nocrits","nodmgspread","payload","uncletopia"],"game_id":440,"stv_port":27036,"stv_name":"Uncletopia | London | 3 | All Maps | STV","players":null},{"server_id":321,"name":"Uncletopia | London | 4 | All Maps","name_short":"lon-4","host":"lon-1.uk.uncletopia.com","port":27045,"enabled":true,"region":"eu","cc":"gb","latitude":51.509865,"longitude":-0.118092,"reserved":0,"last_update":"0001-01-01T00:00:00Z","name_a2s":"Uncletopia | London | 4 | All Maps","protocol":17,"map":"pl_badwater","folder":"tf","game":"Team Fortress","app_id":440,"player_count":0,"max_players":24,"Bots":0,"server_type":"Dedicated","server_os":"Linux","password":true,"vac":true,"version":"7723704","steam_id":85568392924510193,"keywords":["nocrits","nodmgspread","payload","uncletopia"],"game_id":440,"stv_port":27046,"stv_name":"Uncletopia | London | 4 | All Maps | STV","players":null},{"server_id":21,"name":"Uncletopia | London | 5 | All Maps","name_short":"lon-5","host":"lon-1.uk.uncletopia.com","port":27055,"enabled":true,"region":"eu","cc":"gb","latitude":51.509865,"longitude":-0.118092,"reserved":0,"last_update":"0001-01-01T00:00:00Z","name_a2s":"Uncletopia | London | 5 | All Maps","protocol":17,"map":"pl_frontier_final","folder":"tf","game":"Team Fortress","app_id":440,"player_count":0,"max_players":24,"Bots":0,"server_type":"Dedicated","server_os":"Linux","password":true,"vac":true,"version":"7723704","steam_id":85568392924742829,"keywords":["nocrits","nodmgspread","payload","uncletopia"],"game_id":440,"stv_port":27056,"stv_name":"Uncletopia | London | 5 | All Maps | STV","players":null},{"server_id":22,"name":"Uncletopia | London | 6 | All Maps","name_short":"lon-6","host":"lon-1.uk.uncletopia.com","port":27065,"enabled":true,"region":"eu","cc":"gb","latitude":51.509865,"longitude":-0.118092,"reserved":0,"last_update":"0001-01-01T00:00:00Z","name_a2s":"Uncletopia | London | 6 | All Maps","protocol":17,"map":"pl_snowycoast","folder":"tf","game":"Team Fortress","app_id":440,"player_count":0,"max_players":24,"Bots":0,"server_type":"Dedicated","server_os":"Linux","password":true,"vac":true,"version":"7723704","steam_id":85568392924742830,"keywords":["nocrits","nodmgspread","payload","uncletopia"],"game_id":440,"stv_port":27066,"stv_name":"Uncletopia | London | 6 | All Maps | STV","players":null},{"server_id":40,"name":"Uncletopia | London | 7 | No Payload","name_short":"lon-7","host":"lon-1.uk.uncletopia.com","port":27075,"enabled":true,"region":"eu","cc":"gb","latitude":51.509865,"longitude":-0.118092,"reserved":0,"last_update":"0001-01-01T00:00:00Z","name_a2s":"Uncletopia | London | 7 | No Payload","protocol":17,"map":"koth_lazarus","folder":"tf","game":"Team Fortress","app_id":440,"player_count":0,"max_players":24,"Bots":0,"server_type":"Dedicated","server_os":"Linux","password":true,"vac":true,"version":"7723704","steam_id":85568392924964314,"keywords":["cp","nocrits","nodmgspread","uncletopia"],"game_id":440,"stv_port":27076,"stv_name":"Uncletopia | London | 7 | No Payload | STV","players":null},{"server_id":41,"name":"Uncletopia | London | 8 | Community","name_short":"lon-8","host":"lon-1.uk.uncletopia.com","port":27085,"enabled":true,"region":"eu","cc":"gb","latitude":51.509865,"longitude":-0.118092,"reserved":0,"last_update":"0001-01-01T00:00:00Z","name_a2s":"Uncletopia | London | 8 | Community","protocol":17,"map":"workshop/koth_bagel_rc5.ugc2514036946","folder":"tf","game":"Team Fortress","app_id":440,"player_count":0,"max_players":24,"Bots":0,"server_type":"Dedicated","server_os":"Linux","password":true,"vac":true,"version":"7723704","steam_id":85568392924964315,"keywords":["cp","nocrits","nodmgspread","uncletopia"],"game_id":440,"stv_port":27086,"stv_name":"Uncletopia | London | 8 | Community | STV","players":null},{"server_id":300,"name":"Uncletopia | Montréal | 1 | All Maps","name_short":"mtl-1","host":"mtl-1.ca.uncletopia.com","port":27015,"enabled":true,"region":"us-east","cc":"ca","latitude":45.50889,"longitude":-73.56167,"reserved":0,"last_update":"0001-01-01T00:00:00Z","name_a2s":"Uncletopia | Montréal | 1 | All Maps","protocol":17,"map":"koth_cascade","folder":"tf","game":"Team Fortress","app_id":440,"player_count":0,"max_players":24,"Bots":0,"server_type":"Dedicated","server_os":"Linux","password":true,"vac":true,"version":"7723704","steam_id":85568392924500087,"keywords":["cp","nocrits","nodmgspread","uncletopia"],"game_id":440,"stv_port":27016,"stv_name":"Uncletopia | Montréal | 1 | All Maps | STV","players":null},{"server_id":301,"name":"Uncletopia | Montréal | 2 | All Maps","name_short":"mtl-2","host":"mtl-1.ca.uncletopia.com","port":27025,"enabled":true,"region":"us-east","cc":"ca","latitude":45.50889,"longitude":-73.56167,"reserved":0,"last_update":"0001-01-01T00:00:00Z","name_a2s":"Uncletopia | Montréal | 2 | All Maps","protocol":17,"map":"koth_cascade","folder":"tf","game":"Team Fortress","app_id":440,"player_count":0,"max_players":24,"Bots":0,"server_type":"Dedicated","server_os":"Linux","password":true,"vac":true,"version":"7723704","steam_id":85568392924500088,"keywords":["cp","nocrits","nodmgspread","uncletopia"],"game_id":440,"stv_port":27026,"stv_name":"Uncletopia | Montréal | 2 | All Maps | STV","players":null},{"server_id":302,"name":"Uncletopia | Montréal | 3 | All Maps","name_short":"mtl-3","host":"mtl-1.ca.uncletopia.com","port":27035,"enabled":true,"region":"us-east","cc":"ca","latitude":45.50889,"longitude":-73.56167,"reserved":0,"last_update":"0001-01-01T00:00:00Z","name_a2s":"Uncletopia | Montréal | 3 | All Maps","protocol":17,"map":"pl_barnblitz","folder":"tf","game":"Team Fortress","app_id":440,"player_count":0,"max_players":24,"Bots":0,"server_type":"Dedicated","server_os":"Linux","password":true,"vac":true,"version":"7723704","steam_id":85568392924500089,"keywords":["nocrits","nodmgspread","payload","uncletopia"],"game_id":440,"stv_port":27036,"stv_name":"Uncletopia | Montréal | 3 | All Maps | STV","players":null},{"server_id":303,"name":"Uncletopia | Montréal | 4 | No Payload","name_short":"mtl-4","host":"mtl-1.ca.uncletopia.com","port":27045,"enabled":true,"region":"us-east","cc":"ca","latitude":45.50889,"longitude":-73.56167,"reserved":0,"last_update":"0001-01-01T00:00:00Z","name_a2s":"Uncletopia | Montréal | 4 | No Payload","protocol":17,"map":"koth_cascade","folder":"tf","game":"Team Fortress","app_id":440,"player_count":0,"max_players":24,"Bots":0,"server_type":"Dedicated","server_os":"Linux","password":true,"vac":true,"version":"7723704","steam_id":85568392924500090,"keywords":["cp","nocrits","nodmgspread","uncletopia"],"game_id":440,"stv_port":27046,"stv_name":"Uncletopia | Montréal | 4 | No Payload | STV","players":null},{"server_id":13,"name":"Uncletopia | New York City | 1 | All Maps","name_short":"nyc-1","host":"nyc-1.us.uncletopia.com","port":27015,"enabled":true,"region":"us-east","cc":"us","latitude":40.73061,"longitude":-73.93524,"reserved":0,"last_update":"0001-01-01T00:00:00Z","name_a2s":"Uncletopia | New York City | 1 | All Maps","protocol":17,"map":"pl_upward","folder":"tf","game":"Team Fortress","app_id":440,"player_count":24,"max_players":24,"Bots":0,"server_type":"Dedicated","server_os":"Linux","password":true,"vac":true,"version":"7723704","steam_id":85568392924469993,"keywords":["nocrits","nodmgspread","payload","uncletopia"],"game_id":440,"stv_port":27016,"stv_name":"Uncletopia | New York City | 1 | All Maps | STV","players":[{"user_id":283,"name":"megaboi796","steam_id":76561198122995438,"connected_time":752000000000,"state":"active","ping":60},{"user_id":273,"name":"Jake_Spencer","steam_id":76561198025176750,"connected_time":1108000000000,"state":"active","ping":77},{"user_id":245,"name":"summertime sadness","steam_id":76561198063313115,"connected_time":2719000000000,"state":"active","ping":59},{"user_id":274,"name":"Kohi","steam_id":76561198062142245,"connected_time":1095000000000,"state":"active","ping":150},{"user_id":255,"name":"DeadPixels #SaveTF2","steam_id":76561198312934516,"connected_time":1907000000000,"state":"active","ping":63},{"user_id":288,"name":"IMPACT CPU","steam_id":76561198001344879,"connected_time":176000000000,"state":"active","ping":60},{"user_id":289,"name":"★Haukka★","steam_id":76561198262146730,"connected_time":176000000000,"state":"active","ping":171},{"user_id":253,"name":"Luis wid a mic","steam_id":76561198349570006,"connected_time":1978000000000,"state":"active","ping":34},{"user_id":285,"name":"Is What","steam_id":76561199108860327,"connected_time":651000000000,"state":"active","ping":51},{"user_id":286,"name":"MILK MAN","steam_id":76561199012860639,"connected_time":604000000000,"state":"active","ping":72},{"user_id":260,"name":"Tom","steam_id":76561198139202942,"connected_time":1612000000000,"state":"active","ping":79},{"user_id":287,"name":"ElectronX","steam_id":76561198116034988,"connected_time":354000000000,"state":"active","ping":106},{"user_id":291,"name":"Big G","steam_id":76561198067496197,"connected_time":156000000000,"state":"active","ping":47},{"user_id":263,"name":"ndvr","steam_id":76561199379200102,"connected_time":1524000000000,"state":"active","ping":49},{"user_id":271,"name":"Vibey","steam_id":76561198342873474,"connected_time":1358000000000,"state":"active","ping":71},{"user_id":277,"name":"Ngsterson","steam_id":76561198162108154,"connected_time":1016000000000,"state":"active","ping":108},{"user_id":243,"name":"Uhonlapjanteszika","steam_id":76561199431280503,"connected_time":2816000000000,"state":"active","ping":58},{"user_id":270,"name":"CrispyToes","steam_id":76561198173624978,"connected_time":1403000000000,"state":"active","ping":96},{"user_id":242,"name":"stop","steam_id":76561198268686419,"connected_time":3095000000000,"state":"active","ping":87},{"user_id":241,"name":"Scorpsy","steam_id":76561198024477688,"connected_time":3346000000000,"state":"active","ping":60},{"user_id":266,"name":"KRELLAH","steam_id":76561198287045069,"connected_time":1458000000000,"state":"active","ping":60},{"user_id":279,"name":"Genius Meme","steam_id":76561198162911254,"connected_time":1003000000000,"state":"active","ping":124},{"user_id":269,"name":"Rabbitone","steam_id":76561198132691749,"connected_time":1424000000000,"state":"active","ping":111},{"user_id":282,"name":"Applesauce","steam_id":76561198049642811,"connected_time":892000000000,"state":"active","ping":81}]},{"server_id":14,"name":"Uncletopia | New York City | 2 | All Maps","name_short":"nyc-2","host":"nyc-1.us.uncletopia.com","port":27025,"enabled":true,"region":"us-east","cc":"us","latitude":40.73061,"longitude":-73.93524,"reserved":0,"last_update":"0001-01-01T00:00:00Z","name_a2s":"Uncletopia | New York City | 2 | All Maps","protocol":17,"map":"cp_sunshine","folder":"tf","game":"Team Fortress","app_id":440,"player_count":24,"max_players":24,"Bots":0,"server_type":"Dedicated","server_os":"Linux","password":true,"vac":true,"version":"7723704","steam_id":85568392924469994,"keywords":["cp","nocrits","nodmgspread","uncletopia"],"game_id":440,"stv_port":27026,"stv_name":"Uncletopia | New York City | 2 | All Maps | STV","players":[{"user_id":181,"name":"Mr. Kracks, CBT Enjoyer","steam_id":76561198081394903,"connected_time":688000000000,"state":"active","ping":71},{"user_id":165,"name":"WhoIsFrosty","steam_id":76561198880588117,"connected_time":1857000000000,"state":"active","ping":80},{"user_id":172,"name":"ProduceSektion","steam_id":76561199078152905,"connected_time":1371000000000,"state":"active","ping":64},{"user_id":153,"name":"AlecTheNefarious","steam_id":76561198035291230,"connected_time":3322000000000,"state":"active","ping":81},{"user_id":179,"name":"Phantasm","steam_id":76561198036954108,"connected_time":714000000000,"state":"active","ping":68},{"user_id":180,"name":"Scufflemallet 1910","steam_id":76561198029919214,"connected_time":703000000000,"state":"active","ping":92},{"user_id":182,"name":"NyansuPantsu","steam_id":76561198128008770,"connected_time":478000000000,"state":"active","ping":59},{"user_id":159,"name":"hashmap","steam_id":76561198043794014,"connected_time":2384000000000,"state":"active","ping":60},{"user_id":140,"name":"Monkey","steam_id":76561198031015186,"connected_time":4309000000000,"state":"active","ping":60},{"user_id":170,"name":"java","steam_id":76561198030276792,"connected_time":1788000000000,"state":"active","ping":61},{"user_id":173,"name":"el muchacho","steam_id":76561198282632562,"connected_time":1369000000000,"state":"active","ping":89},{"user_id":183,"name":"Insayne","steam_id":76561199237951955,"connected_time":456000000000,"state":"active","ping":63},{"user_id":174,"name":"wepry","steam_id":76561198114091417,"connected_time":1364000000000,"state":"active","ping":90},{"user_id":163,"name":"Gian","steam_id":76561198041434512,"connected_time":1924000000000,"state":"active","ping":103},{"user_id":146,"name":"Inevitable","steam_id":76561198210050169,"connected_time":3875000000000,"state":"active","ping":44},{"user_id":164,"name":"King","steam_id":76561198010019214,"connected_time":1920000000000,"state":"active","ping":35},{"user_id":158,"name":"glitch","steam_id":76561197979495589,"connected_time":2630000000000,"state":"active","ping":53},{"user_id":166,"name":"Subway Fan","steam_id":76561198336372790,"connected_time":1851000000000,"state":"active","ping":45},{"user_id":168,"name":"phil mias","steam_id":76561198000564263,"connected_time":1817000000000,"state":"active","ping":72},{"user_id":187,"name":"Musically Comatose","steam_id":76561198050492931,"connected_time":110000000000,"state":"active","ping":59},{"user_id":177,"name":"dog","steam_id":76561198066521617,"connected_time":830000000000,"state":"active","ping":49},{"user_id":185,"name":"Rein","steam_id":76561198300340427,"connected_time":333000000000,"state":"active","ping":71},{"user_id":186,"name":"ButterFries","steam_id":76561198066995436,"connected_time":293000000000,"state":"active","ping":74},{"user_id":152,"name":"lanoc","steam_id":76561198055415367,"connected_time":3333000000000,"state":"active","ping":60}]},{"server_id":15,"name":"Uncletopia | New York City | 3 | Stopwatch Beta","name_short":"nyc-3","host":"nyc-1.us.uncletopia.com","port":27035,"enabled":true,"region":"us-east","cc":"us","latitude":40.73061,"longitude":-73.93524,"reserved":0,"last_update":"0001-01-01T00:00:00Z","name_a2s":"Uncletopia | New York City | 3 | Stopwatch Beta","protocol":17,"map":"cp_sunshine","folder":"tf","game":"Team Fortress","app_id":440,"player_count":0,"max_players":24,"Bots":0,"server_type":"Dedicated","server_os":"Linux","password":true,"vac":true,"version":"7723704","steam_id":85568392924742820,"keywords":["cp","nocrits","nodmgspread","uncletopia"],"game_id":440,"stv_port":27036,"stv_name":"Uncletopia | New York City | 3 | Stopwatch Beta | STV","players":null},{"server_id":16,"name":"Uncletopia | New York City | 4 | Community","name_short":"nyc-4","host":"nyc-1.us.uncletopia.com","port":27045,"enabled":true,"region":"us-east","cc":"us","latitude":40.73061,"longitude":-73.93524,"reserved":0,"last_update":"0001-01-01T00:00:00Z","name_a2s":"Uncletopia | New York City | 4 | Community","protocol":17,"map":"workshop/koth_synthetic_rc6a.ugc1549817316","folder":"tf","game":"Team Fortress","app_id":440,"player_count":0,"max_players":24,"Bots":0,"server_type":"Dedicated","server_os":"Linux","password":true,"vac":true,"version":"7723704","steam_id":85568392924742821,"keywords":["cp","nocrits","nodmgspread","uncletopia"],"game_id":440,"stv_port":27046,"stv_name":"Uncletopia | New York City | 4 | Community | STV","players":null},{"server_id":142,"name":"Uncletopia | São Paulo | 1 | All Maps","name_short":"sao-1","host":"sao-1.br.uncletopia.com","port":27015,"enabled":true,"region":"sa","cc":"br","latitude":-23.533773,"longitude":-46.62529,"reserved":0,"last_update":"0001-01-01T00:00:00Z","name_a2s":"Uncletopia | São Paulo | 1 | All Maps","protocol":17,"map":"koth_lakeside_final","folder":"tf","game":"Team Fortress","app_id":440,"player_count":0,"max_players":24,"Bots":0,"server_type":"Dedicated","server_os":"Linux","password":true,"vac":true,"version":"7723704","steam_id":85568392924469996,"keywords":["cp","nocrits","nodmgspread","uncletopia"],"game_id":440,"stv_port":27016,"stv_name":"Uncletopia | São Paulo | 1 | All Maps | STV","players":null},{"server_id":143,"name":"Uncletopia | São Paulo | 2 | All Maps","name_short":"sao-2","host":"sao-2.br.uncletopia.com","port":27015,"enabled":true,"region":"sa","cc":"br","latitude":-23.533773,"longitude":-46.62529,"reserved":0,"last_update":"0001-01-01T00:00:00Z","name_a2s":"Uncletopia | São Paulo | 2 | All Maps","protocol":17,"map":"koth_lakeside_final","folder":"tf","game":"Team Fortress","app_id":440,"player_count":4,"max_players":24,"Bots":0,"server_type":"Dedicated","server_os":"Linux","password":true,"vac":true,"version":"7723704","steam_id":85568392924485349,"keywords":["cp","nocrits","nodmgspread","uncletopia"],"game_id":440,"stv_port":27016,"stv_name":"Uncletopia | São Paulo | 2 | All Maps | STV","players":[{"user_id":164,"name":"dulce de leche","steam_id":76561199158907231,"connected_time":4301000000000,"state":"active","ping":81},{"user_id":167,"name":"Queso Crema","steam_id":76561198842538871,"connected_time":3651000000000,"state":"active","ping":66},{"user_id":168,"name":"Space bar ©","steam_id":76561199405318831,"connected_time":1000000000000,"state":"active","ping":210},{"user_id":169,"name":"Deadhead","steam_id":76561198929887980,"connected_time":353000000000,"state":"active","ping":58}]},{"server_id":7,"name":"Uncletopia | Seattle | 1 | All Maps","name_short":"sea-1","host":"sea-1.us.uncletopia.com","port":27015,"enabled":true,"region":"us-west","cc":"us","latitude":47.608013,"longitude":-122.33517,"reserved":0,"last_update":"0001-01-01T00:00:00Z","name_a2s":"Uncletopia | Seattle | 1 | All Maps","protocol":17,"map":"pl_badwater","folder":"tf","game":"Team Fortress","app_id":440,"player_count":24,"max_players":24,"Bots":0,"server_type":"Dedicated","server_os":"Linux","password":true,"vac":true,"version":"7723704","steam_id":85568392924469997,"keywords":["nocrits","nodmgspread","payload","uncletopia"],"game_id":440,"stv_port":27016,"stv_name":"Uncletopia | Seattle | 1 | All Maps | STV","players":[{"user_id":825,"name":"squash","steam_id":76561198150281353,"connected_time":2083000000000,"state":"active","ping":57},{"user_id":823,"name":"Raniel Dicciardo","steam_id":76561198053859538,"connected_time":2968000000000,"state":"active","ping":77},{"user_id":789,"name":"bbbbb","steam_id":76561198095480838,"connected_time":5036000000000,"state":"active","ping":45},{"user_id":846,"name":"LYTEWERK","steam_id":76561198002819791,"connected_time":300000000000,"state":"active","ping":60},{"user_id":830,"name":"William P. Ennis","steam_id":76561198073464877,"connected_time":1822000000000,"state":"active","ping":90},{"user_id":845,"name":"Mouth Tea","steam_id":76561198285054047,"connected_time":385000000000,"state":"active","ping":79},{"user_id":847,"name":"The King of Piss World","steam_id":76561198082806956,"connected_time":135000000000,"state":"active","ping":118},{"user_id":833,"name":"Protato","steam_id":76561198053117503,"connected_time":1402000000000,"state":"active","ping":59},{"user_id":843,"name":"Crake","steam_id":76561198001959071,"connected_time":792000000000,"state":"active","ping":51},{"user_id":835,"name":"rat gets the cheese","steam_id":76561198031234032,"connected_time":1217000000000,"state":"active","ping":100},{"user_id":844,"name":"Joy in A Box","steam_id":76561198156820753,"connected_time":643000000000,"state":"active","ping":184},{"user_id":820,"name":"dougrocks421","steam_id":76561198165063918,"connected_time":3160000000000,"state":"active","ping":50},{"user_id":806,"name":"TheCowledWiz","steam_id":76561198016735868,"connected_time":3424000000000,"state":"active","ping":51},{"user_id":800,"name":"ikuyo","steam_id":76561198996950205,"connected_time":4074000000000,"state":"active","ping":66},{"user_id":720,"name":"Hermit not Kermit","steam_id":76561198106182525,"connected_time":9261000000000,"state":"active","ping":58},{"user_id":831,"name":"Hotdoggiest","steam_id":76561198049420141,"connected_time":1822000000000,"state":"active","ping":81},{"user_id":832,"name":"Sniff","steam_id":76561198010270922,"connected_time":1470000000000,"state":"active","ping":45},{"user_id":829,"name":"Korey","steam_id":76561198210734407,"connected_time":1919000000000,"state":"active","ping":118},{"user_id":812,"name":"BUFF THE SCORCH SHOT","steam_id":76561198042899484,"connected_time":3341000000000,"state":"active","ping":71},{"user_id":722,"name":"Ayayahuasca","steam_id":76561199002906056,"connected_time":9134000000000,"state":"active","ping":46},{"user_id":836,"name":"Cheezbeargur","steam_id":76561198164702899,"connected_time":1215000000000,"state":"active","ping":60},{"user_id":817,"name":"[DATS➡] Sugar Meowth","steam_id":76561197995251793,"connected_time":3249000000000,"state":"active","ping":45},{"user_id":819,"name":"DonoC","steam_id":76561198274473338,"connected_time":3224000000000,"state":"active","ping":102},{"user_id":802,"name":"shane","steam_id":76561198060491451,"connected_time":3919000000000,"state":"active","ping":87}]},{"server_id":119,"name":"Uncletopia | Seattle | 2 | All Maps","name_short":"sea-2","host":"sea-1.us.uncletopia.com","port":27025,"enabled":true,"region":"us-west","cc":"us","latitude":47.608013,"longitude":-122.33517,"reserved":0,"last_update":"0001-01-01T00:00:00Z","name_a2s":"Uncletopia | Seattle | 2 | All Maps","protocol":17,"map":"pl_frontier_final","folder":"tf","game":"Team Fortress","app_id":440,"player_count":24,"max_players":24,"Bots":0,"server_type":"Dedicated","server_os":"Linux","password":true,"vac":true,"version":"7723704","steam_id":85568392924469998,"keywords":["nocrits","nodmgspread","payload","uncletopia"],"game_id":440,"stv_port":27026,"stv_name":"Uncletopia | Seattle | 2 | All Maps | STV","players":[{"user_id":297,"name":"UneditedAndy","steam_id":76561198982544947,"connected_time":25000000000,"state":"active","ping":76},{"user_id":289,"name":"ArchmageF","steam_id":76561197992246851,"connected_time":758000000000,"state":"active","ping":49},{"user_id":163,"name":"SuperGamerConnor","steam_id":76561199194306437,"connected_time":10901000000000,"state":"active","ping":57},{"user_id":262,"name":"FancyedZebra","steam_id":76561198254517938,"connected_time":3234000000000,"state":"active","ping":76},{"user_id":266,"name":"qt wavyz","steam_id":76561199060668138,"connected_time":2432000000000,"state":"active","ping":108},{"user_id":273,"name":"krootonitron","steam_id":76561198114113037,"connected_time":1446000000000,"state":"active","ping":56},{"user_id":268,"name":"DeadlyAnomalies","steam_id":76561198125818085,"connected_time":2087000000000,"state":"active","ping":75},{"user_id":296,"name":"incineratedbread","steam_id":76561198133619079,"connected_time":269000000000,"state":"active","ping":55},{"user_id":294,"name":"Cosmosis Jones","steam_id":76561198970097093,"connected_time":332000000000,"state":"active","ping":101},{"user_id":263,"name":"Joe Biden","steam_id":76561199087298510,"connected_time":3061000000000,"state":"active","ping":64},{"user_id":271,"name":"Canaan ❤","steam_id":76561198044337051,"connected_time":1512000000000,"state":"active","ping":89},{"user_id":278,"name":"blessed yule","steam_id":76561198146228439,"connected_time":1304000000000,"state":"active","ping":50},{"user_id":240,"name":"Court Wizard, Sir Dr. Clydesdal","steam_id":76561198149267697,"connected_time":5350000000000,"state":"active","ping":62},{"user_id":275,"name":"TROY","steam_id":76561197983852176,"connected_time":1397000000000,"state":"active","ping":81},{"user_id":290,"name":"[FOX] Fat Man","steam_id":76561197990901476,"connected_time":710000000000,"state":"active","ping":105},{"user_id":279,"name":"Vani","steam_id":76561198089874662,"connected_time":1285000000000,"state":"active","ping":145},{"user_id":277,"name":"LordMorphesus","steam_id":76561198026995104,"connected_time":1328000000000,"state":"active","ping":47},{"user_id":291,"name":"Stupid frogs!","steam_id":76561198069415057,"connected_time":528000000000,"state":"active","ping":64},{"user_id":282,"name":"Soap Man","steam_id":76561198000490235,"connected_time":1244000000000,"state":"active","ping":65},{"user_id":288,"name":"Tom Skirrett","steam_id":76561198014600788,"connected_time":808000000000,"state":"active","ping":71},{"user_id":295,"name":"oo","steam_id":76561198119626492,"connected_time":273000000000,"state":"active","ping":78},{"user_id":292,"name":"What are you doing?!","steam_id":76561198405248691,"connected_time":447000000000,"state":"active","ping":67},{"user_id":285,"name":"Chat only you baloney d=","steam_id":76561198847974905,"connected_time":1233000000000,"state":"active","ping":50},{"user_id":269,"name":"Ashanti Clan","steam_id":76561198032651105,"connected_time":2077000000000,"state":"active","ping":53}]},{"server_id":406,"name":"Uncletopia | Seattle | 3 | Stopwatch Beta","name_short":"sea-3","host":"sea-1.us.uncletopia.com","port":27035,"enabled":true,"region":"us-west","cc":"us","latitude":47.608013,"longitude":-122.33517,"reserved":0,"last_update":"0001-01-01T00:00:00Z","name_a2s":"Uncletopia | Seattle | 3 | Stopwatch Beta","protocol":17,"map":"cp_altitude","folder":"tf","game":"Team Fortress","app_id":440,"player_count":0,"max_players":24,"Bots":0,"server_type":"Dedicated","server_os":"Linux","password":true,"vac":false,"version":"7723704","steam_id":0,"keywords":["cp","nocrits","nodmgspread","uncletopia"],"game_id":440,"stv_port":27036,"stv_name":"Uncletopia | Seattle | 3 | Stopwatch Beta | STV","players":null},{"server_id":17,"name":"Uncletopia | San Francisco | 1 | All Maps","name_short":"sfo-1","host":"sfo-1.us.uncletopia.com","port":27015,"enabled":true,"region":"us-west","cc":"us","latitude":37.77397,"longitude":-122.4313,"reserved":0,"last_update":"0001-01-01T00:00:00Z","name_a2s":"Uncletopia | San Francisco | 1 | All Maps","protocol":17,"map":"koth_lakeside_final","folder":"tf","game":"Team Fortress","app_id":440,"player_count":24,"max_players":24,"Bots":0,"server_type":"Dedicated","server_os":"Linux","password":true,"vac":true,"version":"7723704","steam_id":85568392924469999,"keywords":["cp","nocrits","nodmgspread","uncletopia"],"game_id":440,"stv_port":27016,"stv_name":"Uncletopia | San Francisco | 1 | All Maps | STV","players":[{"user_id":299,"name":"Flyingcat9000","steam_id":76561198179561797,"connected_time":811000000000,"state":"active","ping":33},{"user_id":307,"name":"selvhat","steam_id":76561198114225509,"connected_time":669000000000,"state":"active","ping":54},{"user_id":305,"name":"Loki❤","steam_id":76561198280150602,"connected_time":714000000000,"state":"active","ping":76},{"user_id":308,"name":"Frongus","steam_id":76561197979056451,"connected_time":643000000000,"state":"active","ping":63},{"user_id":295,"name":"PhantomBoy","steam_id":76561199195113687,"connected_time":983000000000,"state":"active","ping":102},{"user_id":306,"name":"That Guy","steam_id":76561197997444126,"connected_time":677000000000,"state":"active","ping":63},{"user_id":304,"name":"SIEGPIKL92","steam_id":76561198023514735,"connected_time":742000000000,"state":"active","ping":106},{"user_id":313,"name":"tweet","steam_id":76561198166515735,"connected_time":416000000000,"state":"active","ping":45},{"user_id":291,"name":"I’m Mr. White Christmas","steam_id":76561198393043568,"connected_time":1118000000000,"state":"active","ping":73},{"user_id":292,"name":"playboicartifan2017","steam_id":76561198345528370,"connected_time":1103000000000,"state":"active","ping":44},{"user_id":300,"name":"Chafn","steam_id":76561197969386702,"connected_time":810000000000,"state":"active","ping":64},{"user_id":294,"name":"Frank","steam_id":76561198126681511,"connected_time":1021000000000,"state":"active","ping":63},{"user_id":314,"name":"Psychromaniac","steam_id":76561198012215214,"connected_time":387000000000,"state":"active","ping":78},{"user_id":310,"name":"poey","steam_id":76561198865346767,"connected_time":473000000000,"state":"active","ping":63},{"user_id":311,"name":"O(n)","steam_id":76561198104675984,"connected_time":441000000000,"state":"active","ping":61},{"user_id":318,"name":"STOP RIGHT THERE CRIMINAL SCUM","steam_id":76561198202273263,"connected_time":172000000000,"state":"active","ping":91},{"user_id":301,"name":"fish (2:3)","steam_id":76561198134331073,"connected_time":803000000000,"state":"active","ping":77},{"user_id":303,"name":"Battery_Included","steam_id":76561198067164431,"connected_time":791000000000,"state":"active","ping":48},{"user_id":315,"name":"piñacoladita","steam_id":76561198843013810,"connected_time":380000000000,"state":"active","ping":74},{"user_id":316,"name":"pyro sucks","steam_id":76561199431553789,"connected_time":321000000000,"state":"active","ping":70},{"user_id":319,"name":"MistakesWereMade","steam_id":76561199059220481,"connected_time":170000000000,"state":"active","ping":56},{"user_id":317,"name":"AKKAWI","steam_id":76561198203159952,"connected_time":289000000000,"state":"active","ping":60},{"user_id":281,"name":"TheMagicMrWaffle","steam_id":76561198104357256,"connected_time":2386000000000,"state":"active","ping":53},{"user_id":283,"name":"t","steam_id":76561198175988929,"connected_time":2211000000000,"state":"active","ping":75}]},{"server_id":18,"name":"Uncletopia | San Francisco | 2 | All Maps","name_short":"sfo-2","host":"sfo-1.us.uncletopia.com","port":27025,"enabled":true,"region":"us-west","cc":"us","latitude":37.77397,"longitude":-122.4313,"reserved":0,"last_update":"0001-01-01T00:00:00Z","name_a2s":"Uncletopia | San Francisco | 2 | All Maps","protocol":17,"map":"pl_snowycoast","folder":"tf","game":"Team Fortress","app_id":440,"player_count":0,"max_players":24,"Bots":0,"server_type":"Dedicated","server_os":"Linux","password":true,"vac":true,"version":"7723704","steam_id":85568392924470000,"keywords":["nocrits","nodmgspread","payload","uncletopia"],"game_id":440,"stv_port":27026,"stv_name":"Uncletopia | San Francisco | 2 | All Maps | STV","players":null},{"server_id":19,"name":"Uncletopia | San Francisco | 3 | Stopwatch Beta","name_short":"sfo-3","host":"sfo-1.us.uncletopia.com","port":27035,"enabled":true,"region":"us-west","cc":"us","latitude":37.77397,"longitude":-122.4313,"reserved":0,"last_update":"0001-01-01T00:00:00Z","name_a2s":"Uncletopia | San Francisco | 3 | Stopwatch Beta","protocol":17,"map":"pl_pier","folder":"tf","game":"Team Fortress","app_id":440,"player_count":0,"max_players":24,"Bots":0,"server_type":"Dedicated","server_os":"Linux","password":true,"vac":true,"version":"7723704","steam_id":85568392924742824,"keywords":["nocrits","nodmgspread","payload","uncletopia"],"game_id":440,"stv_port":27036,"stv_name":"Uncletopia | San Francisco | 3 | Stopwatch Beta | STV","players":null},{"server_id":20,"name":"Uncletopia | San Francisco | 4 | Community","name_short":"sfo-4","host":"sfo-1.us.uncletopia.com","port":27045,"enabled":true,"region":"us-west","cc":"us","latitude":37.77397,"longitude":-122.4313,"reserved":0,"last_update":"0001-01-01T00:00:00Z","name_a2s":"Uncletopia | San Francisco | 4 | Community","protocol":17,"map":"workshop/koth_ashville_final.ugc2130459942","folder":"tf","game":"Team Fortress","app_id":440,"player_count":6,"max_players":24,"Bots":0,"server_type":"Dedicated","server_os":"Linux","password":true,"vac":true,"version":"7723704","steam_id":85568392924742826,"keywords":["cp","nocrits","nodmgspread","uncletopia"],"game_id":440,"stv_port":27046,"stv_name":"Uncletopia | San Francisco | 4 | Community | STV","players":[{"user_id":68,"name":"a cat plushie","steam_id":76561198080046542,"connected_time":3190000000000,"state":"active","ping":60},{"user_id":69,"name":"SwampHen8005","steam_id":76561199389957336,"connected_time":1948000000000,"state":"active","ping":191},{"user_id":70,"name":"CrackedSanity","steam_id":76561198279841251,"connected_time":1850000000000,"state":"active","ping":48},{"user_id":71,"name":"Gary Sinfeld","steam_id":76561198042274074,"connected_time":615000000000,"state":"active","ping":64},{"user_id":73,"name":"Dethscream","steam_id":76561197997322964,"connected_time":229000000000,"state":"active","ping":65},{"user_id":74,"name":"1965tobydowd","steam_id":76561198858551969,"connected_time":216000000000,"state":"active","ping":48}]},{"server_id":141,"name":"Uncletopia | Sydney | 1 | All Maps","name_short":"syd-1","host":"syd-1.au.uncletopia.com","port":27015,"enabled":true,"region":"au","cc":"au","latitude":-33.865143,"longitude":151.2099,"reserved":0,"last_update":"0001-01-01T00:00:00Z","name_a2s":"Uncletopia | Sydney | 1 | All Maps","protocol":17,"map":"pl_barnblitz","folder":"tf","game":"Team Fortress","app_id":440,"player_count":23,"max_players":24,"Bots":0,"server_type":"Dedicated","server_os":"Linux","password":true,"vac":true,"version":"7723704","steam_id":85568392924470001,"keywords":["nocrits","nodmgspread","payload","uncletopia"],"game_id":440,"stv_port":27016,"stv_name":"Uncletopia | Sydney | 1 | All Maps | STV","players":[{"user_id":198,"name":"Rob-Roy","steam_id":76561198012749888,"connected_time":422000000000,"state":"active","ping":107},{"user_id":201,"name":"The Almighty Duck","steam_id":76561198093366304,"connected_time":226000000000,"state":"active","ping":73},{"user_id":169,"name":"Teflon","steam_id":76561198001224301,"connected_time":2998000000000,"state":"active","ping":66},{"user_id":196,"name":"mrphy","steam_id":76561198251574728,"connected_time":965000000000,"state":"active","ping":58},{"user_id":203,"name":"The Goodnight Kiwi","steam_id":76561198866433807,"connected_time":63000000000,"state":"active","ping":60},{"user_id":191,"name":"Dangerous DPad","steam_id":76561198452829128,"connected_time":1140000000000,"state":"active","ping":69},{"user_id":162,"name":"Nenguu","steam_id":76561198243952386,"connected_time":4064000000000,"state":"active","ping":58},{"user_id":193,"name":"Macca","steam_id":76561198010207998,"connected_time":1045000000000,"state":"active","ping":45},{"user_id":192,"name":"MrMuffin16","steam_id":76561198257303774,"connected_time":1130000000000,"state":"active","ping":50},{"user_id":181,"name":"Jacob","steam_id":76561198059341907,"connected_time":1897000000000,"state":"active","ping":36},{"user_id":165,"name":"DOINBA","steam_id":76561197965566926,"connected_time":3427000000000,"state":"active","ping":31},{"user_id":170,"name":"TW_light2022","steam_id":76561199393566784,"connected_time":2973000000000,"state":"active","ping":68},{"user_id":199,"name":"hobo","steam_id":76561199046481213,"connected_time":257000000000,"state":"active","ping":66},{"user_id":155,"name":"HazDaddySlim","steam_id":76561198140262325,"connected_time":4586000000000,"state":"active","ping":53},{"user_id":204,"name":"The Sopranos","steam_id":76561198069602169,"connected_time":40000000000,"state":"active","ping":54},{"user_id":182,"name":"Duality","steam_id":76561198050614167,"connected_time":1894000000000,"state":"active","ping":61},{"user_id":83,"name":"helix","steam_id":76561198046509091,"connected_time":8070000000000,"state":"active","ping":54},{"user_id":194,"name":"Phoish","steam_id":76561198442526296,"connected_time":1039000000000,"state":"active","ping":77},{"user_id":92,"name":"Local Trash Expert","steam_id":76561198145598622,"connected_time":7856000000000,"state":"active","ping":75},{"user_id":95,"name":"speed bomb","steam_id":76561198277363788,"connected_time":7634000000000,"state":"active","ping":73},{"user_id":195,"name":"kaz","steam_id":76561198141532452,"connected_time":1018000000000,"state":"active","ping":46},{"user_id":173,"name":"Zort","steam_id":76561198056414289,"connected_time":2809000000000,"state":"active","ping":64},{"user_id":172,"name":"KeeperOfBalance","steam_id":76561198028070089,"connected_time":2846000000000,"state":"active","ping":83}]},{"server_id":123,"name":"Uncletopia | Sydney | 2 | All Maps","name_short":"syd-2","host":"syd-1.au.uncletopia.com","port":27025,"enabled":true,"region":"au","cc":"au","latitude":-33.865143,"longitude":151.2099,"reserved":0,"last_update":"0001-01-01T00:00:00Z","name_a2s":"Uncletopia | Sydney | 2 | All Maps","protocol":17,"map":"cp_altitude","folder":"tf","game":"Team Fortress","app_id":440,"player_count":0,"max_players":24,"Bots":0,"server_type":"Dedicated","server_os":"Linux","password":true,"vac":true,"version":"7723704","steam_id":85568392924470002,"keywords":["cp","nocrits","nodmgspread","uncletopia"],"game_id":440,"stv_port":27026,"stv_name":"Uncletopia | Sydney | 2 | All Maps | STV","players":null},{"server_id":395,"name":"Uncletopia | Sydney | 3 | All Maps","name_short":"syd-3","host":"syd-1.au.uncletopia.com","port":27035,"enabled":true,"region":"au","cc":"au","latitude":-33.865143,"longitude":151.2099,"reserved":0,"last_update":"0001-01-01T00:00:00Z","name_a2s":"Uncletopia | Sydney | 3 | All Maps","protocol":17,"map":"pl_barnblitz","folder":"tf","game":"Team Fortress","app_id":440,"player_count":0,"max_players":24,"Bots":0,"server_type":"Dedicated","server_os":"Linux","password":true,"vac":true,"version":"7723704","steam_id":85568392925194467,"keywords":["nocrits","nodmgspread","payload","uncletopia"],"game_id":440,"stv_port":27036,"stv_name":"Uncletopia | Sydney | 3 | All Maps | STV","players":null},{"server_id":396,"name":"Uncletopia | Sydney | 4 | All Maps","name_short":"syd-4","host":"syd-1.au.uncletopia.com","port":27045,"enabled":true,"region":"au","cc":"au","latitude":-33.865143,"longitude":151.2099,"reserved":0,"last_update":"0001-01-01T00:00:00Z","name_a2s":"Uncletopia | Sydney | 4 | All Maps","protocol":17,"map":"pl_swiftwater_final1","folder":"tf","game":"Team Fortress","app_id":440,"player_count":4,"max_players":24,"Bots":0,"server_type":"Dedicated","server_os":"Linux","password":true,"vac":true,"version":"7723704","steam_id":85568392925397958,"keywords":["nocrits","nodmgspread","payload","uncletopia"],"game_id":440,"stv_port":27046,"stv_name":"Uncletopia | Sydney | 4 | All Maps | STV","players":[{"user_id":5,"name":"Slippo","steam_id":76561198079649290,"connected_time":983000000000,"state":"active","ping":36},{"user_id":7,"name":"Tomatolaxatives","steam_id":76561198165184407,"connected_time":949000000000,"state":"active","ping":42},{"user_id":8,"name":"Qwerty","steam_id":76561199157092367,"connected_time":897000000000,"state":"active","ping":71},{"user_id":10,"name":"Snare","steam_id":76561198134913453,"connected_time":346000000000,"state":"active","ping":65}]},{"server_id":58,"name":"Uncletopia | Sydney | 5 | Stopwatch Beta","name_short":"syd-5","host":"syd-1.au.uncletopia.com","port":27055,"enabled":true,"region":"au","cc":"au","latitude":-33.865143,"longitude":151.2099,"reserved":0,"last_update":"0001-01-01T00:00:00Z","name_a2s":"Uncletopia | Sydney | 5 | Stopwatch Beta","protocol":17,"map":"cp_altitude","folder":"tf","game":"Team Fortress","app_id":440,"player_count":1,"max_players":24,"Bots":0,"server_type":"Dedicated","server_os":"Linux","password":true,"vac":true,"version":"7723704","steam_id":85568392925397959,"keywords":["cp","nocrits","nodmgspread","uncletopia"],"game_id":440,"stv_port":27056,"stv_name":"Uncletopia | Sydney | 5 | Stopwatch Beta | STV","players":[{"user_id":4,"name":"local f2p","steam_id":76561199417923156,"connected_time":481000000000,"state":"active","ping":46}]},{"server_id":59,"name":"Uncletopia | Sydney | 6 | Community","name_short":"syd-6","host":"syd-1.au.uncletopia.com","port":27065,"enabled":true,"region":"au","cc":"au","latitude":-33.865143,"longitude":151.2099,"reserved":0,"last_update":"0001-01-01T00:00:00Z","name_a2s":"Uncletopia | Sydney | 6 | Community","protocol":17,"map":"workshop/pl_fifthcurve_rc1.ugc648227046","folder":"tf","game":"Team Fortress","app_id":440,"player_count":0,"max_players":24,"Bots":0,"server_type":"Dedicated","server_os":"Linux","password":true,"vac":true,"version":"7723704","steam_id":85568392925397960,"keywords":["nocrits","nodmgspread","payload","uncletopia"],"game_id":440,"stv_port":27066,"stv_name":"Uncletopia | Sydney | 6 | Community | STV","players":null},{"server_id":49,"name":"Uncletopia | Warsaw | 1 | All Maps","name_short":"waw-1","host":"waw-1.pl.uncletopia.com","port":27015,"enabled":true,"region":"eu","cc":"pl","latitude":52.2297,"longitude":21.017532,"reserved":0,"last_update":"0001-01-01T00:00:00Z","name_a2s":"Uncletopia | Warsaw | 1 | All Maps","protocol":17,"map":"koth_cascade","folder":"tf","game":"Team Fortress","app_id":440,"player_count":0,"max_players":24,"Bots":0,"server_type":"Dedicated","server_os":"Linux","password":true,"vac":true,"version":"7723704","steam_id":85568392925397850,"keywords":["cp","nocrits","nodmgspread","uncletopia"],"game_id":440,"stv_port":27016,"stv_name":"Uncletopia | Warsaw | 1 | All Maps | STV","players":null},{"server_id":50,"name":"Uncletopia | Warsaw | 2 | All Maps","name_short":"waw-2","host":"waw-1.pl.uncletopia.com","port":27025,"enabled":true,"region":"eu","cc":"pl","latitude":52.2297,"longitude":21.017532,"reserved":0,"last_update":"0001-01-01T00:00:00Z","name_a2s":"Uncletopia | Warsaw | 2 | All Maps","protocol":17,"map":"koth_viaduct","folder":"tf","game":"Team Fortress","app_id":440,"player_count":0,"max_players":24,"Bots":0,"server_type":"Dedicated","server_os":"Linux","password":true,"vac":true,"version":"7723704","steam_id":85568392925397851,"keywords":["cp","nocrits","nodmgspread","uncletopia"],"game_id":440,"stv_port":27026,"stv_name":"Uncletopia | Warsaw | 2 | All Maps | STV","players":null},{"server_id":51,"name":"Uncletopia | Warsaw | 3 | All Maps","name_short":"waw-3","host":"waw-1.pl.uncletopia.com","port":27035,"enabled":true,"region":"eu","cc":"pl","latitude":52.2297,"longitude":21.017532,"reserved":0,"last_update":"0001-01-01T00:00:00Z","name_a2s":"Uncletopia | Warsaw | 3 | All Maps","protocol":17,"map":"koth_viaduct","folder":"tf","game":"Team Fortress","app_id":440,"player_count":0,"max_players":24,"Bots":0,"server_type":"Dedicated","server_os":"Linux","password":true,"vac":true,"version":"7723704","steam_id":85568392925397852,"keywords":["cp","nocrits","nodmgspread","uncletopia"],"game_id":440,"stv_port":27036,"stv_name":"Uncletopia | Warsaw | 3 | All Maps | STV","players":null},{"server_id":52,"name":"Uncletopia | Warsaw | 4 | All Maps","name_short":"waw-4","host":"waw-1.pl.uncletopia.com","port":27045,"enabled":true,"region":"eu","cc":"pl","latitude":52.2297,"longitude":21.017532,"reserved":0,"last_update":"0001-01-01T00:00:00Z","name_a2s":"Uncletopia | Warsaw | 4 | All Maps","protocol":17,"map":"koth_viaduct","folder":"tf","game":"Team Fortress","app_id":440,"player_count":0,"max_players":24,"Bots":0,"server_type":"Dedicated","server_os":"Linux","password":true,"vac":true,"version":"7723704","steam_id":85568392925397853,"keywords":["cp","nocrits","nodmgspread","uncletopia"],"game_id":440,"stv_port":27046,"stv_name":"Uncletopia | Warsaw | 4 | All Maps | STV","players":null},{"server_id":53,"name":"Uncletopia | Warsaw | 5 | Stopwatch Beta","name_short":"waw-5","host":"waw-1.pl.uncletopia.com","port":27055,"enabled":true,"region":"eu","cc":"pl","latitude":52.2297,"longitude":21.017532,"reserved":0,"last_update":"0001-01-01T00:00:00Z","name_a2s":"Uncletopia | Warsaw | 5 | Stopwatch Beta","protocol":17,"map":"cp_sunshine","folder":"tf","game":"Team Fortress","app_id":440,"player_count":0,"max_players":24,"Bots":0,"server_type":"Dedicated","server_os":"Linux","password":true,"vac":true,"version":"7723704","steam_id":85568392925397854,"keywords":["cp","nocrits","nodmgspread","uncletopia"],"game_id":440,"stv_port":27056,"stv_name":"Uncletopia | Warsaw | 5 | Stopwatch Beta | STV","players":null},{"server_id":54,"name":"Uncletopia | Warsaw | 6 | Community","name_short":"waw-6","host":"waw-1.pl.uncletopia.com","port":27065,"enabled":true,"region":"eu","cc":"pl","latitude":52.2297,"longitude":21.017532,"reserved":0,"last_update":"0001-01-01T00:00:00Z","name_a2s":"Uncletopia | Warsaw | 6 | Community","protocol":17,"map":"workshop/koth_slaughter_rc1.ugc1712845210","folder":"tf","game":"Team Fortress","app_id":440,"player_count":0,"max_players":24,"Bots":0,"server_type":"Dedicated","server_os":"Linux","password":true,"vac":true,"version":"7723704","steam_id":85568392925397856,"keywords":["cp","nocrits","nodmgspread","uncletopia"],"game_id":440,"stv_port":27066,"stv_name":"Uncletopia | Warsaw | 6 | Community | STV","players":null}]}