{"status":true,"message":"","result":[{"server_id":9,"name":"Uncletopia | Atlanta | 1 | All Maps","name_short":"atl-1","host":"atl-1.us.uncletopia.com","port":27015,"enabled":true,"region":"us-east","cc":"us","latitude":33.753746,"longitude":-84.38633,"reserved":0,"last_update":"0001-01-01T00:00:00Z","name_a2s":"Uncletopia | Atlanta | 1 | All Maps","protocol":17,"map":"pl_swiftwater_final1","folder":"tf","game":"Team Fortress","app_id":440,"player_count":24,"max_players":24,"Bots":0,"server_type":"Dedicated","server_os":"Linux","password":true,"vac":true,"version":"7742253","steam_id":85568392924469982,"keywords":["nocrits","nodmgspread","payload","uncletopia"],"game_id":440,"stv_port":27016,"stv_name":"Uncletopia | Atlanta | 1 | All Maps | STV","players":[{"user_id":342,"name":"Snorty","steam_id":76561198114304454,"connected_time":6038000000000,"state":"active","ping":76},{"user_id":373,"name":"apcsmoore","steam_id":76561199124727793,"connected_time":3497000000000,"state":"active","ping":64},{"user_id":374,"name":"Ronin Grinch","steam_id":76561198041439581,"connected_time":3425000000000,"state":"active","ping":60},{"user_id":400,"name":"Oddball","steam_id":76561198040440984,"connected_time":122000000000,"state":"active","ping":89},{"user_id":384,"name":"stardusttt","steam_id":76561198413930183,"connected_time":2176000000000,"state":"spawning","ping":53},{"user_id":385,"name":"knotsofunny","steam_id":76561198071336304,"connected_time":2175000000000,"state":"active","ping":69},{"user_id":397,"name":"Cereal","steam_id":76561198045889032,"connected_time":640000000000,"state":"active","ping":110},{"user_id":378,"name":"DuckMann","steam_id":76561198197058638,"connected_time":2740000000000,"state":"active","ping":63},{"user_id":396,"name":"ATL1 | to4st","steam_id":76561198981009008,"connected_time":701000000000,"state":"active","ping":74},{"user_id":404,"name":"helloworldprogram","steam_id":76561198200927231,"connected_time":50000000000,"state":"active","ping":122},{"user_id":403,"name":"Alkivo","steam_id":76561198315999766,"connected_time":64000000000,"state":"active","ping":72},{"user_id":406,"name":"cringeass nae-nae girl","steam_id":76561198108753857,"connected_time":23000000000,"state":"active","ping":99},{"user_id":355,"name":"DO NOT call me BART SIMPSON!!","steam_id":76561198069113375,"connected_time":5122000000000,"state":"active","ping":95},{"user_id":407,"name":"DJ Pierce","steam_id":76561198394241466,"connected_time":18000000000,"state":"active","ping":855},{"user_id":305,"name":"DrStarBucksCoffee","steam_id":76561198037372470,"connected_time":8918000000000,"state":"active","ping":76},{"user_id":343,"name":"PancreazOverdoz","steam_id":76561199234377456,"connected_time":5964000000000,"state":"active","ping":76},{"user_id":391,"name":"Uung","steam_id":76561198183956731,"connected_time":1079000000000,"state":"active","ping":68},{"user_id":405,"name":"Veilos","steam_id":76561198071897172,"connected_time":39000000000,"state":"active","ping":73},{"user_id":395,"name":"Royal_tm","steam_id":76561198319509387,"connected_time":941000000000,"state":"active","ping":71},{"user_id":376,"name":"Karate","steam_id":76561198352187445,"connected_time":3021000000000,"state":"active","ping":55},{"user_id":394,"name":"Flint","steam_id":76561198066547582,"connected_time":947000000000,"state":"active","ping":100},{"user_id":386,"name":"vordhosbn","steam_id":76561198148132163,"connected_time":2174000000000,"state":"active","ping":77},{"user_id":372,"name":"Alt","steam_id":76561197992591984,"connected_time":3569000000000,"state":"active","ping":77},{"user_id":399,"name":"Stampdawg","steam_id":76561198050500060,"connected_time":330000000000,"state":"active","ping":77}]},{"server_id":400,"name":"Uncletopia | Atlanta | 3 | Stopwatch Beta","name_short":"atl-3","host":"atl-1.us.uncletopia.com","port":27035,"enabled":true,"region":"us-east","cc":"us","latitude":33.753746,"longitude":-84.38633,"reserved":0,"last_update":"0001-01-01T00:00:00Z","name_a2s":"Uncletopia | Atlanta | 3 | Stopwatch Beta","protocol":17,"map":"pl_pier","folder":"tf","game":"Team Fortress","app_id":440,"player_count":0,"max_players":24,"Bots":0,"server_type":"Dedicated","server_os":"Linux","password":true,"vac":true,"version":"7742253","steam_id":85568392924515187,"keywords":["nocrits","nodmgspread","payload","uncletopia"],"game_id":440,"stv_port":27036,"stv_name":"Uncletopia | Atlanta | 3 | Stopwatch Beta | STV","players":null},{"server_id":401,"name":"Uncletopia | Atlanta | 4 | No Payload","name_short":"atl-4","host":"atl-1.us.uncletopia.com","port":27045,"enabled":true,"region":"us-east","cc":"us","latitude":33.753746,"longitude":-84.38633,"reserved":0,"last_update":"0001-01-01T00:00:00Z","name_a2s":"Uncletopia | Atlanta | 4 | No Payload","protocol":17,"map":"pl_pier","folder":"tf","game":"Team Fortress","app_id":440,"player_count":0,"max_players":24,"Bots":0,"server_type":"Dedicated","server_os":"Linux","password":true,"vac":true,"version":"7723704","steam_id":85568392924515188,"keywords":["nocrits","nodmgspread","payload","uncletopia"],"game_id":440,"stv_port":27046,"stv_name":"Uncletopia | Atlanta | 4 | No Payload | STV","players":null},{"server_id":2,"name":"Uncletopia | Chicago | 1 | All Maps","name_short":"chi-1","host":"chi-1.us.uncletopia.com","port":27015,"enabled":true,"region":"us-central","cc":"us","latitude":41.881832,"longitude":-87.62318,"reserved":0,"last_update":"0001-01-01T00:00:00Z","name_a2s":"Uncletopia | Chicago | 1 | All Maps","protocol":17,"map":"pl_pier","folder":"tf","game":"Team Fortress","app_id":440,"player_count":24,"max_players":24,"Bots":0,"server_type":"Dedicated","server_os":"Linux","password":true,"vac":true,"version":"7742253","steam_id":85568392924469984,"keywords":["nocrits","nodmgspread","payload","uncletopia"],"game_id":440,"stv_port":27016,"stv_name":"Uncletopia | Chicago | 1 | All Maps | STV","players":[{"user_id":410,"name":"Big Smoke","steam_id":76561198278375987,"connected_time":1193000000000,"state":"active","ping":73},{"user_id":381,"name":"Totouri","steam_id":76561198004229789,"connected_time":2743000000000,"state":"active","ping":65},{"user_id":402,"name":"blob","steam_id":76561198122375328,"connected_time":1663000000000,"state":"active","ping":60},{"user_id":357,"name":"♥ Femboy♥Ventily ♥","steam_id":76561198157260335,"connected_time":4727000000000,"state":"active","ping":47},{"user_id":360,"name":"T.w² | Sliced Bread","steam_id":76561198128489595,"connected_time":4414000000000,"state":"active","ping":76},{"user_id":371,"name":"Fudgely","steam_id":76561198039425862,"connected_time":4095000000000,"state":"active","ping":75},{"user_id":346,"name":"-π- BakaD","steam_id":76561197960559169,"connected_time":5418000000000,"state":"active","ping":56},{"user_id":236,"name":"the deadliest pyroshark","steam_id":76561198374227766,"connected_time":13972000000000,"state":"active","ping":64},{"user_id":427,"name":"nisshin maru","steam_id":76561198047557031,"connected_time":133000000000,"state":"active","ping":64},{"user_id":413,"name":"Normal Bagel","steam_id":76561198153971949,"connected_time":1123000000000,"state":"active","ping":59},{"user_id":416,"name":"Chestnut","steam_id":76561198078198968,"connected_time":947000000000,"state":"active","ping":67},{"user_id":404,"name":"Crab12","steam_id":76561198398818373,"connected_time":1595000000000,"state":"active","ping":84},{"user_id":425,"name":"jojobinks613","steam_id":76561198841293111,"connected_time":229000000000,"state":"active","ping":53},{"user_id":384,"name":"poogestisi","steam_id":76561198262572343,"connected_time":2722000000000,"state":"active","ping":56},{"user_id":396,"name":"demoknight tf2","steam_id":76561198070393998,"connected_time":1956000000000,"state":"active","ping":62},{"user_id":388,"name":"|WS| Don't_Taze_Me_Bro","steam_id":76561198043289495,"connected_time":2567000000000,"state":"active","ping":76},{"user_id":340,"name":"Furry Saul Goodman","steam_id":76561198069580305,"connected_time":5966000000000,"state":"active","ping":56},{"user_id":405,"name":"PrinceGrotle","steam_id":76561198206131603,"connected_time":1582000000000,"state":"active","ping":71},{"user_id":428,"name":"crumblejon","steam_id":76561198111273302,"connected_time":130000000000,"state":"active","ping":74},{"user_id":426,"name":"HanakoToast","steam_id":76561198045233131,"connected_time":141000000000,"state":"active","ping":96},{"user_id":420,"name":"John Darksoul","steam_id":76561198999712284,"connected_time":459000000000,"state":"active","ping":73},{"user_id":408,"name":"dc","steam_id":76561197994182256,"connected_time":1261000000000,"state":"active","ping":55},{"user_id":419,"name":"Bungalow Bill","steam_id":76561198033536404,"connected_time":511000000000,"state":"active","ping":81},{"user_id":415,"name":"GREG","steam_id":76561198073021168,"connected_time":961000000000,"state":"active","ping":75}]},{"server_id":106,"name":"Uncletopia | Chicago | 2 | All Maps","name_short":"chi-2","host":"chi-1.us.uncletopia.com","port":27025,"enabled":true,"region":"us-central","cc":"us","latitude":41.881832,"longitude":-87.62318,"reserved":0,"last_update":"0001-01-01T00:00:00Z","name_a2s":"Uncletopia | Chicago | 2 | All Maps","protocol":17,"map":"pl_frontier_final","folder":"tf","game":"Team Fortress","app_id":440,"player_count":24,"max_players":24,"Bots":0,"server_type":"Dedicated","server_os":"Linux","password":true,"vac":true,"version":"7742253","steam_id":85568392924469985,"keywords":["nocrits","nodmgspread","payload","uncletopia"],"game_id":440,"stv_port":27026,"stv_name":"Uncletopia | Chicago | 2 | All Maps | STV","players":[{"user_id":195,"name":"tortoise","steam_id":76561198161809306,"connected_time":3649000000000,"state":"active","ping":64},{"user_id":101,"name":"JustSomeInternetGuy","steam_id":76561199066037843,"connected_time":10589000000000,"state":"active","ping":77},{"user_id":220,"name":"caption cool","steam_id":76561197990612056,"connected_time":1264000000000,"state":"active","ping":45},{"user_id":198,"name":"High Medic","steam_id":76561198082405984,"connected_time":3386000000000,"state":"active","ping":59},{"user_id":214,"name":"Cupidmeh","steam_id":76561198138669654,"connected_time":1840000000000,"state":"active","ping":71},{"user_id":213,"name":"spooky","steam_id":76561198122964663,"connected_time":1868000000000,"state":"active","ping":70},{"user_id":205,"name":"Enderneer","steam_id":76561198012136653,"connected_time":2108000000000,"state":"active","ping":58},{"user_id":221,"name":"[S]Mr. X [No Monitor]","steam_id":76561197963746035,"connected_time":1052000000000,"state":"active","ping":102},{"user_id":215,"name":"LVL 4 Dispenser Gaming","steam_id":76561198044244547,"connected_time":1808000000000,"state":"active","ping":74},{"user_id":206,"name":"Danny","steam_id":76561198089084860,"connected_time":2104000000000,"state":"active","ping":120},{"user_id":222,"name":"John Waffles Brown","steam_id":76561197989105786,"connected_time":736000000000,"state":"active","ping":73},{"user_id":141,"name":"hoboholden","steam_id":76561198799370303,"connected_time":8811000000000,"state":"active","ping":106},{"user_id":142,"name":"BreadBug","steam_id":76561198797355574,"connected_time":8807000000000,"state":"active","ping":60},{"user_id":216,"name":"Mouth Tea","steam_id":76561198285054047,"connected_time":1778000000000,"state":"active","ping":75},{"user_id":157,"name":"Do Moose go Moo?","steam_id":76561198073550620,"connected_time":6793000000000,"state":"active","ping":54},{"user_id":218,"name":"Crunchy Pancake","steam_id":76561198002555973,"connected_time":1532000000000,"state":"active","ping":70},{"user_id":210,"name":"astron","steam_id":76561198058546328,"connected_time":1975000000000,"state":"active","ping":76},{"user_id":143,"name":"Nolan","steam_id":76561198169648081,"connected_time":8460000000000,"state":"active","ping":79},{"user_id":183,"name":"the rhode island toe sniffer","steam_id":76561199134895220,"connected_time":4740000000000,"state":"active","ping":76},{"user_id":199,"name":"The Goose","steam_id":76561199006093549,"connected_time":3149000000000,"state":"active","ping":55},{"user_id":219,"name":"Purgatory","steam_id":76561198374795958,"connected_time":1418000000000,"state":"active","ping":89},{"user_id":200,"name":"Mailman","steam_id":76561198090675970,"connected_time":2957000000000,"state":"active","ping":51},{"user_id":211,"name":"Qball","steam_id":76561198179016466,"connected_time":1970000000000,"state":"active","ping":57},{"user_id":187,"name":"randomperson88","steam_id":76561199228822173,"connected_time":4259000000000,"state":"active","ping":59}]},{"server_id":402,"name":"Uncletopia | Chicago | 3 | All Maps","name_short":"chi-3","host":"chi-1.us.uncletopia.com","port":27035,"enabled":true,"region":"us-central","cc":"us","latitude":41.881832,"longitude":-87.62318,"reserved":0,"last_update":"0001-01-01T00:00:00Z","name_a2s":"Uncletopia | Chicago | 3 | All Maps","protocol":17,"map":"pl_snowycoast","folder":"tf","game":"Team Fortress","app_id":440,"player_count":20,"max_players":24,"Bots":0,"server_type":"Dedicated","server_os":"Linux","password":true,"vac":true,"version":"7742253","steam_id":85568392924515191,"keywords":["nocrits","nodmgspread","payload","uncletopia"],"game_id":440,"stv_port":27036,"stv_name":"Uncletopia | Chicago | 3 | All Maps | STV","players":[{"user_id":220,"name":"febfowl","steam_id":76561198023888890,"connected_time":1425000000000,"state":"active","ping":86},{"user_id":219,"name":"NUt","steam_id":76561198031007966,"connected_time":1458000000000,"state":"active","ping":59},{"user_id":245,"name":"TTV/pablo_ricco","steam_id":76561198279839318,"connected_time":45000000000,"state":"active","ping":158},{"user_id":225,"name":"riverfiend","steam_id":76561198031993771,"connected_time":1388000000000,"state":"active","ping":50},{"user_id":241,"name":"froggin","steam_id":76561198190873441,"connected_time":331000000000,"state":"active","ping":76},{"user_id":237,"name":"p1ckl","steam_id":76561198152818418,"connected_time":773000000000,"state":"active","ping":70},{"user_id":235,"name":"SketchMeister","steam_id":76561198042362032,"connected_time":831000000000,"state":"active","ping":55},{"user_id":246,"name":"Huntpk","steam_id":76561198340591674,"connected_time":42000000000,"state":"spawning","ping":42},{"user_id":216,"name":"Snazzi","steam_id":76561198085208276,"connected_time":1505000000000,"state":"active","ping":87},{"user_id":238,"name":"Minegamer105","steam_id":76561198253320644,"connected_time":764000000000,"state":"active","ping":61},{"user_id":209,"name":"4Real","steam_id":76561199051709367,"connected_time":2279000000000,"state":"active","ping":74},{"user_id":224,"name":"miles","steam_id":76561198006838401,"connected_time":1398000000000,"state":"active","ping":75},{"user_id":243,"name":"ly","steam_id":76561198062922146,"connected_time":321000000000,"state":"active","ping":75},{"user_id":227,"name":"gamer girl looking for a bf","steam_id":76561198279901162,"connected_time":1372000000000,"state":"active","ping":63},{"user_id":239,"name":"Maxxycat","steam_id":76561198194062681,"connected_time":623000000000,"state":"active","ping":60},{"user_id":145,"name":"Bonk","steam_id":76561198116945752,"connected_time":7151000000000,"state":"active","ping":66},{"user_id":244,"name":"Gardangle","steam_id":76561198394173831,"connected_time":302000000000,"state":"active","ping":109},{"user_id":247,"name":"Big Dirty Uncle","steam_id":76561198077098268,"connected_time":42000000000,"state":"spawning","ping":89},{"user_id":214,"name":"dr jarmo","steam_id":76561198000883780,"connected_time":1756000000000,"state":"active","ping":103},{"user_id":232,"name":"Chaotic_West","steam_id":76561199129970993,"connected_time":1124000000000,"state":"active","ping":59}]},{"server_id":403,"name":"Uncletopia | Chicago | 4 | All Maps","name_short":"chi-4","host":"chi-1.us.uncletopia.com","port":27045,"enabled":true,"region":"us-central","cc":"us","latitude":41.881832,"longitude":-87.62318,"reserved":0,"last_update":"0001-01-01T00:00:00Z","name_a2s":"Uncletopia | Chicago | 4 | All Maps","protocol":17,"map":"koth_viaduct","folder":"tf","game":"Team Fortress","app_id":440,"player_count":5,"max_players":24,"Bots":0,"server_type":"Dedicated","server_os":"Linux","password":true,"vac":true,"version":"7742253","steam_id":85568392924515193,"keywords":["cp","nocrits","nodmgspread","uncletopia"],"game_id":440,"stv_port":27046,"stv_name":"Uncletopia | Chicago | 4 | All Maps | STV","players":[{"user_id":41,"name":"Ctrl+Alt+Monsters","steam_id":76561198085630893,"connected_time":736000000000,"state":"active","ping":92},{"user_id":43,"name":"Communism Powered Car","steam_id":76561198856496477,"connected_time":403000000000,"state":"active","ping":56},{"user_id":44,"name":"T0XIC","steam_id":76561199230301957,"connected_time":390000000000,"state":"active","ping":45},{"user_id":45,"name":"blackmesa","steam_id":76561198829022541,"connected_time":365000000000,"state":"active","ping":102},{"user_id":46,"name":"pavvler093","steam_id":76561199446614223,"connected_time":302000000000,"state":"active","ping":78}]},{"server_id":36,"name":"Uncletopia | Chicago | 5 | All Maps","name_short":"chi-5","host":"chi-2.us.uncletopia.com","port":27015,"enabled":true,"region":"us-central","cc":"us","latitude":41.881832,"longitude":-87.62318,"reserved":0,"last_update":"0001-01-01T00:00:00Z","name_a2s":"Uncletopia | Chicago | 5 | All Maps","protocol":17,"map":"pl_barnblitz","folder":"tf","game":"Team Fortress","app_id":440,"player_count":24,"max_players":24,"Bots":0,"server_type":"Dedicated","server_os":"Linux","password":true,"vac":true,"version":"7742253","steam_id":85568392924866362,"keywords":["nocrits","nodmgspread","payload","uncletopia"],"game_id":440,"stv_port":27016,"stv_name":"Uncletopia | Chicago | 5 | All Maps | STV","players":[{"user_id":76,"name":"daemon","steam_id":76561198001541433,"connected_time":1867000000000,"state":"active","ping":57},{"user_id":97,"name":"bushy","steam_id":76561198138088830,"connected_time":535000000000,"state":"active","ping":76},{"user_id":98,"name":"Kapreesi","steam_id":76561198163361200,"connected_time":470000000000,"state":"active","ping":63},{"user_id":58,"name":"YOU","steam_id":76561198068538473,"connected_time":3449000000000,"state":"active","ping":77},{"user_id":62,"name":"Fluffeline","steam_id":76561198352909489,"connected_time":3313000000000,"state":"active","ping":144},{"user_id":99,"name":"Robyn Goodfellowe","steam_id":76561198074719241,"connected_time":468000000000,"state":"active","ping":63},{"user_id":100,"name":"That Dude","steam_id":76561198980486227,"connected_time":372000000000,"state":"active","ping":135},{"user_id":73,"name":"Mystical Bowl of Cornflopes","steam_id":76561198018286718,"connected_time":2304000000000,"state":"active","ping":105},{"user_id":101,"name":"Kasane","steam_id":76561198209006780,"connected_time":357000000000,"state":"active","ping":96},{"user_id":72,"name":"Chrisscar","steam_id":76561198086298130,"connected_time":2323000000000,"state":"active","ping":103},{"user_id":38,"name":"FoW Scout (will mark you)","steam_id":76561198053046161,"connected_time":4577000000000,"state":"active","ping":72},{"user_id":104,"name":"GuyGoom","steam_id":76561198254522178,"connected_time":240000000000,"state":"active","ping":59},{"user_id":27,"name":"I Rush ⁧⁧Russians","steam_id":76561198119454013,"connected_time":5024000000000,"state":"active","ping":75},{"user_id":88,"name":"Vladikr1","steam_id":76561198401495362,"connected_time":983000000000,"state":"active","ping":53},{"user_id":87,"name":"scrapheap","steam_id":76561198202407087,"connected_time":1189000000000,"state":"active","ping":73},{"user_id":84,"name":"Kass","steam_id":76561198183675827,"connected_time":1255000000000,"state":"active","ping":60},{"user_id":51,"name":"RyInc","steam_id":76561198874261643,"connected_time":3937000000000,"state":"active","ping":51},{"user_id":85,"name":"Luffy","steam_id":76561198120914343,"connected_time":1253000000000,"state":"active","ping":65},{"user_id":93,"name":"Pebbles","steam_id":76561197985155770,"connected_time":792000000000,"state":"active","ping":71},{"user_id":30,"name":"Mikoo","steam_id":76561198260292699,"connected_time":4967000000000,"state":"active","ping":71},{"user_id":65,"name":"Soda","steam_id":76561198219209367,"connected_time":2890000000000,"state":"active","ping":69},{"user_id":94,"name":"Bliztank | RGL.gg","steam_id":76561198019252798,"connected_time":790000000000,"state":"active","ping":63},{"user_id":103,"name":"starfungus","steam_id":76561198158312789,"connected_time":337000000000,"state":"active","ping":69},{"user_id":82,"name":"Mateo :-)","steam_id":76561199084303314,"connected_time":1381000000000,"state":"active","ping":80}]},{"server_id":37,"name":"Uncletopia | Chicago | 6 | All Maps","name_short":"chi-6","host":"chi-2.us.uncletopia.com","port":27025,"enabled":true,"region":"us-central","cc":"us","latitude":41.881832,"longitude":-87.62318,"reserved":0,"last_update":"0001-01-01T00:00:00Z","name_a2s":"Uncletopia | Chicago | 6 | All Maps","protocol":17,"map":"koth_highpass","folder":"tf","game":"Team Fortress","app_id":440,"player_count":23,"max_players":24,"Bots":0,"server_type":"Dedicated","server_os":"Linux","password":true,"vac":true,"version":"7742253","steam_id":85568392924866363,"keywords":["cp","nocrits","nodmgspread","uncletopia"],"game_id":440,"stv_port":27026,"stv_name":"Uncletopia | Chicago | 6 | All Maps | STV","players":[{"user_id":144,"name":"luminen","steam_id":76561198044479631,"connected_time":592000000000,"state":"active","ping":65},{"user_id":134,"name":"Buff Anteater","steam_id":76561198040182692,"connected_time":1203000000000,"state":"active","ping":124},{"user_id":110,"name":"Lunchboxx","steam_id":76561198079735916,"connected_time":2342000000000,"state":"active","ping":56},{"user_id":143,"name":"macironi and chesse","steam_id":76561199098060805,"connected_time":686000000000,"state":"active","ping":51},{"user_id":136,"name":"AKK0","steam_id":76561199063194145,"connected_time":1057000000000,"state":"active","ping":115},{"user_id":108,"name":"generic","steam_id":76561199068306212,"connected_time":2612000000000,"state":"active","ping":85},{"user_id":137,"name":"mainmind","steam_id":76561198321584245,"connected_time":950000000000,"state":"active","ping":64},{"user_id":155,"name":"Banio Kaioie","steam_id":76561198153295874,"connected_time":72000000000,"state":"active","ping":103},{"user_id":118,"name":"Fragment Guy","steam_id":76561198178413086,"connected_time":2084000000000,"state":"active","ping":45},{"user_id":140,"name":"watchfull","steam_id":76561198433266742,"connected_time":794000000000,"state":"active","ping":93},{"user_id":129,"name":"tim-","steam_id":76561199119101315,"connected_time":1583000000000,"state":"active","ping":74},{"user_id":146,"name":"Socialist Andy","steam_id":76561198400452950,"connected_time":547000000000,"state":"active","ping":71},{"user_id":142,"name":"Mad dog of Shimano","steam_id":76561198797266817,"connected_time":759000000000,"state":"active","ping":94},{"user_id":123,"name":"srv","steam_id":76561198026589960,"connected_time":1841000000000,"state":"active","ping":56},{"user_id":154,"name":"riri ᗜᴗᗜ","steam_id":76561198055462404,"connected_time":238000000000,"state":"active","ping":87},{"user_id":125,"name":"impractical jokers gaming","steam_id":76561198068167915,"connected_time":1822000000000,"state":"active","ping":70},{"user_id":148,"name":"I WILL DO RANDOM SHIT","steam_id":76561198066589886,"connected_time":503000000000,"state":"active","ping":81},{"user_id":149,"name":"fudo myoo","steam_id":76561198456258164,"connected_time":485000000000,"state":"active","ping":68},{"user_id":150,"name":"Vex","steam_id":76561198882281975,"connected_time":448000000000,"state":"active","ping":80},{"user_id":151,"name":"RetroBlast","steam_id":76561197960599645,"connected_time":430000000000,"state":"active","ping":80},{"user_id":152,"name":"RadioIris","steam_id":76561199119284107,"connected_time":357000000000,"state":"active","ping":118},{"user_id":128,"name":"Salkaver","steam_id":76561198204049432,"connected_time":1803000000000,"state":"active","ping":75},{"user_id":132,"name":"One week at Frederick's","steam_id":76561198264752535,"connected_time":1475000000000,"state":"active","ping":62}]},{"server_id":38,"name":"Uncletopia | Chicago | 7 | Stopwatch Beta","name_short":"chi-7","host":"chi-2.us.uncletopia.com","port":27035,"enabled":true,"region":"us-central","cc":"us","latitude":41.881832,"longitude":-87.62318,"reserved":0,"last_update":"0001-01-01T00:00:00Z","name_a2s":"Uncletopia | Chicago | 7 | Stopwatch Beta","protocol":17,"map":"workshop/koth_clearcut_b15.ugc2107050255","folder":"tf","game":"Team Fortress","app_id":440,"player_count":0,"max_players":24,"Bots":0,"server_type":"Dedicated","server_os":"Linux","password":true,"vac":true,"version":"7742253","steam_id":85568392924866364,"keywords":["cp","nocrits","nodmgspread","uncletopia"],"game_id":440,"stv_port":27036,"stv_name":"Uncletopia | Chicago | 7 | Stopwatch Beta | STV","players":null},{"server_id":39,"name":"Uncletopia | Chicago | 8 | Community","name_short":"chi-8","host":"chi-2.us.uncletopia.com","port":27045,"enabled":true,"region":"us-central","cc":"us","latitude":41.881832,"longitude":-87.62318,"reserved":0,"last_update":"0001-01-01T00:00:00Z","name_a2s":"Uncletopia | Chicago | 8 | Community","protocol":17,"map":"koth_lakeside_final","folder":"tf","game":"Team Fortress","app_id":440,"player_count":0,"max_players":24,"Bots":0,"server_type":"Dedicated","server_os":"Linux","password":true,"vac":true,"version":"7742253","steam_id":85568392924866365,"keywords":["cp","nocrits","nodmgspread","uncletopia"],"game_id":440,"stv_port":27046,"stv_name":"Uncletopia | Chicago | 8 | Community | STV","players":null},{"server_id":8,"name":"Uncletopia | Dallas | 1 | All Maps","name_short":"dal-1","host":"dal-1.us.uncletopia.com","port":27015,"enabled":true,"region":"us-central","cc":"us","latitude":32.779167,"longitude":-96.80889,"reserved":0,"last_update":"0001-01-01T00:00:00Z","name_a2s":"Uncletopia | Dallas | 1 | All Maps","protocol":17,"map":"cp_sunshine","folder":"tf","game":"Team Fortress","app_id":440,"player_count":24,"max_players":24,"Bots":0,"server_type":"Dedicated","server_os":"Linux","password":true,"vac":true,"version":"7742253","steam_id":85568392924469986,"keywords":["cp","nocrits","nodmgspread","uncletopia"],"game_id":440,"stv_port":27016,"stv_name":"Uncletopia | Dallas | 1 | All Maps | STV","players":[{"user_id":140,"name":"Derblitz","steam_id":76561198040953176,"connected_time":6147000000000,"state":"active","ping":81},{"user_id":198,"name":"sollarious101","steam_id":76561199086649385,"connected_time":486000000000,"state":"active","ping":34},{"user_id":178,"name":"idiot normie","steam_id":76561198397662124,"connected_time":2282000000000,"state":"active","ping":57},{"user_id":194,"name":"Greg Boberton 2012","steam_id":76561198983566026,"connected_time":1016000000000,"state":"active","ping":85},{"user_id":147,"name":"Kenku","steam_id":76561199086762926,"connected_time":5829000000000,"state":"active","ping":69},{"user_id":185,"name":"mbell1199","steam_id":76561198827517736,"connected_time":1795000000000,"state":"active","ping":48},{"user_id":149,"name":"Muffim","steam_id":76561198056704533,"connected_time":5462000000000,"state":"active","ping":76},{"user_id":116,"name":"Moonflower ✦","steam_id":76561198191782483,"connected_time":9656000000000,"state":"active","ping":48},{"user_id":195,"name":"Hernandez$","steam_id":76561198019324588,"connected_time":813000000000,"state":"active","ping":64},{"user_id":191,"name":"Modern Day Wizard","steam_id":76561198354689252,"connected_time":1361000000000,"state":"active","ping":65},{"user_id":85,"name":"Rat Smacker","steam_id":76561199090197628,"connected_time":11211000000000,"state":"active","ping":61},{"user_id":172,"name":"(◔̯ຈ)","steam_id":76561198021224745,"connected_time":3159000000000,"state":"active","ping":85},{"user_id":180,"name":"Fishstall","steam_id":76561198038126034,"connected_time":2259000000000,"state":"active","ping":67},{"user_id":111,"name":"Elena Manetta","steam_id":76561197998344054,"connected_time":9838000000000,"state":"active","ping":75},{"user_id":119,"name":"☆Nebula-Belt☆","steam_id":76561198151250806,"connected_time":8832000000000,"state":"active","ping":106},{"user_id":164,"name":"CSchnappi","steam_id":76561198131999968,"connected_time":4651000000000,"state":"active","ping":49},{"user_id":184,"name":"Stillkill","steam_id":76561198065069057,"connected_time":1989000000000,"state":"active","ping":34},{"user_id":183,"name":"BrightOrangeMango","steam_id":76561198023144607,"connected_time":2012000000000,"state":"active","ping":74},{"user_id":166,"name":"Echo","steam_id":76561198355713484,"connected_time":4640000000000,"state":"active","ping":104},{"user_id":171,"name":"DejectedKiwi","steam_id":76561198115055574,"connected_time":3231000000000,"state":"active","ping":48},{"user_id":200,"name":"fire","steam_id":76561198044354279,"connected_time":297000000000,"state":"active","ping":76},{"user_id":197,"name":"B.A.S.E","steam_id":76561198065324447,"connected_time":520000000000,"state":"active","ping":66},{"user_id":113,"name":"catface","steam_id":76561198096347625,"connected_time":9805000000000,"state":"active","ping":80},{"user_id":199,"name":"A_Toaster","steam_id":76561198946997549,"connected_time":363000000000,"state":"active","ping":52}]},{"server_id":108,"name":"Uncletopia | Dallas | 2 | All Maps","name_short":"dal-2","host":"dal-1.us.uncletopia.com","port":27025,"enabled":true,"region":"us-central","cc":"us","latitude":32.779167,"longitude":-96.80889,"reserved":0,"last_update":"0001-01-01T00:00:00Z","name_a2s":"Uncletopia | Dallas | 2 | All Maps","protocol":17,"map":"pl_swiftwater_final1","folder":"tf","game":"Team Fortress","app_id":440,"player_count":0,"max_players":24,"Bots":0,"server_type":"Dedicated","server_os":"Linux","password":true,"vac":true,"version":"7742253","steam_id":85568392924469988,"keywords":["nocrits","nodmgspread","payload","uncletopia"],"game_id":440,"stv_port":27026,"stv_name":"Uncletopia | Dallas | 2 | All Maps | STV","players":null},{"server_id":5,"name":"Uncletopia | Frankfurt | 1 | All Maps","name_short":"frk-1","host":"frk-1.de.uncletopia.com","port":27015,"enabled":true,"region":"eu","cc":"de","latitude":50.110924,"longitude":8.682127,"reserved":0,"last_update":"0001-01-01T00:00:00Z","name_a2s":"Uncletopia | Frankfurt | 1 | All Maps","protocol":17,"map":"pl_badwater","folder":"tf","game":"Team Fortress","app_id":440,"player_count":24,"max_players":24,"Bots":0,"server_type":"Dedicated","server_os":"Linux","password":true,"vac":true,"version":"7742253","steam_id":85568392924469989,"keywords":["nocrits","nodmgspread","payload","uncletopia"],"game_id":440,"stv_port":27016,"stv_name":"Uncletopia | Frankfurt | 1 | All Maps | STV","players":[{"user_id":797,"name":"Joe","steam_id":76561198177821721,"connected_time":1027000000000,"state":"active","ping":52},{"user_id":801,"name":"MaypulSoyrup","steam_id":76561199213966821,"connected_time":727000000000,"state":"active","ping":89},{"user_id":790,"name":"Femboypawnguy","steam_id":76561198274894771,"connected_time":2075000000000,"state":"active","ping":53},{"user_id":798,"name":"ambatukam","steam_id":76561198175433731,"connected_time":936000000000,"state":"active","ping":77},{"user_id":678,"name":"|20BB)\u003eMach","steam_id":76561198952487564,"connected_time":11297000000000,"state":"active","ping":77},{"user_id":796,"name":"Leeroy Jenkins","steam_id":76561198137210227,"connected_time":1041000000000,"state":"active","ping":134},{"user_id":815,"name":"blandair","steam_id":76561198087194492,"connected_time":519000000000,"state":"active","ping":62},{"user_id":778,"name":"Puboy","steam_id":76561197984617142,"connected_time":2434000000000,"state":"active","ping":50},{"user_id":800,"name":"Cock thief","steam_id":76561199213400234,"connected_time":810000000000,"state":"active","ping":79},{"user_id":802,"name":"Mr-Fluf","steam_id":76561198115101757,"connected_time":714000000000,"state":"active","ping":92},{"user_id":793,"name":"Sadao","steam_id":76561199020066945,"connected_time":1891000000000,"state":"active","ping":76},{"user_id":781,"name":"Kosher Twink","steam_id":76561198397024973,"connected_time":2273000000000,"state":"active","ping":45},{"user_id":803,"name":"Mr. Fox","steam_id":76561198803610709,"connected_time":707000000000,"state":"active","ping":114},{"user_id":785,"name":"「◆Raku• 」","steam_id":76561198059283183,"connected_time":2220000000000,"state":"active","ping":75},{"user_id":603,"name":"Rudebwoyyy","steam_id":76561199387956486,"connected_time":15893000000000,"state":"active","ping":54},{"user_id":804,"name":"Lopy","steam_id":76561198154328467,"connected_time":691000000000,"state":"active","ping":57},{"user_id":818,"name":"weSt","steam_id":76561198000913325,"connected_time":210000000000,"state":"active","ping":66},{"user_id":807,"name":"call your mother","steam_id":76561198385957007,"connected_time":671000000000,"state":"active","ping":105},{"user_id":821,"name":"Superiumentarius","steam_id":76561198081642249,"connected_time":113000000000,"state":"active","ping":55},{"user_id":808,"name":"RobloxKid2011","steam_id":76561199397174994,"connected_time":662000000000,"state":"active","ping":50},{"user_id":819,"name":"vuggie","steam_id":76561198042227249,"connected_time":194000000000,"state":"active","ping":45},{"user_id":814,"name":".....","steam_id":76561198065009070,"connected_time":560000000000,"state":"active","ping":76},{"user_id":820,"name":"mattyl7","steam_id":76561198202182888,"connected_time":127000000000,"state":"active","ping":106},{"user_id":647,"name":"LarsInABox","steam_id":76561198028329262,"connected_time":13508000000000,"state":"active","ping":73}]},{"server_id":110,"name":"Uncletopia | Frankfurt | 2 | All Maps","name_short":"frk-2","host":"frk-1.de.uncletopia.com","port":27025,"enabled":true,"region":"eu","cc":"de","latitude":50.110924,"longitude":8.682127,"reserved":0,"last_update":"0001-01-01T00:00:00Z","name_a2s":"Uncletopia | Frankfurt | 2 | All Maps","protocol":17,"map":"pl_badwater","folder":"tf","game":"Team Fortress","app_id":440,"player_count":23,"max_players":24,"Bots":0,"server_type":"Dedicated","server_os":"Linux","password":true,"vac":true,"version":"7742253","steam_id":85568392924469990,"keywords":["nocrits","nodmgspread","payload","uncletopia"],"game_id":440,"stv_port":27026,"stv_name":"Uncletopia | Frankfurt | 2 | All Maps | STV","players":[{"user_id":673,"name":"Seb, Comrade","steam_id":76561198040279587,"connected_time":4514000000000,"state":"active","ping":75},{"user_id":705,"name":"Mr.O #deletesniper","steam_id":76561198039567498,"connected_time":1862000000000,"state":"active","ping":60},{"user_id":691,"name":"PaperPlay","steam_id":76561198046838964,"connected_time":2656000000000,"state":"active","ping":107},{"user_id":698,"name":"Secundus","steam_id":76561199094034744,"connected_time":2404000000000,"state":"active","ping":44},{"user_id":722,"name":"Miss Bari","steam_id":76561198365286092,"connected_time":13000000000,"state":"active","ping":119},{"user_id":701,"name":"Der Sonntagsfahrer","steam_id":76561198116415362,"connected_time":2142000000000,"state":"active","ping":85},{"user_id":702,"name":"dn4k","steam_id":76561199221755690,"connected_time":2127000000000,"state":"active","ping":78},{"user_id":710,"name":"Syd","steam_id":76561198020515027,"connected_time":1099000000000,"state":"active","ping":79},{"user_id":711,"name":"Echo of Abyss","steam_id":76561198981841782,"connected_time":1096000000000,"state":"active","ping":68},{"user_id":716,"name":"Heavy like a Brinks truck","steam_id":76561198197304886,"connected_time":81000000000,"state":"active","ping":98},{"user_id":678,"name":"WHUSSKEY","steam_id":76561198137827441,"connected_time":4433000000000,"state":"active","ping":62},{"user_id":681,"name":"❅✮nurse✮❅ lft 6s","steam_id":76561198204505424,"connected_time":4106000000000,"state":"active","ping":83},{"user_id":712,"name":"βeta","steam_id":76561198978885260,"connected_time":1093000000000,"state":"active","ping":135},{"user_id":628,"name":"Talent","steam_id":76561198153880354,"connected_time":7460000000000,"state":"active","ping":61},{"user_id":694,"name":"-makina","steam_id":76561198273042780,"connected_time":2619000000000,"state":"active","ping":65},{"user_id":695,"name":"Marec0002","steam_id":76561198117359113,"connected_time":2550000000000,"state":"active","ping":53},{"user_id":662,"name":"yuh","steam_id":76561199005555839,"connected_time":5264000000000,"state":"active","ping":70},{"user_id":718,"name":"GGabesz","steam_id":76561198117199068,"connected_time":64000000000,"state":"active","ping":76},{"user_id":679,"name":"Crocodile DZ","steam_id":76561198145132844,"connected_time":4429000000000,"state":"active","ping":105},{"user_id":721,"name":"let me cook","steam_id":76561198010380786,"connected_time":47000000000,"state":"active","ping":52},{"user_id":700,"name":"UltimateAura","steam_id":76561198338361324,"connected_time":2228000000000,"state":"active","ping":47},{"user_id":706,"name":"Arelelele","steam_id":76561198109583337,"connected_time":1475000000000,"state":"active","ping":104},{"user_id":714,"name":"GURA","steam_id":76561198261941940,"connected_time":638000000000,"state":"active","ping":67}]},{"server_id":308,"name":"Uncletopia | Frankfurt | 3 | All Maps","name_short":"frk-3","host":"frk-1.de.uncletopia.com","port":27035,"enabled":true,"region":"eu","cc":"de","latitude":50.110924,"longitude":8.682127,"reserved":0,"last_update":"0001-01-01T00:00:00Z","name_a2s":"Uncletopia | Frankfurt | 3 | All Maps","protocol":17,"map":"cp_freight_final1","folder":"tf","game":"Team Fortress","app_id":440,"player_count":23,"max_players":24,"Bots":0,"server_type":"Dedicated","server_os":"Linux","password":true,"vac":true,"version":"7742253","steam_id":85568392924504274,"keywords":["cp","nocrits","nodmgspread","uncletopia"],"game_id":440,"stv_port":27036,"stv_name":"Uncletopia | Frankfurt | 3 | All Maps | STV","players":[{"user_id":620,"name":"Minimi","steam_id":76561198873850443,"connected_time":3432000000000,"state":"active","ping":55},{"user_id":527,"name":"gatt","steam_id":76561198130597877,"connected_time":8905000000000,"state":"active","ping":65},{"user_id":621,"name":"Savric","steam_id":76561197984478559,"connected_time":3427000000000,"state":"active","ping":49},{"user_id":654,"name":"Trollface [ᴙ-μ]","steam_id":76561198418538887,"connected_time":766000000000,"state":"active","ping":96},{"user_id":657,"name":"Zurwa","steam_id":76561198046043713,"connected_time":168000000000,"state":"active","ping":48},{"user_id":647,"name":"YEEET","steam_id":76561198914938199,"connected_time":1473000000000,"state":"active","ping":88},{"user_id":655,"name":"heh","steam_id":76561198119650486,"connected_time":373000000000,"state":"active","ping":63},{"user_id":652,"name":"imrealylazy","steam_id":76561198878574518,"connected_time":1190000000000,"state":"active","ping":60},{"user_id":631,"name":"JohnTraveltime","steam_id":76561199244281754,"connected_time":2619000000000,"state":"active","ping":75},{"user_id":661,"name":"Yagumbus","steam_id":76561198039691679,"connected_time":19000000000,"state":"spawning","ping":93},{"user_id":636,"name":"Megasecret","steam_id":76561198055378025,"connected_time":2178000000000,"state":"active","ping":83},{"user_id":653,"name":"Demonstrate","steam_id":76561198198581079,"connected_time":875000000000,"state":"active","ping":97},{"user_id":591,"name":"John Ross","steam_id":76561198034560808,"connected_time":5038000000000,"state":"active","ping":45},{"user_id":649,"name":"BONK","steam_id":76561199120275042,"connected_time":1463000000000,"state":"active","ping":58},{"user_id":651,"name":"Zogg","steam_id":76561198352683491,"connected_time":1297000000000,"state":"active","ping":52},{"user_id":638,"name":"._.","steam_id":76561198854897667,"connected_time":1786000000000,"state":"active","ping":76},{"user_id":662,"name":"Box of Cox","steam_id":76561198075035494,"connected_time":1000000000,"state":"spawning","ping":49},{"user_id":605,"name":"Pinkchup","steam_id":76561198106802803,"connected_time":4243000000000,"state":"active","ping":75},{"user_id":658,"name":"Babwin","steam_id":76561197985860528,"connected_time":162000000000,"state":"active","ping":70},{"user_id":607,"name":"Zonts","steam_id":76561198850176432,"connected_time":4233000000000,"state":"active","ping":75},{"user_id":656,"name":"Chiers","steam_id":76561198073461642,"connected_time":364000000000,"state":"active","ping":52},{"user_id":526,"name":"Dr.Nefario","steam_id":76561198874586020,"connected_time":9137000000000,"state":"active","ping":73},{"user_id":619,"name":"Mollehh","steam_id":76561198354731126,"connected_time":3439000000000,"state":"active","ping":59}]},{"server_id":309,"name":"Uncletopia | Frankfurt | 4 | All Maps","name_short":"frk-4","host":"frk-1.de.uncletopia.com","port":27045,"enabled":true,"region":"eu","cc":"de","latitude":50.110924,"longitude":8.682127,"reserved":0,"last_update":"0001-01-01T00:00:00Z","name_a2s":"Uncletopia | Frankfurt | 4 | All Maps","protocol":17,"map":"pl_snowycoast","folder":"tf","game":"Team Fortress","app_id":440,"player_count":19,"max_players":24,"Bots":0,"server_type":"Dedicated","server_os":"Linux","password":true,"vac":true,"version":"7742253","steam_id":85568392924504275,"keywords":["nocrits","nodmgspread","payload","uncletopia"],"game_id":440,"stv_port":27046,"stv_name":"Uncletopia | Frankfurt | 4 | All Maps | STV","players":[{"user_id":725,"name":"Walter White","steam_id":76561199216332046,"connected_time":184000000000,"state":"active","ping":50},{"user_id":708,"name":"Evans","steam_id":76561199207564475,"connected_time":1440000000000,"state":"active","ping":47},{"user_id":720,"name":"Segra blw.tf","steam_id":76561198441974031,"connected_time":454000000000,"state":"active","ping":61},{"user_id":727,"name":"Joe mama","steam_id":76561198806718750,"connected_time":27000000000,"state":"active","ping":102},{"user_id":726,"name":"kloada","steam_id":76561198082113271,"connected_time":71000000000,"state":"active","ping":53},{"user_id":721,"name":"ev1lboyo","steam_id":76561199199499453,"connected_time":448000000000,"state":"active","ping":247},{"user_id":728,"name":"jpl8","steam_id":76561198077770726,"connected_time":13000000000,"state":"active","ping":148},{"user_id":729,"name":"Tmpod","steam_id":76561198069210431,"connected_time":1000000000,"state":"spawning","ping":64},{"user_id":714,"name":"Nuuskis","steam_id":76561198084042012,"connected_time":857000000000,"state":"active","ping":78},{"user_id":718,"name":"CosminSL","steam_id":76561198055827684,"connected_time":636000000000,"state":"active","ping":79},{"user_id":686,"name":"Arizona Ranger","steam_id":76561198244060122,"connected_time":2395000000000,"state":"active","ping":144},{"user_id":722,"name":"SANDmann","steam_id":76561199012566222,"connected_time":441000000000,"state":"active","ping":38},{"user_id":663,"name":"Tails8521","steam_id":76561198051747164,"connected_time":4384000000000,"state":"active","ping":46},{"user_id":693,"name":"tone","steam_id":76561197975301462,"connected_time":2165000000000,"state":"active","ping":78},{"user_id":715,"name":"Lucy","steam_id":76561198844806517,"connected_time":854000000000,"state":"active","ping":61},{"user_id":711,"name":"Yoinky Spoinky Do'er","steam_id":76561198120949216,"connected_time":1209000000000,"state":"active","ping":53},{"user_id":669,"name":"Mankor","steam_id":76561198020439322,"connected_time":3722000000000,"state":"active","ping":46},{"user_id":666,"name":"78","steam_id":76561198208328357,"connected_time":4376000000000,"state":"active","ping":75},{"user_id":704,"name":"The Mask...","steam_id":76561198052402891,"connected_time":1688000000000,"state":"active","ping":48}]},{"server_id":310,"name":"Uncletopia | Frankfurt | 5 | All Maps","name_short":"frk-5","host":"frk-1.de.uncletopia.com","port":27055,"enabled":true,"region":"eu","cc":"de","latitude":50.110924,"longitude":8.682127,"reserved":0,"last_update":"0001-01-01T00:00:00Z","name_a2s":"Uncletopia | Frankfurt | 5 | All Maps","protocol":17,"map":"pl_swiftwater_final1","folder":"tf","game":"Team Fortress","app_id":440,"player_count":24,"max_players":24,"Bots":0,"server_type":"Dedicated","server_os":"Linux","password":true,"vac":true,"version":"7742253","steam_id":85568392924504277,"keywords":["nocrits","nodmgspread","payload","uncletopia"],"game_id":440,"stv_port":27056,"stv_name":"Uncletopia | Frankfurt | 5 | All Maps | STV","players":[{"user_id":608,"name":"Hollow","steam_id":76561198315485935,"connected_time":2249000000000,"state":"active","ping":60},{"user_id":589,"name":"scarecrowshelper","steam_id":76561198072260553,"connected_time":2895000000000,"state":"active","ping":51},{"user_id":578,"name":"O=(‘-’Q)","steam_id":76561198069685870,"connected_time":4120000000000,"state":"active","ping":77},{"user_id":611,"name":"Arturias","steam_id":76561198188720263,"connected_time":2025000000000,"state":"active","ping":45},{"user_id":630,"name":"cockwater","steam_id":76561198209101861,"connected_time":804000000000,"state":"active","ping":69},{"user_id":623,"name":"chorizo pamplonica","steam_id":76561199012641732,"connected_time":1260000000000,"state":"active","ping":88},{"user_id":596,"name":"JimBow","steam_id":76561197999788359,"connected_time":2669000000000,"state":"active","ping":54},{"user_id":624,"name":"NicatsCage","steam_id":76561198067271076,"connected_time":1047000000000,"state":"active","ping":84},{"user_id":621,"name":"Tonne","steam_id":76561197970856766,"connected_time":1791000000000,"state":"active","ping":48},{"user_id":562,"name":"Makima","steam_id":76561198083867904,"connected_time":5297000000000,"state":"active","ping":59},{"user_id":629,"name":"travis","steam_id":76561198138119811,"connected_time":837000000000,"state":"active","ping":57},{"user_id":627,"name":"Leituga","steam_id":76561198051127598,"connected_time":929000000000,"state":"active","ping":93},{"user_id":628,"name":"camille","steam_id":76561199412527837,"connected_time":907000000000,"state":"active","ping":56},{"user_id":584,"name":"LxZurk","steam_id":76561198114054978,"connected_time":3761000000000,"state":"active","ping":47},{"user_id":586,"name":"TidB","steam_id":76561198055342304,"connected_time":2931000000000,"state":"active","ping":47},{"user_id":616,"name":"etc","steam_id":76561197998394797,"connected_time":1959000000000,"state":"active","ping":60},{"user_id":617,"name":"akakez","steam_id":76561198095432821,"connected_time":1949000000000,"state":"active","ping":120},{"user_id":591,"name":"sriracha..","steam_id":76561198005560221,"connected_time":2860000000000,"state":"active","ping":67},{"user_id":631,"name":"demon","steam_id":76561198192080711,"connected_time":780000000000,"state":"active","ping":72},{"user_id":632,"name":"j100j","steam_id":76561198338726444,"connected_time":740000000000,"state":"active","ping":92},{"user_id":609,"name":"AneveX","steam_id":76561198111905804,"connected_time":2186000000000,"state":"active","ping":75},{"user_id":619,"name":"S_ApplePie","steam_id":76561198106947669,"connected_time":1905000000000,"state":"active","ping":93},{"user_id":622,"name":"Deckard","steam_id":76561198004704647,"connected_time":1504000000000,"state":"active","ping":73},{"user_id":620,"name":"árvíztűrő tükörfúrógép","steam_id":76561198296643061,"connected_time":1903000000000,"state":"active","ping":61}]},{"server_id":311,"name":"Uncletopia | Frankfurt | 6 | All Maps","name_short":"frk-6","host":"frk-1.de.uncletopia.com","port":27065,"enabled":true,"region":"eu","cc":"de","latitude":50.110924,"longitude":8.682127,"reserved":0,"last_update":"0001-01-01T00:00:00Z","name_a2s":"Uncletopia | Frankfurt | 6 | All Maps","protocol":17,"map":"cp_sunshine","folder":"tf","game":"Team Fortress","app_id":440,"player_count":0,"max_players":24,"Bots":0,"server_type":"Dedicated","server_os":"Linux","password":true,"vac":true,"version":"7742253","steam_id":85568392924504278,"keywords":["cp","nocrits","nodmgspread","uncletopia"],"game_id":440,"stv_port":27066,"stv_name":"Uncletopia | Frankfurt | 6 | All Maps | STV","players":null},{"server_id":23,"name":"Uncletopia | Frankfurt | 7 | Stopwatch Beta","name_short":"frk-7","host":"frk-1.de.uncletopia.com","port":27075,"enabled":true,"region":"eu","cc":"de","latitude":50.110924,"longitude":8.682127,"reserved":0,"last_update":"0001-01-01T00:00:00Z","name_a2s":"Uncletopia | Frankfurt | 7 | Stopwatch Beta","protocol":17,"map":"workshop/pl_badwater_pro_v12.ugc2142942074","folder":"tf","game":"Team Fortress","app_id":440,"player_count":0,"max_players":24,"Bots":0,"server_type":"Dedicated","server_os":"Linux","password":true,"vac":true,"version":"7742253","steam_id":85568392924742827,"keywords":["nocrits","nodmgspread","payload","uncletopia"],"game_id":440,"stv_port":27076,"stv_name":"Uncletopia | Frankfurt | 7 | Stopwatch Beta | STV","players":null},{"server_id":24,"name":"Uncletopia | Frankfurt | 8 | Community","name_short":"frk-8","host":"frk-1.de.uncletopia.com","port":27085,"enabled":true,"region":"eu","cc":"de","latitude":50.110924,"longitude":8.682127,"reserved":0,"last_update":"0001-01-01T00:00:00Z","name_a2s":"Uncletopia | Frankfurt | 8 | Community","protocol":17,"map":"workshop/cp_villa_b19.ugc2113052569","folder":"tf","game":"Team Fortress","app_id":440,"player_count":0,"max_players":24,"Bots":0,"server_type":"Dedicated","server_os":"Linux","password":true,"vac":true,"version":"7742253","steam_id":85568392924742828,"keywords":["cp","nocrits","nodmgspread","uncletopia"],"game_id":440,"stv_port":27086,"stv_name":"Uncletopia | Frankfurt | 8 | Community | STV","players":null},{"server_id":202,"name":"Uncletopia | Hong Kong | 1 | All Maps","name_short":"hgk-1","host":"hgk-1.hk.uncletopia.com","port":27015,"enabled":true,"region":"asia","cc":"hk","latitude":22.302711,"longitude":114.177216,"reserved":0,"last_update":"0001-01-01T00:00:00Z","name_a2s":"Uncletopia | Hong Kong | 1 | All Maps","protocol":17,"map":"pl_badwater","folder":"tf","game":"Team Fortress","app_id":440,"player_count":0,"max_players":24,"Bots":0,"server_type":"Dedicated","server_os":"Linux","password":true,"vac":true,"version":"7742253","steam_id":85568392924494504,"keywords":["nocrits","nodmgspread","payload","uncletopia"],"game_id":440,"stv_port":27016,"stv_name":"Uncletopia | Hong Kong | 1 | All Maps | STV","players":null},{"server_id":1,"name":"Uncletopia | Los Angeles | 1 | All Maps","name_short":"lax-1","host":"lax-1.us.uncletopia.com","port":27015,"enabled":true,"region":"us-west","cc":"us","latitude":33.94279,"longitude":-118.41004,"reserved":0,"last_update":"0001-01-01T00:00:00Z","name_a2s":"Uncletopia | Los Angeles | 1 | All Maps","protocol":17,"map":"cp_snakewater_final1","folder":"tf","game":"Team Fortress","app_id":440,"player_count":0,"max_players":24,"Bots":0,"server_type":"Dedicated","server_os":"Linux","password":true,"vac":true,"version":"7742253","steam_id":85568392924469991,"keywords":["cp","nocrits","nodmgspread","uncletopia"],"game_id":440,"stv_port":27016,"stv_name":"Uncletopia | Los Angeles | 1 | All Maps | STV","players":null},{"server_id":112,"name":"Uncletopia | Los Angeles | 2 | All Maps","name_short":"lax-2","host":"lax-1.us.uncletopia.com","port":27025,"enabled":true,"region":"us-west","cc":"us","latitude":33.94279,"longitude":-118.41004,"reserved":0,"last_update":"0001-01-01T00:00:00Z","name_a2s":"Uncletopia | Los Angeles | 2 | All Maps","protocol":17,"map":"cp_snakewater_final1","folder":"tf","game":"Team Fortress","app_id":440,"player_count":0,"max_players":24,"Bots":0,"server_type":"Dedicated","server_os":"Linux","password":true,"vac":true,"version":"7742253","steam_id":85568392924469992,"keywords":["cp","nocrits","nodmgspread","uncletopia"],"game_id":440,"stv_port":27026,"stv_name":"Uncletopia | Los Angeles | 2 | All Maps | STV","players":null},{"server_id":324,"name":"Uncletopia | Los Angeles | 3 | All Maps","name_short":"lax-3","host":"lax-1.us.uncletopia.com","port":27035,"enabled":true,"region":"us-west","cc":"us","latitude":33.94279,"longitude":-118.41004,"reserved":0,"last_update":"0001-01-01T00:00:00Z","name_a2s":"Uncletopia | Los Angeles | 3 | All Maps","protocol":17,"map":"pl_frontier_final","folder":"tf","game":"Team Fortress","app_id":440,"player_count":0,"max_players":24,"Bots":0,"server_type":"Dedicated","server_os":"Linux","password":true,"vac":true,"version":"7742253","steam_id":85568392924510198,"keywords":["nocrits","nodmgspread","payload","uncletopia"],"game_id":440,"stv_port":27036,"stv_name":"Uncletopia | Los Angeles | 3 | All Maps | STV","players":null},{"server_id":25,"name":"Uncletopia | Los Angeles | 4 | Stopwatch Beta","name_short":"lax-4","host":"lax-1.us.uncletopia.com","port":27045,"enabled":true,"region":"us-west","cc":"us","latitude":33.94279,"longitude":-118.41004,"reserved":0,"last_update":"0001-01-01T00:00:00Z","name_a2s":"Uncletopia | Los Angeles | 4 | Stopwatch Beta","protocol":17,"map":"workshop/koth_clearcut_b15.ugc2107050255","folder":"tf","game":"Team Fortress","app_id":440,"player_count":0,"max_players":24,"Bots":0,"server_type":"Dedicated","server_os":"Linux","password":true,"vac":true,"version":"7742253","steam_id":85568392924510199,"keywords":["cp","nocrits","nodmgspread","uncletopia"],"game_id":440,"stv_port":27046,"stv_name":"Uncletopia | Los Angeles | 4 | Stopwatch Beta | STV","players":null},{"server_id":11,"name":"Uncletopia | London | 1 | All Maps","name_short":"lon-1","host":"lon-1.uk.uncletopia.com","port":27015,"enabled":true,"region":"eu","cc":"gb","latitude":51.509865,"longitude":-0.118092,"reserved":0,"last_update":"0001-01-01T00:00:00Z","name_a2s":"Uncletopia | London | 1 | All Maps","protocol":17,"map":"pl_badwater","folder":"tf","game":"Team Fortress","app_id":440,"player_count":24,"max_players":24,"Bots":0,"server_type":"Dedicated","server_os":"Linux","password":true,"vac":true,"version":"7742253","steam_id":85568392924367362,"keywords":["nocrits","nodmgspread","payload","uncletopia"],"game_id":440,"stv_port":27016,"stv_name":"Uncletopia | London | 1 | All Maps | STV","players":[{"user_id":799,"name":"csnipery","steam_id":76561199435280050,"connected_time":3013000000000,"state":"active","ping":68},{"user_id":790,"name":"Chief Quityourbitchin","steam_id":76561198860065033,"connected_time":3746000000000,"state":"active","ping":47},{"user_id":818,"name":"Zigguski","steam_id":76561198022990016,"connected_time":841000000000,"state":"active","ping":52},{"user_id":809,"name":"gnarly business","steam_id":76561198832688767,"connected_time":1822000000000,"state":"active","ping":47},{"user_id":786,"name":"Dirty Joe","steam_id":76561198142418870,"connected_time":4040000000000,"state":"active","ping":45},{"user_id":779,"name":"Coac","steam_id":76561198085265740,"connected_time":4815000000000,"state":"active","ping":68},{"user_id":810,"name":"Son Goku","steam_id":76561199383437138,"connected_time":1715000000000,"state":"active","ping":120},{"user_id":792,"name":"Kruthal","steam_id":76561198245726582,"connected_time":3709000000000,"state":"active","ping":78},{"user_id":816,"name":"Johnny Cockroach","steam_id":76561198049648277,"connected_time":1034000000000,"state":"active","ping":108},{"user_id":797,"name":"pigeon lung","steam_id":76561198337702472,"connected_time":3194000000000,"state":"active","ping":48},{"user_id":824,"name":"catt","steam_id":76561198301395350,"connected_time":159000000000,"state":"active","ping":53},{"user_id":811,"name":"r/ratemypoo","steam_id":76561198329640236,"connected_time":1698000000000,"state":"active","ping":46},{"user_id":819,"name":"the indomitable human spirit","steam_id":76561198718760200,"connected_time":655000000000,"state":"active","ping":52},{"user_id":796,"name":"(())","steam_id":76561198103299625,"connected_time":3422000000000,"state":"active","ping":45},{"user_id":814,"name":"Stitch","steam_id":76561198034169403,"connected_time":1111000000000,"state":"active","ping":56},{"user_id":820,"name":"chepik","steam_id":76561199277727142,"connected_time":539000000000,"state":"active","ping":110},{"user_id":787,"name":"Zoran Snajper","steam_id":76561198312564061,"connected_time":3969000000000,"state":"active","ping":74},{"user_id":826,"name":"Lumi","steam_id":76561198127137036,"connected_time":16000000000,"state":"active","ping":59},{"user_id":733,"name":"sigma female","steam_id":76561198298576765,"connected_time":7169000000000,"state":"active","ping":72},{"user_id":815,"name":"jonesy","steam_id":76561198073975078,"connected_time":1110000000000,"state":"active","ping":50},{"user_id":812,"name":"BlueBlueFox","steam_id":76561198053817230,"connected_time":1680000000000,"state":"active","ping":74},{"user_id":813,"name":"Cheeli","steam_id":76561198150704425,"connected_time":1163000000000,"state":"active","ping":81},{"user_id":807,"name":"Dee","steam_id":76561198257836694,"connected_time":1992000000000,"state":"active","ping":38},{"user_id":825,"name":"✪ J","steam_id":76561198094911581,"connected_time":146000000000,"state":"active","ping":52}]},{"server_id":114,"name":"Uncletopia | London | 2 | All Maps","name_short":"lon-2","host":"lon-1.uk.uncletopia.com","port":27025,"enabled":true,"region":"eu","cc":"gb","latitude":51.509865,"longitude":-0.118092,"reserved":0,"last_update":"0001-01-01T00:00:00Z","name_a2s":"Uncletopia | London | 2 | All Maps","protocol":17,"map":"pl_upward","folder":"tf","game":"Team Fortress","app_id":440,"player_count":21,"max_players":24,"Bots":0,"server_type":"Dedicated","server_os":"Linux","password":true,"vac":true,"version":"7742253","steam_id":85568392924470941,"keywords":["nocrits","nodmgspread","payload","uncletopia"],"game_id":440,"stv_port":27026,"stv_name":"Uncletopia | London | 2 | All Maps | STV","players":[{"user_id":762,"name":"Benzo Fury","steam_id":76561198025259336,"connected_time":5194000000000,"state":"active","ping":44},{"user_id":811,"name":"SirVitek","steam_id":76561198142961758,"connected_time":1474000000000,"state":"active","ping":53},{"user_id":820,"name":"XelenHost","steam_id":76561198019712304,"connected_time":300000000000,"state":"active","ping":64},{"user_id":795,"name":"what can swim? a little stone","steam_id":76561198123131045,"connected_time":3716000000000,"state":"active","ping":75},{"user_id":827,"name":"snowi","steam_id":76561198006502679,"connected_time":14000000000,"state":"active","ping":59},{"user_id":776,"name":"dripstein","steam_id":76561198059598696,"connected_time":4814000000000,"state":"active","ping":60},{"user_id":823,"name":"FLOU","steam_id":76561198056171993,"connected_time":199000000000,"state":"active","ping":166},{"user_id":807,"name":".moral37-","steam_id":76561198102195119,"connected_time":2412000000000,"state":"active","ping":59},{"user_id":815,"name":"Keizer420","steam_id":76561198354567661,"connected_time":1352000000000,"state":"active","ping":30},{"user_id":822,"name":"Rain","steam_id":76561198186993269,"connected_time":224000000000,"state":"active","ping":61},{"user_id":755,"name":"zdX","steam_id":76561198163735277,"connected_time":5701000000000,"state":"active","ping":62},{"user_id":821,"name":"jaMie","steam_id":76561198170148783,"connected_time":240000000000,"state":"active","ping":35},{"user_id":804,"name":"sassy the sasquatch","steam_id":76561198844060342,"connected_time":2582000000000,"state":"active","ping":42},{"user_id":793,"name":"Burbie","steam_id":76561198046069449,"connected_time":3757000000000,"state":"active","ping":59},{"user_id":760,"name":"Gnarville","steam_id":76561198006373329,"connected_time":5244000000000,"state":"active","ping":57},{"user_id":824,"name":"EchoBN","steam_id":76561198287127380,"connected_time":199000000000,"state":"active","ping":43},{"user_id":826,"name":"Jimmy","steam_id":76561198133680783,"connected_time":184000000000,"state":"active","ping":69},{"user_id":766,"name":"Thalash","steam_id":76561198064052251,"connected_time":5132000000000,"state":"active","ping":60},{"user_id":801,"name":"Permzilla","steam_id":76561198009407651,"connected_time":3278000000000,"state":"active","ping":47},{"user_id":768,"name":"Not John","steam_id":76561197984763237,"connected_time":5131000000000,"state":"active","ping":35},{"user_id":769,"name":"☜(ﾟヮﾟ☜) fribs","steam_id":76561198000461999,"connected_time":5108000000000,"state":"active","ping":60}]},{"server_id":320,"name":"Uncletopia | London | 3 | All Maps","name_short":"lon-3","host":"lon-1.uk.uncletopia.com","port":27035,"enabled":true,"region":"eu","cc":"gb","latitude":51.509865,"longitude":-0.118092,"reserved":0,"last_update":"0001-01-01T00:00:00Z","name_a2s":"Uncletopia | London | 3 | All Maps","protocol":17,"map":"koth_lakeside_final","folder":"tf","game":"Team Fortress","app_id":440,"player_count":2,"max_players":24,"Bots":0,"server_type":"Dedicated","server_os":"Linux","password":true,"vac":true,"version":"7742253","steam_id":85568392924510192,"keywords":["cp","nocrits","nodmgspread","uncletopia"],"game_id":440,"stv_port":27036,"stv_name":"Uncletopia | London | 3 | All Maps | STV","players":[{"user_id":468,"name":"Endo","steam_id":76561198130227890,"connected_time":122000000000,"state":"active","ping":31},{"user_id":470,"name":"Jesus","steam_id":76561199403298146,"connected_time":94000000000,"state":"active","ping":43}]},{"server_id":321,"name":"Uncletopia | London | 4 | All Maps","name_short":"lon-4","host":"lon-1.uk.uncletopia.com","port":27045,"enabled":true,"region":"eu","cc":"gb","latitude":51.509865,"longitude":-0.118092,"reserved":0,"last_update":"0001-01-01T00:00:00Z","name_a2s":"Uncletopia | London | 4 | All Maps","protocol":17,"map":"pl_pier","folder":"tf","game":"Team Fortress","app_id":440,"player_count":24,"max_players":24,"Bots":0,"server_type":"Dedicated","server_os":"Linux","password":true,"vac":true,"version":"7742253","steam_id":85568392924510193,"keywords":["nocrits","nodmgspread","payload","uncletopia"],"game_id":440,"stv_port":27046,"stv_name":"Uncletopia | London | 4 | All Maps | STV","players":[{"user_id":318,"name":"scharque","steam_id":76561198071227039,"connected_time":4682000000000,"state":"active","ping":63},{"user_id":341,"name":"who asked","steam_id":76561198834897089,"connected_time":2915000000000,"state":"active","ping":87},{"user_id":356,"name":"jovi_","steam_id":76561198449280552,"connected_time":1186000000000,"state":"active","ping":52},{"user_id":342,"name":"Scavenger","steam_id":76561199067000038,"connected_time":2872000000000,"state":"active","ping":56},{"user_id":365,"name":"Gandalf","steam_id":76561199072668363,"connected_time":1034000000000,"state":"active","ping":105},{"user_id":359,"name":"void","steam_id":76561198035831433,"connected_time":1108000000000,"state":"active","ping":80},{"user_id":360,"name":"Marioalexsan","steam_id":76561198125512367,"connected_time":1106000000000,"state":"active","ping":78},{"user_id":246,"name":"[Q]","steam_id":76561198018729683,"connected_time":8900000000000,"state":"active","ping":45},{"user_id":372,"name":"Dave","steam_id":76561197988241426,"connected_time":927000000000,"state":"active","ping":60},{"user_id":376,"name":"ッ","steam_id":76561198068953887,"connected_time":71000000000,"state":"active","ping":54},{"user_id":330,"name":"mq","steam_id":76561198091888948,"connected_time":3937000000000,"state":"active","ping":63},{"user_id":354,"name":"hmullany","steam_id":76561198055608801,"connected_time":1794000000000,"state":"active","ping":61},{"user_id":368,"name":"Phalcon","steam_id":76561197987051394,"connected_time":972000000000,"state":"active","ping":81},{"user_id":321,"name":"tete","steam_id":76561198045222850,"connected_time":4595000000000,"state":"active","ping":71},{"user_id":346,"name":"Cliff Barnes","steam_id":76561198032213783,"connected_time":2777000000000,"state":"active","ping":69},{"user_id":369,"name":"trans werewolf (2023-∞)","steam_id":76561198107235989,"connected_time":967000000000,"state":"active","ping":60},{"user_id":373,"name":"DarthMurloc_OW","steam_id":76561198075577711,"connected_time":335000000000,"state":"active","ping":87},{"user_id":304,"name":"Lux","steam_id":76561198060417740,"connected_time":5631000000000,"state":"active","ping":46},{"user_id":305,"name":"decriminalise goblins","steam_id":76561198048257605,"connected_time":5620000000000,"state":"active","ping":52},{"user_id":370,"name":"Baklava Enjoyer","steam_id":76561198990679631,"connected_time":959000000000,"state":"active","ping":81},{"user_id":371,"name":"tucker","steam_id":76561198348308711,"connected_time":957000000000,"state":"active","ping":122},{"user_id":308,"name":"Bilaterial Newt","steam_id":76561198074655679,"connected_time":5586000000000,"state":"active","ping":162},{"user_id":349,"name":"nine inch whales","steam_id":76561198071176058,"connected_time":2691000000000,"state":"active","ping":50},{"user_id":332,"name":"Carl's Marx","steam_id":76561198059700045,"connected_time":3924000000000,"state":"active","ping":58}]},{"server_id":21,"name":"Uncletopia | London | 5 | All Maps","name_short":"lon-5","host":"lon-1.uk.uncletopia.com","port":27055,"enabled":true,"region":"eu","cc":"gb","latitude":51.509865,"longitude":-0.118092,"reserved":0,"last_update":"0001-01-01T00:00:00Z","name_a2s":"Uncletopia | London | 5 | All Maps","protocol":17,"map":"pl_swiftwater_final1","folder":"tf","game":"Team Fortress","app_id":440,"player_count":0,"max_players":24,"Bots":0,"server_type":"Dedicated","server_os":"Linux","password":true,"vac":true,"version":"7742253","steam_id":85568392924742829,"keywords":["nocrits","nodmgspread","payload","uncletopia"],"game_id":440,"stv_port":27056,"stv_name":"Uncletopia | London | 5 | All Maps | STV","players":null},{"server_id":22,"name":"Uncletopia | London | 6 | All Maps","name_short":"lon-6","host":"lon-1.uk.uncletopia.com","port":27065,"enabled":true,"region":"eu","cc":"gb","latitude":51.509865,"longitude":-0.118092,"reserved":0,"last_update":"0001-01-01T00:00:00Z","name_a2s":"Uncletopia | London | 6 | All Maps","protocol":17,"map":"pl_badwater","folder":"tf","game":"Team Fortress","app_id":440,"player_count":23,"max_players":24,"Bots":0,"server_type":"Dedicated","server_os":"Linux","password":true,"vac":true,"version":"7742253","steam_id":85568392924742830,"keywords":["nocrits","nodmgspread","payload","uncletopia"],"game_id":440,"stv_port":27066,"stv_name":"Uncletopia | London | 6 | All Maps | STV","players":[{"user_id":508,"name":"Zalbart","steam_id":76561198286576943,"connected_time":651000000000,"state":"active","ping":70},{"user_id":506,"name":"The Sunnyshot","steam_id":76561198086787499,"connected_time":771000000000,"state":"active","ping":74},{"user_id":507,"name":"thomas +","steam_id":76561198355097756,"connected_time":723000000000,"state":"active","ping":62},{"user_id":509,"name":"flora","steam_id":76561197994492154,"connected_time":622000000000,"state":"active","ping":74},{"user_id":510,"name":"Mlanky","steam_id":76561198047796778,"connected_time":613000000000,"state":"active","ping":33},{"user_id":452,"name":"Swayer","steam_id":76561198056192460,"connected_time":4251000000000,"state":"active","ping":60},{"user_id":487,"name":"porridge","steam_id":76561198044585737,"connected_time":2093000000000,"state":"active","ping":43},{"user_id":498,"name":"HogHogDog","steam_id":76561199446444119,"connected_time":1685000000000,"state":"active","ping":41},{"user_id":499,"name":"BAZZA","steam_id":76561199126581397,"connected_time":1665000000000,"state":"active","ping":40},{"user_id":466,"name":"peepee jar man","steam_id":76561198334042273,"connected_time":3338000000000,"state":"active","ping":46},{"user_id":513,"name":"Myths You Forgot","steam_id":76561198104896547,"connected_time":604000000000,"state":"active","ping":78},{"user_id":512,"name":"Ork Biotechnologist Z","steam_id":76561198259613731,"connected_time":611000000000,"state":"active","ping":78},{"user_id":501,"name":"Gryoss","steam_id":76561197999837111,"connected_time":1645000000000,"state":"active","ping":105},{"user_id":519,"name":"Red.","steam_id":76561197960319246,"connected_time":221000000000,"state":"active","ping":45},{"user_id":502,"name":"Gempooh","steam_id":76561198098463950,"connected_time":1533000000000,"state":"active","ping":76},{"user_id":492,"name":"Henriksson","steam_id":76561198851157897,"connected_time":1854000000000,"state":"active","ping":64},{"user_id":515,"name":"Dolphin2011","steam_id":76561197997323419,"connected_time":592000000000,"state":"active","ping":88},{"user_id":483,"name":"ralph62x","steam_id":76561198865294231,"connected_time":2323000000000,"state":"active","ping":50},{"user_id":520,"name":"Bluns","steam_id":76561198155231597,"connected_time":31000000000,"state":"active","ping":76},{"user_id":516,"name":"Yaire","steam_id":76561198017343510,"connected_time":576000000000,"state":"active","ping":58},{"user_id":517,"name":"Where is my kidney?","steam_id":76561199284418189,"connected_time":543000000000,"state":"active","ping":71},{"user_id":518,"name":"kbbq","steam_id":76561198346638308,"connected_time":533000000000,"state":"active","ping":48},{"user_id":505,"name":"GreenDaddy","steam_id":76561198169793046,"connected_time":953000000000,"state":"active","ping":67}]},{"server_id":40,"name":"Uncletopia | London | 7 | No Payload","name_short":"lon-7","host":"lon-1.uk.uncletopia.com","port":27075,"enabled":true,"region":"eu","cc":"gb","latitude":51.509865,"longitude":-0.118092,"reserved":0,"last_update":"0001-01-01T00:00:00Z","name_a2s":"Uncletopia | London | 7 | No Payload","protocol":17,"map":"cp_gullywash_final1","folder":"tf","game":"Team Fortress","app_id":440,"player_count":23,"max_players":24,"Bots":0,"server_type":"Dedicated","server_os":"Linux","password":true,"vac":true,"version":"7742253","steam_id":85568392924964314,"keywords":["cp","nocrits","nodmgspread","uncletopia"],"game_id":440,"stv_port":27076,"stv_name":"Uncletopia | London | 7 | No Payload | STV","players":[{"user_id":181,"name":"Lag","steam_id":76561198159360376,"connected_time":3111000000000,"state":"active","ping":37},{"user_id":206,"name":"DaDogeDev","steam_id":76561199098626049,"connected_time":1958000000000,"state":"active","ping":87},{"user_id":216,"name":"Adopted?","steam_id":76561198118667043,"connected_time":1342000000000,"state":"active","ping":44},{"user_id":203,"name":"SPONGE","steam_id":76561198040933472,"connected_time":2046000000000,"state":"active","ping":60},{"user_id":187,"name":"brokenphilip","steam_id":76561198080960604,"connected_time":2865000000000,"state":"active","ping":77},{"user_id":217,"name":"CMRDGI","steam_id":76561198141356233,"connected_time":1326000000000,"state":"active","ping":57},{"user_id":218,"name":"A Succulent Chinese Meal","steam_id":76561198069472440,"connected_time":1323000000000,"state":"active","ping":60},{"user_id":214,"name":"n1x","steam_id":76561198289200310,"connected_time":1458000000000,"state":"active","ping":85},{"user_id":219,"name":"Chaz","steam_id":76561198077292814,"connected_time":1240000000000,"state":"active","ping":48},{"user_id":210,"name":"torn","steam_id":76561198223003236,"connected_time":1541000000000,"state":"active","ping":51},{"user_id":212,"name":"waffle toaster","steam_id":76561198799089628,"connected_time":1500000000000,"state":"active","ping":45},{"user_id":190,"name":"portokalli","steam_id":76561198289735082,"connected_time":2594000000000,"state":"active","ping":44},{"user_id":192,"name":"Jar","steam_id":76561198156384007,"connected_time":2418000000000,"state":"active","ping":53},{"user_id":193,"name":"Internetowy Pies","steam_id":76561198005719732,"connected_time":2350000000000,"state":"active","ping":68},{"user_id":213,"name":"nemśs","steam_id":76561198134203031,"connected_time":1479000000000,"state":"active","ping":64},{"user_id":220,"name":"Hmm","steam_id":76561198044277314,"connected_time":1000000000000,"state":"active","ping":78},{"user_id":224,"name":"Geile Flamme","steam_id":76561199206159814,"connected_time":641000000000,"state":"active","ping":65},{"user_id":230,"name":"Totally Something","steam_id":76561198916824935,"connected_time":321000000000,"state":"active","ping":80},{"user_id":223,"name":"tralalaOuiOui","steam_id":76561197963471507,"connected_time":728000000000,"state":"active","ping":52},{"user_id":225,"name":"(1)Geile Flamme","steam_id":76561198967456827,"connected_time":641000000000,"state":"active","ping":61},{"user_id":229,"name":"Great recession of 2008","steam_id":76561198881151562,"connected_time":438000000000,"state":"active","ping":80},{"user_id":231,"name":"3xample","steam_id":76561198805049375,"connected_time":318000000000,"state":"active","ping":62},{"user_id":228,"name":"Sanctified","steam_id":76561198057092208,"connected_time":529000000000,"state":"active","ping":74}]},{"server_id":41,"name":"Uncletopia | London | 8 | Community","name_short":"lon-8","host":"lon-1.uk.uncletopia.com","port":27085,"enabled":true,"region":"eu","cc":"gb","latitude":51.509865,"longitude":-0.118092,"reserved":0,"last_update":"0001-01-01T00:00:00Z","name_a2s":"Uncletopia | London | 8 | Community","protocol":17,"map":"workshop/koth_ashville_final.ugc2130459942","folder":"tf","game":"Team Fortress","app_id":440,"player_count":0,"max_players":24,"Bots":0,"server_type":"Dedicated","server_os":"Linux","password":true,"vac":true,"version":"7742253","steam_id":85568392924964315,"keywords":["cp","nocrits","nodmgspread","uncletopia"],"game_id":440,"stv_port":27086,"stv_name":"Uncletopia | London | 8 | Community | STV","players":null},{"server_id":300,"name":"Uncletopia | Montréal | 1 | All Maps","name_short":"mtl-1","host":"mtl-1.ca.uncletopia.com","port":27015,"enabled":true,"region":"us-east","cc":"ca","latitude":45.50889,"longitude":-73.56167,"reserved":0,"last_update":"0001-01-01T00:00:00Z","name_a2s":"Uncletopia | Montréal | 1 | All Maps","protocol":17,"map":"pl_badwater","folder":"tf","game":"Team Fortress","app_id":440,"player_count":0,"max_players":24,"Bots":0,"server_type":"Dedicated","server_os":"Linux","password":true,"vac":true,"version":"7742253","steam_id":85568392924500087,"keywords":["nocrits","nodmgspread","payload","uncletopia"],"game_id":440,"stv_port":27016,"stv_name":"Uncletopia | Montréal | 1 | All Maps | STV","players":null},{"server_id":301,"name":"Uncletopia | Montréal | 2 | All Maps","name_short":"mtl-2","host":"mtl-1.ca.uncletopia.com","port":27025,"enabled":true,"region":"us-east","cc":"ca","latitude":45.50889,"longitude":-73.56167,"reserved":0,"last_update":"0001-01-01T00:00:00Z","name_a2s":"Uncletopia | Montréal | 2 | All Maps","protocol":17,"map":"koth_highpass","folder":"tf","game":"Team Fortress","app_id":440,"player_count":1,"max_players":24,"Bots":0,"server_type":"Dedicated","server_os":"Linux","password":true,"vac":true,"version":"7742253","steam_id":85568392924500088,"keywords":["cp","nocrits","nodmgspread","uncletopia"],"game_id":440,"stv_port":27026,"stv_name":"Uncletopia | Montréal | 2 | All Maps | STV","players":[{"user_id":7,"name":"zanealcannon","steam_id":76561198409950668,"connected_time":447000000000,"state":"active","ping":56}]},{"server_id":302,"name":"Uncletopia | Montréal | 3 | All Maps","name_short":"mtl-3","host":"mtl-1.ca.uncletopia.com","port":27035,"enabled":true,"region":"us-east","cc":"ca","latitude":45.50889,"longitude":-73.56167,"reserved":0,"last_update":"0001-01-01T00:00:00Z","name_a2s":"Uncletopia | Montréal | 3 | All Maps","protocol":17,"map":"cp_mountainlab","folder":"tf","game":"Team Fortress","app_id":440,"player_count":0,"max_players":24,"Bots":0,"server_type":"Dedicated","server_os":"Linux","password":true,"vac":true,"version":"7742253","steam_id":85568392924500089,"keywords":["cp","nocrits","nodmgspread","uncletopia"],"game_id":440,"stv_port":27036,"stv_name":"Uncletopia | Montréal | 3 | All Maps | STV","players":null},{"server_id":303,"name":"Uncletopia | Montréal | 4 | No Payload","name_short":"mtl-4","host":"mtl-1.ca.uncletopia.com","port":27045,"enabled":true,"region":"us-east","cc":"ca","latitude":45.50889,"longitude":-73.56167,"reserved":0,"last_update":"0001-01-01T00:00:00Z","name_a2s":"Uncletopia | Montréal | 4 | No Payload","protocol":17,"map":"plr_bananabay","folder":"tf","game":"Team Fortress","app_id":440,"player_count":0,"max_players":24,"Bots":0,"server_type":"Dedicated","server_os":"Linux","password":true,"vac":true,"version":"7742253","steam_id":85568392924500090,"keywords":["nocrits","nodmgspread","payload","uncletopia"],"game_id":440,"stv_port":27046,"stv_name":"Uncletopia | Montréal | 4 | No Payload | STV","players":null},{"server_id":13,"name":"Uncletopia | New York City | 1 | All Maps","name_short":"nyc-1","host":"nyc-1.us.uncletopia.com","port":27015,"enabled":true,"region":"us-east","cc":"us","latitude":40.73061,"longitude":-73.93524,"reserved":0,"last_update":"0001-01-01T00:00:00Z","name_a2s":"Uncletopia | New York City | 1 | All Maps","protocol":17,"map":"pl_snowycoast","folder":"tf","game":"Team Fortress","app_id":440,"player_count":24,"max_players":24,"Bots":0,"server_type":"Dedicated","server_os":"Linux","password":true,"vac":true,"version":"7742253","steam_id":85568392924469993,"keywords":["nocrits","nodmgspread","payload","uncletopia"],"game_id":440,"stv_port":27016,"stv_name":"Uncletopia | New York City | 1 | All Maps | STV","players":[{"user_id":468,"name":"Haevy Waepons Gyu","steam_id":76561199016285746,"connected_time":2510000000000,"state":"active","ping":92},{"user_id":505,"name":"Dev","steam_id":76561198066956277,"connected_time":91000000000,"state":"active","ping":57},{"user_id":479,"name":"CJ_from_Groove","steam_id":76561198889928743,"connected_time":1221000000000,"state":"active","ping":169},{"user_id":503,"name":"sex","steam_id":76561198198787713,"connected_time":179000000000,"state":"active","ping":63},{"user_id":491,"name":"4ling","steam_id":76561197994398381,"connected_time":1012000000000,"state":"active","ping":56},{"user_id":456,"name":"Kopl","steam_id":76561198345737885,"connected_time":3687000000000,"state":"active","ping":121},{"user_id":418,"name":"Hamee333","steam_id":76561199388127663,"connected_time":6391000000000,"state":"active","ping":54},{"user_id":500,"name":"TLG, Certified Gamer Mom","steam_id":76561198076669951,"connected_time":705000000000,"state":"active","ping":47},{"user_id":473,"name":"Anshin","steam_id":76561198018803214,"connected_time":2305000000000,"state":"active","ping":66},{"user_id":494,"name":"Shh","steam_id":76561198075865231,"connected_time":912000000000,"state":"active","ping":50},{"user_id":471,"name":"champion  turkey","steam_id":76561198151338482,"connected_time":2467000000000,"state":"active","ping":55},{"user_id":452,"name":"♥Phocae♥","steam_id":76561199317584594,"connected_time":3975000000000,"state":"active","ping":50},{"user_id":472,"name":"pelicAn","steam_id":76561197963422599,"connected_time":2466000000000,"state":"active","ping":51},{"user_id":498,"name":"I_Stare_At_Walls","steam_id":76561199111525373,"connected_time":786000000000,"state":"active","ping":47},{"user_id":463,"name":"Mad Cow※","steam_id":76561198132498594,"connected_time":3047000000000,"state":"active","ping":68},{"user_id":489,"name":"Kosmonot","steam_id":76561198225342992,"connected_time":1040000000000,"state":"active","ping":72},{"user_id":476,"name":"Milkaplier","steam_id":76561198056914302,"connected_time":1483000000000,"state":"active","ping":80},{"user_id":499,"name":"Dakota Sutcliffe","steam_id":76561198170660959,"connected_time":727000000000,"state":"active","ping":67},{"user_id":464,"name":"Sasu","steam_id":76561198893447505,"connected_time":3034000000000,"state":"active","ping":96},{"user_id":497,"name":"Mackola","steam_id":76561198125958792,"connected_time":813000000000,"state":"active","ping":63},{"user_id":492,"name":"Jimbo Woyevodsk","steam_id":76561198068766153,"connected_time":974000000000,"state":"active","ping":47},{"user_id":417,"name":"Brown_Dream","steam_id":76561198975766145,"connected_time":6456000000000,"state":"active","ping":67},{"user_id":502,"name":"Professor Sin","steam_id":76561198079288027,"connected_time":203000000000,"state":"active","ping":61},{"user_id":507,"name":"damoneyman","steam_id":76561198142249862,"connected_time":39000000000,"state":"active","ping":65}]},{"server_id":14,"name":"Uncletopia | New York City | 2 | All Maps","name_short":"nyc-2","host":"nyc-1.us.uncletopia.com","port":27025,"enabled":true,"region":"us-east","cc":"us","latitude":40.73061,"longitude":-73.93524,"reserved":0,"last_update":"0001-01-01T00:00:00Z","name_a2s":"Uncletopia | New York City | 2 | All Maps","protocol":17,"map":"koth_highpass","folder":"tf","game":"Team Fortress","app_id":440,"player_count":24,"max_players":24,"Bots":0,"server_type":"Dedicated","server_os":"Linux","password":true,"vac":true,"version":"7742253","steam_id":85568392924469994,"keywords":["cp","nocrits","nodmgspread","uncletopia"],"game_id":440,"stv_port":27026,"stv_name":"Uncletopia | New York City | 2 | All Maps | STV","players":[{"user_id":480,"name":"okar","steam_id":76561198916847884,"connected_time":2113000000000,"state":"active","ping":44},{"user_id":470,"name":"witch","steam_id":76561198151071386,"connected_time":2674000000000,"state":"active","ping":70},{"user_id":487,"name":"PossumZx","steam_id":76561198157831232,"connected_time":1454000000000,"state":"active","ping":61},{"user_id":416,"name":"santas.secret.sauce","steam_id":76561198042464635,"connected_time":6256000000000,"state":"active","ping":92},{"user_id":478,"name":"Bronze Age GRINDSET","steam_id":76561198859118263,"connected_time":2199000000000,"state":"active","ping":80},{"user_id":459,"name":"YelloGoat","steam_id":76561198367174421,"connected_time":2962000000000,"state":"active","ping":34},{"user_id":460,"name":"TheJuiceCrew","steam_id":76561198109073254,"connected_time":2934000000000,"state":"active","ping":77},{"user_id":490,"name":"mush","steam_id":76561198310089797,"connected_time":1365000000000,"state":"active","ping":71},{"user_id":462,"name":"Mump Stump","steam_id":76561198135942769,"connected_time":2859000000000,"state":"active","ping":101},{"user_id":491,"name":"TrIcKiNgX3","steam_id":76561198243231748,"connected_time":1332000000000,"state":"active","ping":80},{"user_id":503,"name":"ExtraSoap","steam_id":76561198008712409,"connected_time":173000000000,"state":"active","ping":57},{"user_id":468,"name":"Sergeant Joker #savetf2","steam_id":76561198854616604,"connected_time":2788000000000,"state":"active","ping":60},{"user_id":445,"name":"Two-Teste Tommy","steam_id":76561198064308936,"connected_time":3892000000000,"state":"active","ping":61},{"user_id":498,"name":"SneakyRocks","steam_id":76561198201694213,"connected_time":1080000000000,"state":"active","ping":125},{"user_id":479,"name":"sxl","steam_id":76561198150627999,"connected_time":2143000000000,"state":"active","ping":57},{"user_id":463,"name":"dan0m","steam_id":76561199057929697,"connected_time":2853000000000,"state":"active","ping":52},{"user_id":502,"name":"Lipton","steam_id":76561198135397441,"connected_time":205000000000,"state":"active","ping":81},{"user_id":485,"name":"BuhByeFalecia","steam_id":76561198364710587,"connected_time":1753000000000,"state":"active","ping":88},{"user_id":500,"name":"Vuh","steam_id":76561198132698345,"connected_time":786000000000,"state":"active","ping":41},{"user_id":476,"name":"DaRoni","steam_id":76561199196120410,"connected_time":2479000000000,"state":"active","ping":119},{"user_id":499,"name":"ꜱᴋʏᴇ","steam_id":76561198024477688,"connected_time":862000000000,"state":"active","ping":59},{"user_id":496,"name":"Smuggs","steam_id":76561197999456003,"connected_time":1172000000000,"state":"active","ping":113},{"user_id":494,"name":"big guy","steam_id":76561198357713517,"connected_time":1244000000000,"state":"active","ping":64},{"user_id":469,"name":"Vexed","steam_id":76561198157557477,"connected_time":2755000000000,"state":"active","ping":111}]},{"server_id":15,"name":"Uncletopia | New York City | 3 | Stopwatch Beta","name_short":"nyc-3","host":"nyc-1.us.uncletopia.com","port":27035,"enabled":true,"region":"us-east","cc":"us","latitude":40.73061,"longitude":-73.93524,"reserved":0,"last_update":"0001-01-01T00:00:00Z","name_a2s":"Uncletopia | New York City | 3 | Stopwatch Beta","protocol":17,"map":"workshop/pl_badwater_pro_v12.ugc2142942074","folder":"tf","game":"Team Fortress","app_id":440,"player_count":0,"max_players":24,"Bots":0,"server_type":"Dedicated","server_os":"Linux","password":true,"vac":true,"version":"7742253","steam_id":85568392924742820,"keywords":["nocrits","nodmgspread","payload","uncletopia"],"game_id":440,"stv_port":27036,"stv_name":"Uncletopia | New York City | 3 | Stopwatch Beta | STV","players":null},{"server_id":16,"name":"Uncletopia | New York City | 4 | Community","name_short":"nyc-4","host":"nyc-1.us.uncletopia.com","port":27045,"enabled":true,"region":"us-east","cc":"us","latitude":40.73061,"longitude":-73.93524,"reserved":0,"last_update":"0001-01-01T00:00:00Z","name_a2s":"Uncletopia | New York City | 4 | Community","protocol":17,"map":"workshop/koth_ramjam_rc1.ugc459778887","folder":"tf","game":"Team Fortress","app_id":440,"player_count":0,"max_players":24,"Bots":0,"server_type":"Dedicated","server_os":"Linux","password":true,"vac":true,"version":"7742253","steam_id":85568392924742821,"keywords":["cp","nocrits","nodmgspread","uncletopia"],"game_id":440,"stv_port":27046,"stv_name":"Uncletopia | New York City | 4 | Community | STV","players":null},{"server_id":142,"name":"Uncletopia | São Paulo | 1 | All Maps","name_short":"sao-1","host":"sao-1.br.uncletopia.com","port":27015,"enabled":true,"region":"sa","cc":"br","latitude":-23.533773,"longitude":-46.62529,"reserved":0,"last_update":"0001-01-01T00:00:00Z","name_a2s":"Uncletopia | São Paulo | 1 | All Maps","protocol":17,"map":"koth_viaduct","folder":"tf","game":"Team Fortress","app_id":440,"player_count":0,"max_players":24,"Bots":0,"server_type":"Dedicated","server_os":"Linux","password":true,"vac":true,"version":"7742253","steam_id":85568392924469996,"keywords":["cp","nocrits","nodmgspread","uncletopia"],"game_id":440,"stv_port":27016,"stv_name":"Uncletopia | São Paulo | 1 | All Maps | STV","players":null},{"server_id":143,"name":"Uncletopia | São Paulo | 2 | All Maps","name_short":"sao-2","host":"sao-2.br.uncletopia.com","port":27015,"enabled":true,"region":"sa","cc":"br","latitude":-23.533773,"longitude":-46.62529,"reserved":0,"last_update":"0001-01-01T00:00:00Z","name_a2s":"Uncletopia | São Paulo | 2 | All Maps","protocol":17,"map":"pl_frontier_final","folder":"tf","game":"Team Fortress","app_id":440,"player_count":0,"max_players":24,"Bots":0,"server_type":"Dedicated","server_os":"Linux","password":true,"vac":true,"version":"7742253","steam_id":85568392924485349,"keywords":["nocrits","nodmgspread","payload","uncletopia"],"game_id":440,"stv_port":27016,"stv_name":"Uncletopia | São Paulo | 2 | All Maps | STV","players":null},{"server_id":7,"name":"Uncletopia | Seattle | 1 | All Maps","name_short":"sea-1","host":"sea-1.us.uncletopia.com","port":27015,"enabled":true,"region":"us-west","cc":"us","latitude":47.608013,"longitude":-122.33517,"reserved":0,"last_update":"0001-01-01T00:00:00Z","name_a2s":"Uncletopia | Seattle | 1 | All Maps","protocol":17,"map":"pl_swiftwater_final1","folder":"tf","game":"Team Fortress","app_id":440,"player_count":24,"max_players":24,"Bots":0,"server_type":"Dedicated","server_os":"Linux","password":true,"vac":true,"version":"7742253","steam_id":85568392924469997,"keywords":["nocrits","nodmgspread","payload","uncletopia"],"game_id":440,"stv_port":27016,"stv_name":"Uncletopia | Seattle | 1 | All Maps | STV","players":[{"user_id":388,"name":"AmirKhaan","steam_id":76561198992403254,"connected_time":3408000000000,"state":"active","ping":111},{"user_id":400,"name":"sara","steam_id":76561198283462369,"connected_time":3032000000000,"state":"active","ping":74},{"user_id":416,"name":"estrogenfan","steam_id":76561198356871016,"connected_time":2374000000000,"state":"active","ping":105},{"user_id":381,"name":"mub","steam_id":76561197961943948,"connected_time":4133000000000,"state":"active","ping":42},{"user_id":453,"name":"8core","steam_id":76561198131163454,"connected_time":266000000000,"state":"active","ping":81},{"user_id":452,"name":"North Central Positronics Rep","steam_id":76561198133718360,"connected_time":288000000000,"state":"active","ping":109},{"user_id":440,"name":"Gettin Carried","steam_id":76561198108066455,"connected_time":695000000000,"state":"active","ping":91},{"user_id":419,"name":"misterjozo","steam_id":76561198012300755,"connected_time":2289000000000,"state":"active","ping":56},{"user_id":446,"name":"Arenovas","steam_id":76561198042341811,"connected_time":497000000000,"state":"active","ping":72},{"user_id":395,"name":"SnoDot","steam_id":76561198062209970,"connected_time":3251000000000,"state":"active","ping":39},{"user_id":448,"name":"Fapsock","steam_id":76561198017658564,"connected_time":392000000000,"state":"active","ping":91},{"user_id":403,"name":"Pinhead","steam_id":76561198207979440,"connected_time":2898000000000,"state":"active","ping":92},{"user_id":438,"name":"Jade","steam_id":76561198151596927,"connected_time":797000000000,"state":"active","ping":111},{"user_id":436,"name":"azureglxy","steam_id":76561198861388315,"connected_time":949000000000,"state":"active","ping":65},{"user_id":455,"name":"aimee","steam_id":76561198834309212,"connected_time":33000000000,"state":"active","ping":123},{"user_id":449,"name":"Uncle","steam_id":76561197988647705,"connected_time":370000000000,"state":"active","ping":102},{"user_id":445,"name":"BEASTxGODx420","steam_id":76561198184814466,"connected_time":524000000000,"state":"active","ping":39},{"user_id":434,"name":"StumbleBumble","steam_id":76561199000369528,"connected_time":1242000000000,"state":"active","ping":130},{"user_id":441,"name":"Chimpish","steam_id":76561199263493270,"connected_time":689000000000,"state":"active","ping":136},{"user_id":450,"name":"Buckytr","steam_id":76561198096335025,"connected_time":332000000000,"state":"active","ping":62},{"user_id":454,"name":"Gaming","steam_id":76561198327632113,"connected_time":178000000000,"state":"active","ping":52},{"user_id":420,"name":"Beeveelution","steam_id":76561198331526301,"connected_time":2249000000000,"state":"active","ping":70},{"user_id":421,"name":"boatz (huntsman gaming)","steam_id":76561198046851181,"connected_time":2200000000000,"state":"active","ping":61},{"user_id":422,"name":"Master Of Whales","steam_id":76561198349104889,"connected_time":2194000000000,"state":"active","ping":77}]},{"server_id":119,"name":"Uncletopia | Seattle | 2 | All Maps","name_short":"sea-2","host":"sea-1.us.uncletopia.com","port":27025,"enabled":true,"region":"us-west","cc":"us","latitude":47.608013,"longitude":-122.33517,"reserved":0,"last_update":"0001-01-01T00:00:00Z","name_a2s":"Uncletopia | Seattle | 2 | All Maps","protocol":17,"map":"pl_borneo","folder":"tf","game":"Team Fortress","app_id":440,"player_count":24,"max_players":24,"Bots":0,"server_type":"Dedicated","server_os":"Linux","password":true,"vac":true,"version":"7742253","steam_id":85568392924469998,"keywords":["nocrits","nodmgspread","payload","uncletopia"],"game_id":440,"stv_port":27026,"stv_name":"Uncletopia | Seattle | 2 | All Maps | STV","players":[{"user_id":250,"name":"WINNNNNIE","steam_id":76561198286650322,"connected_time":1716000000000,"state":"active","ping":56},{"user_id":243,"name":"Dimple","steam_id":76561198980324190,"connected_time":2086000000000,"state":"active","ping":49},{"user_id":267,"name":"Frogzilla","steam_id":76561198077657538,"connected_time":785000000000,"state":"active","ping":58},{"user_id":259,"name":"Jarrod","steam_id":76561198992348469,"connected_time":1162000000000,"state":"active","ping":144},{"user_id":242,"name":"AspenIsPoplar","steam_id":76561198346382060,"connected_time":2368000000000,"state":"active","ping":60},{"user_id":186,"name":"Fermenting Kiwi","steam_id":76561198253303497,"connected_time":6423000000000,"state":"active","ping":80},{"user_id":260,"name":"Pile of Spinach","steam_id":76561198043068841,"connected_time":1121000000000,"state":"active","ping":62},{"user_id":274,"name":"[chef] iron","steam_id":76561197970888616,"connected_time":259000000000,"state":"active","ping":74},{"user_id":252,"name":"Back with the milk","steam_id":76561199020105501,"connected_time":1666000000000,"state":"active","ping":127},{"user_id":261,"name":"tum","steam_id":76561198084712019,"connected_time":1112000000000,"state":"active","ping":85},{"user_id":229,"name":"Julien","steam_id":76561199389584938,"connected_time":3512000000000,"state":"active","ping":41},{"user_id":253,"name":"Deku Scrublord","steam_id":76561198036602402,"connected_time":1602000000000,"state":"active","ping":105},{"user_id":217,"name":"aon135","steam_id":76561197966931637,"connected_time":4106000000000,"state":"active","ping":53},{"user_id":218,"name":"nappyzappy","steam_id":76561198095118953,"connected_time":4083000000000,"state":"active","ping":57},{"user_id":275,"name":"KingTinkerer","steam_id":76561198226856548,"connected_time":188000000000,"state":"active","ping":67},{"user_id":248,"name":"5392vin","steam_id":76561198880493511,"connected_time":1794000000000,"state":"active","ping":67},{"user_id":263,"name":"a crazy hobo","steam_id":76561198289650060,"connected_time":1077000000000,"state":"active","ping":76},{"user_id":264,"name":"Big ol' Willy Gaming","steam_id":76561198048545731,"connected_time":1024000000000,"state":"active","ping":74},{"user_id":266,"name":"MR.meeseeks","steam_id":76561198294943420,"connected_time":966000000000,"state":"active","ping":56},{"user_id":235,"name":"WACKY JIM","steam_id":76561198961641122,"connected_time":3271000000000,"state":"active","ping":58},{"user_id":269,"name":"Rixarlin","steam_id":76561198871148306,"connected_time":747000000000,"state":"active","ping":61},{"user_id":231,"name":"The Pepsi® Superbowl®!","steam_id":76561198080828981,"connected_time":3417000000000,"state":"active","ping":68},{"user_id":273,"name":"Wolf with a flashlight","steam_id":76561197999816472,"connected_time":474000000000,"state":"active","ping":90},{"user_id":272,"name":"Fluffy","steam_id":76561198115952540,"connected_time":666000000000,"state":"active","ping":49}]},{"server_id":406,"name":"Uncletopia | Seattle | 3 | Stopwatch Beta","name_short":"sea-3","host":"sea-1.us.uncletopia.com","port":27035,"enabled":true,"region":"us-west","cc":"us","latitude":47.608013,"longitude":-122.33517,"reserved":0,"last_update":"0001-01-01T00:00:00Z","name_a2s":"Uncletopia | Seattle | 3 | Stopwatch Beta","protocol":17,"map":"cp_snakewater_final1","folder":"tf","game":"Team Fortress","app_id":440,"player_count":2,"max_players":24,"Bots":0,"server_type":"Dedicated","server_os":"Linux","password":true,"vac":true,"version":"7742253","steam_id":85568392924515217,"keywords":["cp","nocrits","nodmgspread","uncletopia"],"game_id":440,"stv_port":27036,"stv_name":"Uncletopia | Seattle | 3 | Stopwatch Beta | STV","players":[{"user_id":3,"name":"Porytal","steam_id":76561198306101889,"connected_time":612000000000,"state":"active","ping":38},{"user_id":4,"name":"girr","steam_id":76561198995114110,"connected_time":561000000000,"state":"active","ping":58}]},{"server_id":17,"name":"Uncletopia | San Francisco | 1 | All Maps","name_short":"sfo-1","host":"sfo-1.us.uncletopia.com","port":27015,"enabled":true,"region":"us-west","cc":"us","latitude":37.77397,"longitude":-122.4313,"reserved":0,"last_update":"0001-01-01T00:00:00Z","name_a2s":"Uncletopia | San Francisco | 1 | All Maps","protocol":17,"map":"koth_highpass","folder":"tf","game":"Team Fortress","app_id":440,"player_count":0,"max_players":24,"Bots":0,"server_type":"Dedicated","server_os":"Linux","password":true,"vac":true,"version":"7742253","steam_id":85568392924469999,"keywords":["cp","nocrits","nodmgspread","uncletopia"],"game_id":440,"stv_port":27016,"stv_name":"Uncletopia | San Francisco | 1 | All Maps | STV","players":null},{"server_id":18,"name":"Uncletopia | San Francisco | 2 | All Maps","name_short":"sfo-2","host":"sfo-1.us.uncletopia.com","port":27025,"enabled":true,"region":"us-west","cc":"us","latitude":37.77397,"longitude":-122.4313,"reserved":0,"last_update":"0001-01-01T00:00:00Z","name_a2s":"Uncletopia | San Francisco | 2 | All Maps","protocol":17,"map":"pl_snowycoast","folder":"tf","game":"Team Fortress","app_id":440,"player_count":0,"max_players":24,"Bots":0,"server_type":"Dedicated","server_os":"Linux","password":true,"vac":true,"version":"7742253","steam_id":85568392924470000,"keywords":["nocrits","nodmgspread","payload","uncletopia"],"game_id":440,"stv_port":27026,"stv_name":"Uncletopia | San Francisco | 2 | All Maps | STV","players":null},{"server_id":19,"name":"Uncletopia | San Francisco | 3 | Stopwatch Beta","name_short":"sfo-3","host":"sfo-1.us.uncletopia.com","port":27035,"enabled":true,"region":"us-west","cc":"us","latitude":37.77397,"longitude":-122.4313,"reserved":0,"last_update":"0001-01-01T00:00:00Z","name_a2s":"Uncletopia | San Francisco | 3 | Stopwatch Beta","protocol":17,"map":"koth_lakeside_final","folder":"tf","game":"Team Fortress","app_id":440,"player_count":0,"max_players":24,"Bots":0,"server_type":"Dedicated","server_os":"Linux","password":true,"vac":true,"version":"7742253","steam_id":85568392924742824,"keywords":["cp","nocrits","nodmgspread","uncletopia"],"game_id":440,"stv_port":27036,"stv_name":"Uncletopia | San Francisco | 3 | Stopwatch Beta | STV","players":null},{"server_id":20,"name":"Uncletopia | San Francisco | 4 | Community","name_short":"sfo-4","host":"sfo-1.us.uncletopia.com","port":27045,"enabled":true,"region":"us-west","cc":"us","latitude":37.77397,"longitude":-122.4313,"reserved":0,"last_update":"0001-01-01T00:00:00Z","name_a2s":"Uncletopia | San Francisco | 4 | Community","protocol":17,"map":"workshop/rd_asteroid_redux_b1.ugc2154902912","folder":"tf","game":"Team Fortress","app_id":440,"player_count":0,"max_players":24,"Bots":0,"server_type":"Dedicated","server_os":"Linux","password":true,"vac":true,"version":"7742253","steam_id":85568392924742826,"keywords":["beta","nocrits","nodmgspread","rd","uncletopia"],"game_id":440,"stv_port":27046,"stv_name":"Uncletopia | San Francisco | 4 | Community | STV","players":null},{"server_id":141,"name":"Uncletopia | Sydney | 1 | All Maps","name_short":"syd-1","host":"syd-1.au.uncletopia.com","port":27015,"enabled":true,"region":"au","cc":"au","latitude":-33.865143,"longitude":151.2099,"reserved":0,"last_update":"0001-01-01T00:00:00Z","name_a2s":"Uncletopia | Sydney | 1 | All Maps","protocol":17,"map":"cp_process_final","folder":"tf","game":"Team Fortress","app_id":440,"player_count":12,"max_players":24,"Bots":0,"server_type":"Dedicated","server_os":"Linux","password":true,"vac":true,"version":"7742253","steam_id":85568392924470001,"keywords":["cp","nocrits","nodmgspread","uncletopia"],"game_id":440,"stv_port":27016,"stv_name":"Uncletopia | Sydney | 1 | All Maps | STV","players":[{"user_id":44,"name":"blaze","steam_id":76561198241303512,"connected_time":1984000000000,"state":"active","ping":60},{"user_id":37,"name":"squrrel","steam_id":76561198083429611,"connected_time":2701000000000,"state":"active","ping":72},{"user_id":45,"name":"hydatid","steam_id":76561198796773396,"connected_time":1752000000000,"state":"active","ping":51},{"user_id":57,"name":"Linkazoid","steam_id":76561198107915685,"connected_time":362000000000,"state":"active","ping":69},{"user_id":39,"name":"Cal","steam_id":76561198069132107,"connected_time":2630000000000,"state":"active","ping":46},{"user_id":49,"name":"MR Martian","steam_id":76561198157854561,"connected_time":1219000000000,"state":"active","ping":90},{"user_id":50,"name":"HellBoy","steam_id":76561198069295430,"connected_time":1190000000000,"state":"active","ping":61},{"user_id":51,"name":"TPScout","steam_id":76561198353808504,"connected_time":1162000000000,"state":"active","ping":257},{"user_id":52,"name":"xX_sexhaver_Xx(real)","steam_id":76561199205171109,"connected_time":1008000000000,"state":"active","ping":67},{"user_id":58,"name":"dr d","steam_id":76561199230568722,"connected_time":24000000000,"state":"active","ping":87},{"user_id":59,"name":"plr_jack","steam_id":76561199124321542,"connected_time":0,"state":"spawning","ping":0},{"user_id":55,"name":"猫","steam_id":76561198077371097,"connected_time":953000000000,"state":"active","ping":50}]},{"server_id":123,"name":"Uncletopia | Sydney | 2 | All Maps","name_short":"syd-2","host":"syd-1.au.uncletopia.com","port":27025,"enabled":true,"region":"au","cc":"au","latitude":-33.865143,"longitude":151.2099,"reserved":0,"last_update":"0001-01-01T00:00:00Z","name_a2s":"Uncletopia | Sydney | 2 | All Maps","protocol":17,"map":"cp_process_final","folder":"tf","game":"Team Fortress","app_id":440,"player_count":0,"max_players":24,"Bots":0,"server_type":"Dedicated","server_os":"Linux","password":true,"vac":true,"version":"7742253","steam_id":85568392924470002,"keywords":["cp","nocrits","nodmgspread","uncletopia"],"game_id":440,"stv_port":27026,"stv_name":"Uncletopia | Sydney | 2 | All Maps | STV","players":null},{"server_id":395,"name":"Uncletopia | Sydney | 3 | All Maps","name_short":"syd-3","host":"syd-1.au.uncletopia.com","port":27035,"enabled":true,"region":"au","cc":"au","latitude":-33.865143,"longitude":151.2099,"reserved":0,"last_update":"0001-01-01T00:00:00Z","name_a2s":"Uncletopia | Sydney | 3 | All Maps","protocol":17,"map":"koth_viaduct","folder":"tf","game":"Team Fortress","app_id":440,"player_count":0,"max_players":24,"Bots":0,"server_type":"Dedicated","server_os":"Linux","password":true,"vac":true,"version":"7742253","steam_id":85568392925194467,"keywords":["cp","nocrits","nodmgspread","uncletopia"],"game_id":440,"stv_port":27036,"stv_name":"Uncletopia | Sydney | 3 | All Maps | STV","players":null},{"server_id":396,"name":"Uncletopia | Sydney | 4 | All Maps","name_short":"syd-4","host":"syd-1.au.uncletopia.com","port":27045,"enabled":true,"region":"au","cc":"au","latitude":-33.865143,"longitude":151.2099,"reserved":0,"last_update":"0001-01-01T00:00:00Z","name_a2s":"Uncletopia | Sydney | 4 | All Maps","protocol":17,"map":"pl_frontier_final","folder":"tf","game":"Team Fortress","app_id":440,"player_count":0,"max_players":24,"Bots":0,"server_type":"Dedicated","server_os":"Linux","password":true,"vac":true,"version":"7742253","steam_id":85568392925397958,"keywords":["nocrits","nodmgspread","payload","uncletopia"],"game_id":440,"stv_port":27046,"stv_name":"Uncletopia | Sydney | 4 | All Maps | STV","players":null},{"server_id":58,"name":"Uncletopia | Sydney | 5 | Stopwatch Beta","name_short":"syd-5","host":"syd-1.au.uncletopia.com","port":27055,"enabled":true,"region":"au","cc":"au","latitude":-33.865143,"longitude":151.2099,"reserved":0,"last_update":"0001-01-01T00:00:00Z","name_a2s":"Uncletopia | Sydney | 5 | Stopwatch Beta","protocol":17,"map":"cp_sunshine","folder":"tf","game":"Team Fortress","app_id":440,"player_count":0,"max_players":24,"Bots":0,"server_type":"Dedicated","server_os":"Linux","password":true,"vac":true,"version":"7742253","steam_id":85568392925397959,"keywords":["cp","nocrits","nodmgspread","uncletopia"],"game_id":440,"stv_port":27056,"stv_name":"Uncletopia | Sydney | 5 | Stopwatch Beta | STV","players":null},{"server_id":59,"name":"Uncletopia | Sydney | 6 | Community","name_short":"syd-6","host":"syd-1.au.uncletopia.com","port":27065,"enabled":true,"region":"au","cc":"au","latitude":-33.865143,"longitude":151.2099,"reserved":0,"last_update":"0001-01-01T00:00:00Z","name_a2s":"Uncletopia | Sydney | 6 | Community","protocol":17,"map":"workshop/koth_synthetic_rc6a.ugc1549817316","folder":"tf","game":"Team Fortress","app_id":440,"player_count":3,"max_players":24,"Bots":0,"server_type":"Dedicated","server_os":"Linux","password":true,"vac":true,"version":"7742253","steam_id":85568392925397960,"keywords":["cp","nocrits","nodmgspread","uncletopia"],"game_id":440,"stv_port":27066,"stv_name":"Uncletopia | Sydney | 6 | Community | STV","players":[{"user_id":3,"name":"LegEaterHK","steam_id":76561199357838817,"connected_time":1506000000000,"state":"active","ping":70},{"user_id":4,"name":"rylan.chen","steam_id":76561199152151734,"connected_time":1505000000000,"state":"active","ping":72},{"user_id":5,"name":"WingedDragonRaa","steam_id":76561199446042806,"connected_time":327000000000,"state":"active","ping":74}]},{"server_id":49,"name":"Uncletopia | Warsaw | 1 | All Maps","name_short":"waw-1","host":"waw-1.pl.uncletopia.com","port":27015,"enabled":true,"region":"eu","cc":"pl","latitude":52.2297,"longitude":21.017532,"reserved":0,"last_update":"0001-01-01T00:00:00Z","name_a2s":"","protocol":0,"map":"","folder":"","game":"","app_id":0,"player_count":0,"max_players":0,"Bots":0,"server_type":"","server_os":"","password":false,"vac":false,"version":"","steam_id":0,"keywords":null,"game_id":0,"stv_port":0,"stv_name":"","players":null},{"server_id":50,"name":"Uncletopia | Warsaw | 2 | All Maps","name_short":"waw-2","host":"waw-1.pl.uncletopia.com","port":27025,"enabled":true,"region":"eu","cc":"pl","latitude":52.2297,"longitude":21.017532,"reserved":0,"last_update":"0001-01-01T00:00:00Z","name_a2s":"Uncletopia | Warsaw | 2 | All Maps","protocol":17,"map":"cp_process_final","folder":"tf","game":"Team Fortress","app_id":440,"player_count":23,"max_players":24,"Bots":0,"server_type":"Dedicated","server_os":"Linux","password":true,"vac":true,"version":"7742253","steam_id":85568392925397851,"keywords":["cp","nocrits","nodmgspread","uncletopia"],"game_id":440,"stv_port":27026,"stv_name":"Uncletopia | Warsaw | 2 | All Maps | STV","players":[{"user_id":394,"name":"Kalyps0","steam_id":76561198241519562,"connected_time":351000000000,"state":"active","ping":101},{"user_id":369,"name":"Spoony","steam_id":76561198144204860,"connected_time":1520000000000,"state":"active","ping":57},{"user_id":370,"name":"Debiru","steam_id":76561198872646490,"connected_time":1469000000000,"state":"active","ping":89},{"user_id":358,"name":"Meki","steam_id":76561198108279631,"connected_time":2660000000000,"state":"active","ping":83},{"user_id":396,"name":"Maik","steam_id":76561198795607661,"connected_time":297000000000,"state":"active","ping":69},{"user_id":344,"name":"restloud","steam_id":76561198265722644,"connected_time":3222000000000,"state":"active","ping":120},{"user_id":391,"name":"Terry (ETH trader)","steam_id":76561198374176076,"connected_time":380000000000,"state":"active","ping":78},{"user_id":378,"name":"Enigmus","steam_id":76561197994063627,"connected_time":1076000000000,"state":"active","ping":93},{"user_id":384,"name":"Sidorkinz","steam_id":76561197981772108,"connected_time":901000000000,"state":"active","ping":81},{"user_id":368,"name":"abn","steam_id":76561198163474082,"connected_time":1606000000000,"state":"active","ping":184},{"user_id":376,"name":"glyph","steam_id":76561197980736364,"connected_time":1371000000000,"state":"active","ping":91},{"user_id":379,"name":"invi","steam_id":76561198061107149,"connected_time":1058000000000,"state":"active","ping":59},{"user_id":402,"name":"Farmbot 512","steam_id":76561198346383246,"connected_time":141000000000,"state":"active","ping":82},{"user_id":395,"name":"Brongom","steam_id":76561198856636992,"connected_time":319000000000,"state":"active","ping":101},{"user_id":335,"name":"0","steam_id":76561198267909207,"connected_time":4002000000000,"state":"active","ping":68},{"user_id":401,"name":"*^.^*","steam_id":76561198343506483,"connected_time":203000000000,"state":"active","ping":68},{"user_id":388,"name":"MaksiNormaL","steam_id":76561199095520967,"connected_time":652000000000,"state":"active","ping":75},{"user_id":381,"name":"sus like imposter from among us","steam_id":76561198079524152,"connected_time":988000000000,"state":"active","ping":86},{"user_id":383,"name":"[Mad]Storm","steam_id":76561198051390961,"connected_time":946000000000,"state":"active","ping":98},{"user_id":386,"name":"combine","steam_id":76561198007909007,"connected_time":846000000000,"state":"active","ping":71},{"user_id":387,"name":"Lempii","steam_id":76561198433507634,"connected_time":793000000000,"state":"active","ping":67},{"user_id":393,"name":"★ sat1ra","steam_id":76561198011382701,"connected_time":367000000000,"state":"active","ping":107},{"user_id":400,"name":"royal psalm","steam_id":76561198127407079,"connected_time":231000000000,"state":"active","ping":71}]},{"server_id":51,"name":"Uncletopia | Warsaw | 3 | All Maps","name_short":"waw-3","host":"waw-1.pl.uncletopia.com","port":27035,"enabled":true,"region":"eu","cc":"pl","latitude":52.2297,"longitude":21.017532,"reserved":0,"last_update":"0001-01-01T00:00:00Z","name_a2s":"Uncletopia | Warsaw | 3 | All Maps","protocol":17,"map":"ctf_2fort","folder":"tf","game":"Team Fortress","app_id":440,"player_count":0,"max_players":24,"Bots":0,"server_type":"Dedicated","server_os":"Linux","password":true,"vac":true,"version":"7742253","steam_id":85568392925397852,"keywords":["ctf","nocrits","nodmgspread","uncletopia"],"game_id":440,"stv_port":27036,"stv_name":"Uncletopia | Warsaw | 3 | All Maps | STV","players":null},{"server_id":52,"name":"Uncletopia | Warsaw | 4 | All Maps","name_short":"waw-4","host":"waw-1.pl.uncletopia.com","port":27045,"enabled":true,"region":"eu","cc":"pl","latitude":52.2297,"longitude":21.017532,"reserved":0,"last_update":"0001-01-01T00:00:00Z","name_a2s":"Uncletopia | Warsaw | 4 | All Maps","protocol":17,"map":"cp_altitude","folder":"tf","game":"Team Fortress","app_id":440,"player_count":0,"max_players":24,"Bots":0,"server_type":"Dedicated","server_os":"Linux","password":true,"vac":true,"version":"7742253","steam_id":85568392925397853,"keywords":["cp","nocrits","nodmgspread","uncletopia"],"game_id":440,"stv_port":27046,"stv_name":"Uncletopia | Warsaw | 4 | All Maps | STV","players":null},{"server_id":53,"name":"Uncletopia | Warsaw | 5 | Stopwatch Beta","name_short":"waw-5","host":"waw-1.pl.uncletopia.com","port":27055,"enabled":true,"region":"eu","cc":"pl","latitude":52.2297,"longitude":21.017532,"reserved":0,"last_update":"0001-01-01T00:00:00Z","name_a2s":"Uncletopia | Warsaw | 5 | Stopwatch Beta","protocol":17,"map":"workshop/koth_ramjam_rc1.ugc459778887","folder":"tf","game":"Team Fortress","app_id":440,"player_count":0,"max_players":24,"Bots":0,"server_type":"Dedicated","server_os":"Linux","password":true,"vac":true,"version":"7742253","steam_id":85568392925397854,"keywords":["cp","nocrits","nodmgspread","uncletopia"],"game_id":440,"stv_port":27056,"stv_name":"Uncletopia | Warsaw | 5 | Stopwatch Beta | STV","players":null},{"server_id":54,"name":"Uncletopia | Warsaw | 6 | Community","name_short":"waw-6","host":"waw-1.pl.uncletopia.com","port":27065,"enabled":true,"region":"eu","cc":"pl","latitude":52.2297,"longitude":21.017532,"reserved":0,"last_update":"0001-01-01T00:00:00Z","name_a2s":"Uncletopia | Warsaw | 6 | Community","protocol":17,"map":"koth_highpass","folder":"tf","game":"Team Fortress","app_id":440,"player_count":0,"max_players":24,"Bots":0,"server_type":"Dedicated","server_os":"Linux","password":true,"vac":true,"version":"7742253","steam_id":85568392925397856,"keywords":["cp","nocrits","nodmgspread","uncletopia"],"game_id":440,"stv_port":27066,"stv_name":"Uncletopia | Warsaw | 6 | Community | STV","players":null}]}