{"status":true,"message":"","result":[{"server_id":9,"name":"Uncletopia | Atlanta | 1 | All Maps","name_short":"atl-1","host":"atl-1.us.uncletopia.com","port":27015,"enabled":true,"region":"us-east","cc":"us","latitude":33.753746,"longitude":-84.38633,"reserved":0,"last_update":"0001-01-01T00:00:00Z","name_a2s":"Uncletopia | Atlanta | 1 | All Maps","protocol":17,"map":"pl_goldrush","folder":"tf","game":"Team Fortress","app_id":440,"player_count":24,"max_players":24,"Bots":0,"server_type":"Dedicated","server_os":"Linux","password":true,"vac":true,"version":"7742253","steam_id":85568392924469982,"keywords":["nocrits","nodmgspread","payload","uncletopia"],"game_id":440,"stv_port":27016,"stv_name":"Uncletopia | Atlanta | 1 | All Maps | STV","players":[{"user_id":508,"name":"hypnosterical","steam_id":76561197990537951,"connected_time":2335000000000,"state":"active","ping":74},{"user_id":521,"name":"Brock sturdy™","steam_id":76561198118428095,"connected_time":449000000000,"state":"active","ping":80},{"user_id":369,"name":"ATL1 | eish","steam_id":76561198089463603,"connected_time":19437000000000,"state":"active","ping":114},{"user_id":501,"name":"MOTORTREND TRUCK OF THE YEAR","steam_id":76561198077654131,"connected_time":3445000000000,"state":"active","ping":71},{"user_id":500,"name":"ATL6 Le4n!!!","steam_id":76561198045522596,"connected_time":3996000000000,"state":"active","ping":74},{"user_id":514,"name":"scrambledeggs3","steam_id":76561198066112579,"connected_time":2128000000000,"state":"active","ping":102},{"user_id":506,"name":"Tiktaalik","steam_id":76561198856050653,"connected_time":2405000000000,"state":"active","ping":96},{"user_id":479,"name":"stink","steam_id":76561198099318923,"connected_time":4810000000000,"state":"active","ping":78},{"user_id":484,"name":"ATL1 | Psionic Box","steam_id":76561198151019322,"connected_time":4697000000000,"state":"active","ping":73},{"user_id":507,"name":"Tay1Qr","steam_id":76561198082809935,"connected_time":2404000000000,"state":"active","ping":70},{"user_id":515,"name":"Shame","steam_id":76561198100490994,"connected_time":2111000000000,"state":"active","ping":71},{"user_id":468,"name":"EVIL CHRISTMAS Cherry Coke","steam_id":76561198178233006,"connected_time":7290000000000,"state":"active","ping":74},{"user_id":509,"name":"RAT","steam_id":76561198159409933,"connected_time":2330000000000,"state":"active","ping":121},{"user_id":519,"name":"snoops","steam_id":76561197986760351,"connected_time":1077000000000,"state":"active","ping":83},{"user_id":510,"name":"BotchyAlarm8","steam_id":76561198092682129,"connected_time":2329000000000,"state":"active","ping":54},{"user_id":503,"name":"Bad Day to be Some Cheeks","steam_id":76561198083251763,"connected_time":3200000000000,"state":"active","ping":45},{"user_id":497,"name":"ATL1 | to4st","steam_id":76561198981009008,"connected_time":4330000000000,"state":"active","ping":69},{"user_id":520,"name":"_1337 omat1k","steam_id":76561197990511314,"connected_time":985000000000,"state":"active","ping":91},{"user_id":511,"name":"Grandpa (retired gamer)","steam_id":76561198149140534,"connected_time":2324000000000,"state":"active","ping":52},{"user_id":474,"name":"DREW PEACOCK","steam_id":76561198065057392,"connected_time":6676000000000,"state":"active","ping":63},{"user_id":523,"name":"SchWckLeS","steam_id":76561197965240055,"connected_time":195000000000,"state":"active","ping":178},{"user_id":493,"name":"hyeon @74.97 Hz","steam_id":76561198246700372,"connected_time":4459000000000,"state":"active","ping":63},{"user_id":517,"name":"nomad","steam_id":76561197998740399,"connected_time":1585000000000,"state":"active","ping":73},{"user_id":427,"name":"Intro Bonito","steam_id":76561198119478838,"connected_time":13393000000000,"state":"active","ping":59}]},{"server_id":400,"name":"Uncletopia | Atlanta | 3 | Stopwatch Beta","name_short":"atl-3","host":"atl-1.us.uncletopia.com","port":27035,"enabled":true,"region":"us-east","cc":"us","latitude":33.753746,"longitude":-84.38633,"reserved":0,"last_update":"0001-01-01T00:00:00Z","name_a2s":"Uncletopia | Atlanta | 3 | Stopwatch Beta","protocol":17,"map":"pl_pier","folder":"tf","game":"Team Fortress","app_id":440,"player_count":0,"max_players":24,"Bots":0,"server_type":"Dedicated","server_os":"Linux","password":true,"vac":true,"version":"7742253","steam_id":85568392924515187,"keywords":["nocrits","nodmgspread","payload","uncletopia"],"game_id":440,"stv_port":27036,"stv_name":"Uncletopia | Atlanta | 3 | Stopwatch Beta | STV","players":null},{"server_id":401,"name":"Uncletopia | Atlanta | 4 | No Payload","name_short":"atl-4","host":"atl-1.us.uncletopia.com","port":27045,"enabled":true,"region":"us-east","cc":"us","latitude":33.753746,"longitude":-84.38633,"reserved":0,"last_update":"0001-01-01T00:00:00Z","name_a2s":"Uncletopia | Atlanta | 4 | No Payload","protocol":17,"map":"pl_pier","folder":"tf","game":"Team Fortress","app_id":440,"player_count":0,"max_players":24,"Bots":0,"server_type":"Dedicated","server_os":"Linux","password":true,"vac":true,"version":"7723704","steam_id":85568392924515188,"keywords":["nocrits","nodmgspread","payload","uncletopia"],"game_id":440,"stv_port":27046,"stv_name":"Uncletopia | Atlanta | 4 | No Payload | STV","players":null},{"server_id":2,"name":"Uncletopia | Chicago | 1 | All Maps","name_short":"chi-1","host":"chi-1.us.uncletopia.com","port":27015,"enabled":true,"region":"us-central","cc":"us","latitude":41.881832,"longitude":-87.62318,"reserved":0,"last_update":"0001-01-01T00:00:00Z","name_a2s":"Uncletopia | Chicago | 1 | All Maps","protocol":17,"map":"koth_viaduct","folder":"tf","game":"Team Fortress","app_id":440,"player_count":24,"max_players":24,"Bots":0,"server_type":"Dedicated","server_os":"Linux","password":true,"vac":true,"version":"7742253","steam_id":85568392924469984,"keywords":["cp","nocrits","nodmgspread","uncletopia"],"game_id":440,"stv_port":27016,"stv_name":"Uncletopia | Chicago | 1 | All Maps | STV","players":[{"user_id":554,"name":"EL GEFF","steam_id":76561198365725540,"connected_time":194000000000,"state":"active","ping":176},{"user_id":563,"name":"new years forecast","steam_id":76561198042243083,"connected_time":17000000000,"state":"active","ping":62},{"user_id":558,"name":"futmaus","steam_id":76561199063130278,"connected_time":169000000000,"state":"active","ping":106},{"user_id":559,"name":"Resistor_RR","steam_id":76561198433496803,"connected_time":152000000000,"state":"active","ping":58},{"user_id":561,"name":"IFDABOOTYFATUKNOWHEREIM@","steam_id":76561198144766439,"connected_time":73000000000,"state":"active","ping":44},{"user_id":549,"name":"CreativeUsername","steam_id":76561198186045503,"connected_time":356000000000,"state":"active","ping":55},{"user_id":539,"name":"cat","steam_id":76561198138325084,"connected_time":632000000000,"state":"active","ping":51},{"user_id":556,"name":"FemboyNate","steam_id":76561198146636410,"connected_time":186000000000,"state":"active","ping":104},{"user_id":541,"name":"green screen","steam_id":76561198797877733,"connected_time":555000000000,"state":"active","ping":84},{"user_id":529,"name":"DO NOT call me BART SIMPSON!!","steam_id":76561198069113375,"connected_time":1490000000000,"state":"active","ping":65},{"user_id":557,"name":"FuMoment","steam_id":76561198281974391,"connected_time":185000000000,"state":"active","ping":64},{"user_id":560,"name":"ADHDking","steam_id":76561198116099017,"connected_time":130000000000,"state":"active","ping":59},{"user_id":543,"name":"DuckKey","steam_id":76561198904477889,"connected_time":539000000000,"state":"active","ping":59},{"user_id":510,"name":"Legion","steam_id":76561199036242643,"connected_time":3409000000000,"state":"active","ping":63},{"user_id":546,"name":"Fish","steam_id":76561198986516474,"connected_time":414000000000,"state":"active","ping":88},{"user_id":547,"name":"B/S/SuperBoof","steam_id":76561197992030936,"connected_time":394000000000,"state":"active","ping":69},{"user_id":562,"name":"unnamed","steam_id":76561198042760761,"connected_time":73000000000,"state":"active","ping":89},{"user_id":550,"name":"Porkchop","steam_id":76561198047654421,"connected_time":293000000000,"state":"active","ping":86},{"user_id":532,"name":"Cloudman","steam_id":76561198041389138,"connected_time":1407000000000,"state":"active","ping":81},{"user_id":564,"name":"KingTinkerer","steam_id":76561198226856548,"connected_time":8000000000,"state":"active","ping":92},{"user_id":521,"name":"Astoriæ!","steam_id":76561199090168858,"connected_time":1873000000000,"state":"active","ping":60},{"user_id":551,"name":"peachy","steam_id":76561198026664629,"connected_time":255000000000,"state":"active","ping":58},{"user_id":552,"name":"Plugget101","steam_id":76561197992005168,"connected_time":232000000000,"state":"active","ping":51}]},{"server_id":106,"name":"Uncletopia | Chicago | 2 | All Maps","name_short":"chi-2","host":"chi-1.us.uncletopia.com","port":27025,"enabled":true,"region":"us-central","cc":"us","latitude":41.881832,"longitude":-87.62318,"reserved":0,"last_update":"0001-01-01T00:00:00Z","name_a2s":"Uncletopia | Chicago | 2 | All Maps","protocol":17,"map":"pl_barnblitz","folder":"tf","game":"Team Fortress","app_id":440,"player_count":24,"max_players":24,"Bots":0,"server_type":"Dedicated","server_os":"Linux","password":true,"vac":true,"version":"7742253","steam_id":85568392924469985,"keywords":["nocrits","nodmgspread","payload","uncletopia"],"game_id":440,"stv_port":27026,"stv_name":"Uncletopia | Chicago | 2 | All Maps | STV","players":[{"user_id":587,"name":"Furry Saul Goodman","steam_id":76561198069580305,"connected_time":3178000000000,"state":"active","ping":54},{"user_id":514,"name":"SHARK0!","steam_id":76561199391489466,"connected_time":7286000000000,"state":"active","ping":60},{"user_id":617,"name":"Jolly Old Asshat","steam_id":76561198004584315,"connected_time":184000000000,"state":"active","ping":71},{"user_id":611,"name":"bee","steam_id":76561198025553902,"connected_time":863000000000,"state":"active","ping":45},{"user_id":566,"name":"Apetometrist","steam_id":76561198045391635,"connected_time":4223000000000,"state":"active","ping":64},{"user_id":604,"name":"Sexual Butt","steam_id":76561198102241399,"connected_time":1721000000000,"state":"active","ping":50},{"user_id":616,"name":"A Puppy","steam_id":76561198828184456,"connected_time":206000000000,"state":"active","ping":56},{"user_id":605,"name":"littleman70","steam_id":76561198179956478,"connected_time":1672000000000,"state":"active","ping":52},{"user_id":397,"name":"[LINUX] F2P=S*(M/B)+H || Spy!","steam_id":76561198093538786,"connected_time":16038000000000,"state":"active","ping":73},{"user_id":588,"name":"I_Am_Lazy","steam_id":76561199030283067,"connected_time":3163000000000,"state":"active","ping":85},{"user_id":594,"name":"Chezburgures","steam_id":76561198173043730,"connected_time":2988000000000,"state":"active","ping":115},{"user_id":572,"name":"hashmap","steam_id":76561198043794014,"connected_time":4020000000000,"state":"active","ping":51},{"user_id":586,"name":"StonedGiant","steam_id":76561197984386932,"connected_time":3233000000000,"state":"active","ping":46},{"user_id":615,"name":"Gorbo Acechi","steam_id":76561198399936004,"connected_time":428000000000,"state":"active","ping":55},{"user_id":489,"name":"KingEgamer_03","steam_id":76561199283258364,"connected_time":8636000000000,"state":"active","ping":58},{"user_id":600,"name":"Morbus","steam_id":76561198101461171,"connected_time":1864000000000,"state":"active","ping":67},{"user_id":595,"name":"RayLee","steam_id":76561198086161771,"connected_time":2809000000000,"state":"active","ping":74},{"user_id":575,"name":"GreekGoat_Coffee","steam_id":76561198129331088,"connected_time":3943000000000,"state":"active","ping":46},{"user_id":607,"name":"schmoopis","steam_id":76561198321873723,"connected_time":1288000000000,"state":"active","ping":66},{"user_id":612,"name":"Kuddly Kay","steam_id":76561198353432576,"connected_time":846000000000,"state":"active","ping":65},{"user_id":601,"name":"bubbles","steam_id":76561198054693706,"connected_time":1844000000000,"state":"active","ping":72},{"user_id":553,"name":"Dill","steam_id":76561197985091914,"connected_time":5097000000000,"state":"active","ping":66},{"user_id":602,"name":"Mouth Tea","steam_id":76561198285054047,"connected_time":1785000000000,"state":"active","ping":77},{"user_id":606,"name":"Duck Senpai","steam_id":76561198069067079,"connected_time":1648000000000,"state":"active","ping":62}]},{"server_id":402,"name":"Uncletopia | Chicago | 3 | All Maps","name_short":"chi-3","host":"chi-1.us.uncletopia.com","port":27035,"enabled":true,"region":"us-central","cc":"us","latitude":41.881832,"longitude":-87.62318,"reserved":0,"last_update":"0001-01-01T00:00:00Z","name_a2s":"Uncletopia | Chicago | 3 | All Maps","protocol":17,"map":"pl_borneo","folder":"tf","game":"Team Fortress","app_id":440,"player_count":24,"max_players":24,"Bots":0,"server_type":"Dedicated","server_os":"Linux","password":true,"vac":true,"version":"7742253","steam_id":85568392924515191,"keywords":["nocrits","nodmgspread","payload","uncletopia"],"game_id":440,"stv_port":27036,"stv_name":"Uncletopia | Chicago | 3 | All Maps | STV","players":[{"user_id":596,"name":"snuggle!","steam_id":76561198817646871,"connected_time":3572000000000,"state":"active","ping":62},{"user_id":629,"name":"Kipernicus","steam_id":76561197998180212,"connected_time":1737000000000,"state":"active","ping":56},{"user_id":584,"name":"groond","steam_id":76561198309426720,"connected_time":4058000000000,"state":"active","ping":63},{"user_id":642,"name":"Sprinklingmydoughnut","steam_id":76561198168009092,"connected_time":738000000000,"state":"active","ping":87},{"user_id":651,"name":"Deep Fried Twinkie","steam_id":76561198043989308,"connected_time":444000000000,"state":"active","ping":53},{"user_id":637,"name":"Dark Horse","steam_id":76561198121786844,"connected_time":1319000000000,"state":"active","ping":82},{"user_id":597,"name":"Lesbillionaire","steam_id":76561198060118132,"connected_time":3565000000000,"state":"active","ping":54},{"user_id":598,"name":"Cindereye","steam_id":76561198097959534,"connected_time":3564000000000,"state":"active","ping":74},{"user_id":599,"name":"ゴミ人間(Buns)","steam_id":76561197999548548,"connected_time":3558000000000,"state":"active","ping":45},{"user_id":601,"name":"mT² | Ché","steam_id":76561197988589438,"connected_time":3502000000000,"state":"active","ping":92},{"user_id":652,"name":"Dark Horse๊","steam_id":76561199442260601,"connected_time":426000000000,"state":"active","ping":59},{"user_id":631,"name":"Vibey","steam_id":76561198342873474,"connected_time":1659000000000,"state":"active","ping":77},{"user_id":623,"name":"Myagic","steam_id":76561198123746755,"connected_time":2715000000000,"state":"active","ping":67},{"user_id":619,"name":"highwayman","steam_id":76561198148357768,"connected_time":2945000000000,"state":"active","ping":62},{"user_id":604,"name":"lil bro","steam_id":76561198031675881,"connected_time":3471000000000,"state":"active","ping":52},{"user_id":650,"name":"sweaterfan","steam_id":76561199389567214,"connected_time":467000000000,"state":"active","ping":90},{"user_id":626,"name":"HavocGDI","steam_id":76561199388371914,"connected_time":2333000000000,"state":"active","ping":116},{"user_id":627,"name":"tranquil monk arc","steam_id":76561198185980055,"connected_time":2199000000000,"state":"active","ping":66},{"user_id":628,"name":"Casual Costanza","steam_id":76561198024409325,"connected_time":2080000000000,"state":"active","ping":61},{"user_id":635,"name":"LionWink","steam_id":76561198075398661,"connected_time":1420000000000,"state":"active","ping":72},{"user_id":608,"name":"Xbox_Pro_2016","steam_id":76561198176126519,"connected_time":3428000000000,"state":"active","ping":76},{"user_id":639,"name":"MaybeMars","steam_id":76561198084736804,"connected_time":992000000000,"state":"active","ping":84},{"user_id":640,"name":"Karma","steam_id":76561198146782074,"connected_time":980000000000,"state":"active","ping":59},{"user_id":647,"name":"GreenApples","steam_id":76561198120559543,"connected_time":695000000000,"state":"active","ping":105}]},{"server_id":403,"name":"Uncletopia | Chicago | 4 | All Maps","name_short":"chi-4","host":"chi-1.us.uncletopia.com","port":27045,"enabled":true,"region":"us-central","cc":"us","latitude":41.881832,"longitude":-87.62318,"reserved":0,"last_update":"0001-01-01T00:00:00Z","name_a2s":"Uncletopia | Chicago | 4 | All Maps","protocol":17,"map":"cp_snakewater_final1","folder":"tf","game":"Team Fortress","app_id":440,"player_count":24,"max_players":24,"Bots":0,"server_type":"Dedicated","server_os":"Linux","password":true,"vac":true,"version":"7742253","steam_id":85568392924515193,"keywords":["cp","nocrits","nodmgspread","uncletopia"],"game_id":440,"stv_port":27046,"stv_name":"Uncletopia | Chicago | 4 | All Maps | STV","players":[{"user_id":425,"name":"tHE REAL MONKEY D LUFFY","steam_id":76561198054907928,"connected_time":1571000000000,"state":"active","ping":81},{"user_id":427,"name":"Piper","steam_id":76561198059054032,"connected_time":1525000000000,"state":"active","ping":69},{"user_id":414,"name":"Kilphax","steam_id":76561197993814144,"connected_time":2623000000000,"state":"active","ping":54},{"user_id":381,"name":"moodi catgirl","steam_id":76561198124028045,"connected_time":4038000000000,"state":"active","ping":71},{"user_id":430,"name":"tim-","steam_id":76561199119101315,"connected_time":1269000000000,"state":"active","ping":70},{"user_id":439,"name":"GhostCoffee","steam_id":76561198105228900,"connected_time":817000000000,"state":"active","ping":70},{"user_id":404,"name":"someons mario","steam_id":76561198039760602,"connected_time":3188000000000,"state":"active","ping":76},{"user_id":433,"name":"Society Crusher","steam_id":76561198042059080,"connected_time":1229000000000,"state":"active","ping":54},{"user_id":441,"name":"u/unhinged_person","steam_id":76561198085839920,"connected_time":392000000000,"state":"active","ping":91},{"user_id":445,"name":"thundah!","steam_id":76561199159928133,"connected_time":191000000000,"state":"active","ping":69},{"user_id":431,"name":"Enemy Infant Tree","steam_id":76561198027175418,"connected_time":1248000000000,"state":"active","ping":84},{"user_id":413,"name":"beef taquito","steam_id":76561198074722858,"connected_time":2651000000000,"state":"active","ping":75},{"user_id":443,"name":"Hermit not Kermit","steam_id":76561198106182525,"connected_time":361000000000,"state":"active","ping":105},{"user_id":448,"name":"WitheringLeo","steam_id":76561198046722918,"connected_time":154000000000,"state":"active","ping":73},{"user_id":437,"name":"Inevitable","steam_id":76561198210050169,"connected_time":1134000000000,"state":"active","ping":67},{"user_id":446,"name":"Battery","steam_id":76561199053078059,"connected_time":191000000000,"state":"active","ping":82},{"user_id":415,"name":"ReynoldsWrap","steam_id":76561198319920033,"connected_time":2621000000000,"state":"active","ping":70},{"user_id":447,"name":"Saristan","steam_id":76561198093346048,"connected_time":163000000000,"state":"active","ping":77},{"user_id":419,"name":"SkoranShogun","steam_id":76561198091811218,"connected_time":2478000000000,"state":"active","ping":84},{"user_id":398,"name":"Ethanol","steam_id":76561198240256894,"connected_time":3373000000000,"state":"active","ping":58},{"user_id":444,"name":"brian eno","steam_id":76561198109901138,"connected_time":268000000000,"state":"active","ping":75},{"user_id":421,"name":"+","steam_id":76561198262422184,"connected_time":2384000000000,"state":"active","ping":73},{"user_id":449,"name":"Planetary","steam_id":76561197989686934,"connected_time":119000000000,"state":"active","ping":66},{"user_id":422,"name":"Lord Scrubling","steam_id":76561198263744445,"connected_time":2375000000000,"state":"active","ping":75}]},{"server_id":36,"name":"Uncletopia | Chicago | 5 | All Maps","name_short":"chi-5","host":"chi-2.us.uncletopia.com","port":27015,"enabled":true,"region":"us-central","cc":"us","latitude":41.881832,"longitude":-87.62318,"reserved":0,"last_update":"0001-01-01T00:00:00Z","name_a2s":"Uncletopia | Chicago | 5 | All Maps","protocol":17,"map":"pl_thundermountain","folder":"tf","game":"Team Fortress","app_id":440,"player_count":23,"max_players":24,"Bots":0,"server_type":"Dedicated","server_os":"Linux","password":true,"vac":true,"version":"7742253","steam_id":85568392924866362,"keywords":["nocrits","nodmgspread","payload","uncletopia"],"game_id":440,"stv_port":27016,"stv_name":"Uncletopia | Chicago | 5 | All Maps | STV","players":[{"user_id":868,"name":"Woakes","steam_id":76561198139122301,"connected_time":0,"state":"spawning","ping":26},{"user_id":676,"name":"dicksnip","steam_id":76561198356515396,"connected_time":14412000000000,"state":"active","ping":82},{"user_id":863,"name":"Michael Jordan","steam_id":76561198306393090,"connected_time":55000000000,"state":"active","ping":47},{"user_id":819,"name":"Menlymen","steam_id":76561198046508051,"connected_time":3698000000000,"state":"active","ping":73},{"user_id":864,"name":"Crim","steam_id":76561198044072455,"connected_time":46000000000,"state":"active","ping":54},{"user_id":856,"name":"W Rizz","steam_id":76561198231697304,"connected_time":460000000000,"state":"active","ping":109},{"user_id":858,"name":"duster cat","steam_id":76561198832231975,"connected_time":279000000000,"state":"active","ping":154},{"user_id":851,"name":"Smeller","steam_id":76561198041767882,"connected_time":720000000000,"state":"active","ping":53},{"user_id":835,"name":"d0wn2e4rth","steam_id":76561198019323937,"connected_time":2408000000000,"state":"active","ping":74},{"user_id":850,"name":"[S]Mr. X [No Monitor]","steam_id":76561197963746035,"connected_time":799000000000,"state":"active","ping":113},{"user_id":859,"name":"wb98","steam_id":76561198048979801,"connected_time":209000000000,"state":"active","ping":50},{"user_id":838,"name":"J3SUS","steam_id":76561198368965383,"connected_time":2301000000000,"state":"active","ping":60},{"user_id":821,"name":"Warden Wiggleybits","steam_id":76561198062763756,"connected_time":3653000000000,"state":"active","ping":57},{"user_id":845,"name":"lemon","steam_id":76561198085571748,"connected_time":1133000000000,"state":"active","ping":56},{"user_id":829,"name":"Bob the Minion","steam_id":76561197972389354,"connected_time":2946000000000,"state":"active","ping":103},{"user_id":814,"name":"larguu","steam_id":76561197994336210,"connected_time":4901000000000,"state":"active","ping":55},{"user_id":860,"name":"Diplodocus","steam_id":76561198023323121,"connected_time":180000000000,"state":"active","ping":109},{"user_id":809,"name":"aqua","steam_id":76561199407709552,"connected_time":5859000000000,"state":"active","ping":48},{"user_id":861,"name":"AB24","steam_id":76561199080017254,"connected_time":163000000000,"state":"active","ping":79},{"user_id":862,"name":"Aristotle Voulton","steam_id":76561198100174923,"connected_time":156000000000,"state":"active","ping":49},{"user_id":836,"name":"cactus god","steam_id":76561198292463064,"connected_time":2406000000000,"state":"active","ping":99},{"user_id":800,"name":"The Minister of Party City","steam_id":76561199219790713,"connected_time":7101000000000,"state":"active","ping":58},{"user_id":799,"name":"Baka!⑨⑨⑨⑨","steam_id":76561198152948254,"connected_time":7202000000000,"state":"active","ping":62}]},{"server_id":37,"name":"Uncletopia | Chicago | 6 | All Maps","name_short":"chi-6","host":"chi-2.us.uncletopia.com","port":27025,"enabled":true,"region":"us-central","cc":"us","latitude":41.881832,"longitude":-87.62318,"reserved":0,"last_update":"0001-01-01T00:00:00Z","name_a2s":"Uncletopia | Chicago | 6 | All Maps","protocol":17,"map":"koth_lakeside_final","folder":"tf","game":"Team Fortress","app_id":440,"player_count":10,"max_players":24,"Bots":0,"server_type":"Dedicated","server_os":"Linux","password":true,"vac":true,"version":"7742253","steam_id":85568392924866363,"keywords":["cp","nocrits","nodmgspread","uncletopia"],"game_id":440,"stv_port":27026,"stv_name":"Uncletopia | Chicago | 6 | All Maps | STV","players":[{"user_id":533,"name":"nickleodeonfan449","steam_id":76561198073967747,"connected_time":405000000000,"state":"active","ping":118},{"user_id":537,"name":"Purple","steam_id":76561198412639010,"connected_time":30000000000,"state":"active","ping":98},{"user_id":526,"name":"zanealcannon","steam_id":76561198409950668,"connected_time":2030000000000,"state":"active","ping":61},{"user_id":507,"name":"ZachChase","steam_id":76561198086057112,"connected_time":5344000000000,"state":"active","ping":115},{"user_id":535,"name":"TwoScore","steam_id":76561198024412148,"connected_time":181000000000,"state":"active","ping":90},{"user_id":509,"name":"Karcist","steam_id":76561197970744075,"connected_time":5315000000000,"state":"active","ping":77},{"user_id":528,"name":"Mastergimmick","steam_id":76561198995180884,"connected_time":758000000000,"state":"active","ping":52},{"user_id":529,"name":"Clownfucker","steam_id":76561198091713728,"connected_time":490000000000,"state":"active","ping":107},{"user_id":530,"name":"KoRPSE PAINT mannco.store","steam_id":76561198826921835,"connected_time":444000000000,"state":"active","ping":64},{"user_id":536,"name":"themadlad67","steam_id":76561199309554436,"connected_time":178000000000,"state":"active","ping":98}]},{"server_id":38,"name":"Uncletopia | Chicago | 7 | Stopwatch Beta","name_short":"chi-7","host":"chi-2.us.uncletopia.com","port":27035,"enabled":true,"region":"us-central","cc":"us","latitude":41.881832,"longitude":-87.62318,"reserved":0,"last_update":"0001-01-01T00:00:00Z","name_a2s":"Uncletopia | Chicago | 7 | Stopwatch Beta","protocol":17,"map":"workshop/pl_barnblitz_pro7.ugc582280235","folder":"tf","game":"Team Fortress","app_id":440,"player_count":0,"max_players":24,"Bots":0,"server_type":"Dedicated","server_os":"Linux","password":true,"vac":true,"version":"7742253","steam_id":85568392924866364,"keywords":["nocrits","nodmgspread","payload","uncletopia"],"game_id":440,"stv_port":27036,"stv_name":"Uncletopia | Chicago | 7 | Stopwatch Beta | STV","players":null},{"server_id":39,"name":"Uncletopia | Chicago | 8 | Community","name_short":"chi-8","host":"chi-2.us.uncletopia.com","port":27045,"enabled":true,"region":"us-central","cc":"us","latitude":41.881832,"longitude":-87.62318,"reserved":0,"last_update":"0001-01-01T00:00:00Z","name_a2s":"Uncletopia | Chicago | 8 | Community","protocol":17,"map":"workshop/cp_reckoner_rc6.ugc674719999","folder":"tf","game":"Team Fortress","app_id":440,"player_count":0,"max_players":24,"Bots":0,"server_type":"Dedicated","server_os":"Linux","password":true,"vac":true,"version":"7742253","steam_id":85568392924866365,"keywords":["cp","nocrits","nodmgspread","uncletopia"],"game_id":440,"stv_port":27046,"stv_name":"Uncletopia | Chicago | 8 | Community | STV","players":null},{"server_id":8,"name":"Uncletopia | Dallas | 1 | All Maps","name_short":"dal-1","host":"dal-1.us.uncletopia.com","port":27015,"enabled":true,"region":"us-central","cc":"us","latitude":32.779167,"longitude":-96.80889,"reserved":0,"last_update":"0001-01-01T00:00:00Z","name_a2s":"Uncletopia | Dallas | 1 | All Maps","protocol":17,"map":"cp_altitude","folder":"tf","game":"Team Fortress","app_id":440,"player_count":23,"max_players":24,"Bots":0,"server_type":"Dedicated","server_os":"Linux","password":true,"vac":true,"version":"7742253","steam_id":85568392924469986,"keywords":["cp","nocrits","nodmgspread","uncletopia"],"game_id":440,"stv_port":27016,"stv_name":"Uncletopia | Dallas | 1 | All Maps | STV","players":[{"user_id":797,"name":"SpyShark","steam_id":76561198064973839,"connected_time":718000000000,"state":"active","ping":49},{"user_id":798,"name":"Jolly Sammich","steam_id":76561198010543087,"connected_time":689000000000,"state":"active","ping":75},{"user_id":800,"name":"Hunt_er#SaveTf2","steam_id":76561198325350546,"connected_time":405000000000,"state":"active","ping":88},{"user_id":792,"name":"Maranata","steam_id":76561198830158092,"connected_time":1886000000000,"state":"active","ping":79},{"user_id":778,"name":"dan","steam_id":76561197984998426,"connected_time":2352000000000,"state":"active","ping":93},{"user_id":779,"name":"RokkitFrog","steam_id":76561198046465850,"connected_time":2319000000000,"state":"active","ping":52},{"user_id":801,"name":"elyk37","steam_id":76561198124135253,"connected_time":368000000000,"state":"active","ping":76},{"user_id":796,"name":"snoiper","steam_id":76561198089355751,"connected_time":758000000000,"state":"active","ping":66},{"user_id":793,"name":"rampu","steam_id":76561198355756412,"connected_time":1857000000000,"state":"active","ping":78},{"user_id":738,"name":"Nugakku","steam_id":76561198082346219,"connected_time":6201000000000,"state":"active","ping":82},{"user_id":807,"name":"Haku Hebi","steam_id":76561198160523973,"connected_time":45000000000,"state":"spawning","ping":58},{"user_id":803,"name":"sarcastic_monke","steam_id":76561198918244788,"connected_time":327000000000,"state":"active","ping":75},{"user_id":758,"name":"Etomb","steam_id":76561198210017208,"connected_time":3977000000000,"state":"active","ping":98},{"user_id":804,"name":"Jambi","steam_id":76561198846091685,"connected_time":221000000000,"state":"active","ping":44},{"user_id":782,"name":"war criminal","steam_id":76561198106441652,"connected_time":2278000000000,"state":"active","ping":59},{"user_id":805,"name":"Some guy who likes white","steam_id":76561199056024896,"connected_time":197000000000,"state":"active","ping":96},{"user_id":806,"name":"silentpieceofbacon","steam_id":76561198869323351,"connected_time":165000000000,"state":"active","ping":90},{"user_id":783,"name":"Logan601 #savetf2","steam_id":76561198263116731,"connected_time":2273000000000,"state":"active","ping":89},{"user_id":788,"name":"master_minion","steam_id":76561198170693990,"connected_time":2165000000000,"state":"active","ping":77},{"user_id":790,"name":"EGGOG","steam_id":76561198061430457,"connected_time":2120000000000,"state":"active","ping":53},{"user_id":766,"name":"dog","steam_id":76561198263873491,"connected_time":3730000000000,"state":"active","ping":66},{"user_id":794,"name":"ColonelKermit","steam_id":76561198318215660,"connected_time":1299000000000,"state":"active","ping":75},{"user_id":769,"name":"The Krinkler","steam_id":76561198020308956,"connected_time":3642000000000,"state":"active","ping":95}]},{"server_id":108,"name":"Uncletopia | Dallas | 2 | All Maps","name_short":"dal-2","host":"dal-1.us.uncletopia.com","port":27025,"enabled":true,"region":"us-central","cc":"us","latitude":32.779167,"longitude":-96.80889,"reserved":0,"last_update":"0001-01-01T00:00:00Z","name_a2s":"Uncletopia | Dallas | 2 | All Maps","protocol":17,"map":"pl_frontier_final","folder":"tf","game":"Team Fortress","app_id":440,"player_count":24,"max_players":24,"Bots":0,"server_type":"Dedicated","server_os":"Linux","password":true,"vac":true,"version":"7742253","steam_id":85568392924469988,"keywords":["nocrits","nodmgspread","payload","uncletopia"],"game_id":440,"stv_port":27026,"stv_name":"Uncletopia | Dallas | 2 | All Maps | STV","players":[{"user_id":272,"name":"radicalPolio","steam_id":76561197961561855,"connected_time":5186000000000,"state":"active","ping":44},{"user_id":279,"name":"survivalist bubbie","steam_id":76561198860460013,"connected_time":4619000000000,"state":"active","ping":83},{"user_id":323,"name":"Z_Saber","steam_id":76561198333418239,"connected_time":1161000000000,"state":"active","ping":130},{"user_id":296,"name":"Mr.maxpax","steam_id":76561198209845743,"connected_time":3559000000000,"state":"active","ping":74},{"user_id":324,"name":"❤Dumpster Cat❤","steam_id":76561199200969139,"connected_time":1138000000000,"state":"active","ping":116},{"user_id":319,"name":"CapnCoolaid","steam_id":76561199120332919,"connected_time":1310000000000,"state":"active","ping":64},{"user_id":325,"name":"pvanhavel","steam_id":76561199020570078,"connected_time":1098000000000,"state":"active","ping":149},{"user_id":320,"name":"FG7","steam_id":76561198381197197,"connected_time":1305000000000,"state":"active","ping":104},{"user_id":284,"name":"PanCAKEEE","steam_id":76561198237489544,"connected_time":4538000000000,"state":"active","ping":104},{"user_id":334,"name":"Red","steam_id":76561198031865869,"connected_time":751000000000,"state":"active","ping":65},{"user_id":340,"name":"turnip","steam_id":76561197999375941,"connected_time":218000000000,"state":"active","ping":48},{"user_id":322,"name":"LASAD","steam_id":76561198035410427,"connected_time":1231000000000,"state":"active","ping":85},{"user_id":326,"name":"cup","steam_id":76561198121245586,"connected_time":1048000000000,"state":"active","ping":85},{"user_id":336,"name":"Nirvana","steam_id":76561198293556549,"connected_time":642000000000,"state":"active","ping":99},{"user_id":228,"name":"Matches_                       ","steam_id":76561198048925904,"connected_time":8352000000000,"state":"active","ping":90},{"user_id":337,"name":"stanley","steam_id":76561199443466445,"connected_time":544000000000,"state":"active","ping":113},{"user_id":288,"name":"Zopfir","steam_id":76561199072831538,"connected_time":4497000000000,"state":"active","ping":78},{"user_id":338,"name":"Yiff Police","steam_id":76561198103938356,"connected_time":530000000000,"state":"active","ping":65},{"user_id":331,"name":"MontellWilliams","steam_id":76561198172143015,"connected_time":887000000000,"state":"active","ping":88},{"user_id":305,"name":"survivalist keeda","steam_id":76561198277979851,"connected_time":3085000000000,"state":"active","ping":91},{"user_id":315,"name":"peepeeroni","steam_id":76561198382877812,"connected_time":2038000000000,"state":"active","ping":48},{"user_id":312,"name":"trobort","steam_id":76561198027150357,"connected_time":2301000000000,"state":"active","ping":59},{"user_id":332,"name":"google pussy","steam_id":76561198056392584,"connected_time":886000000000,"state":"active","ping":74},{"user_id":333,"name":"Papi Pescado","steam_id":76561198039500575,"connected_time":871000000000,"state":"active","ping":47}]},{"server_id":5,"name":"Uncletopia | Frankfurt | 1 | All Maps","name_short":"frk-1","host":"frk-1.de.uncletopia.com","port":27015,"enabled":true,"region":"eu","cc":"de","latitude":50.110924,"longitude":8.682127,"reserved":0,"last_update":"0001-01-01T00:00:00Z","name_a2s":"Uncletopia | Frankfurt | 1 | All Maps","protocol":17,"map":"cp_dustbowl","folder":"tf","game":"Team Fortress","app_id":440,"player_count":0,"max_players":24,"Bots":0,"server_type":"Dedicated","server_os":"Linux","password":true,"vac":true,"version":"7742253","steam_id":85568392924469989,"keywords":["cp","nocrits","nodmgspread","uncletopia"],"game_id":440,"stv_port":27016,"stv_name":"Uncletopia | Frankfurt | 1 | All Maps | STV","players":null},{"server_id":110,"name":"Uncletopia | Frankfurt | 2 | All Maps","name_short":"frk-2","host":"frk-1.de.uncletopia.com","port":27025,"enabled":true,"region":"eu","cc":"de","latitude":50.110924,"longitude":8.682127,"reserved":0,"last_update":"0001-01-01T00:00:00Z","name_a2s":"Uncletopia | Frankfurt | 2 | All Maps","protocol":17,"map":"koth_viaduct","folder":"tf","game":"Team Fortress","app_id":440,"player_count":0,"max_players":24,"Bots":0,"server_type":"Dedicated","server_os":"Linux","password":true,"vac":true,"version":"7742253","steam_id":85568392924469990,"keywords":["cp","nocrits","nodmgspread","uncletopia"],"game_id":440,"stv_port":27026,"stv_name":"Uncletopia | Frankfurt | 2 | All Maps | STV","players":null},{"server_id":308,"name":"Uncletopia | Frankfurt | 3 | All Maps","name_short":"frk-3","host":"frk-1.de.uncletopia.com","port":27035,"enabled":true,"region":"eu","cc":"de","latitude":50.110924,"longitude":8.682127,"reserved":0,"last_update":"0001-01-01T00:00:00Z","name_a2s":"Uncletopia | Frankfurt | 3 | All Maps","protocol":17,"map":"koth_cascade","folder":"tf","game":"Team Fortress","app_id":440,"player_count":0,"max_players":24,"Bots":0,"server_type":"Dedicated","server_os":"Linux","password":true,"vac":true,"version":"7742253","steam_id":85568392924504274,"keywords":["cp","nocrits","nodmgspread","uncletopia"],"game_id":440,"stv_port":27036,"stv_name":"Uncletopia | Frankfurt | 3 | All Maps | STV","players":null},{"server_id":309,"name":"Uncletopia | Frankfurt | 4 | All Maps","name_short":"frk-4","host":"frk-1.de.uncletopia.com","port":27045,"enabled":true,"region":"eu","cc":"de","latitude":50.110924,"longitude":8.682127,"reserved":0,"last_update":"0001-01-01T00:00:00Z","name_a2s":"Uncletopia | Frankfurt | 4 | All Maps","protocol":17,"map":"cp_snakewater_final1","folder":"tf","game":"Team Fortress","app_id":440,"player_count":0,"max_players":24,"Bots":0,"server_type":"Dedicated","server_os":"Linux","password":true,"vac":true,"version":"7742253","steam_id":85568392924504275,"keywords":["cp","nocrits","nodmgspread","uncletopia"],"game_id":440,"stv_port":27046,"stv_name":"Uncletopia | Frankfurt | 4 | All Maps | STV","players":null},{"server_id":310,"name":"Uncletopia | Frankfurt | 5 | All Maps","name_short":"frk-5","host":"frk-1.de.uncletopia.com","port":27055,"enabled":true,"region":"eu","cc":"de","latitude":50.110924,"longitude":8.682127,"reserved":0,"last_update":"0001-01-01T00:00:00Z","name_a2s":"Uncletopia | Frankfurt | 5 | All Maps","protocol":17,"map":"pl_borneo","folder":"tf","game":"Team Fortress","app_id":440,"player_count":0,"max_players":24,"Bots":0,"server_type":"Dedicated","server_os":"Linux","password":true,"vac":true,"version":"7742253","steam_id":85568392924504277,"keywords":["nocrits","nodmgspread","payload","uncletopia"],"game_id":440,"stv_port":27056,"stv_name":"Uncletopia | Frankfurt | 5 | All Maps | STV","players":null},{"server_id":311,"name":"Uncletopia | Frankfurt | 6 | All Maps","name_short":"frk-6","host":"frk-1.de.uncletopia.com","port":27065,"enabled":true,"region":"eu","cc":"de","latitude":50.110924,"longitude":8.682127,"reserved":0,"last_update":"0001-01-01T00:00:00Z","name_a2s":"Uncletopia | Frankfurt | 6 | All Maps","protocol":17,"map":"koth_viaduct","folder":"tf","game":"Team Fortress","app_id":440,"player_count":0,"max_players":24,"Bots":0,"server_type":"Dedicated","server_os":"Linux","password":true,"vac":true,"version":"7742253","steam_id":85568392924504278,"keywords":["cp","nocrits","nodmgspread","uncletopia"],"game_id":440,"stv_port":27066,"stv_name":"Uncletopia | Frankfurt | 6 | All Maps | STV","players":null},{"server_id":23,"name":"Uncletopia | Frankfurt | 7 | Stopwatch Beta","name_short":"frk-7","host":"frk-1.de.uncletopia.com","port":27075,"enabled":true,"region":"eu","cc":"de","latitude":50.110924,"longitude":8.682127,"reserved":0,"last_update":"0001-01-01T00:00:00Z","name_a2s":"Uncletopia | Frankfurt | 7 | Stopwatch Beta","protocol":17,"map":"pl_upward","folder":"tf","game":"Team Fortress","app_id":440,"player_count":0,"max_players":24,"Bots":0,"server_type":"Dedicated","server_os":"Linux","password":true,"vac":true,"version":"7742253","steam_id":85568392924742827,"keywords":["nocrits","nodmgspread","payload","uncletopia"],"game_id":440,"stv_port":27076,"stv_name":"Uncletopia | Frankfurt | 7 | Stopwatch Beta | STV","players":null},{"server_id":24,"name":"Uncletopia | Frankfurt | 8 | Community","name_short":"frk-8","host":"frk-1.de.uncletopia.com","port":27085,"enabled":true,"region":"eu","cc":"de","latitude":50.110924,"longitude":8.682127,"reserved":0,"last_update":"0001-01-01T00:00:00Z","name_a2s":"Uncletopia | Frankfurt | 8 | Community","protocol":17,"map":"workshop/pl_eruption_b9a.ugc2807898013","folder":"tf","game":"Team Fortress","app_id":440,"player_count":0,"max_players":24,"Bots":0,"server_type":"Dedicated","server_os":"Linux","password":true,"vac":true,"version":"7742253","steam_id":85568392924742828,"keywords":["nocrits","nodmgspread","payload","uncletopia"],"game_id":440,"stv_port":27086,"stv_name":"Uncletopia | Frankfurt | 8 | Community | STV","players":null},{"server_id":202,"name":"Uncletopia | Hong Kong | 1 | All Maps","name_short":"hgk-1","host":"hgk-1.hk.uncletopia.com","port":27015,"enabled":true,"region":"asia","cc":"hk","latitude":22.302711,"longitude":114.177216,"reserved":0,"last_update":"0001-01-01T00:00:00Z","name_a2s":"Uncletopia | Hong Kong | 1 | All Maps","protocol":17,"map":"pl_badwater","folder":"tf","game":"Team Fortress","app_id":440,"player_count":24,"max_players":24,"Bots":0,"server_type":"Dedicated","server_os":"Linux","password":true,"vac":true,"version":"7742253","steam_id":85568392924494504,"keywords":["nocrits","nodmgspread","payload","uncletopia"],"game_id":440,"stv_port":27016,"stv_name":"Uncletopia | Hong Kong | 1 | All Maps | STV","players":[{"user_id":303,"name":"Wx","steam_id":76561199217780897,"connected_time":2952000000000,"state":"active","ping":67},{"user_id":355,"name":"BAKABAZOOKA","steam_id":76561198061628689,"connected_time":2168000000000,"state":"active","ping":52},{"user_id":447,"name":"whoooooooooooops","steam_id":76561199144084820,"connected_time":272000000000,"state":"active","ping":86},{"user_id":269,"name":"UZ","steam_id":76561198179320563,"connected_time":3730000000000,"state":"active","ping":68},{"user_id":428,"name":"qb","steam_id":76561198412329672,"connected_time":505000000000,"state":"active","ping":89},{"user_id":448,"name":"Sam-alamalam","steam_id":76561198963220676,"connected_time":138000000000,"state":"active","ping":77},{"user_id":170,"name":"33GA itsmejc_97 (f2p)","steam_id":76561199217594855,"connected_time":5712000000000,"state":"active","ping":86},{"user_id":401,"name":"r","steam_id":76561198811024417,"connected_time":780000000000,"state":"active","ping":67},{"user_id":164,"name":"neth","steam_id":76561198217995369,"connected_time":6240000000000,"state":"active","ping":72},{"user_id":18,"name":"lillalune","steam_id":76561198230213828,"connected_time":10725000000000,"state":"active","ping":72},{"user_id":364,"name":"cherenn","steam_id":76561198320532821,"connected_time":1851000000000,"state":"active","ping":54},{"user_id":366,"name":"UrineStain","steam_id":76561198446908482,"connected_time":1788000000000,"state":"active","ping":79},{"user_id":358,"name":"Milk❤ (currently banned in ut","steam_id":76561198163911560,"connected_time":2124000000000,"state":"active","ping":85},{"user_id":169,"name":"Windmill","steam_id":76561199230997986,"connected_time":6034000000000,"state":"active","ping":74},{"user_id":254,"name":"gob lin","steam_id":76561198379597982,"connected_time":4009000000000,"state":"active","ping":65},{"user_id":179,"name":"CharTyr","steam_id":76561198420578597,"connected_time":5168000000000,"state":"active","ping":62},{"user_id":175,"name":"I am BOX","steam_id":76561198845309411,"connected_time":5441000000000,"state":"active","ping":97},{"user_id":375,"name":"Juju Shortbow","steam_id":76561198349807521,"connected_time":1341000000000,"state":"active","ping":96},{"user_id":450,"name":"JayJ","steam_id":76561198324008555,"connected_time":95000000000,"state":"active","ping":59},{"user_id":362,"name":"Giouri","steam_id":76561199152247162,"connected_time":1910000000000,"state":"active","ping":80},{"user_id":287,"name":"p1st0n","steam_id":76561198992723983,"connected_time":3166000000000,"state":"active","ping":96},{"user_id":183,"name":"Bertengkar","steam_id":76561198213031155,"connected_time":5057000000000,"state":"active","ping":101},{"user_id":415,"name":"BOK","steam_id":76561198095872644,"connected_time":633000000000,"state":"active","ping":82},{"user_id":229,"name":"iLikeMudrock ᗜ‸ᗜ","steam_id":76561199352285088,"connected_time":4328000000000,"state":"active","ping":81}]},{"server_id":1,"name":"Uncletopia | Los Angeles | 1 | All Maps","name_short":"lax-1","host":"lax-1.us.uncletopia.com","port":27015,"enabled":true,"region":"us-west","cc":"us","latitude":33.94279,"longitude":-118.41004,"reserved":0,"last_update":"0001-01-01T00:00:00Z","name_a2s":"Uncletopia | Los Angeles | 1 | All Maps","protocol":17,"map":"koth_lakeside_final","folder":"tf","game":"Team Fortress","app_id":440,"player_count":0,"max_players":24,"Bots":0,"server_type":"Dedicated","server_os":"Linux","password":true,"vac":true,"version":"7742253","steam_id":85568392924469991,"keywords":["cp","nocrits","nodmgspread","uncletopia"],"game_id":440,"stv_port":27016,"stv_name":"Uncletopia | Los Angeles | 1 | All Maps | STV","players":null},{"server_id":112,"name":"Uncletopia | Los Angeles | 2 | All Maps","name_short":"lax-2","host":"lax-1.us.uncletopia.com","port":27025,"enabled":true,"region":"us-west","cc":"us","latitude":33.94279,"longitude":-118.41004,"reserved":0,"last_update":"0001-01-01T00:00:00Z","name_a2s":"Uncletopia | Los Angeles | 2 | All Maps","protocol":17,"map":"pl_snowycoast","folder":"tf","game":"Team Fortress","app_id":440,"player_count":0,"max_players":24,"Bots":0,"server_type":"Dedicated","server_os":"Linux","password":true,"vac":true,"version":"7742253","steam_id":85568392924469992,"keywords":["nocrits","nodmgspread","payload","uncletopia"],"game_id":440,"stv_port":27026,"stv_name":"Uncletopia | Los Angeles | 2 | All Maps | STV","players":null},{"server_id":324,"name":"Uncletopia | Los Angeles | 3 | All Maps","name_short":"lax-3","host":"lax-1.us.uncletopia.com","port":27035,"enabled":true,"region":"us-west","cc":"us","latitude":33.94279,"longitude":-118.41004,"reserved":0,"last_update":"0001-01-01T00:00:00Z","name_a2s":"Uncletopia | Los Angeles | 3 | All Maps","protocol":17,"map":"koth_lakeside_final","folder":"tf","game":"Team Fortress","app_id":440,"player_count":0,"max_players":24,"Bots":0,"server_type":"Dedicated","server_os":"Linux","password":true,"vac":true,"version":"7742253","steam_id":85568392924510198,"keywords":["cp","nocrits","nodmgspread","uncletopia"],"game_id":440,"stv_port":27036,"stv_name":"Uncletopia | Los Angeles | 3 | All Maps | STV","players":null},{"server_id":25,"name":"Uncletopia | Los Angeles | 4 | Stopwatch Beta","name_short":"lax-4","host":"lax-1.us.uncletopia.com","port":27045,"enabled":true,"region":"us-west","cc":"us","latitude":33.94279,"longitude":-118.41004,"reserved":0,"last_update":"0001-01-01T00:00:00Z","name_a2s":"Uncletopia | Los Angeles | 4 | Stopwatch Beta","protocol":17,"map":"koth_lakeside_final","folder":"tf","game":"Team Fortress","app_id":440,"player_count":0,"max_players":24,"Bots":0,"server_type":"Dedicated","server_os":"Linux","password":true,"vac":true,"version":"7742253","steam_id":85568392924510199,"keywords":["cp","nocrits","nodmgspread","uncletopia"],"game_id":440,"stv_port":27046,"stv_name":"Uncletopia | Los Angeles | 4 | Stopwatch Beta | STV","players":null},{"server_id":11,"name":"Uncletopia | London | 1 | All Maps","name_short":"lon-1","host":"lon-1.uk.uncletopia.com","port":27015,"enabled":true,"region":"eu","cc":"gb","latitude":51.509865,"longitude":-0.118092,"reserved":0,"last_update":"0001-01-01T00:00:00Z","name_a2s":"Uncletopia | London | 1 | All Maps","protocol":17,"map":"plr_hightower","folder":"tf","game":"Team Fortress","app_id":440,"player_count":6,"max_players":24,"Bots":0,"server_type":"Dedicated","server_os":"Linux","password":true,"vac":true,"version":"7742253","steam_id":85568392924367362,"keywords":["nocrits","nodmgspread","payload","uncletopia"],"game_id":440,"stv_port":27016,"stv_name":"Uncletopia | London | 1 | All Maps | STV","players":[{"user_id":1071,"name":"Reefer Man","steam_id":76561198148190507,"connected_time":428000000000,"state":"active","ping":62},{"user_id":1059,"name":"thomas :-)","steam_id":76561198355097756,"connected_time":2203000000000,"state":"active","ping":71},{"user_id":1069,"name":"Ender","steam_id":76561198845055020,"connected_time":695000000000,"state":"active","ping":81},{"user_id":1007,"name":"K.V. #RemoveRandomCrits","steam_id":76561197994832993,"connected_time":6255000000000,"state":"active","ping":76},{"user_id":1063,"name":"Vizziuu","steam_id":76561198134866798,"connected_time":1793000000000,"state":"active","ping":69},{"user_id":948,"name":"R A S M U S","steam_id":76561198279799226,"connected_time":12481000000000,"state":"active","ping":52}]},{"server_id":114,"name":"Uncletopia | London | 2 | All Maps","name_short":"lon-2","host":"lon-1.uk.uncletopia.com","port":27025,"enabled":true,"region":"eu","cc":"gb","latitude":51.509865,"longitude":-0.118092,"reserved":0,"last_update":"0001-01-01T00:00:00Z","name_a2s":"Uncletopia | London | 2 | All Maps","protocol":17,"map":"koth_lakeside_final","folder":"tf","game":"Team Fortress","app_id":440,"player_count":0,"max_players":24,"Bots":0,"server_type":"Dedicated","server_os":"Linux","password":true,"vac":true,"version":"7742253","steam_id":85568392924470941,"keywords":["cp","nocrits","nodmgspread","uncletopia"],"game_id":440,"stv_port":27026,"stv_name":"Uncletopia | London | 2 | All Maps | STV","players":null},{"server_id":320,"name":"Uncletopia | London | 3 | All Maps","name_short":"lon-3","host":"lon-1.uk.uncletopia.com","port":27035,"enabled":true,"region":"eu","cc":"gb","latitude":51.509865,"longitude":-0.118092,"reserved":0,"last_update":"0001-01-01T00:00:00Z","name_a2s":"Uncletopia | London | 3 | All Maps","protocol":17,"map":"pl_barnblitz","folder":"tf","game":"Team Fortress","app_id":440,"player_count":0,"max_players":24,"Bots":0,"server_type":"Dedicated","server_os":"Linux","password":true,"vac":true,"version":"7742253","steam_id":85568392924510192,"keywords":["nocrits","nodmgspread","payload","uncletopia"],"game_id":440,"stv_port":27036,"stv_name":"Uncletopia | London | 3 | All Maps | STV","players":null},{"server_id":321,"name":"Uncletopia | London | 4 | All Maps","name_short":"lon-4","host":"lon-1.uk.uncletopia.com","port":27045,"enabled":true,"region":"eu","cc":"gb","latitude":51.509865,"longitude":-0.118092,"reserved":0,"last_update":"0001-01-01T00:00:00Z","name_a2s":"Uncletopia | London | 4 | All Maps","protocol":17,"map":"pl_swiftwater_final1","folder":"tf","game":"Team Fortress","app_id":440,"player_count":0,"max_players":24,"Bots":0,"server_type":"Dedicated","server_os":"Linux","password":true,"vac":true,"version":"7742253","steam_id":85568392924510193,"keywords":["nocrits","nodmgspread","payload","uncletopia"],"game_id":440,"stv_port":27046,"stv_name":"Uncletopia | London | 4 | All Maps | STV","players":null},{"server_id":21,"name":"Uncletopia | London | 5 | All Maps","name_short":"lon-5","host":"lon-1.uk.uncletopia.com","port":27055,"enabled":true,"region":"eu","cc":"gb","latitude":51.509865,"longitude":-0.118092,"reserved":0,"last_update":"0001-01-01T00:00:00Z","name_a2s":"Uncletopia | London | 5 | All Maps","protocol":17,"map":"cp_snakewater_final1","folder":"tf","game":"Team Fortress","app_id":440,"player_count":0,"max_players":24,"Bots":0,"server_type":"Dedicated","server_os":"Linux","password":true,"vac":true,"version":"7742253","steam_id":85568392924742829,"keywords":["cp","nocrits","nodmgspread","uncletopia"],"game_id":440,"stv_port":27056,"stv_name":"Uncletopia | London | 5 | All Maps | STV","players":null},{"server_id":22,"name":"Uncletopia | London | 6 | All Maps","name_short":"lon-6","host":"lon-1.uk.uncletopia.com","port":27065,"enabled":true,"region":"eu","cc":"gb","latitude":51.509865,"longitude":-0.118092,"reserved":0,"last_update":"0001-01-01T00:00:00Z","name_a2s":"Uncletopia | London | 6 | All Maps","protocol":17,"map":"pl_frontier_final","folder":"tf","game":"Team Fortress","app_id":440,"player_count":0,"max_players":24,"Bots":0,"server_type":"Dedicated","server_os":"Linux","password":true,"vac":true,"version":"7742253","steam_id":85568392924742830,"keywords":["nocrits","nodmgspread","payload","uncletopia"],"game_id":440,"stv_port":27066,"stv_name":"Uncletopia | London | 6 | All Maps | STV","players":null},{"server_id":40,"name":"Uncletopia | London | 7 | No Payload","name_short":"lon-7","host":"lon-1.uk.uncletopia.com","port":27075,"enabled":true,"region":"eu","cc":"gb","latitude":51.509865,"longitude":-0.118092,"reserved":0,"last_update":"0001-01-01T00:00:00Z","name_a2s":"Uncletopia | London | 7 | No Payload","protocol":17,"map":"plr_bananabay","folder":"tf","game":"Team Fortress","app_id":440,"player_count":0,"max_players":24,"Bots":0,"server_type":"Dedicated","server_os":"Linux","password":true,"vac":true,"version":"7742253","steam_id":85568392924964314,"keywords":["nocrits","nodmgspread","payload","uncletopia"],"game_id":440,"stv_port":27076,"stv_name":"Uncletopia | London | 7 | No Payload | STV","players":null},{"server_id":41,"name":"Uncletopia | London | 8 | Community","name_short":"lon-8","host":"lon-1.uk.uncletopia.com","port":27085,"enabled":true,"region":"eu","cc":"gb","latitude":51.509865,"longitude":-0.118092,"reserved":0,"last_update":"0001-01-01T00:00:00Z","name_a2s":"Uncletopia | London | 8 | Community","protocol":17,"map":"workshop/koth_ashville_final.ugc2130459942","folder":"tf","game":"Team Fortress","app_id":440,"player_count":0,"max_players":24,"Bots":0,"server_type":"Dedicated","server_os":"Linux","password":true,"vac":true,"version":"7742253","steam_id":85568392924964315,"keywords":["cp","nocrits","nodmgspread","uncletopia"],"game_id":440,"stv_port":27086,"stv_name":"Uncletopia | London | 8 | Community | STV","players":null},{"server_id":300,"name":"Uncletopia | Montréal | 1 | All Maps","name_short":"mtl-1","host":"mtl-1.ca.uncletopia.com","port":27015,"enabled":true,"region":"us-east","cc":"ca","latitude":45.50889,"longitude":-73.56167,"reserved":0,"last_update":"0001-01-01T00:00:00Z","name_a2s":"Uncletopia | Montréal | 1 | All Maps","protocol":17,"map":"koth_cascade","folder":"tf","game":"Team Fortress","app_id":440,"player_count":0,"max_players":24,"Bots":0,"server_type":"Dedicated","server_os":"Linux","password":true,"vac":true,"version":"7742253","steam_id":85568392924500087,"keywords":["cp","nocrits","nodmgspread","uncletopia"],"game_id":440,"stv_port":27016,"stv_name":"Uncletopia | Montréal | 1 | All Maps | STV","players":null},{"server_id":301,"name":"Uncletopia | Montréal | 2 | All Maps","name_short":"mtl-2","host":"mtl-1.ca.uncletopia.com","port":27025,"enabled":true,"region":"us-east","cc":"ca","latitude":45.50889,"longitude":-73.56167,"reserved":0,"last_update":"0001-01-01T00:00:00Z","name_a2s":"Uncletopia | Montréal | 2 | All Maps","protocol":17,"map":"koth_lakeside_final","folder":"tf","game":"Team Fortress","app_id":440,"player_count":0,"max_players":24,"Bots":0,"server_type":"Dedicated","server_os":"Linux","password":true,"vac":true,"version":"7742253","steam_id":85568392924500088,"keywords":["cp","nocrits","nodmgspread","uncletopia"],"game_id":440,"stv_port":27026,"stv_name":"Uncletopia | Montréal | 2 | All Maps | STV","players":null},{"server_id":302,"name":"Uncletopia | Montréal | 3 | All Maps","name_short":"mtl-3","host":"mtl-1.ca.uncletopia.com","port":27035,"enabled":true,"region":"us-east","cc":"ca","latitude":45.50889,"longitude":-73.56167,"reserved":0,"last_update":"0001-01-01T00:00:00Z","name_a2s":"Uncletopia | Montréal | 3 | All Maps","protocol":17,"map":"pl_frontier_final","folder":"tf","game":"Team Fortress","app_id":440,"player_count":0,"max_players":24,"Bots":0,"server_type":"Dedicated","server_os":"Linux","password":true,"vac":true,"version":"7742253","steam_id":85568392924500089,"keywords":["nocrits","nodmgspread","payload","uncletopia"],"game_id":440,"stv_port":27036,"stv_name":"Uncletopia | Montréal | 3 | All Maps | STV","players":null},{"server_id":303,"name":"Uncletopia | Montréal | 4 | No Payload","name_short":"mtl-4","host":"mtl-1.ca.uncletopia.com","port":27045,"enabled":true,"region":"us-east","cc":"ca","latitude":45.50889,"longitude":-73.56167,"reserved":0,"last_update":"0001-01-01T00:00:00Z","name_a2s":"Uncletopia | Montréal | 4 | No Payload","protocol":17,"map":"cp_mountainlab","folder":"tf","game":"Team Fortress","app_id":440,"player_count":0,"max_players":24,"Bots":0,"server_type":"Dedicated","server_os":"Linux","password":true,"vac":true,"version":"7742253","steam_id":85568392924500090,"keywords":["cp","nocrits","nodmgspread","uncletopia"],"game_id":440,"stv_port":27046,"stv_name":"Uncletopia | Montréal | 4 | No Payload | STV","players":null},{"server_id":13,"name":"Uncletopia | New York City | 1 | All Maps","name_short":"nyc-1","host":"nyc-1.us.uncletopia.com","port":27015,"enabled":true,"region":"us-east","cc":"us","latitude":40.73061,"longitude":-73.93524,"reserved":0,"last_update":"0001-01-01T00:00:00Z","name_a2s":"Uncletopia | New York City | 1 | All Maps","protocol":17,"map":"cp_dustbowl","folder":"tf","game":"Team Fortress","app_id":440,"player_count":23,"max_players":24,"Bots":0,"server_type":"Dedicated","server_os":"Linux","password":true,"vac":true,"version":"7742253","steam_id":85568392924469993,"keywords":["cp","nocrits","nodmgspread","uncletopia"],"game_id":440,"stv_port":27016,"stv_name":"Uncletopia | New York City | 1 | All Maps | STV","players":[{"user_id":193,"name":"Jai_Jax","steam_id":76561198294183299,"connected_time":930000000000,"state":"active","ping":67},{"user_id":125,"name":"matchstick","steam_id":76561198190100027,"connected_time":7346000000000,"state":"active","ping":37},{"user_id":192,"name":"Ghazi","steam_id":76561197997695060,"connected_time":946000000000,"state":"active","ping":59},{"user_id":202,"name":"jaime42003","steam_id":76561199426821890,"connected_time":686000000000,"state":"active","ping":106},{"user_id":203,"name":"ClericsRose","steam_id":76561198011013806,"connected_time":632000000000,"state":"active","ping":72},{"user_id":200,"name":"Dang","steam_id":76561198288874083,"connected_time":744000000000,"state":"active","ping":107},{"user_id":121,"name":"Ballin \u0026 Can't Get Up","steam_id":76561198047394013,"connected_time":7867000000000,"state":"active","ping":59},{"user_id":157,"name":"Father Cocoa","steam_id":76561199023002514,"connected_time":4080000000000,"state":"active","ping":77},{"user_id":168,"name":"iL","steam_id":76561198086331015,"connected_time":3385000000000,"state":"active","ping":30},{"user_id":169,"name":"viedoamegs","steam_id":76561198025295263,"connected_time":3274000000000,"state":"active","ping":92},{"user_id":195,"name":"Market Pliers","steam_id":76561198380473491,"connected_time":912000000000,"state":"active","ping":80},{"user_id":154,"name":"Yuzu","steam_id":76561198417913035,"connected_time":4813000000000,"state":"active","ping":69},{"user_id":145,"name":"Sir Quacksalot","steam_id":76561198048942777,"connected_time":6171000000000,"state":"active","ping":89},{"user_id":196,"name":"Brass beast heavy","steam_id":76561198274197623,"connected_time":910000000000,"state":"active","ping":137},{"user_id":197,"name":"Gibs","steam_id":76561198278676375,"connected_time":906000000000,"state":"active","ping":66},{"user_id":198,"name":"Emerald Playz","steam_id":76561198381315777,"connected_time":881000000000,"state":"active","ping":69},{"user_id":199,"name":"Krump","steam_id":76561198071792164,"connected_time":825000000000,"state":"active","ping":51},{"user_id":204,"name":"Jailbreak","steam_id":76561198802085218,"connected_time":564000000000,"state":"active","ping":82},{"user_id":205,"name":"Biskit","steam_id":76561198103168540,"connected_time":535000000000,"state":"active","ping":57},{"user_id":140,"name":"Braamklauw","steam_id":76561198283287697,"connected_time":6261000000000,"state":"active","ping":145},{"user_id":185,"name":"FT","steam_id":76561198010452388,"connected_time":2029000000000,"state":"active","ping":107},{"user_id":206,"name":"Mycelion","steam_id":76561198024999530,"connected_time":483000000000,"state":"active","ping":80},{"user_id":184,"name":"Buttons :)","steam_id":76561198139478534,"connected_time":2126000000000,"state":"active","ping":110}]},{"server_id":14,"name":"Uncletopia | New York City | 2 | All Maps","name_short":"nyc-2","host":"nyc-1.us.uncletopia.com","port":27025,"enabled":true,"region":"us-east","cc":"us","latitude":40.73061,"longitude":-73.93524,"reserved":0,"last_update":"0001-01-01T00:00:00Z","name_a2s":"Uncletopia | New York City | 2 | All Maps","protocol":17,"map":"pl_swiftwater_final1","folder":"tf","game":"Team Fortress","app_id":440,"player_count":23,"max_players":24,"Bots":0,"server_type":"Dedicated","server_os":"Linux","password":true,"vac":true,"version":"7742253","steam_id":85568392924469994,"keywords":["nocrits","nodmgspread","payload","uncletopia"],"game_id":440,"stv_port":27026,"stv_name":"Uncletopia | New York City | 2 | All Maps | STV","players":[{"user_id":159,"name":"the Spy from Team Fortress 2™","steam_id":76561198015609525,"connected_time":195000000000,"state":"active","ping":50},{"user_id":141,"name":"Uber","steam_id":76561198139793532,"connected_time":1135000000000,"state":"active","ping":57},{"user_id":153,"name":"UnlimitedRune","steam_id":76561199170761237,"connected_time":822000000000,"state":"active","ping":78},{"user_id":135,"name":"2fort lesbian","steam_id":76561198055490517,"connected_time":2173000000000,"state":"active","ping":55},{"user_id":144,"name":"nnoby","steam_id":76561198878729277,"connected_time":1032000000000,"state":"active","ping":81},{"user_id":145,"name":"Windmills","steam_id":76561198035299715,"connected_time":1027000000000,"state":"active","ping":46},{"user_id":146,"name":"wack","steam_id":76561198095697330,"connected_time":1027000000000,"state":"active","ping":80},{"user_id":87,"name":"JPSS","steam_id":76561199239530493,"connected_time":5873000000000,"state":"active","ping":70},{"user_id":161,"name":"smuffy","steam_id":76561198091459506,"connected_time":55000000000,"state":"active","ping":57},{"user_id":155,"name":"jorjor wells","steam_id":76561199073429082,"connected_time":774000000000,"state":"active","ping":54},{"user_id":136,"name":"java","steam_id":76561198030276792,"connected_time":2135000000000,"state":"active","ping":62},{"user_id":123,"name":"Laelaps","steam_id":76561198100061416,"connected_time":2771000000000,"state":"active","ping":60},{"user_id":56,"name":"sithreis","steam_id":76561198000564263,"connected_time":7291000000000,"state":"active","ping":74},{"user_id":74,"name":"AlecTheNefarious","steam_id":76561198035291230,"connected_time":6501000000000,"state":"active","ping":82},{"user_id":137,"name":"ndvr","steam_id":76561199379200102,"connected_time":1645000000000,"state":"active","ping":47},{"user_id":160,"name":"majo","steam_id":76561199443511982,"connected_time":127000000000,"state":"active","ping":88},{"user_id":51,"name":"Barry","steam_id":76561198371953939,"connected_time":7328000000000,"state":"active","ping":61},{"user_id":148,"name":"The Westboro Baptist Church","steam_id":76561198076375659,"connected_time":987000000000,"state":"active","ping":54},{"user_id":110,"name":"Viking Seagull","steam_id":76561198806994127,"connected_time":3232000000000,"state":"active","ping":61},{"user_id":152,"name":"cellogamer","steam_id":76561198016937098,"connected_time":902000000000,"state":"active","ping":51},{"user_id":150,"name":"femboy_beats","steam_id":76561199245717718,"connected_time":953000000000,"state":"active","ping":61},{"user_id":157,"name":"kb","steam_id":76561198115914109,"connected_time":705000000000,"state":"active","ping":63},{"user_id":96,"name":"lanoc","steam_id":76561198055415367,"connected_time":5069000000000,"state":"active","ping":60}]},{"server_id":15,"name":"Uncletopia | New York City | 3 | Stopwatch Beta","name_short":"nyc-3","host":"nyc-1.us.uncletopia.com","port":27035,"enabled":true,"region":"us-east","cc":"us","latitude":40.73061,"longitude":-73.93524,"reserved":0,"last_update":"0001-01-01T00:00:00Z","name_a2s":"Uncletopia | New York City | 3 | Stopwatch Beta","protocol":17,"map":"pl_pier","folder":"tf","game":"Team Fortress","app_id":440,"player_count":0,"max_players":24,"Bots":0,"server_type":"Dedicated","server_os":"Linux","password":true,"vac":true,"version":"7742253","steam_id":85568392924742820,"keywords":["nocrits","nodmgspread","payload","uncletopia"],"game_id":440,"stv_port":27036,"stv_name":"Uncletopia | New York City | 3 | Stopwatch Beta | STV","players":null},{"server_id":16,"name":"Uncletopia | New York City | 4 | Community","name_short":"nyc-4","host":"nyc-1.us.uncletopia.com","port":27045,"enabled":true,"region":"us-east","cc":"us","latitude":40.73061,"longitude":-73.93524,"reserved":0,"last_update":"0001-01-01T00:00:00Z","name_a2s":"Uncletopia | New York City | 4 | Community","protocol":17,"map":"workshop/pl_vigil_rc9.ugc1266210012","folder":"tf","game":"Team Fortress","app_id":440,"player_count":0,"max_players":24,"Bots":0,"server_type":"Dedicated","server_os":"Linux","password":true,"vac":true,"version":"7742253","steam_id":85568392924742821,"keywords":["nocrits","nodmgspread","payload","uncletopia"],"game_id":440,"stv_port":27046,"stv_name":"Uncletopia | New York City | 4 | Community | STV","players":null},{"server_id":142,"name":"Uncletopia | São Paulo | 1 | All Maps","name_short":"sao-1","host":"sao-1.br.uncletopia.com","port":27015,"enabled":true,"region":"sa","cc":"br","latitude":-23.533773,"longitude":-46.62529,"reserved":0,"last_update":"0001-01-01T00:00:00Z","name_a2s":"Uncletopia | São Paulo | 1 | All Maps","protocol":17,"map":"koth_lakeside_final","folder":"tf","game":"Team Fortress","app_id":440,"player_count":0,"max_players":24,"Bots":0,"server_type":"Dedicated","server_os":"Linux","password":true,"vac":true,"version":"7742253","steam_id":85568392924469996,"keywords":["cp","nocrits","nodmgspread","uncletopia"],"game_id":440,"stv_port":27016,"stv_name":"Uncletopia | São Paulo | 1 | All Maps | STV","players":null},{"server_id":143,"name":"Uncletopia | São Paulo | 2 | All Maps","name_short":"sao-2","host":"sao-2.br.uncletopia.com","port":27015,"enabled":true,"region":"sa","cc":"br","latitude":-23.533773,"longitude":-46.62529,"reserved":0,"last_update":"0001-01-01T00:00:00Z","name_a2s":"Uncletopia | São Paulo | 2 | All Maps","protocol":17,"map":"koth_cascade","folder":"tf","game":"Team Fortress","app_id":440,"player_count":0,"max_players":24,"Bots":0,"server_type":"Dedicated","server_os":"Linux","password":true,"vac":true,"version":"7742253","steam_id":85568392924485349,"keywords":["cp","nocrits","nodmgspread","uncletopia"],"game_id":440,"stv_port":27016,"stv_name":"Uncletopia | São Paulo | 2 | All Maps | STV","players":null},{"server_id":7,"name":"Uncletopia | Seattle | 1 | All Maps","name_short":"sea-1","host":"sea-1.us.uncletopia.com","port":27015,"enabled":true,"region":"us-west","cc":"us","latitude":47.608013,"longitude":-122.33517,"reserved":0,"last_update":"0001-01-01T00:00:00Z","name_a2s":"Uncletopia | Seattle | 1 | All Maps","protocol":17,"map":"pl_frontier_final","folder":"tf","game":"Team Fortress","app_id":440,"player_count":24,"max_players":24,"Bots":0,"server_type":"Dedicated","server_os":"Linux","password":true,"vac":true,"version":"7742253","steam_id":85568392924469997,"keywords":["nocrits","nodmgspread","payload","uncletopia"],"game_id":440,"stv_port":27016,"stv_name":"Uncletopia | Seattle | 1 | All Maps | STV","players":[{"user_id":351,"name":"Korey","steam_id":76561198210734407,"connected_time":6883000000000,"state":"active","ping":117},{"user_id":429,"name":"Fh","steam_id":76561198000903511,"connected_time":1544000000000,"state":"active","ping":67},{"user_id":421,"name":"spenca","steam_id":76561198025371154,"connected_time":2044000000000,"state":"active","ping":79},{"user_id":438,"name":"сливная\u003e_+","steam_id":76561198126358045,"connected_time":191000000000,"state":"active","ping":128},{"user_id":413,"name":"SvicidalBug","steam_id":76561198221390504,"connected_time":2911000000000,"state":"active","ping":68},{"user_id":383,"name":"jazzercise","steam_id":76561198997426305,"connected_time":5606000000000,"state":"active","ping":56},{"user_id":428,"name":"Nolan","steam_id":76561198169648081,"connected_time":1600000000000,"state":"active","ping":104},{"user_id":427,"name":"NGsterson","steam_id":76561198162108154,"connected_time":1671000000000,"state":"active","ping":46},{"user_id":423,"name":"Steeb","steam_id":76561198008058593,"connected_time":1907000000000,"state":"active","ping":87},{"user_id":431,"name":"demoman","steam_id":76561199389584938,"connected_time":1017000000000,"state":"active","ping":38},{"user_id":439,"name":"schwicky shwag","steam_id":76561198037921140,"connected_time":147000000000,"state":"active","ping":58},{"user_id":420,"name":"Ridley","steam_id":76561198846891176,"connected_time":2296000000000,"state":"active","ping":55},{"user_id":388,"name":"Luca","steam_id":76561198125087140,"connected_time":5201000000000,"state":"active","ping":45},{"user_id":434,"name":"ikuyo","steam_id":76561198996950205,"connected_time":424000000000,"state":"active","ping":69},{"user_id":436,"name":"Fa113nAng31","steam_id":76561198249984978,"connected_time":386000000000,"state":"active","ping":61},{"user_id":376,"name":"Sweets","steam_id":76561198998446307,"connected_time":6063000000000,"state":"active","ping":67},{"user_id":410,"name":"Skabbety","steam_id":76561198168044257,"connected_time":2945000000000,"state":"active","ping":45},{"user_id":424,"name":"MarshallMellows","steam_id":76561198231561020,"connected_time":1866000000000,"state":"active","ping":60},{"user_id":425,"name":"Mom","steam_id":76561198207936000,"connected_time":1826000000000,"state":"active","ping":87},{"user_id":412,"name":"doopsies","steam_id":76561198083000867,"connected_time":2943000000000,"state":"active","ping":57},{"user_id":437,"name":"The King of Piss World","steam_id":76561198082806956,"connected_time":384000000000,"state":"active","ping":139},{"user_id":426,"name":"Scansy","steam_id":76561198140528754,"connected_time":1795000000000,"state":"active","ping":51},{"user_id":387,"name":"Genius Meme","steam_id":76561198162911254,"connected_time":5384000000000,"state":"active","ping":66},{"user_id":398,"name":"gorlab","steam_id":76561198025089694,"connected_time":4223000000000,"state":"active","ping":68}]},{"server_id":119,"name":"Uncletopia | Seattle | 2 | All Maps","name_short":"sea-2","host":"sea-1.us.uncletopia.com","port":27025,"enabled":true,"region":"us-west","cc":"us","latitude":47.608013,"longitude":-122.33517,"reserved":0,"last_update":"0001-01-01T00:00:00Z","name_a2s":"Uncletopia | Seattle | 2 | All Maps","protocol":17,"map":"pl_badwater","folder":"tf","game":"Team Fortress","app_id":440,"player_count":22,"max_players":24,"Bots":0,"server_type":"Dedicated","server_os":"Linux","password":true,"vac":true,"version":"7742253","steam_id":85568392924469998,"keywords":["nocrits","nodmgspread","payload","uncletopia"],"game_id":440,"stv_port":27026,"stv_name":"Uncletopia | Seattle | 2 | All Maps | STV","players":[{"user_id":384,"name":"zoo-music girl","steam_id":76561198325306660,"connected_time":3477000000000,"state":"active","ping":48},{"user_id":373,"name":"Rusty","steam_id":76561198055585129,"connected_time":4925000000000,"state":"active","ping":44},{"user_id":435,"name":"Davinci Reslove","steam_id":76561198841016072,"connected_time":532000000000,"state":"active","ping":49},{"user_id":436,"name":"GloomyShroomy","steam_id":76561199150895700,"connected_time":496000000000,"state":"active","ping":63},{"user_id":442,"name":"iCarly Lore Expert","steam_id":76561198111902910,"connected_time":45000000000,"state":"active","ping":49},{"user_id":429,"name":"Micah","steam_id":76561198006837982,"connected_time":982000000000,"state":"active","ping":141},{"user_id":418,"name":"lard","steam_id":76561198166558900,"connected_time":1565000000000,"state":"active","ping":74},{"user_id":394,"name":"jungus","steam_id":76561198129862008,"connected_time":2957000000000,"state":"active","ping":61},{"user_id":427,"name":"THE NUT","steam_id":76561198067813626,"connected_time":1030000000000,"state":"active","ping":46},{"user_id":387,"name":"rat eating bread","steam_id":76561198031234032,"connected_time":3406000000000,"state":"active","ping":92},{"user_id":434,"name":"Tranced","steam_id":76561198123111613,"connected_time":601000000000,"state":"active","ping":147},{"user_id":392,"name":"MisterManne","steam_id":76561198106598600,"connected_time":3078000000000,"state":"active","ping":49},{"user_id":322,"name":"Roomsky","steam_id":76561198012827494,"connected_time":9102000000000,"state":"active","ping":46},{"user_id":444,"name":"willsmith69","steam_id":76561198365512706,"connected_time":17000000000,"state":"spawning","ping":126},{"user_id":430,"name":"Dosario","steam_id":76561198298095535,"connected_time":943000000000,"state":"active","ping":84},{"user_id":437,"name":"znooder","steam_id":76561198065219378,"connected_time":491000000000,"state":"active","ping":74},{"user_id":376,"name":"Mignyanne :3","steam_id":76561198048754056,"connected_time":4594000000000,"state":"active","ping":67},{"user_id":410,"name":"NASA PEEPO","steam_id":76561198024982267,"connected_time":2156000000000,"state":"active","ping":68},{"user_id":439,"name":"Greg","steam_id":76561198299543780,"connected_time":231000000000,"state":"active","ping":108},{"user_id":433,"name":"Champagne Supernova","steam_id":76561198918114562,"connected_time":744000000000,"state":"active","ping":77},{"user_id":425,"name":"Soviet Doc","steam_id":76561198999990625,"connected_time":1230000000000,"state":"active","ping":74},{"user_id":441,"name":"kebo","steam_id":76561198237159430,"connected_time":127000000000,"state":"active","ping":75}]},{"server_id":406,"name":"Uncletopia | Seattle | 3 | Stopwatch Beta","name_short":"sea-3","host":"sea-1.us.uncletopia.com","port":27035,"enabled":true,"region":"us-west","cc":"us","latitude":47.608013,"longitude":-122.33517,"reserved":0,"last_update":"0001-01-01T00:00:00Z","name_a2s":"Uncletopia | Seattle | 3 | Stopwatch Beta","protocol":17,"map":"workshop/pl_summercoast_rc8e.ugc1761528829","folder":"tf","game":"Team Fortress","app_id":440,"player_count":0,"max_players":24,"Bots":0,"server_type":"Dedicated","server_os":"Linux","password":true,"vac":true,"version":"7742253","steam_id":85568392924515217,"keywords":["nocrits","nodmgspread","payload","uncletopia"],"game_id":440,"stv_port":27036,"stv_name":"Uncletopia | Seattle | 3 | Stopwatch Beta | STV","players":null},{"server_id":17,"name":"Uncletopia | San Francisco | 1 | All Maps","name_short":"sfo-1","host":"sfo-1.us.uncletopia.com","port":27015,"enabled":true,"region":"us-west","cc":"us","latitude":37.77397,"longitude":-122.4313,"reserved":0,"last_update":"0001-01-01T00:00:00Z","name_a2s":"Uncletopia | San Francisco | 1 | All Maps","protocol":17,"map":"cp_mountainlab","folder":"tf","game":"Team Fortress","app_id":440,"player_count":22,"max_players":24,"Bots":0,"server_type":"Dedicated","server_os":"Linux","password":true,"vac":true,"version":"7742253","steam_id":85568392924469999,"keywords":["cp","nocrits","nodmgspread","uncletopia"],"game_id":440,"stv_port":27016,"stv_name":"Uncletopia | San Francisco | 1 | All Maps | STV","players":[{"user_id":364,"name":"Sadodere Grimace","steam_id":76561198008332028,"connected_time":2487000000000,"state":"active","ping":63},{"user_id":383,"name":"eBay","steam_id":76561198061214569,"connected_time":1828000000000,"state":"active","ping":84},{"user_id":406,"name":"Frank","steam_id":76561198126681511,"connected_time":26000000000,"state":"active","ping":62},{"user_id":394,"name":"Cheff cook","steam_id":76561198451203268,"connected_time":742000000000,"state":"active","ping":51},{"user_id":370,"name":"sniffy","steam_id":76561198184933255,"connected_time":2390000000000,"state":"active","ping":54},{"user_id":365,"name":"Stargazer Ashley","steam_id":76561198035479925,"connected_time":2479000000000,"state":"active","ping":49},{"user_id":405,"name":"Shock'N'Lock","steam_id":76561198072583012,"connected_time":84000000000,"state":"active","ping":48},{"user_id":393,"name":"DoctorHa","steam_id":76561198044026008,"connected_time":815000000000,"state":"active","ping":65},{"user_id":324,"name":"Agent86","steam_id":76561198046794593,"connected_time":6126000000000,"state":"active","ping":78},{"user_id":260,"name":"AureateAura","steam_id":76561198046902265,"connected_time":11207000000000,"state":"active","ping":119},{"user_id":396,"name":"dndplayer2000","steam_id":76561199187895660,"connected_time":588000000000,"state":"active","ping":65},{"user_id":403,"name":"kramer","steam_id":76561198117761965,"connected_time":148000000000,"state":"active","ping":116},{"user_id":361,"name":"Uncle Ulysses","steam_id":76561198043929070,"connected_time":3065000000000,"state":"active","ping":89},{"user_id":387,"name":"Artoriasninja","steam_id":76561198834552307,"connected_time":1104000000000,"state":"active","ping":76},{"user_id":374,"name":"Pluto","steam_id":76561198012630802,"connected_time":2284000000000,"state":"active","ping":52},{"user_id":360,"name":"LeGreench","steam_id":76561199014317297,"connected_time":3285000000000,"state":"active","ping":78},{"user_id":382,"name":"gazpacho","steam_id":76561198132903078,"connected_time":1884000000000,"state":"active","ping":55},{"user_id":390,"name":"Nermal Fan 2000","steam_id":76561198255823904,"connected_time":937000000000,"state":"active","ping":96},{"user_id":404,"name":"Dabois","steam_id":76561199147193419,"connected_time":89000000000,"state":"active","ping":68},{"user_id":349,"name":"Goofy Goober","steam_id":76561198128299594,"connected_time":4989000000000,"state":"active","ping":59},{"user_id":398,"name":"Frosted Lighted Ornament","steam_id":76561197971250619,"connected_time":404000000000,"state":"active","ping":40},{"user_id":399,"name":"Colonel Klink","steam_id":76561198089624108,"connected_time":343000000000,"state":"active","ping":100}]},{"server_id":18,"name":"Uncletopia | San Francisco | 2 | All Maps","name_short":"sfo-2","host":"sfo-1.us.uncletopia.com","port":27025,"enabled":true,"region":"us-west","cc":"us","latitude":37.77397,"longitude":-122.4313,"reserved":0,"last_update":"0001-01-01T00:00:00Z","name_a2s":"Uncletopia | San Francisco | 2 | All Maps","protocol":17,"map":"koth_lakeside_final","folder":"tf","game":"Team Fortress","app_id":440,"player_count":22,"max_players":24,"Bots":0,"server_type":"Dedicated","server_os":"Linux","password":true,"vac":true,"version":"7742253","steam_id":85568392924470000,"keywords":["cp","nocrits","nodmgspread","uncletopia"],"game_id":440,"stv_port":27026,"stv_name":"Uncletopia | San Francisco | 2 | All Maps | STV","players":[{"user_id":235,"name":"1000 Ping","steam_id":76561198098330939,"connected_time":2167000000000,"state":"active","ping":66},{"user_id":202,"name":"Shroast","steam_id":76561199014781978,"connected_time":4018000000000,"state":"active","ping":138},{"user_id":236,"name":"Grungus","steam_id":76561198047700230,"connected_time":2051000000000,"state":"active","ping":49},{"user_id":226,"name":"lancezatt","steam_id":76561199015378748,"connected_time":2773000000000,"state":"active","ping":130},{"user_id":179,"name":"Cute Gatito","steam_id":76561198351147780,"connected_time":5159000000000,"state":"active","ping":58},{"user_id":213,"name":"KFC☭","steam_id":76561199206815320,"connected_time":3534000000000,"state":"active","ping":51},{"user_id":227,"name":"butt3r_","steam_id":76561198156374792,"connected_time":2724000000000,"state":"active","ping":61},{"user_id":228,"name":"Salty.Sam","steam_id":76561198030933901,"connected_time":2712000000000,"state":"active","ping":94},{"user_id":239,"name":"koofah","steam_id":76561199232456902,"connected_time":1695000000000,"state":"active","ping":76},{"user_id":261,"name":"thepopeofshame","steam_id":76561199047823974,"connected_time":769000000000,"state":"active","ping":50},{"user_id":267,"name":"Susan","steam_id":76561198045705049,"connected_time":327000000000,"state":"active","ping":62},{"user_id":234,"name":"staples easy button","steam_id":76561198040415947,"connected_time":2311000000000,"state":"active","ping":97},{"user_id":218,"name":"Gift_Card","steam_id":76561197995405617,"connected_time":2910000000000,"state":"active","ping":125},{"user_id":242,"name":"MyNameIsMilosh","steam_id":76561198260885707,"connected_time":1667000000000,"state":"active","ping":82},{"user_id":264,"name":"Protato","steam_id":76561198053117503,"connected_time":733000000000,"state":"active","ping":73},{"user_id":263,"name":"42","steam_id":76561198043965184,"connected_time":760000000000,"state":"active","ping":54},{"user_id":245,"name":"Frongus","steam_id":76561197979056451,"connected_time":1601000000000,"state":"active","ping":68},{"user_id":268,"name":"SomeFuckingGuy","steam_id":76561199239165015,"connected_time":225000000000,"state":"active","ping":75},{"user_id":269,"name":"sayad","steam_id":76561198080897870,"connected_time":156000000000,"state":"active","ping":101},{"user_id":257,"name":"Atrix","steam_id":76561198084930312,"connected_time":1106000000000,"state":"active","ping":58},{"user_id":265,"name":"KnifeSaber","steam_id":76561198872681766,"connected_time":706000000000,"state":"active","ping":122},{"user_id":266,"name":"Hydroxianchaos","steam_id":76561198043786828,"connected_time":672000000000,"state":"active","ping":119}]},{"server_id":19,"name":"Uncletopia | San Francisco | 3 | Stopwatch Beta","name_short":"sfo-3","host":"sfo-1.us.uncletopia.com","port":27035,"enabled":true,"region":"us-west","cc":"us","latitude":37.77397,"longitude":-122.4313,"reserved":0,"last_update":"0001-01-01T00:00:00Z","name_a2s":"Uncletopia | San Francisco | 3 | Stopwatch Beta","protocol":17,"map":"koth_lakeside_final","folder":"tf","game":"Team Fortress","app_id":440,"player_count":0,"max_players":24,"Bots":0,"server_type":"Dedicated","server_os":"Linux","password":true,"vac":true,"version":"7742253","steam_id":85568392924742824,"keywords":["cp","nocrits","nodmgspread","uncletopia"],"game_id":440,"stv_port":27036,"stv_name":"Uncletopia | San Francisco | 3 | Stopwatch Beta | STV","players":null},{"server_id":20,"name":"Uncletopia | San Francisco | 4 | Community","name_short":"sfo-4","host":"sfo-1.us.uncletopia.com","port":27045,"enabled":true,"region":"us-west","cc":"us","latitude":37.77397,"longitude":-122.4313,"reserved":0,"last_update":"0001-01-01T00:00:00Z","name_a2s":"Uncletopia | San Francisco | 4 | Community","protocol":17,"map":"workshop/koth_bagel_rc5.ugc2514036946","folder":"tf","game":"Team Fortress","app_id":440,"player_count":0,"max_players":24,"Bots":0,"server_type":"Dedicated","server_os":"Linux","password":true,"vac":true,"version":"7742253","steam_id":85568392924742826,"keywords":["cp","nocrits","nodmgspread","uncletopia"],"game_id":440,"stv_port":27046,"stv_name":"Uncletopia | San Francisco | 4 | Community | STV","players":null},{"server_id":141,"name":"Uncletopia | Sydney | 1 | All Maps","name_short":"syd-1","host":"syd-1.au.uncletopia.com","port":27015,"enabled":true,"region":"au","cc":"au","latitude":-33.865143,"longitude":151.2099,"reserved":0,"last_update":"0001-01-01T00:00:00Z","name_a2s":"Uncletopia | Sydney | 1 | All Maps","protocol":17,"map":"koth_lakeside_final","folder":"tf","game":"Team Fortress","app_id":440,"player_count":0,"max_players":24,"Bots":0,"server_type":"Dedicated","server_os":"Linux","password":true,"vac":true,"version":"7742253","steam_id":85568392924470001,"keywords":["cp","nocrits","nodmgspread","uncletopia"],"game_id":440,"stv_port":27016,"stv_name":"Uncletopia | Sydney | 1 | All Maps | STV","players":null},{"server_id":123,"name":"Uncletopia | Sydney | 2 | All Maps","name_short":"syd-2","host":"syd-1.au.uncletopia.com","port":27025,"enabled":true,"region":"au","cc":"au","latitude":-33.865143,"longitude":151.2099,"reserved":0,"last_update":"0001-01-01T00:00:00Z","name_a2s":"Uncletopia | Sydney | 2 | All Maps","protocol":17,"map":"koth_cascade","folder":"tf","game":"Team Fortress","app_id":440,"player_count":0,"max_players":24,"Bots":0,"server_type":"Dedicated","server_os":"Linux","password":true,"vac":true,"version":"7742253","steam_id":85568392924470002,"keywords":["cp","nocrits","nodmgspread","uncletopia"],"game_id":440,"stv_port":27026,"stv_name":"Uncletopia | Sydney | 2 | All Maps | STV","players":null},{"server_id":395,"name":"Uncletopia | Sydney | 3 | All Maps","name_short":"syd-3","host":"syd-1.au.uncletopia.com","port":27035,"enabled":true,"region":"au","cc":"au","latitude":-33.865143,"longitude":151.2099,"reserved":0,"last_update":"0001-01-01T00:00:00Z","name_a2s":"Uncletopia | Sydney | 3 | All Maps","protocol":17,"map":"cp_altitude","folder":"tf","game":"Team Fortress","app_id":440,"player_count":0,"max_players":24,"Bots":0,"server_type":"Dedicated","server_os":"Linux","password":true,"vac":true,"version":"7742253","steam_id":85568392925194467,"keywords":["cp","nocrits","nodmgspread","uncletopia"],"game_id":440,"stv_port":27036,"stv_name":"Uncletopia | Sydney | 3 | All Maps | STV","players":null},{"server_id":396,"name":"Uncletopia | Sydney | 4 | All Maps","name_short":"syd-4","host":"syd-1.au.uncletopia.com","port":27045,"enabled":true,"region":"au","cc":"au","latitude":-33.865143,"longitude":151.2099,"reserved":0,"last_update":"0001-01-01T00:00:00Z","name_a2s":"Uncletopia | Sydney | 4 | All Maps","protocol":17,"map":"pl_frontier_final","folder":"tf","game":"Team Fortress","app_id":440,"player_count":0,"max_players":24,"Bots":0,"server_type":"Dedicated","server_os":"Linux","password":true,"vac":true,"version":"7742253","steam_id":85568392925397958,"keywords":["nocrits","nodmgspread","payload","uncletopia"],"game_id":440,"stv_port":27046,"stv_name":"Uncletopia | Sydney | 4 | All Maps | STV","players":null},{"server_id":58,"name":"Uncletopia | Sydney | 5 | Stopwatch Beta","name_short":"syd-5","host":"syd-1.au.uncletopia.com","port":27055,"enabled":true,"region":"au","cc":"au","latitude":-33.865143,"longitude":151.2099,"reserved":0,"last_update":"0001-01-01T00:00:00Z","name_a2s":"Uncletopia | Sydney | 5 | Stopwatch Beta","protocol":17,"map":"workshop/koth_clearcut_b15.ugc2107050255","folder":"tf","game":"Team Fortress","app_id":440,"player_count":0,"max_players":24,"Bots":0,"server_type":"Dedicated","server_os":"Linux","password":true,"vac":true,"version":"7742253","steam_id":85568392925397959,"keywords":["cp","nocrits","nodmgspread","uncletopia"],"game_id":440,"stv_port":27056,"stv_name":"Uncletopia | Sydney | 5 | Stopwatch Beta | STV","players":null},{"server_id":59,"name":"Uncletopia | Sydney | 6 | Community","name_short":"syd-6","host":"syd-1.au.uncletopia.com","port":27065,"enabled":true,"region":"au","cc":"au","latitude":-33.865143,"longitude":151.2099,"reserved":0,"last_update":"0001-01-01T00:00:00Z","name_a2s":"Uncletopia | Sydney | 6 | Community","protocol":17,"map":"workshop/koth_synthetic_rc6a.ugc1549817316","folder":"tf","game":"Team Fortress","app_id":440,"player_count":0,"max_players":24,"Bots":0,"server_type":"Dedicated","server_os":"Linux","password":true,"vac":true,"version":"7742253","steam_id":85568392925397960,"keywords":["cp","nocrits","nodmgspread","uncletopia"],"game_id":440,"stv_port":27066,"stv_name":"Uncletopia | Sydney | 6 | Community | STV","players":null},{"server_id":49,"name":"Uncletopia | Warsaw | 1 | All Maps","name_short":"waw-1","host":"waw-1.pl.uncletopia.com","port":27015,"enabled":true,"region":"eu","cc":"pl","latitude":52.2297,"longitude":21.017532,"reserved":0,"last_update":"0001-01-01T00:00:00Z","name_a2s":"","protocol":0,"map":"","folder":"","game":"","app_id":0,"player_count":0,"max_players":0,"Bots":0,"server_type":"","server_os":"","password":false,"vac":false,"version":"","steam_id":0,"keywords":null,"game_id":0,"stv_port":0,"stv_name":"","players":null},{"server_id":50,"name":"Uncletopia | Warsaw | 2 | All Maps","name_short":"waw-2","host":"waw-1.pl.uncletopia.com","port":27025,"enabled":true,"region":"eu","cc":"pl","latitude":52.2297,"longitude":21.017532,"reserved":0,"last_update":"0001-01-01T00:00:00Z","name_a2s":"Uncletopia | Warsaw | 2 | All Maps","protocol":17,"map":"koth_highpass","folder":"tf","game":"Team Fortress","app_id":440,"player_count":0,"max_players":24,"Bots":0,"server_type":"Dedicated","server_os":"Linux","password":true,"vac":true,"version":"7742253","steam_id":85568392925397851,"keywords":["cp","nocrits","nodmgspread","uncletopia"],"game_id":440,"stv_port":27026,"stv_name":"Uncletopia | Warsaw | 2 | All Maps | STV","players":null},{"server_id":51,"name":"Uncletopia | Warsaw | 3 | All Maps","name_short":"waw-3","host":"waw-1.pl.uncletopia.com","port":27035,"enabled":true,"region":"eu","cc":"pl","latitude":52.2297,"longitude":21.017532,"reserved":0,"last_update":"0001-01-01T00:00:00Z","name_a2s":"Uncletopia | Warsaw | 3 | All Maps","protocol":17,"map":"koth_cascade","folder":"tf","game":"Team Fortress","app_id":440,"player_count":0,"max_players":24,"Bots":0,"server_type":"Dedicated","server_os":"Linux","password":true,"vac":true,"version":"7742253","steam_id":85568392925397852,"keywords":["cp","nocrits","nodmgspread","uncletopia"],"game_id":440,"stv_port":27036,"stv_name":"Uncletopia | Warsaw | 3 | All Maps | STV","players":null},{"server_id":52,"name":"Uncletopia | Warsaw | 4 | All Maps","name_short":"waw-4","host":"waw-1.pl.uncletopia.com","port":27045,"enabled":true,"region":"eu","cc":"pl","latitude":52.2297,"longitude":21.017532,"reserved":0,"last_update":"0001-01-01T00:00:00Z","name_a2s":"Uncletopia | Warsaw | 4 | All Maps","protocol":17,"map":"pl_swiftwater_final1","folder":"tf","game":"Team Fortress","app_id":440,"player_count":0,"max_players":24,"Bots":0,"server_type":"Dedicated","server_os":"Linux","password":true,"vac":true,"version":"7742253","steam_id":85568392925397853,"keywords":["nocrits","nodmgspread","payload","uncletopia"],"game_id":440,"stv_port":27046,"stv_name":"Uncletopia | Warsaw | 4 | All Maps | STV","players":null},{"server_id":53,"name":"Uncletopia | Warsaw | 5 | Stopwatch Beta","name_short":"waw-5","host":"waw-1.pl.uncletopia.com","port":27055,"enabled":true,"region":"eu","cc":"pl","latitude":52.2297,"longitude":21.017532,"reserved":0,"last_update":"0001-01-01T00:00:00Z","name_a2s":"Uncletopia | Warsaw | 5 | Stopwatch Beta","protocol":17,"map":"pl_swiftwater_final1","folder":"tf","game":"Team Fortress","app_id":440,"player_count":0,"max_players":24,"Bots":0,"server_type":"Dedicated","server_os":"Linux","password":true,"vac":true,"version":"7742253","steam_id":85568392925397854,"keywords":["nocrits","nodmgspread","payload","uncletopia"],"game_id":440,"stv_port":27056,"stv_name":"Uncletopia | Warsaw | 5 | Stopwatch Beta | STV","players":null},{"server_id":54,"name":"Uncletopia | Warsaw | 6 | Community","name_short":"waw-6","host":"waw-1.pl.uncletopia.com","port":27065,"enabled":true,"region":"eu","cc":"pl","latitude":52.2297,"longitude":21.017532,"reserved":0,"last_update":"0001-01-01T00:00:00Z","name_a2s":"Uncletopia | Warsaw | 6 | Community","protocol":17,"map":"workshop/koth_ashville_final.ugc2130459942","folder":"tf","game":"Team Fortress","app_id":440,"player_count":0,"max_players":24,"Bots":0,"server_type":"Dedicated","server_os":"Linux","password":true,"vac":true,"version":"7742253","steam_id":85568392925397856,"keywords":["cp","nocrits","nodmgspread","uncletopia"],"game_id":440,"stv_port":27066,"stv_name":"Uncletopia | Warsaw | 6 | Community | STV","players":null}]}