{"status":true,"message":"","result":[{"server_id":2,"name":"Uncletopia | Chicago | 1 | All Maps","name_short":"chi-1","host":"chi-1.us.uncletopia.com","port":27015,"enabled":true,"region":"us-central","cc":"us","latitude":41.881832,"longitude":-87.62318,"reserved":0,"last_update":"0001-01-01T00:00:00Z","name_a2s":"Uncletopia | Chicago | 1 | All Maps","protocol":17,"map":"cp_gorge","folder":"tf","game":"Team Fortress","app_id":440,"player_count":24,"max_players":24,"Bots":0,"server_type":"Dedicated","server_os":"Linux","password":true,"vac":true,"version":"7932396","steam_id":85568392924469984,"keywords":["cp","nocrits","nodmgspread","uncletopia"],"game_id":440,"stv_port":27016,"stv_name":"Uncletopia | Chicago | 1 | All Maps | STV","players":[{"user_id":505,"name":"Pizza Parker","steam_id":76561198797278008,"connected_time":517000000000,"state":"active","ping":59},{"user_id":499,"name":"Toblerone","steam_id":76561198057374871,"connected_time":1492000000000,"state":"active","ping":60},{"user_id":508,"name":"AreYouMyMummy?","steam_id":76561197995101745,"connected_time":340000000000,"state":"active","ping":84},{"user_id":504,"name":"Questor","steam_id":76561198034859665,"connected_time":966000000000,"state":"active","ping":94},{"user_id":468,"name":"garf","steam_id":76561198088228311,"connected_time":3271000000000,"state":"active","ping":73},{"user_id":482,"name":"Melons","steam_id":76561198062349555,"connected_time":2413000000000,"state":"active","ping":69},{"user_id":471,"name":"HOTA","steam_id":76561199002778841,"connected_time":2872000000000,"state":"active","ping":76},{"user_id":470,"name":"Acehay14","steam_id":76561198052373291,"connected_time":2901000000000,"state":"active","ping":55},{"user_id":501,"name":"Skinny pete","steam_id":76561198801608576,"connected_time":1260000000000,"state":"active","ping":74},{"user_id":494,"name":"StonedGiant","steam_id":76561197984386932,"connected_time":1583000000000,"state":"active","ping":59},{"user_id":507,"name":"Mank","steam_id":76561198189421005,"connected_time":385000000000,"state":"active","ping":48},{"user_id":466,"name":"Shady Businessman","steam_id":76561198143855968,"connected_time":4019000000000,"state":"active","ping":99},{"user_id":506,"name":"donut","steam_id":76561198076635466,"connected_time":501000000000,"state":"active","ping":67},{"user_id":514,"name":"·ìÄ‚Ä∏·ìÇ","steam_id":76561198046055673,"connected_time":69000000000,"state":"active","ping":75},{"user_id":509,"name":"kiv","steam_id":76561198838223023,"connected_time":322000000000,"state":"active","ping":59},{"user_id":455,"name":"5mech","steam_id":76561198979167520,"connected_time":4714000000000,"state":"active","ping":52},{"user_id":497,"name":"ttv.pineapplesf","steam_id":76561198167075606,"connected_time":1550000000000,"state":"active","ping":89},{"user_id":486,"name":"Convict Police Officers","steam_id":76561197993527275,"connected_time":2187000000000,"state":"active","ping":54},{"user_id":500,"name":"Lein142","steam_id":76561199304773418,"connected_time":1464000000000,"state":"active","ping":105},{"user_id":467,"name":"Alpharious","steam_id":76561197970289529,"connected_time":3929000000000,"state":"active","ping":75},{"user_id":510,"name":"Dubious Adubio","steam_id":76561198442369067,"connected_time":321000000000,"state":"active","ping":70},{"user_id":511,"name":"skiesred","steam_id":76561199389262041,"connected_time":260000000000,"state":"active","ping":76},{"user_id":512,"name":"james may","steam_id":76561198043857339,"connected_time":251000000000,"state":"active","ping":99},{"user_id":513,"name":"ADRIEN BRODY","steam_id":76561198009299473,"connected_time":243000000000,"state":"active","ping":69}]},{"server_id":106,"name":"Uncletopia | Chicago | 2 | All Maps","name_short":"chi-2","host":"chi-1.us.uncletopia.com","port":27025,"enabled":true,"region":"us-central","cc":"us","latitude":41.881832,"longitude":-87.62318,"reserved":0,"last_update":"0001-01-01T00:00:00Z","name_a2s":"Uncletopia | Chicago | 2 | All Maps","protocol":17,"map":"cp_dustbowl","folder":"tf","game":"Team Fortress","app_id":440,"player_count":24,"max_players":24,"Bots":0,"server_type":"Dedicated","server_os":"Linux","password":true,"vac":true,"version":"7932396","steam_id":85568392924469985,"keywords":["cp","nocrits","nodmgspread","uncletopia"],"game_id":440,"stv_port":27026,"stv_name":"Uncletopia | Chicago | 2 | All Maps | STV","players":[{"user_id":300,"name":"spherewithahat","steam_id":76561199122192660,"connected_time":2293000000000,"state":"active","ping":76},{"user_id":327,"name":"Flying Emu","steam_id":76561198121632924,"connected_time":625000000000,"state":"active","ping":78},{"user_id":248,"name":"Ejaculation Zach","steam_id":76561198203765200,"connected_time":7053000000000,"state":"active","ping":55},{"user_id":335,"name":"Brown_Dream","steam_id":76561198975766145,"connected_time":16000000000,"state":"active","ping":80},{"user_id":303,"name":"TG_16","steam_id":76561199109196768,"connected_time":1991000000000,"state":"active","ping":53},{"user_id":302,"name":"Obama","steam_id":76561198194065283,"connected_time":2004000000000,"state":"active","ping":105},{"user_id":268,"name":"lili","steam_id":76561199391478575,"connected_time":5100000000000,"state":"active","ping":114},{"user_id":324,"name":"‡πñ€£€úTavi","steam_id":76561198088228946,"connected_time":692000000000,"state":"active","ping":110},{"user_id":331,"name":"yeah","steam_id":76561198245846186,"connected_time":472000000000,"state":"active","ping":63},{"user_id":238,"name":"daggmo","steam_id":76561199042550792,"connected_time":7999000000000,"state":"active","ping":85},{"user_id":330,"name":":()","steam_id":76561198071991975,"connected_time":518000000000,"state":"active","ping":60},{"user_id":257,"name":"IAmAProfesonal","steam_id":76561199171858953,"connected_time":6067000000000,"state":"active","ping":48},{"user_id":332,"name":"sunny","steam_id":76561198069380992,"connected_time":294000000000,"state":"active","ping":78},{"user_id":315,"name":"Chezaus","steam_id":76561198317397837,"connected_time":1644000000000,"state":"active","ping":68},{"user_id":307,"name":"DuragGod69","steam_id":76561198067814426,"connected_time":1902000000000,"state":"active","ping":84},{"user_id":329,"name":"ErrorDoesStupidStuff","steam_id":76561199088421263,"connected_time":543000000000,"state":"active","ping":88},{"user_id":325,"name":"blows up pancakes with mind","steam_id":76561198332704108,"connected_time":673000000000,"state":"active","ping":46},{"user_id":322,"name":"oat milf","steam_id":76561198805266653,"connected_time":988000000000,"state":"active","ping":85},{"user_id":333,"name":"INVEST IN SKYNET::œÑRU œÑAO","steam_id":76561198144436132,"connected_time":273000000000,"state":"active","ping":84},{"user_id":326,"name":"Ultra Lord","steam_id":76561198045260412,"connected_time":660000000000,"state":"active","ping":104},{"user_id":334,"name":"steakfarmasian","steam_id":76561198212754036,"connected_time":181000000000,"state":"active","ping":56},{"user_id":316,"name":"Homunculus Gambino","steam_id":76561198158433378,"connected_time":1617000000000,"state":"active","ping":74},{"user_id":299,"name":"tiredfisherman69","steam_id":76561199228963816,"connected_time":2697000000000,"state":"active","ping":100},{"user_id":313,"name":"Ginger Jesus","steam_id":76561198052386458,"connected_time":1787000000000,"state":"active","ping":60}]},{"server_id":402,"name":"Uncletopia | Chicago | 3 | All Maps","name_short":"chi-3","host":"chi-1.us.uncletopia.com","port":27035,"enabled":true,"region":"us-central","cc":"us","latitude":41.881832,"longitude":-87.62318,"reserved":0,"last_update":"0001-01-01T00:00:00Z","name_a2s":"Uncletopia | Chicago | 3 | All Maps","protocol":17,"map":"pl_barnblitz","folder":"tf","game":"Team Fortress","app_id":440,"player_count":24,"max_players":24,"Bots":0,"server_type":"Dedicated","server_os":"Linux","password":true,"vac":true,"version":"7932396","steam_id":85568392924515191,"keywords":["nocrits","nodmgspread","payload","uncletopia"],"game_id":440,"stv_port":27036,"stv_name":"Uncletopia | Chicago | 3 | All Maps | STV","players":[{"user_id":15,"name":"dragonslayer2004","steam_id":76561199047609261,"connected_time":5873000000000,"state":"active","ping":70},{"user_id":16,"name":"mozzie","steam_id":76561198871173972,"connected_time":5768000000000,"state":"active","ping":130},{"user_id":80,"name":"york","steam_id":76561198028120301,"connected_time":2067000000000,"state":"active","ping":76},{"user_id":68,"name":"All 24 Pok√©mon movies at once","steam_id":76561198164738311,"connected_time":3065000000000,"state":"active","ping":62},{"user_id":71,"name":"Enzo","steam_id":76561197975076681,"connected_time":2777000000000,"state":"active","ping":48},{"user_id":77,"name":"corned beef","steam_id":76561199366782761,"connected_time":2379000000000,"state":"active","ping":133},{"user_id":76,"name":"Fresh0c0","steam_id":76561198271933283,"connected_time":2392000000000,"state":"active","ping":52},{"user_id":85,"name":"retaW","steam_id":76561198308097092,"connected_time":1767000000000,"state":"active","ping":58},{"user_id":102,"name":"wearing my sunday pants","steam_id":76561198834106533,"connected_time":58000000000,"state":"active","ping":80},{"user_id":101,"name":"Chhaam","steam_id":76561198058508132,"connected_time":306000000000,"state":"active","ping":59},{"user_id":95,"name":"The CEO of cement","steam_id":76561199107177460,"connected_time":934000000000,"state":"active","ping":101},{"user_id":62,"name":"draco","steam_id":76561198196769297,"connected_time":3278000000000,"state":"active","ping":60},{"user_id":53,"name":"Gibs Degrossi","steam_id":76561198066152609,"connected_time":4727000000000,"state":"active","ping":45},{"user_id":72,"name":"Hotel Mario Next-Gen Remaster","steam_id":76561198217955315,"connected_time":2678000000000,"state":"active","ping":81},{"user_id":73,"name":"sentry turret","steam_id":76561198327057433,"connected_time":2662000000000,"state":"active","ping":85},{"user_id":98,"name":"Django","steam_id":76561197971158403,"connected_time":839000000000,"state":"active","ping":70},{"user_id":100,"name":"LVL 4 Dispenser Gaming","steam_id":76561198044244547,"connected_time":593000000000,"state":"active","ping":81},{"user_id":46,"name":"Capn. Wing Ding","steam_id":76561198076068424,"connected_time":4822000000000,"state":"active","ping":77},{"user_id":99,"name":"Nyle","steam_id":76561198045652639,"connected_time":718000000000,"state":"active","ping":133},{"user_id":93,"name":"Eiann","steam_id":76561198360762316,"connected_time":1188000000000,"state":"active","ping":64},{"user_id":61,"name":"Wild_Rumpus","steam_id":76561198066393719,"connected_time":3319000000000,"state":"active","ping":59},{"user_id":51,"name":"mytoyo2k2","steam_id":76561199486326945,"connected_time":4760000000000,"state":"active","ping":76},{"user_id":103,"name":"GetOffMyArk","steam_id":76561198282291988,"connected_time":45000000000,"state":"active","ping":101},{"user_id":96,"name":"zen","steam_id":76561198066485047,"connected_time":871000000000,"state":"active","ping":57}]},{"server_id":403,"name":"Uncletopia | Chicago | 4 | All Maps","name_short":"chi-4","host":"chi-1.us.uncletopia.com","port":27045,"enabled":true,"region":"us-central","cc":"us","latitude":41.881832,"longitude":-87.62318,"reserved":0,"last_update":"0001-01-01T00:00:00Z","name_a2s":"Uncletopia | Chicago | 4 | All Maps","protocol":17,"map":"cp_dustbowl","folder":"tf","game":"Team Fortress","app_id":440,"player_count":23,"max_players":24,"Bots":0,"server_type":"Dedicated","server_os":"Linux","password":true,"vac":true,"version":"7932396","steam_id":85568392924515193,"keywords":["cp","nocrits","nodmgspread","uncletopia"],"game_id":440,"stv_port":27046,"stv_name":"Uncletopia | Chicago | 4 | All Maps | STV","players":[{"user_id":552,"name":"THE MONARCH","steam_id":76561198144158938,"connected_time":1441000000000,"state":"active","ping":59},{"user_id":563,"name":"Uncle Dale","steam_id":76561199144302768,"connected_time":392000000000,"state":"active","ping":74},{"user_id":531,"name":"Krispy","steam_id":76561197994783393,"connected_time":1981000000000,"state":"active","ping":75},{"user_id":534,"name":"Kretim","steam_id":76561199204273483,"connected_time":1783000000000,"state":"active","ping":65},{"user_id":551,"name":"Goblineer","steam_id":76561199015286301,"connected_time":1448000000000,"state":"active","ping":60},{"user_id":562,"name":"Soju","steam_id":76561198044130442,"connected_time":710000000000,"state":"active","ping":78},{"user_id":567,"name":"Hertz","steam_id":76561198245322982,"connected_time":69000000000,"state":"active","ping":45},{"user_id":530,"name":"jan kili","steam_id":76561198289894834,"connected_time":1999000000000,"state":"active","ping":66},{"user_id":536,"name":"PileofPolygons","steam_id":76561199321343460,"connected_time":1767000000000,"state":"active","ping":69},{"user_id":522,"name":"we're so back","steam_id":76561198058485742,"connected_time":2543000000000,"state":"active","ping":67},{"user_id":565,"name":"Lead Poisoning","steam_id":76561199014259298,"connected_time":203000000000,"state":"active","ping":80},{"user_id":561,"name":"stay hydrated","steam_id":76561199465652640,"connected_time":1093000000000,"state":"active","ping":78},{"user_id":545,"name":"Nobody","steam_id":76561198085808754,"connected_time":1652000000000,"state":"active","ping":92},{"user_id":555,"name":"Cocksneed Fartin","steam_id":76561198126675787,"connected_time":1402000000000,"state":"active","ping":75},{"user_id":523,"name":"aiden","steam_id":76561198449527009,"connected_time":2521000000000,"state":"active","ping":92},{"user_id":556,"name":"RuinLucky","steam_id":76561199481172481,"connected_time":1401000000000,"state":"active","ping":98},{"user_id":541,"name":"Weeb","steam_id":76561198333568146,"connected_time":1701000000000,"state":"active","ping":69},{"user_id":543,"name":"Archie","steam_id":76561198137112917,"connected_time":1667000000000,"state":"active","ping":106},{"user_id":557,"name":"Toottoot","steam_id":76561197992404836,"connected_time":1387000000000,"state":"active","ping":51},{"user_id":525,"name":"Bluedot","steam_id":76561198019909639,"connected_time":2273000000000,"state":"active","ping":62},{"user_id":559,"name":"carne asada","steam_id":76561198108398751,"connected_time":1216000000000,"state":"active","ping":61},{"user_id":549,"name":"alolan duntski","steam_id":76561198038826744,"connected_time":1549000000000,"state":"active","ping":59},{"user_id":566,"name":"Winter the Witchie","steam_id":76561198151971178,"connected_time":98000000000,"state":"active","ping":59}]},{"server_id":36,"name":"Uncletopia | Chicago | 5 | All Maps","name_short":"chi-5","host":"chi-2.us.uncletopia.com","port":27015,"enabled":true,"region":"us-central","cc":"us","latitude":41.881832,"longitude":-87.62318,"reserved":0,"last_update":"0001-01-01T00:00:00Z","name_a2s":"Uncletopia | Chicago | 5 | All Maps","protocol":17,"map":"koth_lakeside_final","folder":"tf","game":"Team Fortress","app_id":440,"player_count":13,"max_players":24,"Bots":0,"server_type":"Dedicated","server_os":"Linux","password":true,"vac":true,"version":"7932396","steam_id":85568392924866362,"keywords":["cp","nocrits","nodmgspread","uncletopia"],"game_id":440,"stv_port":27016,"stv_name":"Uncletopia | Chicago | 5 | All Maps | STV","players":[{"user_id":45,"name":"eryn üó∫","steam_id":76561198004433070,"connected_time":123000000000,"state":"active","ping":75},{"user_id":47,"name":"Jellin","steam_id":76561198093616984,"connected_time":44000000000,"state":"active","ping":72},{"user_id":46,"name":"Mr. Durian","steam_id":76561198093813212,"connected_time":55000000000,"state":"active","ping":75},{"user_id":30,"name":"Bamboozler","steam_id":76561198010860383,"connected_time":884000000000,"state":"active","ping":80},{"user_id":29,"name":"flame","steam_id":76561198079321914,"connected_time":911000000000,"state":"active","ping":101},{"user_id":32,"name":"Stan","steam_id":76561198209150708,"connected_time":745000000000,"state":"active","ping":66},{"user_id":33,"name":"The_RainbowTrout","steam_id":76561199309554436,"connected_time":700000000000,"state":"active","ping":90},{"user_id":34,"name":"Thequirka","steam_id":76561198968058652,"connected_time":545000000000,"state":"active","ping":98},{"user_id":48,"name":"Lemon oreo cat","steam_id":76561199081237228,"connected_time":33000000000,"state":"active","ping":111},{"user_id":36,"name":"Captain Dusk","steam_id":76561199093333752,"connected_time":431000000000,"state":"active","ping":66},{"user_id":49,"name":"HollyBlocky","steam_id":76561198030156100,"connected_time":19000000000,"state":"spawning","ping":72},{"user_id":38,"name":"QLan","steam_id":76561198147530243,"connected_time":409000000000,"state":"active","ping":78},{"user_id":41,"name":"Chillton","steam_id":76561198248304718,"connected_time":295000000000,"state":"active","ping":70}]},{"server_id":37,"name":"Uncletopia | Chicago | 6 | All Maps","name_short":"chi-6","host":"chi-2.us.uncletopia.com","port":27025,"enabled":true,"region":"us-central","cc":"us","latitude":41.881832,"longitude":-87.62318,"reserved":0,"last_update":"0001-01-01T00:00:00Z","name_a2s":"Uncletopia | Chicago | 6 | All Maps","protocol":17,"map":"pl_barnblitz","folder":"tf","game":"Team Fortress","app_id":440,"player_count":19,"max_players":24,"Bots":0,"server_type":"Dedicated","server_os":"Linux","password":true,"vac":true,"version":"7932396","steam_id":85568392924866363,"keywords":["nocrits","nodmgspread","payload","uncletopia"],"game_id":440,"stv_port":27026,"stv_name":"Uncletopia | Chicago | 6 | All Maps | STV","players":[{"user_id":69,"name":"Caverman156","steam_id":76561198295409223,"connected_time":1651000000000,"state":"active","ping":59},{"user_id":116,"name":"Transfem Furry \u003c3","steam_id":76561198288036403,"connected_time":24000000000,"state":"spawning","ping":112},{"user_id":115,"name":"ganso amarelo","steam_id":76561199104681449,"connected_time":82000000000,"state":"connecting","ping":178},{"user_id":109,"name":"tesagi","steam_id":76561198026664629,"connected_time":766000000000,"state":"active","ping":45},{"user_id":117,"name":"Transfem Catgirl \u003c3 (she/it)","steam_id":76561198807069433,"connected_time":21000000000,"state":"active","ping":90},{"user_id":70,"name":"Boxofbubblewrap","steam_id":76561199229191673,"connected_time":1628000000000,"state":"active","ping":100},{"user_id":118,"name":"Poo","steam_id":76561198265144507,"connected_time":17000000000,"state":"active","ping":201},{"user_id":108,"name":"MgMaster7","steam_id":76561199229916638,"connected_time":783000000000,"state":"active","ping":57},{"user_id":119,"name":"Pretentious Gunspy","steam_id":76561199241325005,"connected_time":6000000000,"state":"spawning","ping":74},{"user_id":60,"name":"BrainCell-Hazard","steam_id":76561199038566105,"connected_time":2849000000000,"state":"active","ping":118},{"user_id":112,"name":"Bean0914","steam_id":76561198261906023,"connected_time":572000000000,"state":"active","ping":82},{"user_id":113,"name":"Dex","steam_id":76561199230265354,"connected_time":476000000000,"state":"active","ping":59},{"user_id":85,"name":"Kuddly Kay (She/Her)","steam_id":76561198353432576,"connected_time":1331000000000,"state":"active","ping":67},{"user_id":86,"name":"minesweeper battlepass","steam_id":76561198047696534,"connected_time":1327000000000,"state":"active","ping":75},{"user_id":87,"name":"ooidial","steam_id":76561199086221916,"connected_time":1321000000000,"state":"active","ping":80},{"user_id":106,"name":"Cybutter","steam_id":76561197985914609,"connected_time":838000000000,"state":"active","ping":86},{"user_id":90,"name":"Sciman101","steam_id":76561198062675732,"connected_time":1279000000000,"state":"active","ping":60},{"user_id":93,"name":"BumberQuest","steam_id":76561198273025294,"connected_time":1253000000000,"state":"active","ping":59},{"user_id":100,"name":"godtierJack.jpeg","steam_id":76561198089827454,"connected_time":1061000000000,"state":"active","ping":55}]},{"server_id":38,"name":"Uncletopia | Chicago | 7 | Stopwatch Beta","name_short":"chi-7","host":"chi-2.us.uncletopia.com","port":27035,"enabled":true,"region":"us-central","cc":"us","latitude":41.881832,"longitude":-87.62318,"reserved":0,"last_update":"0001-01-01T00:00:00Z","name_a2s":"Uncletopia | Chicago | 7 | Stopwatch Beta","protocol":17,"map":"pl_borneo","folder":"tf","game":"Team Fortress","app_id":440,"player_count":0,"max_players":24,"Bots":0,"server_type":"Dedicated","server_os":"Linux","password":true,"vac":true,"version":"7932396","steam_id":85568392924866364,"keywords":["nocrits","nodmgspread","payload","uncletopia"],"game_id":440,"stv_port":27036,"stv_name":"Uncletopia | Chicago | 7 | Stopwatch Beta | STV","players":null},{"server_id":39,"name":"Uncletopia | Chicago | 8 | Community","name_short":"chi-8","host":"chi-2.us.uncletopia.com","port":27045,"enabled":true,"region":"us-central","cc":"us","latitude":41.881832,"longitude":-87.62318,"reserved":0,"last_update":"0001-01-01T00:00:00Z","name_a2s":"Uncletopia | Chicago | 8 | Community","protocol":17,"map":"workshop/pl_boundary_final1.ugc456799153","folder":"tf","game":"Team Fortress","app_id":440,"player_count":24,"max_players":24,"Bots":0,"server_type":"Dedicated","server_os":"Linux","password":true,"vac":true,"version":"7932396","steam_id":85568392924866365,"keywords":["nocrits","nodmgspread","payload","uncletopia"],"game_id":440,"stv_port":27046,"stv_name":"Uncletopia | Chicago | 8 | Community | STV","players":[{"user_id":147,"name":"LukeLeal","steam_id":76561198049822995,"connected_time":1435000000000,"state":"active","ping":165},{"user_id":145,"name":"Broadsword","steam_id":76561198011160411,"connected_time":1529000000000,"state":"active","ping":89},{"user_id":138,"name":"Spectre","steam_id":76561198025652246,"connected_time":2022000000000,"state":"active","ping":53},{"user_id":116,"name":"LORDO","steam_id":76561198044824675,"connected_time":3053000000000,"state":"active","ping":74},{"user_id":155,"name":"crushy spike ceiling","steam_id":76561198241793002,"connected_time":1012000000000,"state":"active","ping":60},{"user_id":117,"name":"Blankity","steam_id":76561198002864974,"connected_time":3044000000000,"state":"active","ping":67},{"user_id":161,"name":"donkeyballs2007","steam_id":76561199466298683,"connected_time":121000000000,"state":"active","ping":97},{"user_id":162,"name":"Captain Demytri","steam_id":76561198097998607,"connected_time":115000000000,"state":"active","ping":48},{"user_id":163,"name":"LazySushi","steam_id":76561198043802202,"connected_time":66000000000,"state":"active","ping":49},{"user_id":167,"name":"The Sinister Potion","steam_id":76561198131280715,"connected_time":3000000000,"state":"spawning","ping":62},{"user_id":135,"name":"magickxanadu","steam_id":76561199117360103,"connected_time":2142000000000,"state":"active","ping":81},{"user_id":120,"name":"Scorpie Doodle","steam_id":76561198021845763,"connected_time":2961000000000,"state":"active","ping":56},{"user_id":160,"name":"Frimpimy","steam_id":76561198142605675,"connected_time":191000000000,"state":"active","ping":60},{"user_id":77,"name":"Voids","steam_id":76561198128386726,"connected_time":5010000000000,"state":"active","ping":74},{"user_id":159,"name":"bunger","steam_id":76561197960611034,"connected_time":394000000000,"state":"active","ping":46},{"user_id":125,"name":"iUseDvorak","steam_id":76561198064439037,"connected_time":2499000000000,"state":"active","ping":62},{"user_id":165,"name":"Swifgz","steam_id":76561198162875756,"connected_time":62000000000,"state":"active","ping":65},{"user_id":95,"name":"GatorAIDS","steam_id":76561198043220092,"connected_time":4234000000000,"state":"active","ping":76},{"user_id":97,"name":"cc","steam_id":76561199215821942,"connected_time":4188000000000,"state":"active","ping":70},{"user_id":157,"name":"REAL LAOZI","steam_id":76561198326944980,"connected_time":615000000000,"state":"active","ping":76},{"user_id":149,"name":"SmoothieMcButtcheeks","steam_id":76561198164799046,"connected_time":1244000000000,"state":"active","ping":126},{"user_id":123,"name":"‚ùÑÔ∏éSHIT PISSER JULIANNE‚ùÑ","steam_id":76561198061955351,"connected_time":2784000000000,"state":"active","ping":56},{"user_id":137,"name":"i like trains","steam_id":76561198090531755,"connected_time":2137000000000,"state":"active","ping":77},{"user_id":153,"name":"PrinceBean","steam_id":76561199055077408,"connected_time":1169000000000,"state":"active","ping":94}]},{"server_id":8,"name":"Uncletopia | Dallas | 1 | All Maps","name_short":"dal-1","host":"dal-1.us.uncletopia.com","port":27015,"enabled":true,"region":"us-central","cc":"us","latitude":32.779167,"longitude":-96.80889,"reserved":0,"last_update":"0001-01-01T00:00:00Z","name_a2s":"Uncletopia | Dallas | 1 | All Maps","protocol":17,"map":"plr_hightower","folder":"tf","game":"Team Fortress","app_id":440,"player_count":14,"max_players":24,"Bots":0,"server_type":"Dedicated","server_os":"Linux","password":true,"vac":true,"version":"7932396","steam_id":85568392924469986,"keywords":["nocrits","nodmgspread","payload","uncletopia"],"game_id":440,"stv_port":27016,"stv_name":"Uncletopia | Dallas | 1 | All Maps | STV","players":[{"user_id":457,"name":"MithStyck","steam_id":76561198071538489,"connected_time":6215000000000,"state":"active","ping":38},{"user_id":527,"name":"TechnoBear2099","steam_id":76561198238863596,"connected_time":89000000000,"state":"active","ping":44},{"user_id":523,"name":"janctorres2009","steam_id":76561199222396429,"connected_time":162000000000,"state":"active","ping":38},{"user_id":524,"name":"ducky","steam_id":76561198007764271,"connected_time":153000000000,"state":"active","ping":48},{"user_id":529,"name":"LemonMentats","steam_id":76561199353096939,"connected_time":31000000000,"state":"spawning","ping":70},{"user_id":499,"name":"fleepore (:","steam_id":76561199238295034,"connected_time":3012000000000,"state":"active","ping":64},{"user_id":512,"name":"Legit_Jaxer","steam_id":76561198172234053,"connected_time":1040000000000,"state":"active","ping":105},{"user_id":514,"name":"Shrederatershan","steam_id":76561199211707598,"connected_time":969000000000,"state":"active","ping":81},{"user_id":504,"name":"MyTeamIsAzz","steam_id":76561198241921220,"connected_time":2393000000000,"state":"active","ping":86},{"user_id":497,"name":"ElZeto","steam_id":76561198252322622,"connected_time":3095000000000,"state":"active","ping":89},{"user_id":520,"name":"surrender to the void","steam_id":76561198055494039,"connected_time":357000000000,"state":"active","ping":89},{"user_id":498,"name":"moe","steam_id":76561198929586245,"connected_time":3033000000000,"state":"active","ping":78},{"user_id":518,"name":"Portal2Player","steam_id":76561198062870114,"connected_time":604000000000,"state":"active","ping":99},{"user_id":505,"name":"FanaticSalt","steam_id":76561199380123059,"connected_time":2063000000000,"state":"active","ping":52}]},{"server_id":108,"name":"Uncletopia | Dallas | 2 | All Maps","name_short":"dal-2","host":"dal-1.us.uncletopia.com","port":27025,"enabled":true,"region":"us-central","cc":"us","latitude":32.779167,"longitude":-96.80889,"reserved":0,"last_update":"0001-01-01T00:00:00Z","name_a2s":"Uncletopia | Dallas | 2 | All Maps","protocol":17,"map":"pl_borneo","folder":"tf","game":"Team Fortress","app_id":440,"player_count":23,"max_players":24,"Bots":0,"server_type":"Dedicated","server_os":"Linux","password":true,"vac":true,"version":"7932396","steam_id":85568392924469988,"keywords":["nocrits","nodmgspread","payload","uncletopia"],"game_id":440,"stv_port":27026,"stv_name":"Uncletopia | Dallas | 2 | All Maps | STV","players":[{"user_id":250,"name":"MrVegasAguitar","steam_id":76561198084466946,"connected_time":435000000000,"state":"active","ping":91},{"user_id":142,"name":"younggflylyfe","steam_id":76561199477357832,"connected_time":6438000000000,"state":"active","ping":37},{"user_id":251,"name":"Hurb","steam_id":76561198746677086,"connected_time":431000000000,"state":"active","ping":87},{"user_id":254,"name":"Compress Dong","steam_id":76561198018950826,"connected_time":202000000000,"state":"active","ping":76},{"user_id":225,"name":"2JZ_","steam_id":76561198064027289,"connected_time":1868000000000,"state":"active","ping":72},{"user_id":247,"name":"Robertkingofspace0919","steam_id":76561199480448450,"connected_time":531000000000,"state":"active","ping":89},{"user_id":245,"name":"ash","steam_id":76561198127890645,"connected_time":783000000000,"state":"active","ping":82},{"user_id":232,"name":"Shroomsie","steam_id":76561198047405791,"connected_time":1341000000000,"state":"active","ping":110},{"user_id":227,"name":"dont tripp","steam_id":76561198370431307,"connected_time":1763000000000,"state":"active","ping":73},{"user_id":224,"name":"Mediocre","steam_id":76561198180501391,"connected_time":2022000000000,"state":"active","ping":89},{"user_id":252,"name":"Peppino Spaghetti","steam_id":76561199390353195,"connected_time":427000000000,"state":"active","ping":85},{"user_id":253,"name":"‚ô° thedittofemboy ‚ô°","steam_id":76561199013129784,"connected_time":259000000000,"state":"active","ping":52},{"user_id":233,"name":"Mizfult","steam_id":76561198049344485,"connected_time":1301000000000,"state":"active","ping":71},{"user_id":240,"name":"EightySix","steam_id":76561198186678831,"connected_time":1115000000000,"state":"active","ping":89},{"user_id":226,"name":"Reverend Swoll","steam_id":76561198121302698,"connected_time":1790000000000,"state":"active","ping":64},{"user_id":202,"name":"cringeass nae-nae girl","steam_id":76561198108753857,"connected_time":3187000000000,"state":"active","ping":66},{"user_id":228,"name":"Oopsie Daisy ‚ùã","steam_id":76561198042144492,"connected_time":1594000000000,"state":"active","ping":73},{"user_id":258,"name":"Drilly22","steam_id":76561198068838338,"connected_time":72000000000,"state":"active","ping":60},{"user_id":219,"name":"furrysuicide","steam_id":76561198852938533,"connected_time":2144000000000,"state":"active","ping":82},{"user_id":231,"name":"Fedoras\u0026Sunglasses","steam_id":76561198311556446,"connected_time":1495000000000,"state":"active","ping":85},{"user_id":256,"name":"August West","steam_id":76561197995068347,"connected_time":179000000000,"state":"active","ping":84},{"user_id":170,"name":"Zetta","steam_id":76561198045710113,"connected_time":4791000000000,"state":"active","ping":84},{"user_id":248,"name":"dailydiamond","steam_id":76561199123582502,"connected_time":531000000000,"state":"active","ping":100}]},{"server_id":5,"name":"Uncletopia | Frankfurt | 1 | All Maps","name_short":"frk-1","host":"frk-1.de.uncletopia.com","port":27015,"enabled":true,"region":"eu","cc":"de","latitude":50.110924,"longitude":8.682127,"reserved":0,"last_update":"0001-01-01T00:00:00Z","name_a2s":"Uncletopia | Frankfurt | 1 | All Maps","protocol":17,"map":"pl_pier","folder":"tf","game":"Team Fortress","app_id":440,"player_count":24,"max_players":24,"Bots":0,"server_type":"Dedicated","server_os":"Linux","password":true,"vac":true,"version":"7932396","steam_id":85568392924469989,"keywords":["nocrits","nodmgspread","payload","uncletopia"],"game_id":440,"stv_port":27016,"stv_name":"Uncletopia | Frankfurt | 1 | All Maps | STV","players":[{"user_id":818,"name":"CALL ME JOHN WAYNE","steam_id":76561198089234939,"connected_time":370000000000,"state":"active","ping":121},{"user_id":817,"name":"Artificial.Ignorance","steam_id":76561198453090180,"connected_time":382000000000,"state":"active","ping":160},{"user_id":825,"name":"Gazza","steam_id":76561198090419732,"connected_time":319000000000,"state":"active","ping":58},{"user_id":757,"name":"r4s1","steam_id":76561198024034917,"connected_time":3796000000000,"state":"active","ping":59},{"user_id":705,"name":"teddy","steam_id":76561198007436837,"connected_time":6428000000000,"state":"active","ping":46},{"user_id":833,"name":"EldritchSoupy","steam_id":76561198123147119,"connected_time":224000000000,"state":"active","ping":68},{"user_id":819,"name":"beep!","steam_id":76561198111674607,"connected_time":370000000000,"state":"active","ping":44},{"user_id":758,"name":"MEGOS","steam_id":76561198172740637,"connected_time":3779000000000,"state":"active","ping":57},{"user_id":834,"name":"Emanuel Dexterity","steam_id":76561198236376196,"connected_time":217000000000,"state":"active","ping":68},{"user_id":835,"name":"going bananas","steam_id":76561199480942903,"connected_time":210000000000,"state":"active","ping":75},{"user_id":821,"name":"weetile | Arch Linux","steam_id":76561198121352176,"connected_time":350000000000,"state":"active","ping":56},{"user_id":785,"name":"cazador","steam_id":76561198123096922,"connected_time":2229000000000,"state":"active","ping":93},{"user_id":780,"name":"neJ","steam_id":76561198003397488,"connected_time":2829000000000,"state":"active","ping":64},{"user_id":808,"name":"RDZ","steam_id":76561198203921628,"connected_time":1156000000000,"state":"active","ping":62},{"user_id":838,"name":"ABbott_","steam_id":76561198030528873,"connected_time":77000000000,"state":"active","ping":77},{"user_id":836,"name":"Aleknat","steam_id":76561198055379857,"connected_time":190000000000,"state":"active","ping":60},{"user_id":804,"name":"Bobirulez","steam_id":76561198009125458,"connected_time":1204000000000,"state":"active","ping":75},{"user_id":798,"name":"Operunter","steam_id":76561198059937616,"connected_time":1545000000000,"state":"active","ping":62},{"user_id":762,"name":"Lux","steam_id":76561198060417740,"connected_time":3707000000000,"state":"active","ping":46},{"user_id":832,"name":"Rigby","steam_id":76561198021552128,"connected_time":247000000000,"state":"active","ping":101},{"user_id":837,"name":"o_o","steam_id":76561198113045011,"connected_time":182000000000,"state":"active","ping":91},{"user_id":765,"name":"[P-roc] Cmm Bert","steam_id":76561198016658674,"connected_time":3686000000000,"state":"active","ping":75},{"user_id":828,"name":"koziol","steam_id":76561198014716232,"connected_time":288000000000,"state":"active","ping":60},{"user_id":830,"name":"Verdy the Femboy","steam_id":76561198449084571,"connected_time":278000000000,"state":"active","ping":56}]},{"server_id":110,"name":"Uncletopia | Frankfurt | 2 | All Maps","name_short":"frk-2","host":"frk-1.de.uncletopia.com","port":27025,"enabled":true,"region":"eu","cc":"de","latitude":50.110924,"longitude":8.682127,"reserved":0,"last_update":"0001-01-01T00:00:00Z","name_a2s":"Uncletopia | Frankfurt | 2 | All Maps","protocol":17,"map":"koth_highpass","folder":"tf","game":"Team Fortress","app_id":440,"player_count":0,"max_players":24,"Bots":0,"server_type":"Dedicated","server_os":"Linux","password":true,"vac":true,"version":"7932396","steam_id":85568392924469990,"keywords":["cp","nocrits","nodmgspread","uncletopia"],"game_id":440,"stv_port":27026,"stv_name":"Uncletopia | Frankfurt | 2 | All Maps | STV","players":null},{"server_id":308,"name":"Uncletopia | Frankfurt | 3 | All Maps","name_short":"frk-3","host":"frk-1.de.uncletopia.com","port":27035,"enabled":true,"region":"eu","cc":"de","latitude":50.110924,"longitude":8.682127,"reserved":0,"last_update":"0001-01-01T00:00:00Z","name_a2s":"Uncletopia | Frankfurt | 3 | All Maps","protocol":17,"map":"koth_nucleus","folder":"tf","game":"Team Fortress","app_id":440,"player_count":0,"max_players":24,"Bots":0,"server_type":"Dedicated","server_os":"Linux","password":true,"vac":true,"version":"7932396","steam_id":85568392924504274,"keywords":["cp","nocrits","nodmgspread","uncletopia"],"game_id":440,"stv_port":27036,"stv_name":"Uncletopia | Frankfurt | 3 | All Maps | STV","players":null},{"server_id":309,"name":"Uncletopia | Frankfurt | 4 | All Maps","name_short":"frk-4","host":"frk-1.de.uncletopia.com","port":27045,"enabled":true,"region":"eu","cc":"de","latitude":50.110924,"longitude":8.682127,"reserved":0,"last_update":"0001-01-01T00:00:00Z","name_a2s":"Uncletopia | Frankfurt | 4 | All Maps","protocol":17,"map":"pl_barnblitz","folder":"tf","game":"Team Fortress","app_id":440,"player_count":23,"max_players":24,"Bots":0,"server_type":"Dedicated","server_os":"Linux","password":true,"vac":true,"version":"7932396","steam_id":85568392924504275,"keywords":["nocrits","nodmgspread","payload","uncletopia"],"game_id":440,"stv_port":27046,"stv_name":"Uncletopia | Frankfurt | 4 | All Maps | STV","players":[{"user_id":401,"name":"Tequila","steam_id":76561198046161044,"connected_time":2572000000000,"state":"active","ping":57},{"user_id":392,"name":"CAMON ENGELAND","steam_id":76561198054301125,"connected_time":2879000000000,"state":"active","ping":91},{"user_id":396,"name":"Confused1221","steam_id":76561199061802741,"connected_time":2729000000000,"state":"active","ping":79},{"user_id":410,"name":"Edgy Name","steam_id":76561198378270820,"connected_time":1454000000000,"state":"active","ping":60},{"user_id":427,"name":"Grillem Dafoe","steam_id":76561198306874574,"connected_time":71000000000,"state":"active","ping":80},{"user_id":415,"name":"Psycho–ü–ê–¢","steam_id":76561198074777220,"connected_time":1192000000000,"state":"active","ping":91},{"user_id":416,"name":"Frigo [1g‚Ñ¢]","steam_id":76561197980853294,"connected_time":1180000000000,"state":"active","ping":46},{"user_id":428,"name":"nicco","steam_id":76561198046217866,"connected_time":22000000000,"state":"active","ping":45},{"user_id":375,"name":"tony pastarino","steam_id":76561197993777553,"connected_time":4814000000000,"state":"active","ping":59},{"user_id":399,"name":"Metalizer","steam_id":76561198099595082,"connected_time":2667000000000,"state":"active","ping":89},{"user_id":412,"name":"Pestdoktor","steam_id":76561198058159271,"connected_time":1224000000000,"state":"active","ping":87},{"user_id":422,"name":"Romultra","steam_id":76561198354105082,"connected_time":898000000000,"state":"active","ping":50},{"user_id":390,"name":"Cat Poop","steam_id":76561198149986505,"connected_time":3048000000000,"state":"active","ping":56},{"user_id":414,"name":"AfterYou234","steam_id":76561199239720991,"connected_time":1213000000000,"state":"active","ping":109},{"user_id":374,"name":"cuddle","steam_id":76561198805181599,"connected_time":4825000000000,"state":"active","ping":66},{"user_id":368,"name":"static","steam_id":76561198836825741,"connected_time":6250000000000,"state":"active","ping":66},{"user_id":373,"name":"Woman (Real)","steam_id":76561199151823932,"connected_time":4850000000000,"state":"active","ping":78},{"user_id":417,"name":"TurTur","steam_id":76561198121719168,"connected_time":1158000000000,"state":"active","ping":53},{"user_id":301,"name":"finbar","steam_id":76561198056812396,"connected_time":11443000000000,"state":"active","ping":83},{"user_id":429,"name":"Ishbel","steam_id":76561198211990879,"connected_time":14000000000,"state":"spawning","ping":64},{"user_id":362,"name":"Intruder","steam_id":76561198156128173,"connected_time":6630000000000,"state":"active","ping":76},{"user_id":419,"name":"Zeppelin","steam_id":76561198154867991,"connected_time":1125000000000,"state":"active","ping":51},{"user_id":385,"name":"Ostara","steam_id":76561198200054489,"connected_time":4235000000000,"state":"active","ping":80}]},{"server_id":310,"name":"Uncletopia | Frankfurt | 5 | All Maps","name_short":"frk-5","host":"frk-1.de.uncletopia.com","port":27055,"enabled":true,"region":"eu","cc":"de","latitude":50.110924,"longitude":8.682127,"reserved":0,"last_update":"0001-01-01T00:00:00Z","name_a2s":"Uncletopia | Frankfurt | 5 | All Maps","protocol":17,"map":"pl_upward","folder":"tf","game":"Team Fortress","app_id":440,"player_count":24,"max_players":24,"Bots":0,"server_type":"Dedicated","server_os":"Linux","password":true,"vac":true,"version":"7932396","steam_id":85568392924504277,"keywords":["nocrits","nodmgspread","payload","uncletopia"],"game_id":440,"stv_port":27056,"stv_name":"Uncletopia | Frankfurt | 5 | All Maps | STV","players":[{"user_id":543,"name":"Ë™∞„Åã„ÅåË¶ã„Å¶„ÅÑ„Çã","steam_id":76561198834913692,"connected_time":4705000000000,"state":"active","ping":60},{"user_id":572,"name":"I WILL POCKET ENEMY SPIES","steam_id":76561198042774930,"connected_time":2096000000000,"state":"active","ping":71},{"user_id":592,"name":"Watermelon","steam_id":76561198078349914,"connected_time":936000000000,"state":"active","ping":61},{"user_id":596,"name":"Cognitionis","steam_id":76561198236287734,"connected_time":280000000000,"state":"active","ping":62},{"user_id":597,"name":"ims trong","steam_id":76561198047359132,"connected_time":169000000000,"state":"active","ping":60},{"user_id":598,"name":"Niko","steam_id":76561198436817109,"connected_time":152000000000,"state":"active","ping":62},{"user_id":452,"name":"str1k","steam_id":76561198450366153,"connected_time":11026000000000,"state":"active","ping":147},{"user_id":576,"name":"Œ© ScAVENGE Œ©","steam_id":76561198034375627,"connected_time":1964000000000,"state":"active","ping":53},{"user_id":577,"name":"sunshine","steam_id":76561198084597975,"connected_time":1951000000000,"state":"active","ping":66},{"user_id":578,"name":"cl","steam_id":76561199436640904,"connected_time":1920000000000,"state":"active","ping":88},{"user_id":603,"name":"Mrbluuub","steam_id":76561199273847084,"connected_time":130000000000,"state":"active","ping":83},{"user_id":595,"name":"dab-dab","steam_id":76561198088930298,"connected_time":330000000000,"state":"active","ping":72},{"user_id":593,"name":"miiq130","steam_id":76561198188010666,"connected_time":903000000000,"state":"active","ping":75},{"user_id":599,"name":"Saul Goodsex","steam_id":76561198173218318,"connected_time":151000000000,"state":"active","ping":57},{"user_id":581,"name":"Shovel the eggneer","steam_id":76561199006243788,"connected_time":1873000000000,"state":"active","ping":148},{"user_id":600,"name":"Avreage Cuffep Hater","steam_id":76561198295868113,"connected_time":148000000000,"state":"active","ping":49},{"user_id":601,"name":"Alex","steam_id":76561198061182324,"connected_time":147000000000,"state":"active","ping":75},{"user_id":602,"name":"C.H.E.R.E.P.","steam_id":76561198026938595,"connected_time":142000000000,"state":"active","ping":89},{"user_id":604,"name":"nacho","steam_id":76561198043178581,"connected_time":122000000000,"state":"active","ping":106},{"user_id":587,"name":"iuSDIB8+ ≈à7","steam_id":76561198363768590,"connected_time":1612000000000,"state":"active","ping":74},{"user_id":606,"name":"Olaf Gasbrigi","steam_id":76561198000618491,"connected_time":115000000000,"state":"active","ping":64},{"user_id":607,"name":"Vic","steam_id":76561198071162624,"connected_time":93000000000,"state":"active","ping":71},{"user_id":609,"name":"Red Diamond","steam_id":76561199243235077,"connected_time":47000000000,"state":"active","ping":210},{"user_id":590,"name":"Ch4bby","steam_id":76561198058792875,"connected_time":1365000000000,"state":"active","ping":58}]},{"server_id":311,"name":"Uncletopia | Frankfurt | 6 | All Maps","name_short":"frk-6","host":"frk-1.de.uncletopia.com","port":27065,"enabled":true,"region":"eu","cc":"de","latitude":50.110924,"longitude":8.682127,"reserved":0,"last_update":"0001-01-01T00:00:00Z","name_a2s":"Uncletopia | Frankfurt | 6 | All Maps","protocol":17,"map":"pl_snowycoast","folder":"tf","game":"Team Fortress","app_id":440,"player_count":24,"max_players":24,"Bots":0,"server_type":"Dedicated","server_os":"Linux","password":true,"vac":true,"version":"7932396","steam_id":85568392924504278,"keywords":["nocrits","nodmgspread","payload","uncletopia"],"game_id":440,"stv_port":27066,"stv_name":"Uncletopia | Frankfurt | 6 | All Maps | STV","players":[{"user_id":215,"name":"Tatsu","steam_id":76561198026601479,"connected_time":3627000000000,"state":"active","ping":71},{"user_id":217,"name":"ReclusiveMike","steam_id":76561198053349061,"connected_time":3582000000000,"state":"active","ping":71},{"user_id":263,"name":"Star in a pond","steam_id":76561198205501279,"connected_time":685000000000,"state":"active","ping":96},{"user_id":264,"name":"chill","steam_id":76561198198581079,"connected_time":656000000000,"state":"active","ping":131},{"user_id":265,"name":"Zenssei","steam_id":76561198209895623,"connected_time":647000000000,"state":"active","ping":106},{"user_id":266,"name":"AestheticalZ","steam_id":76561198269554197,"connected_time":641000000000,"state":"active","ping":63},{"user_id":268,"name":"Maxwell","steam_id":76561198088925893,"connected_time":589000000000,"state":"active","ping":85},{"user_id":241,"name":"Segador","steam_id":76561199101669414,"connected_time":1275000000000,"state":"active","ping":59},{"user_id":275,"name":"Tonne","steam_id":76561197970856766,"connected_time":388000000000,"state":"active","ping":56},{"user_id":219,"name":"PKCrane","steam_id":76561198038672847,"connected_time":3579000000000,"state":"active","ping":74},{"user_id":234,"name":"Bobbeldibob","steam_id":76561198256796473,"connected_time":1809000000000,"state":"active","ping":61},{"user_id":237,"name":"WHearts","steam_id":76561198081597329,"connected_time":1509000000000,"state":"active","ping":69},{"user_id":277,"name":"walking plane","steam_id":76561198146779559,"connected_time":298000000000,"state":"active","ping":75},{"user_id":228,"name":"HentaiEnjoyer","steam_id":76561198148361982,"connected_time":3093000000000,"state":"active","ping":58},{"user_id":250,"name":"√Öldepth","steam_id":76561198427965963,"connected_time":1070000000000,"state":"active","ping":89},{"user_id":271,"name":"A Succulent Chinese Meal","steam_id":76561198069472440,"connected_time":506000000000,"state":"active","ping":86},{"user_id":260,"name":"Defiance_LLK","steam_id":76561198043915016,"connected_time":745000000000,"state":"active","ping":171},{"user_id":261,"name":"Mikkel Sorensen","steam_id":76561198173219891,"connected_time":726000000000,"state":"active","ping":71},{"user_id":262,"name":"Dr Coomer","steam_id":76561198415406052,"connected_time":715000000000,"state":"active","ping":68},{"user_id":248,"name":"lu.c77","steam_id":76561199089652432,"connected_time":1229000000000,"state":"active","ping":87},{"user_id":267,"name":"tone","steam_id":76561197975301462,"connected_time":629000000000,"state":"active","ping":89},{"user_id":269,"name":"ja","steam_id":76561199228540618,"connected_time":565000000000,"state":"active","ping":67},{"user_id":272,"name":"Tusho","steam_id":76561198115447383,"connected_time":476000000000,"state":"active","ping":76},{"user_id":276,"name":"Weenie Hut Jr's","steam_id":76561198050515739,"connected_time":380000000000,"state":"active","ping":61}]},{"server_id":23,"name":"Uncletopia | Frankfurt | 7 | Stopwatch Beta","name_short":"frk-7","host":"frk-1.de.uncletopia.com","port":27075,"enabled":true,"region":"eu","cc":"de","latitude":50.110924,"longitude":8.682127,"reserved":0,"last_update":"0001-01-01T00:00:00Z","name_a2s":"Uncletopia | Frankfurt | 7 | Stopwatch Beta","protocol":17,"map":"pl_snowycoast","folder":"tf","game":"Team Fortress","app_id":440,"player_count":0,"max_players":24,"Bots":0,"server_type":"Dedicated","server_os":"Linux","password":true,"vac":true,"version":"7932396","steam_id":85568392924742827,"keywords":["nocrits","nodmgspread","payload","uncletopia"],"game_id":440,"stv_port":27076,"stv_name":"Uncletopia | Frankfurt | 7 | Stopwatch Beta | STV","players":null},{"server_id":24,"name":"Uncletopia | Frankfurt | 8 | Community","name_short":"frk-8","host":"frk-1.de.uncletopia.com","port":27085,"enabled":true,"region":"eu","cc":"de","latitude":50.110924,"longitude":8.682127,"reserved":0,"last_update":"0001-01-01T00:00:00Z","name_a2s":"Uncletopia | Frankfurt | 8 | Community","protocol":17,"map":"workshop/pl_corrode_rc2.ugc546577989","folder":"tf","game":"Team Fortress","app_id":440,"player_count":5,"max_players":24,"Bots":0,"server_type":"Dedicated","server_os":"Linux","password":true,"vac":true,"version":"7932396","steam_id":85568392924742828,"keywords":["nocrits","nodmgspread","payload","uncletopia"],"game_id":440,"stv_port":27086,"stv_name":"Uncletopia | Frankfurt | 8 | Community | STV","players":[{"user_id":109,"name":"TylowStar","steam_id":76561198357107806,"connected_time":271000000000,"state":"spawning","ping":184},{"user_id":88,"name":"KAZUICHI SOUDA","steam_id":76561198307503265,"connected_time":1484000000000,"state":"spawning","ping":109},{"user_id":89,"name":"‚ô´‚ô•HATSUNE MIKU‚ô´‚ô•","steam_id":76561198277156963,"connected_time":1474000000000,"state":"spawning","ping":109},{"user_id":108,"name":"Darrel","steam_id":76561199059399432,"connected_time":390000000000,"state":"spawning","ping":154},{"user_id":99,"name":"R@DIO","steam_id":76561197995533046,"connected_time":1270000000000,"state":"spawning","ping":104}]},{"server_id":202,"name":"Uncletopia | Hong Kong | 1 | All Maps","name_short":"hgk-1","host":"hgk-1.hk.uncletopia.com","port":27015,"enabled":true,"region":"asia","cc":"hk","latitude":22.302711,"longitude":114.177216,"reserved":0,"last_update":"0001-01-01T00:00:00Z","name_a2s":"Uncletopia | Hong Kong | 1 | All Maps","protocol":17,"map":"koth_viaduct","folder":"tf","game":"Team Fortress","app_id":440,"player_count":0,"max_players":24,"Bots":0,"server_type":"Dedicated","server_os":"Linux","password":true,"vac":true,"version":"7932396","steam_id":85568392924494504,"keywords":["cp","nocrits","nodmgspread","uncletopia"],"game_id":440,"stv_port":27016,"stv_name":"Uncletopia | Hong Kong | 1 | All Maps | STV","players":null},{"server_id":1,"name":"Uncletopia | Los Angeles | 1 | All Maps","name_short":"lax-1","host":"lax-1.us.uncletopia.com","port":27015,"enabled":true,"region":"us-west","cc":"us","latitude":33.94279,"longitude":-118.41004,"reserved":0,"last_update":"0001-01-01T00:00:00Z","name_a2s":"Uncletopia | Los Angeles | 1 | All Maps","protocol":17,"map":"pl_barnblitz","folder":"tf","game":"Team Fortress","app_id":440,"player_count":0,"max_players":24,"Bots":0,"server_type":"Dedicated","server_os":"Linux","password":true,"vac":true,"version":"7932396","steam_id":85568392924469991,"keywords":["nocrits","nodmgspread","payload","uncletopia"],"game_id":440,"stv_port":27016,"stv_name":"Uncletopia | Los Angeles | 1 | All Maps | STV","players":null},{"server_id":112,"name":"Uncletopia | Los Angeles | 2 | All Maps","name_short":"lax-2","host":"lax-1.us.uncletopia.com","port":27025,"enabled":true,"region":"us-west","cc":"us","latitude":33.94279,"longitude":-118.41004,"reserved":0,"last_update":"0001-01-01T00:00:00Z","name_a2s":"Uncletopia | Los Angeles | 2 | All Maps","protocol":17,"map":"ctf_2fort","folder":"tf","game":"Team Fortress","app_id":440,"player_count":3,"max_players":24,"Bots":0,"server_type":"Dedicated","server_os":"Linux","password":true,"vac":true,"version":"7932396","steam_id":85568392924469992,"keywords":["ctf","nocrits","nodmgspread","uncletopia"],"game_id":440,"stv_port":27026,"stv_name":"Uncletopia | Los Angeles | 2 | All Maps | STV","players":[{"user_id":6,"name":"HooDoo","steam_id":76561198088994018,"connected_time":5677000000000,"state":"active","ping":74},{"user_id":20,"name":"Aisforlike","steam_id":76561199482110668,"connected_time":368000000000,"state":"active","ping":75},{"user_id":21,"name":"KysonJack","steam_id":76561198024092248,"connected_time":310000000000,"state":"active","ping":84}]},{"server_id":324,"name":"Uncletopia | Los Angeles | 3 | All Maps","name_short":"lax-3","host":"lax-1.us.uncletopia.com","port":27035,"enabled":true,"region":"us-west","cc":"us","latitude":33.94279,"longitude":-118.41004,"reserved":0,"last_update":"0001-01-01T00:00:00Z","name_a2s":"Uncletopia | Los Angeles | 3 | All Maps","protocol":17,"map":"koth_viaduct","folder":"tf","game":"Team Fortress","app_id":440,"player_count":0,"max_players":24,"Bots":0,"server_type":"Dedicated","server_os":"Linux","password":true,"vac":true,"version":"7932396","steam_id":85568392924510198,"keywords":["cp","nocrits","nodmgspread","uncletopia"],"game_id":440,"stv_port":27036,"stv_name":"Uncletopia | Los Angeles | 3 | All Maps | STV","players":null},{"server_id":25,"name":"Uncletopia | Los Angeles | 4 | Stopwatch Beta","name_short":"lax-4","host":"lax-1.us.uncletopia.com","port":27045,"enabled":true,"region":"us-west","cc":"us","latitude":33.94279,"longitude":-118.41004,"reserved":0,"last_update":"0001-01-01T00:00:00Z","name_a2s":"Uncletopia | Los Angeles | 4 | Stopwatch Beta","protocol":17,"map":"pl_upward","folder":"tf","game":"Team Fortress","app_id":440,"player_count":0,"max_players":24,"Bots":0,"server_type":"Dedicated","server_os":"Linux","password":true,"vac":true,"version":"7932396","steam_id":85568392924510199,"keywords":["nocrits","nodmgspread","payload","uncletopia"],"game_id":440,"stv_port":27046,"stv_name":"Uncletopia | Los Angeles | 4 | Stopwatch Beta | STV","players":null},{"server_id":11,"name":"Uncletopia | London | 1 | All Maps","name_short":"lon-1","host":"lon-1.uk.uncletopia.com","port":27015,"enabled":true,"region":"eu","cc":"gb","latitude":51.509865,"longitude":-0.118092,"reserved":0,"last_update":"0001-01-01T00:00:00Z","name_a2s":"Uncletopia | London | 1 | All Maps","protocol":17,"map":"plr_hightower","folder":"tf","game":"Team Fortress","app_id":440,"player_count":9,"max_players":24,"Bots":0,"server_type":"Dedicated","server_os":"Linux","password":true,"vac":true,"version":"7932396","steam_id":85568392924367362,"keywords":["nocrits","nodmgspread","payload","uncletopia"],"game_id":440,"stv_port":27016,"stv_name":"Uncletopia | London | 1 | All Maps | STV","players":[{"user_id":562,"name":"flappi","steam_id":76561198072892783,"connected_time":144000000000,"state":"active","ping":59},{"user_id":539,"name":"Teathling","steam_id":76561198061580505,"connected_time":1909000000000,"state":"active","ping":53},{"user_id":545,"name":"exRage","steam_id":76561198449953655,"connected_time":1515000000000,"state":"active","ping":62},{"user_id":524,"name":"Random city potato","steam_id":76561199010542992,"connected_time":2131000000000,"state":"active","ping":64},{"user_id":538,"name":"meatsoupcube","steam_id":76561198276802249,"connected_time":1930000000000,"state":"active","ping":103},{"user_id":527,"name":"Thing","steam_id":76561197997904403,"connected_time":2087000000000,"state":"active","ping":102},{"user_id":534,"name":"shooer!","steam_id":76561198110531281,"connected_time":2021000000000,"state":"active","ping":70},{"user_id":498,"name":"Aaron","steam_id":76561197990046953,"connected_time":4587000000000,"state":"active","ping":59},{"user_id":517,"name":"The Nostalgia Critic","steam_id":76561198360395476,"connected_time":3605000000000,"state":"active","ping":40}]},{"server_id":114,"name":"Uncletopia | London | 2 | All Maps","name_short":"lon-2","host":"lon-1.uk.uncletopia.com","port":27025,"enabled":true,"region":"eu","cc":"gb","latitude":51.509865,"longitude":-0.118092,"reserved":0,"last_update":"0001-01-01T00:00:00Z","name_a2s":"Uncletopia | London | 2 | All Maps","protocol":17,"map":"pl_frontier_final","folder":"tf","game":"Team Fortress","app_id":440,"player_count":24,"max_players":24,"Bots":0,"server_type":"Dedicated","server_os":"Linux","password":true,"vac":true,"version":"7932396","steam_id":85568392924470941,"keywords":["nocrits","nodmgspread","payload","uncletopia"],"game_id":440,"stv_port":27026,"stv_name":"Uncletopia | London | 2 | All Maps | STV","players":[{"user_id":292,"name":"Dumaru","steam_id":76561198010300032,"connected_time":754000000000,"state":"active","ping":81},{"user_id":283,"name":"Cervantes","steam_id":76561198099245500,"connected_time":1065000000000,"state":"active","ping":53},{"user_id":275,"name":"‚ôÇ Dungeon Master ‚ôÇ","steam_id":76561198106441033,"connected_time":1754000000000,"state":"active","ping":96},{"user_id":299,"name":"sora","steam_id":76561198096547662,"connected_time":27000000000,"state":"active","ping":52},{"user_id":293,"name":"Lightning Dust","steam_id":76561198026554788,"connected_time":748000000000,"state":"active","ping":119},{"user_id":284,"name":"„Éó„É≠„Éë„Éë„É≥„ÉÄ","steam_id":76561199196528528,"connected_time":1009000000000,"state":"active","ping":30},{"user_id":298,"name":"engineer gameplay","steam_id":76561198083615367,"connected_time":645000000000,"state":"active","ping":34},{"user_id":285,"name":"Nickel","steam_id":76561199037745941,"connected_time":987000000000,"state":"active","ping":142},{"user_id":258,"name":"omnibombulator","steam_id":76561198025858897,"connected_time":2548000000000,"state":"active","ping":48},{"user_id":238,"name":"Mr_Pulse_","steam_id":76561198095001602,"connected_time":3828000000000,"state":"active","ping":110},{"user_id":188,"name":"The Lady","steam_id":76561198029895809,"connected_time":6485000000000,"state":"active","ping":90},{"user_id":280,"name":"b9njmn","steam_id":76561198068481592,"connected_time":1090000000000,"state":"active","ping":74},{"user_id":294,"name":"Dhorrok","steam_id":76561198068258578,"connected_time":731000000000,"state":"active","ping":97},{"user_id":259,"name":"D_Ink","steam_id":76561198267716662,"connected_time":2526000000000,"state":"active","ping":31},{"user_id":260,"name":"Dewotter","steam_id":76561198007653168,"connected_time":2519000000000,"state":"active","ping":58},{"user_id":265,"name":"Charlie Hansen","steam_id":76561198030956814,"connected_time":2446000000000,"state":"active","ping":74},{"user_id":276,"name":"Arthur","steam_id":76561198066109166,"connected_time":1719000000000,"state":"active","ping":88},{"user_id":230,"name":"Kosmonaukt","steam_id":76561198168108777,"connected_time":4087000000000,"state":"active","ping":47},{"user_id":267,"name":"xulera","steam_id":76561198080736030,"connected_time":2336000000000,"state":"active","ping":61},{"user_id":239,"name":"yuck","steam_id":76561197987249568,"connected_time":3808000000000,"state":"active","ping":99},{"user_id":278,"name":"The Worst TF2 Player (Real)","steam_id":76561199230635041,"connected_time":1154000000000,"state":"active","ping":52},{"user_id":295,"name":"Darakrish","steam_id":76561198133126686,"connected_time":725000000000,"state":"active","ping":154},{"user_id":289,"name":"raehik","steam_id":76561198025278149,"connected_time":921000000000,"state":"active","ping":52},{"user_id":297,"name":"Ela?","steam_id":76561198382598509,"connected_time":703000000000,"state":"active","ping":74}]},{"server_id":320,"name":"Uncletopia | London | 3 | All Maps","name_short":"lon-3","host":"lon-1.uk.uncletopia.com","port":27035,"enabled":true,"region":"eu","cc":"gb","latitude":51.509865,"longitude":-0.118092,"reserved":0,"last_update":"0001-01-01T00:00:00Z","name_a2s":"Uncletopia | London | 3 | All Maps","protocol":17,"map":"pl_snowycoast","folder":"tf","game":"Team Fortress","app_id":440,"player_count":24,"max_players":24,"Bots":0,"server_type":"Dedicated","server_os":"Linux","password":true,"vac":true,"version":"7932396","steam_id":85568392924510192,"keywords":["nocrits","nodmgspread","payload","uncletopia"],"game_id":440,"stv_port":27036,"stv_name":"Uncletopia | London | 3 | All Maps | STV","players":[{"user_id":388,"name":"Woa","steam_id":76561198345683201,"connected_time":1903000000000,"state":"active","ping":47},{"user_id":359,"name":"anyman","steam_id":76561199043766687,"connected_time":3132000000000,"state":"active","ping":44},{"user_id":380,"name":"emag live","steam_id":76561198047164140,"connected_time":2329000000000,"state":"active","ping":60},{"user_id":389,"name":"DelaNo","steam_id":76561199125086655,"connected_time":1902000000000,"state":"active","ping":382},{"user_id":396,"name":"Krocon","steam_id":76561198084906316,"connected_time":1410000000000,"state":"active","ping":93},{"user_id":415,"name":"DARWIN THE WUTVILLE ENJOYER","steam_id":76561198265397096,"connected_time":412000000000,"state":"active","ping":39},{"user_id":405,"name":"Simurg","steam_id":76561198120781668,"connected_time":578000000000,"state":"active","ping":85},{"user_id":398,"name":"MR ASSMAN","steam_id":76561198206227241,"connected_time":1352000000000,"state":"active","ping":64},{"user_id":420,"name":"FirePenguin","steam_id":76561198151468340,"connected_time":147000000000,"state":"active","ping":40},{"user_id":406,"name":"Samus","steam_id":76561198045943019,"connected_time":567000000000,"state":"active","ping":56},{"user_id":407,"name":"Dragon","steam_id":76561198271834452,"connected_time":562000000000,"state":"active","ping":55},{"user_id":416,"name":"Rocopherus","steam_id":76561198045010551,"connected_time":387000000000,"state":"active","ping":55},{"user_id":404,"name":"Refurbished Boy","steam_id":76561197995834697,"connected_time":597000000000,"state":"active","ping":97},{"user_id":417,"name":"z0rgs","steam_id":76561199128363302,"connected_time":264000000000,"state":"active","ping":152},{"user_id":355,"name":"LiterallyRyanGosling","steam_id":76561199017856691,"connected_time":3345000000000,"state":"active","ping":54},{"user_id":385,"name":"Gnarville","steam_id":76561198006373329,"connected_time":2068000000000,"state":"active","ping":49},{"user_id":408,"name":"Rolloden","steam_id":76561198069414404,"connected_time":555000000000,"state":"active","ping":71},{"user_id":419,"name":"flashender","steam_id":76561198961039086,"connected_time":175000000000,"state":"active","ping":73},{"user_id":375,"name":"N e j i","steam_id":76561198011318347,"connected_time":2519000000000,"state":"active","ping":85},{"user_id":414,"name":"THE CAPN","steam_id":76561198083505031,"connected_time":431000000000,"state":"active","ping":46},{"user_id":410,"name":"Clueless","steam_id":76561199212834268,"connected_time":541000000000,"state":"active","ping":60},{"user_id":412,"name":"TurboTabs","steam_id":76561198009785131,"connected_time":524000000000,"state":"active","ping":54},{"user_id":393,"name":"AftiksPL","steam_id":76561198875182686,"connected_time":1829000000000,"state":"active","ping":99},{"user_id":324,"name":"sciencenerd42","steam_id":76561198274563320,"connected_time":4781000000000,"state":"active","ping":111}]},{"server_id":321,"name":"Uncletopia | London | 4 | All Maps","name_short":"lon-4","host":"lon-1.uk.uncletopia.com","port":27045,"enabled":true,"region":"eu","cc":"gb","latitude":51.509865,"longitude":-0.118092,"reserved":0,"last_update":"0001-01-01T00:00:00Z","name_a2s":"Uncletopia | London | 4 | All Maps","protocol":17,"map":"pl_upward","folder":"tf","game":"Team Fortress","app_id":440,"player_count":24,"max_players":24,"Bots":0,"server_type":"Dedicated","server_os":"Linux","password":true,"vac":true,"version":"7932396","steam_id":85568392924510193,"keywords":["nocrits","nodmgspread","payload","uncletopia"],"game_id":440,"stv_port":27046,"stv_name":"Uncletopia | London | 4 | All Maps | STV","players":[{"user_id":413,"name":"hot guy","steam_id":76561198083063005,"connected_time":575000000000,"state":"active","ping":33},{"user_id":368,"name":"Klunkerino","steam_id":76561197971081655,"connected_time":4150000000000,"state":"active","ping":72},{"user_id":390,"name":"WiiSportKing","steam_id":76561198114139081,"connected_time":2254000000000,"state":"active","ping":54},{"user_id":388,"name":"OutOfDucks","steam_id":76561198166376227,"connected_time":2295000000000,"state":"active","ping":59},{"user_id":303,"name":"Soaya","steam_id":76561199101510855,"connected_time":7748000000000,"state":"active","ping":46},{"user_id":409,"name":"Herkku","steam_id":76561198105058069,"connected_time":678000000000,"state":"active","ping":86},{"user_id":414,"name":"sushii","steam_id":76561198297987372,"connected_time":422000000000,"state":"active","ping":52},{"user_id":340,"name":"idenburg","steam_id":76561198063574956,"connected_time":6404000000000,"state":"active","ping":49},{"user_id":360,"name":"ran is running","steam_id":76561199443185667,"connected_time":4952000000000,"state":"active","ping":161},{"user_id":387,"name":"NeonNewt","steam_id":76561198066699212,"connected_time":2307000000000,"state":"active","ping":59},{"user_id":418,"name":"Sticker Girl","steam_id":76561198086326874,"connected_time":196000000000,"state":"active","ping":122},{"user_id":419,"name":"Neco-arc Astolfo","steam_id":76561198989682540,"connected_time":162000000000,"state":"active","ping":59},{"user_id":398,"name":"the least schizo med main","steam_id":76561198048530109,"connected_time":1369000000000,"state":"active","ping":75},{"user_id":376,"name":"griejes","steam_id":76561198053184757,"connected_time":3123000000000,"state":"active","ping":39},{"user_id":421,"name":"Cream Corn","steam_id":76561198043791586,"connected_time":129000000000,"state":"active","ping":111},{"user_id":389,"name":"Whimsyy","steam_id":76561198065557010,"connected_time":2294000000000,"state":"active","ping":61},{"user_id":393,"name":"TMC","steam_id":76561198077956157,"connected_time":1409000000000,"state":"active","ping":44},{"user_id":377,"name":"donatofina","steam_id":76561198353497885,"connected_time":3122000000000,"state":"active","ping":118},{"user_id":403,"name":"Cage, Nicolas","steam_id":76561198061714753,"connected_time":1290000000000,"state":"active","ping":86},{"user_id":401,"name":"VideoJames","steam_id":76561197970114051,"connected_time":1358000000000,"state":"active","ping":45},{"user_id":422,"name":"Dragejan","steam_id":76561198010216332,"connected_time":105000000000,"state":"active","ping":70},{"user_id":410,"name":"DJPNK","steam_id":76561197989948420,"connected_time":675000000000,"state":"active","ping":45},{"user_id":380,"name":"wal","steam_id":76561198066043883,"connected_time":2907000000000,"state":"active","ping":61},{"user_id":391,"name":"TheEventGuy","steam_id":76561197972797744,"connected_time":2083000000000,"state":"active","ping":76}]},{"server_id":21,"name":"Uncletopia | London | 5 | All Maps","name_short":"lon-5","host":"lon-1.uk.uncletopia.com","port":27055,"enabled":true,"region":"eu","cc":"gb","latitude":51.509865,"longitude":-0.118092,"reserved":0,"last_update":"0001-01-01T00:00:00Z","name_a2s":"Uncletopia | London | 5 | All Maps","protocol":17,"map":"pl_borneo","folder":"tf","game":"Team Fortress","app_id":440,"player_count":24,"max_players":24,"Bots":0,"server_type":"Dedicated","server_os":"Linux","password":true,"vac":true,"version":"7932396","steam_id":85568392924742829,"keywords":["nocrits","nodmgspread","payload","uncletopia"],"game_id":440,"stv_port":27056,"stv_name":"Uncletopia | London | 5 | All Maps | STV","players":[{"user_id":362,"name":"Chillrend | #SaveTF2","steam_id":76561198452963141,"connected_time":521000000000,"state":"active","ping":91},{"user_id":321,"name":"our lord and saviour Pan","steam_id":76561198394963563,"connected_time":3051000000000,"state":"active","ping":64},{"user_id":367,"name":"Panda","steam_id":76561198176342325,"connected_time":364000000000,"state":"active","ping":95},{"user_id":311,"name":"fewexxx","steam_id":76561198354123406,"connected_time":4134000000000,"state":"active","ping":89},{"user_id":360,"name":"Twin Ih","steam_id":76561198159968450,"connected_time":640000000000,"state":"active","ping":100},{"user_id":364,"name":"h4f\u0026√©","steam_id":76561198136514227,"connected_time":472000000000,"state":"active","ping":87},{"user_id":370,"name":"Dr.Longmont","steam_id":76561198035566337,"connected_time":107000000000,"state":"spawning","ping":171},{"user_id":349,"name":"calum92","steam_id":76561197992188760,"connected_time":890000000000,"state":"active","ping":69},{"user_id":340,"name":"Faustino","steam_id":76561198061771785,"connected_time":1820000000000,"state":"active","ping":84},{"user_id":326,"name":"L4gman","steam_id":76561198048227040,"connected_time":2844000000000,"state":"active","ping":73},{"user_id":361,"name":"Gravy","steam_id":76561198029548074,"connected_time":602000000000,"state":"active","ping":48},{"user_id":350,"name":"TOKOZACKO","steam_id":76561198125163526,"connected_time":861000000000,"state":"active","ping":87},{"user_id":371,"name":"Sirzen","steam_id":76561198170155434,"connected_time":18000000000,"state":"active","ping":50},{"user_id":341,"name":"UglyTwinYgor","steam_id":76561198132718039,"connected_time":1817000000000,"state":"active","ping":86},{"user_id":351,"name":"trampampoline","steam_id":76561198121286517,"connected_time":847000000000,"state":"active","ping":39},{"user_id":352,"name":"KittyKate ‚ù§","steam_id":76561198116340817,"connected_time":841000000000,"state":"active","ping":61},{"user_id":337,"name":"I jazzed myself","steam_id":76561198203016603,"connected_time":2211000000000,"state":"active","ping":73},{"user_id":353,"name":"Magic Misha","steam_id":76561198425505206,"connected_time":832000000000,"state":"active","ping":68},{"user_id":369,"name":"obi‚ò≠","steam_id":76561198040154461,"connected_time":175000000000,"state":"active","ping":75},{"user_id":242,"name":"Yuzu","steam_id":76561198121694613,"connected_time":8051000000000,"state":"active","ping":51},{"user_id":358,"name":"Urfangonultasadana","steam_id":76561199389286151,"connected_time":705000000000,"state":"active","ping":98},{"user_id":368,"name":"Hatonfire","steam_id":76561198287372060,"connected_time":332000000000,"state":"active","ping":32},{"user_id":355,"name":"BuzzBees ‚ù§","steam_id":76561198101502273,"connected_time":821000000000,"state":"active","ping":50},{"user_id":310,"name":"EjaculatingEduardo","steam_id":76561198926910343,"connected_time":4158000000000,"state":"active","ping":51}]},{"server_id":22,"name":"Uncletopia | London | 6 | All Maps","name_short":"lon-6","host":"lon-1.uk.uncletopia.com","port":27065,"enabled":true,"region":"eu","cc":"gb","latitude":51.509865,"longitude":-0.118092,"reserved":0,"last_update":"0001-01-01T00:00:00Z","name_a2s":"Uncletopia | London | 6 | All Maps","protocol":17,"map":"pl_barnblitz","folder":"tf","game":"Team Fortress","app_id":440,"player_count":0,"max_players":24,"Bots":0,"server_type":"Dedicated","server_os":"Linux","password":true,"vac":true,"version":"7932396","steam_id":85568392924742830,"keywords":["nocrits","nodmgspread","payload","uncletopia"],"game_id":440,"stv_port":27066,"stv_name":"Uncletopia | London | 6 | All Maps | STV","players":null},{"server_id":40,"name":"Uncletopia | London | 7 | No Payload","name_short":"lon-7","host":"lon-1.uk.uncletopia.com","port":27075,"enabled":true,"region":"eu","cc":"gb","latitude":51.509865,"longitude":-0.118092,"reserved":0,"last_update":"0001-01-01T00:00:00Z","name_a2s":"Uncletopia | London | 7 | No Payload","protocol":17,"map":"koth_lazarus","folder":"tf","game":"Team Fortress","app_id":440,"player_count":0,"max_players":24,"Bots":0,"server_type":"Dedicated","server_os":"Linux","password":true,"vac":true,"version":"7932396","steam_id":85568392924964314,"keywords":["cp","nocrits","nodmgspread","uncletopia"],"game_id":440,"stv_port":27076,"stv_name":"Uncletopia | London | 7 | No Payload | STV","players":null},{"server_id":41,"name":"Uncletopia | London | 8 | Community","name_short":"lon-8","host":"lon-1.uk.uncletopia.com","port":27085,"enabled":true,"region":"eu","cc":"gb","latitude":51.509865,"longitude":-0.118092,"reserved":0,"last_update":"0001-01-01T00:00:00Z","name_a2s":"Uncletopia | London | 8 | Community","protocol":17,"map":"workshop/cp_croissant_final.ugc458840209","folder":"tf","game":"Team Fortress","app_id":440,"player_count":0,"max_players":24,"Bots":0,"server_type":"Dedicated","server_os":"Linux","password":true,"vac":true,"version":"7932396","steam_id":85568392924964315,"keywords":["cp","nocrits","nodmgspread","uncletopia"],"game_id":440,"stv_port":27086,"stv_name":"Uncletopia | London | 8 | Community | STV","players":null},{"server_id":300,"name":"Uncletopia | Montr√©al | 1 | All Maps","name_short":"mtl-1","host":"mtl-1.ca.uncletopia.com","port":27015,"enabled":true,"region":"us-east","cc":"ca","latitude":45.50889,"longitude":-73.56167,"reserved":0,"last_update":"0001-01-01T00:00:00Z","name_a2s":"Uncletopia | Montr√©al | 1 | All Maps","protocol":17,"map":"cp_altitude","folder":"tf","game":"Team Fortress","app_id":440,"player_count":4,"max_players":24,"Bots":0,"server_type":"Dedicated","server_os":"Linux","password":true,"vac":true,"version":"7932396","steam_id":85568392924500087,"keywords":["cp","nocrits","nodmgspread","uncletopia"],"game_id":440,"stv_port":27016,"stv_name":"Uncletopia | Montr√©al | 1 | All Maps | STV","players":[{"user_id":4,"name":"lolzfrdawin21","steam_id":76561199006665979,"connected_time":223000000000,"state":"active","ping":79},{"user_id":5,"name":"cool beans","steam_id":76561198321591685,"connected_time":214000000000,"state":"active","ping":100},{"user_id":6,"name":"ThatOneBentSpork","steam_id":76561199238184568,"connected_time":209000000000,"state":"active","ping":84},{"user_id":7,"name":"sway sunnay","steam_id":76561198308817394,"connected_time":205000000000,"state":"active","ping":75}]},{"server_id":301,"name":"Uncletopia | Montr√©al | 2 | All Maps","name_short":"mtl-2","host":"mtl-1.ca.uncletopia.com","port":27025,"enabled":true,"region":"us-east","cc":"ca","latitude":45.50889,"longitude":-73.56167,"reserved":0,"last_update":"0001-01-01T00:00:00Z","name_a2s":"Uncletopia | Montr√©al | 2 | All Maps","protocol":17,"map":"koth_lakeside_final","folder":"tf","game":"Team Fortress","app_id":440,"player_count":0,"max_players":24,"Bots":0,"server_type":"Dedicated","server_os":"Linux","password":true,"vac":true,"version":"7932396","steam_id":85568392924500088,"keywords":["cp","nocrits","nodmgspread","uncletopia"],"game_id":440,"stv_port":27026,"stv_name":"Uncletopia | Montr√©al | 2 | All Maps | STV","players":null},{"server_id":302,"name":"Uncletopia | Montr√©al | 3 | All Maps","name_short":"mtl-3","host":"mtl-1.ca.uncletopia.com","port":27035,"enabled":true,"region":"us-east","cc":"ca","latitude":45.50889,"longitude":-73.56167,"reserved":0,"last_update":"0001-01-01T00:00:00Z","name_a2s":"Uncletopia | Montr√©al | 3 | All Maps","protocol":17,"map":"cp_process_final","folder":"tf","game":"Team Fortress","app_id":440,"player_count":0,"max_players":24,"Bots":0,"server_type":"Dedicated","server_os":"Linux","password":true,"vac":true,"version":"7932396","steam_id":85568392924500089,"keywords":["cp","nocrits","nodmgspread","uncletopia"],"game_id":440,"stv_port":27036,"stv_name":"Uncletopia | Montr√©al | 3 | All Maps | STV","players":null},{"server_id":303,"name":"Uncletopia | Montr√©al | 4 | No Payload","name_short":"mtl-4","host":"mtl-1.ca.uncletopia.com","port":27045,"enabled":true,"region":"us-east","cc":"ca","latitude":45.50889,"longitude":-73.56167,"reserved":0,"last_update":"0001-01-01T00:00:00Z","name_a2s":"Uncletopia | Montr√©al | 4 | No Payload","protocol":17,"map":"ctf_landfall","folder":"tf","game":"Team Fortress","app_id":440,"player_count":0,"max_players":24,"Bots":0,"server_type":"Dedicated","server_os":"Linux","password":true,"vac":true,"version":"7932396","steam_id":85568392924500090,"keywords":["ctf","nocrits","nodmgspread","uncletopia"],"game_id":440,"stv_port":27046,"stv_name":"Uncletopia | Montr√©al | 4 | No Payload | STV","players":null},{"server_id":13,"name":"Uncletopia | New York City | 1 | All Maps","name_short":"nyc-1","host":"nyc-1.us.uncletopia.com","port":27015,"enabled":true,"region":"us-east","cc":"us","latitude":40.73061,"longitude":-73.93524,"reserved":0,"last_update":"0001-01-01T00:00:00Z","name_a2s":"Uncletopia | New York City | 1 | All Maps","protocol":17,"map":"pl_barnblitz","folder":"tf","game":"Team Fortress","app_id":440,"player_count":23,"max_players":24,"Bots":0,"server_type":"Dedicated","server_os":"Linux","password":true,"vac":true,"version":"7932396","steam_id":85568392924469993,"keywords":["nocrits","nodmgspread","payload","uncletopia"],"game_id":440,"stv_port":27016,"stv_name":"Uncletopia | New York City | 1 | All Maps | STV","players":[{"user_id":152,"name":"StraySheep","steam_id":76561198256003811,"connected_time":5460000000000,"state":"active","ping":53},{"user_id":176,"name":"Cat_Gaben","steam_id":76561198308094558,"connected_time":3514000000000,"state":"active","ping":64},{"user_id":191,"name":"cheapdisplay","steam_id":76561199206448493,"connected_time":1846000000000,"state":"active","ping":71},{"user_id":164,"name":"Fat Kid","steam_id":76561198304180941,"connected_time":4297000000000,"state":"active","ping":104},{"user_id":190,"name":"jamzine","steam_id":76561198186168293,"connected_time":1937000000000,"state":"active","ping":72},{"user_id":80,"name":"Darkish Souls","steam_id":76561198095982312,"connected_time":11540000000000,"state":"active","ping":42},{"user_id":194,"name":"alfredodan","steam_id":76561198025011044,"connected_time":1618000000000,"state":"active","ping":77},{"user_id":161,"name":"pad6z23h8s","steam_id":76561198880756741,"connected_time":4385000000000,"state":"active","ping":157},{"user_id":141,"name":"cataconik","steam_id":76561198145530829,"connected_time":5871000000000,"state":"active","ping":85},{"user_id":212,"name":"Ursus Ludius","steam_id":76561198025470722,"connected_time":668000000000,"state":"active","ping":66},{"user_id":185,"name":"BigDumbAnimal","steam_id":76561197998645697,"connected_time":2621000000000,"state":"active","ping":73},{"user_id":195,"name":"Evil little man","steam_id":76561198311053471,"connected_time":1608000000000,"state":"active","ping":86},{"user_id":156,"name":"The Circle rules Your Life","steam_id":76561198072095399,"connected_time":4820000000000,"state":"active","ping":42},{"user_id":174,"name":"Miro","steam_id":76561198936412406,"connected_time":3886000000000,"state":"active","ping":87},{"user_id":193,"name":"20 miles for a Quaalude","steam_id":76561198042579477,"connected_time":1673000000000,"state":"active","ping":69},{"user_id":208,"name":"CRAZY engineer","steam_id":76561198887937902,"connected_time":1002000000000,"state":"active","ping":61},{"user_id":192,"name":"Drapph","steam_id":76561199384213314,"connected_time":1719000000000,"state":"active","ping":83},{"user_id":144,"name":"ttv/lilirouxxx","steam_id":76561198000522179,"connected_time":5831000000000,"state":"active","ping":75},{"user_id":213,"name":"‡∂û","steam_id":76561199365672047,"connected_time":564000000000,"state":"active","ping":68},{"user_id":184,"name":"sagekiss","steam_id":76561198038831240,"connected_time":2891000000000,"state":"active","ping":120},{"user_id":197,"name":"._.","steam_id":76561198300316801,"connected_time":1458000000000,"state":"active","ping":39},{"user_id":207,"name":"AM bust up","steam_id":76561199177327629,"connected_time":1138000000000,"state":"active","ping":140},{"user_id":215,"name":"littlesack","steam_id":76561197960270526,"connected_time":66000000000,"state":"active","ping":75}]},{"server_id":14,"name":"Uncletopia | New York City | 2 | All Maps","name_short":"nyc-2","host":"nyc-1.us.uncletopia.com","port":27025,"enabled":true,"region":"us-east","cc":"us","latitude":40.73061,"longitude":-73.93524,"reserved":0,"last_update":"0001-01-01T00:00:00Z","name_a2s":"Uncletopia | New York City | 2 | All Maps","protocol":17,"map":"ctf_2fort","folder":"tf","game":"Team Fortress","app_id":440,"player_count":17,"max_players":24,"Bots":0,"server_type":"Dedicated","server_os":"Linux","password":true,"vac":true,"version":"7932396","steam_id":85568392924469994,"keywords":["ctf","nocrits","nodmgspread","uncletopia"],"game_id":440,"stv_port":27026,"stv_name":"Uncletopia | New York City | 2 | All Maps | STV","players":[{"user_id":180,"name":"Baron von Whoopsie","steam_id":76561197996691013,"connected_time":1084000000000,"state":"active","ping":58},{"user_id":198,"name":"impending nuptials","steam_id":76561197995620232,"connected_time":4000000000,"state":"spawning","ping":39},{"user_id":189,"name":"k1tty","steam_id":76561198869348268,"connected_time":406000000000,"state":"active","ping":115},{"user_id":155,"name":"CryshireWithAK","steam_id":76561198857908089,"connected_time":3038000000000,"state":"active","ping":68},{"user_id":196,"name":"KingXxX711","steam_id":76561199367911817,"connected_time":26000000000,"state":"active","ping":83},{"user_id":55,"name":"some tree","steam_id":76561198166093346,"connected_time":7344000000000,"state":"active","ping":65},{"user_id":197,"name":"‚öúÔ∏é LoGaN ‚öú","steam_id":76561198300678500,"connected_time":24000000000,"state":"active","ping":131},{"user_id":138,"name":"Leo","steam_id":76561198088304064,"connected_time":3618000000000,"state":"active","ping":45},{"user_id":190,"name":"Dr Nefario","steam_id":76561198254646194,"connected_time":383000000000,"state":"active","ping":40},{"user_id":129,"name":"Pigeon","steam_id":76561199232498885,"connected_time":4189000000000,"state":"active","ping":57},{"user_id":186,"name":"PieSpie","steam_id":76561198054531169,"connected_time":452000000000,"state":"active","ping":61},{"user_id":170,"name":"patdine","steam_id":76561198060865671,"connected_time":1583000000000,"state":"active","ping":55},{"user_id":172,"name":"D-MROMA","steam_id":76561198837664861,"connected_time":1561000000000,"state":"active","ping":85},{"user_id":182,"name":"Penis Chopper","steam_id":76561199016999537,"connected_time":879000000000,"state":"active","ping":121},{"user_id":193,"name":"littengamer1112","steam_id":76561198992690060,"connected_time":152000000000,"state":"active","ping":84},{"user_id":136,"name":"HIPABOPPER","steam_id":76561198014919412,"connected_time":3669000000000,"state":"active","ping":60},{"user_id":162,"name":"Kilbert","steam_id":76561198254454239,"connected_time":2638000000000,"state":"active","ping":68}]},{"server_id":15,"name":"Uncletopia | New York City | 3 | Stopwatch Beta","name_short":"nyc-3","host":"nyc-1.us.uncletopia.com","port":27035,"enabled":true,"region":"us-east","cc":"us","latitude":40.73061,"longitude":-73.93524,"reserved":0,"last_update":"0001-01-01T00:00:00Z","name_a2s":"Uncletopia | New York City | 3 | Stopwatch Beta","protocol":17,"map":"cp_snakewater_final1","folder":"tf","game":"Team Fortress","app_id":440,"player_count":3,"max_players":24,"Bots":0,"server_type":"Dedicated","server_os":"Linux","password":true,"vac":true,"version":"7932396","steam_id":85568392924742820,"keywords":["cp","nocrits","nodmgspread","uncletopia"],"game_id":440,"stv_port":27036,"stv_name":"Uncletopia | New York City | 3 | Stopwatch Beta | STV","players":[{"user_id":12,"name":"The Sniper Goblin of 2Fort","steam_id":76561199176919819,"connected_time":1105000000000,"state":"active","ping":70},{"user_id":13,"name":"MISSINGMORALITY92217","steam_id":76561198821706797,"connected_time":1094000000000,"state":"active","ping":72},{"user_id":15,"name":"Bananapants [#SaveTF2]","steam_id":76561199220749725,"connected_time":630000000000,"state":"active","ping":81}]},{"server_id":16,"name":"Uncletopia | New York City | 4 | Community","name_short":"nyc-4","host":"nyc-1.us.uncletopia.com","port":27045,"enabled":true,"region":"us-east","cc":"us","latitude":40.73061,"longitude":-73.93524,"reserved":0,"last_update":"0001-01-01T00:00:00Z","name_a2s":"Uncletopia | New York City | 4 | Community","protocol":17,"map":"workshop/cp_fulgur_rc2a.ugc2068252300","folder":"tf","game":"Team Fortress","app_id":440,"player_count":1,"max_players":24,"Bots":0,"server_type":"Dedicated","server_os":"Linux","password":true,"vac":true,"version":"7932396","steam_id":85568392924742821,"keywords":["cp","nocrits","nodmgspread","uncletopia"],"game_id":440,"stv_port":27046,"stv_name":"Uncletopia | New York City | 4 | Community | STV","players":[{"user_id":14,"name":"c2 FlawlessPooby1 xX","steam_id":76561198336395761,"connected_time":102000000000,"state":"active","ping":55}]},{"server_id":142,"name":"Uncletopia | S√£o Paulo | 1 | All Maps","name_short":"sao-1","host":"sao-1.br.uncletopia.com","port":27015,"enabled":true,"region":"sa","cc":"br","latitude":-23.533773,"longitude":-46.62529,"reserved":0,"last_update":"0001-01-01T00:00:00Z","name_a2s":"Uncletopia | S√£o Paulo | 1 | All Maps","protocol":17,"map":"koth_lakeside_final","folder":"tf","game":"Team Fortress","app_id":440,"player_count":0,"max_players":24,"Bots":0,"server_type":"Dedicated","server_os":"Linux","password":true,"vac":true,"version":"7932396","steam_id":85568392924469996,"keywords":["cp","nocrits","nodmgspread","uncletopia"],"game_id":440,"stv_port":27016,"stv_name":"Uncletopia | S√£o Paulo | 1 | All Maps | STV","players":null},{"server_id":143,"name":"Uncletopia | S√£o Paulo | 2 | All Maps","name_short":"sao-2","host":"sao-2.br.uncletopia.com","port":27015,"enabled":true,"region":"sa","cc":"br","latitude":-23.533773,"longitude":-46.62529,"reserved":0,"last_update":"0001-01-01T00:00:00Z","name_a2s":"Uncletopia | S√£o Paulo | 2 | All Maps","protocol":17,"map":"pl_upward","folder":"tf","game":"Team Fortress","app_id":440,"player_count":0,"max_players":24,"Bots":0,"server_type":"Dedicated","server_os":"Linux","password":true,"vac":true,"version":"7932396","steam_id":85568392924485349,"keywords":["nocrits","nodmgspread","payload","uncletopia"],"game_id":440,"stv_port":27016,"stv_name":"Uncletopia | S√£o Paulo | 2 | All Maps | STV","players":null},{"server_id":7,"name":"Uncletopia | Seattle | 1 | All Maps","name_short":"sea-1","host":"sea-1.us.uncletopia.com","port":27015,"enabled":true,"region":"us-west","cc":"us","latitude":47.608013,"longitude":-122.33517,"reserved":0,"last_update":"0001-01-01T00:00:00Z","name_a2s":"Uncletopia | Seattle | 1 | All Maps","protocol":17,"map":"pl_snowycoast","folder":"tf","game":"Team Fortress","app_id":440,"player_count":24,"max_players":24,"Bots":0,"server_type":"Dedicated","server_os":"Linux","password":true,"vac":true,"version":"7932396","steam_id":85568392924469997,"keywords":["nocrits","nodmgspread","payload","uncletopia"],"game_id":440,"stv_port":27016,"stv_name":"Uncletopia | Seattle | 1 | All Maps | STV","players":[{"user_id":314,"name":"fwoov","steam_id":76561198129166260,"connected_time":3125000000000,"state":"active","ping":75},{"user_id":345,"name":"Spruce","steam_id":76561198081684676,"connected_time":32000000000,"state":"active","ping":71},{"user_id":338,"name":"Dragoninventor (He/Him)","steam_id":76561198956224948,"connected_time":608000000000,"state":"active","ping":74},{"user_id":300,"name":"toes","steam_id":76561198221151676,"connected_time":4259000000000,"state":"active","ping":47},{"user_id":343,"name":"Transformouse","steam_id":76561198004669368,"connected_time":66000000000,"state":"active","ping":110},{"user_id":344,"name":"Talulah","steam_id":76561198348354629,"connected_time":56000000000,"state":"active","ping":72},{"user_id":335,"name":"Skoad","steam_id":76561198104650528,"connected_time":1159000000000,"state":"active","ping":59},{"user_id":317,"name":"Dimple #TF2Center","steam_id":76561198980324190,"connected_time":2789000000000,"state":"active","ping":54},{"user_id":340,"name":"Joe Rogan's DMT Dealer","steam_id":76561199198633203,"connected_time":554000000000,"state":"active","ping":101},{"user_id":341,"name":"mega","steam_id":76561198089520959,"connected_time":338000000000,"state":"active","ping":81},{"user_id":324,"name":"Toaster","steam_id":76561198039891934,"connected_time":2059000000000,"state":"active","ping":100},{"user_id":302,"name":"Keamy","steam_id":76561199471434875,"connected_time":4180000000000,"state":"active","ping":44},{"user_id":316,"name":"TheDude","steam_id":76561198314764519,"connected_time":3047000000000,"state":"active","ping":163},{"user_id":322,"name":"Craftyjumper","steam_id":76561198126421562,"connected_time":2116000000000,"state":"active","ping":73},{"user_id":342,"name":"hatsune miku","steam_id":76561199445009981,"connected_time":187000000000,"state":"active","ping":45},{"user_id":326,"name":"Rhutebeer","steam_id":76561198018302761,"connected_time":2023000000000,"state":"active","ping":134},{"user_id":303,"name":"2 Point Tom","steam_id":76561198087617008,"connected_time":4169000000000,"state":"active","ping":46},{"user_id":320,"name":"The ermster","steam_id":76561198870649125,"connected_time":2457000000000,"state":"active","ping":75},{"user_id":332,"name":"craftylongsword","steam_id":76561198340102940,"connected_time":1441000000000,"state":"active","ping":60},{"user_id":337,"name":"Kalmaro","steam_id":76561198097425350,"connected_time":1084000000000,"state":"active","ping":116},{"user_id":281,"name":"Ginger powder","steam_id":76561198057868006,"connected_time":5369000000000,"state":"active","ping":92},{"user_id":325,"name":"Pablo.Gonzalez.2007","steam_id":76561199083115222,"connected_time":2058000000000,"state":"active","ping":88},{"user_id":336,"name":"Shuu","steam_id":76561199199180558,"connected_time":1114000000000,"state":"active","ping":103},{"user_id":294,"name":"Mom","steam_id":76561198207936000,"connected_time":4515000000000,"state":"active","ping":68}]},{"server_id":119,"name":"Uncletopia | Seattle | 2 | All Maps","name_short":"sea-2","host":"sea-1.us.uncletopia.com","port":27025,"enabled":true,"region":"us-west","cc":"us","latitude":47.608013,"longitude":-122.33517,"reserved":0,"last_update":"0001-01-01T00:00:00Z","name_a2s":"Uncletopia | Seattle | 2 | All Maps","protocol":17,"map":"pl_borneo","folder":"tf","game":"Team Fortress","app_id":440,"player_count":24,"max_players":24,"Bots":0,"server_type":"Dedicated","server_os":"Linux","password":true,"vac":true,"version":"7932396","steam_id":85568392924469998,"keywords":["nocrits","nodmgspread","payload","uncletopia"],"game_id":440,"stv_port":27026,"stv_name":"Uncletopia | Seattle | 2 | All Maps | STV","players":[{"user_id":197,"name":"Finkly","steam_id":76561198049828110,"connected_time":2315000000000,"state":"active","ping":43},{"user_id":230,"name":"Stolid","steam_id":76561197998506423,"connected_time":348000000000,"state":"active","ping":82},{"user_id":152,"name":"SHADOW (he/him)","steam_id":76561198207768148,"connected_time":5284000000000,"state":"active","ping":102},{"user_id":231,"name":"..flop","steam_id":76561197989058876,"connected_time":168000000000,"state":"active","ping":86},{"user_id":213,"name":"Prof. Sex","steam_id":76561198861711988,"connected_time":1202000000000,"state":"active","ping":45},{"user_id":226,"name":"mr mac and cheese","steam_id":76561197962909152,"connected_time":516000000000,"state":"active","ping":53},{"user_id":221,"name":"catgaming9000","steam_id":76561199223636934,"connected_time":646000000000,"state":"active","ping":115},{"user_id":193,"name":"Coowil","steam_id":76561198070985437,"connected_time":2410000000000,"state":"active","ping":44},{"user_id":222,"name":"AnnieM","steam_id":76561199435467297,"connected_time":642000000000,"state":"active","ping":115},{"user_id":227,"name":"=Silver=","steam_id":76561198292307127,"connected_time":487000000000,"state":"active","ping":64},{"user_id":164,"name":"Muralo","steam_id":76561198202160268,"connected_time":4802000000000,"state":"active","ping":53},{"user_id":206,"name":"Silexos","steam_id":76561198267639877,"connected_time":1651000000000,"state":"active","ping":63},{"user_id":228,"name":"Obrodai","steam_id":76561199465783209,"connected_time":384000000000,"state":"active","ping":45},{"user_id":194,"name":"Jazz Hands","steam_id":76561199225708271,"connected_time":2409000000000,"state":"active","ping":66},{"user_id":229,"name":"BooceMaster","steam_id":76561198148520318,"connected_time":374000000000,"state":"active","ping":111},{"user_id":182,"name":"wabermelom :) | Pizzabot.tf","steam_id":76561198373703835,"connected_time":3886000000000,"state":"active","ping":81},{"user_id":232,"name":"Raian","steam_id":76561199138048671,"connected_time":167000000000,"state":"active","ping":63},{"user_id":208,"name":"AquaBlaze","steam_id":76561199246804975,"connected_time":1579000000000,"state":"active","ping":110},{"user_id":223,"name":"drevott74","steam_id":76561199262592779,"connected_time":638000000000,"state":"active","ping":113},{"user_id":129,"name":"chunkysquare","steam_id":76561199076468383,"connected_time":7019000000000,"state":"active","ping":95},{"user_id":214,"name":"Tom","steam_id":76561198070630154,"connected_time":1130000000000,"state":"active","ping":81},{"user_id":162,"name":"Jesus Christ","steam_id":76561199388058358,"connected_time":4956000000000,"state":"active","ping":59},{"user_id":201,"name":"Zeora","steam_id":76561198799145251,"connected_time":1895000000000,"state":"active","ping":145},{"user_id":225,"name":"Khronakal","steam_id":76561199047228098,"connected_time":580000000000,"state":"active","ping":83}]},{"server_id":406,"name":"Uncletopia | Seattle | 3 | Stopwatch Beta","name_short":"sea-3","host":"sea-1.us.uncletopia.com","port":27035,"enabled":true,"region":"us-west","cc":"us","latitude":47.608013,"longitude":-122.33517,"reserved":0,"last_update":"0001-01-01T00:00:00Z","name_a2s":"Uncletopia | Seattle | 3 | Stopwatch Beta","protocol":17,"map":"workshop/koth_bagel_rc6.ugc2514036946","folder":"tf","game":"Team Fortress","app_id":440,"player_count":0,"max_players":24,"Bots":0,"server_type":"Dedicated","server_os":"Linux","password":true,"vac":true,"version":"7932396","steam_id":85568392924515217,"keywords":["cp","nocrits","nodmgspread","uncletopia"],"game_id":440,"stv_port":27036,"stv_name":"Uncletopia | Seattle | 3 | Stopwatch Beta | STV","players":null},{"server_id":17,"name":"Uncletopia | San Francisco | 1 | All Maps","name_short":"sfo-1","host":"sfo-1.us.uncletopia.com","port":27015,"enabled":true,"region":"us-west","cc":"us","latitude":37.77397,"longitude":-122.4313,"reserved":0,"last_update":"0001-01-01T00:00:00Z","name_a2s":"Uncletopia | San Francisco | 1 | All Maps","protocol":17,"map":"cp_dustbowl","folder":"tf","game":"Team Fortress","app_id":440,"player_count":7,"max_players":24,"Bots":0,"server_type":"Dedicated","server_os":"Linux","password":true,"vac":true,"version":"7932396","steam_id":85568392924469999,"keywords":["cp","nocrits","nodmgspread","uncletopia"],"game_id":440,"stv_port":27016,"stv_name":"Uncletopia | San Francisco | 1 | All Maps | STV","players":[{"user_id":94,"name":"REDACTED_banana_887","steam_id":76561199224406093,"connected_time":121000000000,"state":"active","ping":129},{"user_id":89,"name":"nutriaoaxaquenia","steam_id":76561199434950636,"connected_time":266000000000,"state":"active","ping":114},{"user_id":69,"name":"the high fox","steam_id":76561198177124951,"connected_time":1352000000000,"state":"active","ping":63},{"user_id":91,"name":"Papillon","steam_id":76561198049725849,"connected_time":215000000000,"state":"active","ping":107},{"user_id":64,"name":"SanitysEdge","steam_id":76561198130732813,"connected_time":1597000000000,"state":"active","ping":48},{"user_id":87,"name":"stabby stabby","steam_id":76561197975080641,"connected_time":352000000000,"state":"active","ping":41},{"user_id":78,"name":"‚ò≠Borris‚ò≠","steam_id":76561198011136886,"connected_time":1036000000000,"state":"active","ping":55}]},{"server_id":18,"name":"Uncletopia | San Francisco | 2 | All Maps","name_short":"sfo-2","host":"sfo-1.us.uncletopia.com","port":27025,"enabled":true,"region":"us-west","cc":"us","latitude":37.77397,"longitude":-122.4313,"reserved":0,"last_update":"0001-01-01T00:00:00Z","name_a2s":"Uncletopia | San Francisco | 2 | All Maps","protocol":17,"map":"pl_borneo","folder":"tf","game":"Team Fortress","app_id":440,"player_count":0,"max_players":24,"Bots":0,"server_type":"Dedicated","server_os":"Linux","password":true,"vac":true,"version":"7932396","steam_id":85568392924470000,"keywords":["nocrits","nodmgspread","payload","uncletopia"],"game_id":440,"stv_port":27026,"stv_name":"Uncletopia | San Francisco | 2 | All Maps | STV","players":null},{"server_id":19,"name":"Uncletopia | San Francisco | 3 | Stopwatch Beta","name_short":"sfo-3","host":"sfo-1.us.uncletopia.com","port":27035,"enabled":true,"region":"us-west","cc":"us","latitude":37.77397,"longitude":-122.4313,"reserved":0,"last_update":"0001-01-01T00:00:00Z","name_a2s":"Uncletopia | San Francisco | 3 | Stopwatch Beta","protocol":17,"map":"koth_lakeside_final","folder":"tf","game":"Team Fortress","app_id":440,"player_count":0,"max_players":24,"Bots":0,"server_type":"Dedicated","server_os":"Linux","password":true,"vac":true,"version":"7932396","steam_id":85568392924742824,"keywords":["cp","nocrits","nodmgspread","uncletopia"],"game_id":440,"stv_port":27036,"stv_name":"Uncletopia | San Francisco | 3 | Stopwatch Beta | STV","players":null},{"server_id":20,"name":"Uncletopia | San Francisco | 4 | Community","name_short":"sfo-4","host":"sfo-1.us.uncletopia.com","port":27045,"enabled":true,"region":"us-west","cc":"us","latitude":37.77397,"longitude":-122.4313,"reserved":0,"last_update":"0001-01-01T00:00:00Z","name_a2s":"Uncletopia | San Francisco | 4 | Community","protocol":17,"map":"workshop/pl_badwater_pro_v12.ugc2142942074","folder":"tf","game":"Team Fortress","app_id":440,"player_count":25,"max_players":24,"Bots":0,"server_type":"Dedicated","server_os":"Linux","password":true,"vac":true,"version":"7932396","steam_id":85568392924742826,"keywords":["nocrits","nodmgspread","payload","uncletopia"],"game_id":440,"stv_port":27046,"stv_name":"Uncletopia | San Francisco | 4 | Community | STV","players":[{"user_id":343,"name":"shmarky","steam_id":76561198052104281,"connected_time":375000000000,"state":"active","ping":50},{"user_id":346,"name":"Moldy Bagel","steam_id":76561198268487807,"connected_time":299000000000,"state":"active","ping":58},{"user_id":344,"name":"Ciaphas Cain","steam_id":76561198185598330,"connected_time":363000000000,"state":"active","ping":143},{"user_id":345,"name":"mealworm","steam_id":76561199004451589,"connected_time":336000000000,"state":"active","ping":85},{"user_id":348,"name":"Winter the Witchie","steam_id":76561198151971178,"connected_time":131000000000,"state":"connecting","ping":0},{"user_id":332,"name":"Thomas","steam_id":76561198048091513,"connected_time":1220000000000,"state":"active","ping":62},{"user_id":326,"name":"Andreshatesmondays","steam_id":76561198889349797,"connected_time":1725000000000,"state":"active","ping":76},{"user_id":285,"name":"Acro","steam_id":76561198092451804,"connected_time":4250000000000,"state":"active","ping":112},{"user_id":330,"name":"Rays","steam_id":76561198072462009,"connected_time":1405000000000,"state":"active","ping":91},{"user_id":284,"name":"Meet The Kazoo","steam_id":76561199229748300,"connected_time":4432000000000,"state":"active","ping":69},{"user_id":349,"name":"Alice in Rubberland","steam_id":76561198087328346,"connected_time":131000000000,"state":"active","ping":110},{"user_id":339,"name":"Tyulmi","steam_id":76561198041432710,"connected_time":428000000000,"state":"active","ping":135},{"user_id":341,"name":"ma≈Çiƒô","steam_id":76561198337705174,"connected_time":409000000000,"state":"active","ping":80},{"user_id":327,"name":"elyina","steam_id":76561198035310295,"connected_time":1708000000000,"state":"active","ping":58},{"user_id":312,"name":"Yesu","steam_id":76561198026522528,"connected_time":2451000000000,"state":"active","ping":112},{"user_id":350,"name":"Phantom_03","steam_id":76561198217929829,"connected_time":130000000000,"state":"active","ping":58},{"user_id":319,"name":"Shalom","steam_id":76561198410005222,"connected_time":2168000000000,"state":"active","ping":74},{"user_id":292,"name":"Egg","steam_id":76561198333025860,"connected_time":3766000000000,"state":"active","ping":80},{"user_id":320,"name":"he/him whimper","steam_id":76561198097175164,"connected_time":2164000000000,"state":"active","ping":136},{"user_id":321,"name":"Red Metal","steam_id":76561198362722560,"connected_time":2135000000000,"state":"active","ping":59},{"user_id":322,"name":"rosable ‚òÜ","steam_id":76561199164371592,"connected_time":2069000000000,"state":"active","ping":127},{"user_id":351,"name":"Shadow Wizard","steam_id":76561199052559695,"connected_time":93000000000,"state":"active","ping":115},{"user_id":289,"name":"red","steam_id":76561198067289381,"connected_time":4086000000000,"state":"active","ping":82},{"user_id":336,"name":"andre","steam_id":76561198071201544,"connected_time":888000000000,"state":"active","ping":121},{"user_id":353,"name":"GaminGuy","steam_id":76561198799269519,"connected_time":69000000000,"state":"active","ping":115}]},{"server_id":141,"name":"Uncletopia | Sydney | 1 | All Maps","name_short":"syd-1","host":"syd-1.au.uncletopia.com","port":27015,"enabled":true,"region":"au","cc":"au","latitude":-33.865143,"longitude":151.2099,"reserved":0,"last_update":"0001-01-01T00:00:00Z","name_a2s":"Uncletopia | Sydney | 1 | All Maps","protocol":17,"map":"pl_pier","folder":"tf","game":"Team Fortress","app_id":440,"player_count":0,"max_players":24,"Bots":0,"server_type":"Dedicated","server_os":"Linux","password":true,"vac":true,"version":"7932396","steam_id":85568392924470001,"keywords":["nocrits","nodmgspread","payload","uncletopia"],"game_id":440,"stv_port":27016,"stv_name":"Uncletopia | Sydney | 1 | All Maps | STV","players":null},{"server_id":123,"name":"Uncletopia | Sydney | 2 | All Maps","name_short":"syd-2","host":"syd-1.au.uncletopia.com","port":27025,"enabled":true,"region":"au","cc":"au","latitude":-33.865143,"longitude":151.2099,"reserved":0,"last_update":"0001-01-01T00:00:00Z","name_a2s":"Uncletopia | Sydney | 2 | All Maps","protocol":17,"map":"koth_lakeside_final","folder":"tf","game":"Team Fortress","app_id":440,"player_count":0,"max_players":24,"Bots":0,"server_type":"Dedicated","server_os":"Linux","password":true,"vac":true,"version":"7932396","steam_id":85568392924470002,"keywords":["cp","nocrits","nodmgspread","uncletopia"],"game_id":440,"stv_port":27026,"stv_name":"Uncletopia | Sydney | 2 | All Maps | STV","players":null},{"server_id":395,"name":"Uncletopia | Sydney | 3 | All Maps","name_short":"syd-3","host":"syd-1.au.uncletopia.com","port":27035,"enabled":true,"region":"au","cc":"au","latitude":-33.865143,"longitude":151.2099,"reserved":0,"last_update":"0001-01-01T00:00:00Z","name_a2s":"Uncletopia | Sydney | 3 | All Maps","protocol":17,"map":"pl_barnblitz","folder":"tf","game":"Team Fortress","app_id":440,"player_count":0,"max_players":24,"Bots":0,"server_type":"Dedicated","server_os":"Linux","password":true,"vac":true,"version":"7932396","steam_id":85568392925194467,"keywords":["nocrits","nodmgspread","payload","uncletopia"],"game_id":440,"stv_port":27036,"stv_name":"Uncletopia | Sydney | 3 | All Maps | STV","players":null},{"server_id":396,"name":"Uncletopia | Sydney | 4 | All Maps","name_short":"syd-4","host":"syd-1.au.uncletopia.com","port":27045,"enabled":true,"region":"au","cc":"au","latitude":-33.865143,"longitude":151.2099,"reserved":0,"last_update":"0001-01-01T00:00:00Z","name_a2s":"Uncletopia | Sydney | 4 | All Maps","protocol":17,"map":"pl_pier","folder":"tf","game":"Team Fortress","app_id":440,"player_count":0,"max_players":24,"Bots":0,"server_type":"Dedicated","server_os":"Linux","password":true,"vac":true,"version":"7932396","steam_id":85568392925397958,"keywords":["nocrits","nodmgspread","payload","uncletopia"],"game_id":440,"stv_port":27046,"stv_name":"Uncletopia | Sydney | 4 | All Maps | STV","players":null},{"server_id":58,"name":"Uncletopia | Sydney | 5 | Stopwatch Beta","name_short":"syd-5","host":"syd-1.au.uncletopia.com","port":27055,"enabled":true,"region":"au","cc":"au","latitude":-33.865143,"longitude":151.2099,"reserved":0,"last_update":"0001-01-01T00:00:00Z","name_a2s":"Uncletopia | Sydney | 5 | Stopwatch Beta","protocol":17,"map":"pl_borneo","folder":"tf","game":"Team Fortress","app_id":440,"player_count":0,"max_players":24,"Bots":0,"server_type":"Dedicated","server_os":"Linux","password":true,"vac":true,"version":"7932396","steam_id":85568392925397959,"keywords":["nocrits","nodmgspread","payload","uncletopia"],"game_id":440,"stv_port":27056,"stv_name":"Uncletopia | Sydney | 5 | Stopwatch Beta | STV","players":null},{"server_id":59,"name":"Uncletopia | Sydney | 6 | Community","name_short":"syd-6","host":"syd-1.au.uncletopia.com","port":27065,"enabled":true,"region":"au","cc":"au","latitude":-33.865143,"longitude":151.2099,"reserved":0,"last_update":"0001-01-01T00:00:00Z","name_a2s":"Uncletopia | Sydney | 6 | Community","protocol":17,"map":"pl_badwater","folder":"tf","game":"Team Fortress","app_id":440,"player_count":0,"max_players":24,"Bots":0,"server_type":"Dedicated","server_os":"Linux","password":true,"vac":true,"version":"7932396","steam_id":85568392925397960,"keywords":["nocrits","nodmgspread","payload","uncletopia"],"game_id":440,"stv_port":27066,"stv_name":"Uncletopia | Sydney | 6 | Community | STV","players":null},{"server_id":49,"name":"Uncletopia | Warsaw | 1 | All Maps","name_short":"waw-1","host":"waw-1.pl.uncletopia.com","port":27015,"enabled":true,"region":"eu","cc":"pl","latitude":52.2297,"longitude":21.017532,"reserved":0,"last_update":"0001-01-01T00:00:00Z","name_a2s":"","protocol":0,"map":"","folder":"","game":"","app_id":0,"player_count":0,"max_players":0,"Bots":0,"server_type":"","server_os":"","password":false,"vac":false,"version":"","steam_id":0,"keywords":null,"game_id":0,"stv_port":0,"stv_name":"","players":null},{"server_id":50,"name":"Uncletopia | Warsaw | 2 | All Maps","name_short":"waw-2","host":"waw-1.pl.uncletopia.com","port":27025,"enabled":true,"region":"eu","cc":"pl","latitude":52.2297,"longitude":21.017532,"reserved":0,"last_update":"0001-01-01T00:00:00Z","name_a2s":"Uncletopia | Warsaw | 2 | All Maps","protocol":17,"map":"cp_dustbowl","folder":"tf","game":"Team Fortress","app_id":440,"player_count":0,"max_players":24,"Bots":0,"server_type":"Dedicated","server_os":"Linux","password":true,"vac":true,"version":"7932396","steam_id":85568392925397851,"keywords":["cp","nocrits","nodmgspread","uncletopia"],"game_id":440,"stv_port":27026,"stv_name":"Uncletopia | Warsaw | 2 | All Maps | STV","players":null},{"server_id":51,"name":"Uncletopia | Warsaw | 3 | All Maps","name_short":"waw-3","host":"waw-1.pl.uncletopia.com","port":27035,"enabled":true,"region":"eu","cc":"pl","latitude":52.2297,"longitude":21.017532,"reserved":0,"last_update":"0001-01-01T00:00:00Z","name_a2s":"Uncletopia | Warsaw | 3 | All Maps","protocol":17,"map":"pl_pier","folder":"tf","game":"Team Fortress","app_id":440,"player_count":0,"max_players":24,"Bots":0,"server_type":"Dedicated","server_os":"Linux","password":true,"vac":true,"version":"7932396","steam_id":85568392925397852,"keywords":["nocrits","nodmgspread","payload","uncletopia"],"game_id":440,"stv_port":27036,"stv_name":"Uncletopia | Warsaw | 3 | All Maps | STV","players":null},{"server_id":52,"name":"Uncletopia | Warsaw | 4 | All Maps","name_short":"waw-4","host":"waw-1.pl.uncletopia.com","port":27045,"enabled":true,"region":"eu","cc":"pl","latitude":52.2297,"longitude":21.017532,"reserved":0,"last_update":"0001-01-01T00:00:00Z","name_a2s":"Uncletopia | Warsaw | 4 | All Maps","protocol":17,"map":"pl_swiftwater_final1","folder":"tf","game":"Team Fortress","app_id":440,"player_count":0,"max_players":24,"Bots":0,"server_type":"Dedicated","server_os":"Linux","password":true,"vac":true,"version":"7932396","steam_id":85568392925397853,"keywords":["nocrits","nodmgspread","payload","uncletopia"],"game_id":440,"stv_port":27046,"stv_name":"Uncletopia | Warsaw | 4 | All Maps | STV","players":null},{"server_id":53,"name":"Uncletopia | Warsaw | 5 | Stopwatch Beta","name_short":"waw-5","host":"waw-1.pl.uncletopia.com","port":27055,"enabled":true,"region":"eu","cc":"pl","latitude":52.2297,"longitude":21.017532,"reserved":0,"last_update":"0001-01-01T00:00:00Z","name_a2s":"Uncletopia | Warsaw | 5 | Stopwatch Beta","protocol":17,"map":"koth_highpass","folder":"tf","game":"Team Fortress","app_id":440,"player_count":0,"max_players":24,"Bots":0,"server_type":"Dedicated","server_os":"Linux","password":true,"vac":true,"version":"7932396","steam_id":85568392925397854,"keywords":["cp","nocrits","nodmgspread","uncletopia"],"game_id":440,"stv_port":27056,"stv_name":"Uncletopia | Warsaw | 5 | Stopwatch Beta | STV","players":null},{"server_id":54,"name":"Uncletopia | Warsaw | 6 | Community","name_short":"waw-6","host":"waw-1.pl.uncletopia.com","port":27065,"enabled":true,"region":"eu","cc":"pl","latitude":52.2297,"longitude":21.017532,"reserved":0,"last_update":"0001-01-01T00:00:00Z","name_a2s":"Uncletopia | Warsaw | 6 | Community","protocol":17,"map":"workshop/cp_croissant_final.ugc458840209","folder":"tf","game":"Team Fortress","app_id":440,"player_count":0,"max_players":24,"Bots":0,"server_type":"Dedicated","server_os":"Linux","password":true,"vac":true,"version":"7932396","steam_id":85568392925397856,"keywords":["cp","nocrits","nodmgspread","uncletopia"],"game_id":440,"stv_port":27066,"stv_name":"Uncletopia | Warsaw | 6 | Community | STV","players":null}]}