{"status":true,"message":"","result":[{"server_id":9,"name":"Uncletopia | Atlanta | 1 | All Maps","name_short":"atl-1","host":"atl-1.us.uncletopia.com","port":27015,"enabled":true,"region":"us-east","cc":"us","latitude":33.753746,"longitude":-84.38633,"reserved":0,"last_update":"0001-01-01T00:00:00Z","name_a2s":"Uncletopia | Atlanta | 1 | All Maps","protocol":17,"map":"pl_badwater","folder":"tf","game":"Team Fortress","app_id":440,"player_count":24,"max_players":24,"Bots":0,"server_type":"Dedicated","server_os":"Linux","password":true,"vac":true,"version":"7882260","steam_id":85568392924469982,"keywords":["nocrits","nodmgspread","payload","uncletopia"],"game_id":440,"stv_port":27016,"stv_name":"Uncletopia | Atlanta | 1 | All Maps | STV","players":[{"user_id":91,"name":"Keirb","steam_id":76561198027031567,"connected_time":1156000000000,"state":"active","ping":92},{"user_id":76,"name":"DiscoTraveler","steam_id":76561199240168088,"connected_time":2654000000000,"state":"active","ping":69},{"user_id":100,"name":"idk man","steam_id":76561198065543771,"connected_time":491000000000,"state":"active","ping":67},{"user_id":39,"name":"Lord Razor","steam_id":76561198373286283,"connected_time":4526000000000,"state":"active","ping":74},{"user_id":92,"name":"sunny","steam_id":76561198069380992,"connected_time":1155000000000,"state":"active","ping":64},{"user_id":102,"name":"Waffle Wannabe","steam_id":76561198064510650,"connected_time":83000000000,"state":"active","ping":69},{"user_id":57,"name":"yoklaty","steam_id":76561199020932212,"connected_time":3713000000000,"state":"active","ping":163},{"user_id":71,"name":"Big Mon","steam_id":76561198409907417,"connected_time":2912000000000,"state":"active","ping":110},{"user_id":75,"name":"War-thog125","steam_id":76561198139383220,"connected_time":2675000000000,"state":"active","ping":62},{"user_id":83,"name":"milo","steam_id":76561199061380038,"connected_time":2108000000000,"state":"active","ping":60},{"user_id":93,"name":"Squagol","steam_id":76561197987486159,"connected_time":1146000000000,"state":"active","ping":75},{"user_id":77,"name":"Pizza Wario","steam_id":76561199031172409,"connected_time":2644000000000,"state":"active","ping":80},{"user_id":89,"name":"Sup m8","steam_id":76561198081659121,"connected_time":1182000000000,"state":"active","ping":54},{"user_id":46,"name":"Doomagedden","steam_id":76561198272589475,"connected_time":4288000000000,"state":"active","ping":71},{"user_id":78,"name":"Blossom","steam_id":76561198088220476,"connected_time":2642000000000,"state":"active","ping":78},{"user_id":81,"name":"Reverie","steam_id":76561198149406613,"connected_time":2402000000000,"state":"active","ping":60},{"user_id":85,"name":"troll","steam_id":76561198040890252,"connected_time":1727000000000,"state":"active","ping":53},{"user_id":95,"name":"kite","steam_id":76561198346516392,"connected_time":632000000000,"state":"active","ping":87},{"user_id":87,"name":"Lucky","steam_id":76561198418262145,"connected_time":1215000000000,"state":"active","ping":112},{"user_id":84,"name":"daffodil","steam_id":76561198049480053,"connected_time":1789000000000,"state":"active","ping":74},{"user_id":101,"name":"Bag","steam_id":76561198012395490,"connected_time":99000000000,"state":"active","ping":49},{"user_id":67,"name":"Eins","steam_id":76561199030343810,"connected_time":3408000000000,"state":"active","ping":47},{"user_id":68,"name":"Rornir","steam_id":76561198081829615,"connected_time":3402000000000,"state":"active","ping":56},{"user_id":98,"name":"∆ê’å—¥∆≥","steam_id":76561198099470277,"connected_time":508000000000,"state":"active","ping":73}]},{"server_id":104,"name":"Uncletopia | Atlanta | 2 | All Maps","name_short":"atl-2","host":"atl-1.us.uncletopia.com","port":27025,"enabled":true,"region":"us-east","cc":"us","latitude":33.753746,"longitude":-84.38633,"reserved":0,"last_update":"0001-01-01T00:00:00Z","name_a2s":"Uncletopia | Atlanta | 2 | All Maps","protocol":17,"map":"pl_badwater","folder":"tf","game":"Team Fortress","app_id":440,"player_count":0,"max_players":24,"Bots":0,"server_type":"Dedicated","server_os":"Linux","password":true,"vac":true,"version":"7882260","steam_id":85568392924469983,"keywords":["nocrits","nodmgspread","payload","uncletopia"],"game_id":440,"stv_port":27026,"stv_name":"Uncletopia | Atlanta | 2 | All Maps | STV","players":null},{"server_id":400,"name":"Uncletopia | Atlanta | 3 | Community","name_short":"atl-3","host":"atl-1.us.uncletopia.com","port":27035,"enabled":true,"region":"us-east","cc":"us","latitude":33.753746,"longitude":-84.38633,"reserved":0,"last_update":"0001-01-01T00:00:00Z","name_a2s":"Uncletopia | Atlanta | 3 | Community","protocol":17,"map":"cp_sunshine","folder":"tf","game":"Team Fortress","app_id":440,"player_count":0,"max_players":24,"Bots":0,"server_type":"Dedicated","server_os":"Linux","password":true,"vac":true,"version":"7882260","steam_id":85568392924515187,"keywords":["cp","nocrits","nodmgspread","uncletopia"],"game_id":440,"stv_port":27036,"stv_name":"Uncletopia | Atlanta | 3 | Community | STV","players":null},{"server_id":401,"name":"Uncletopia | Atlanta | 4 | No Payload","name_short":"atl-4","host":"atl-1.us.uncletopia.com","port":27045,"enabled":true,"region":"us-east","cc":"us","latitude":33.753746,"longitude":-84.38633,"reserved":0,"last_update":"0001-01-01T00:00:00Z","name_a2s":"","protocol":0,"map":"","folder":"","game":"","app_id":0,"player_count":0,"max_players":0,"Bots":0,"server_type":"","server_os":"","password":false,"vac":false,"version":"","steam_id":0,"keywords":null,"game_id":0,"stv_port":0,"stv_name":"","players":null},{"server_id":2,"name":"Uncletopia | Chicago | 1 | All Maps","name_short":"chi-1","host":"chi-1.us.uncletopia.com","port":27015,"enabled":true,"region":"us-central","cc":"us","latitude":41.881832,"longitude":-87.62318,"reserved":0,"last_update":"0001-01-01T00:00:00Z","name_a2s":"Uncletopia | Chicago | 1 | All Maps","protocol":17,"map":"pl_snowycoast","folder":"tf","game":"Team Fortress","app_id":440,"player_count":24,"max_players":24,"Bots":0,"server_type":"Dedicated","server_os":"Linux","password":true,"vac":true,"version":"7882260","steam_id":85568392924469984,"keywords":["nocrits","nodmgspread","payload","uncletopia"],"game_id":440,"stv_port":27016,"stv_name":"Uncletopia | Chicago | 1 | All Maps | STV","players":[{"user_id":193,"name":"richarven","steam_id":76561198189429665,"connected_time":6935000000000,"state":"active","ping":75},{"user_id":217,"name":"PageBoiSkull","steam_id":76561198237353578,"connected_time":4933000000000,"state":"active","ping":110},{"user_id":235,"name":"Vincent Van Bro","steam_id":76561197966919802,"connected_time":3339000000000,"state":"active","ping":100},{"user_id":260,"name":"Notsocreative","steam_id":76561198236372202,"connected_time":688000000000,"state":"active","ping":82},{"user_id":236,"name":"Horrizan","steam_id":76561197965028480,"connected_time":3303000000000,"state":"active","ping":90},{"user_id":228,"name":"Mehman","steam_id":76561199020244051,"connected_time":3574000000000,"state":"active","ping":100},{"user_id":233,"name":"Im High","steam_id":76561198049954886,"connected_time":3393000000000,"state":"active","ping":68},{"user_id":262,"name":"coodge","steam_id":76561198139080439,"connected_time":323000000000,"state":"active","ping":80},{"user_id":247,"name":"Racoon.zip","steam_id":76561199023759321,"connected_time":1737000000000,"state":"active","ping":79},{"user_id":215,"name":"Nassu","steam_id":76561198147367577,"connected_time":4979000000000,"state":"active","ping":71},{"user_id":244,"name":"WatchWill","steam_id":76561198157237945,"connected_time":2423000000000,"state":"active","ping":70},{"user_id":249,"name":"StonedGiant","steam_id":76561197984386932,"connected_time":1238000000000,"state":"active","ping":52},{"user_id":251,"name":"Drapph","steam_id":76561199384213314,"connected_time":980000000000,"state":"active","ping":87},{"user_id":242,"name":"noah","steam_id":76561198173310157,"connected_time":2625000000000,"state":"active","ping":51},{"user_id":257,"name":"crabapples","steam_id":76561198075818655,"connected_time":891000000000,"state":"active","ping":51},{"user_id":259,"name":"capeeKo","steam_id":76561197970346623,"connected_time":817000000000,"state":"active","ping":75},{"user_id":218,"name":"spider_murphy","steam_id":76561198079057101,"connected_time":4906000000000,"state":"active","ping":77},{"user_id":250,"name":"Doggo.exe","steam_id":76561197979080610,"connected_time":1090000000000,"state":"active","ping":83},{"user_id":253,"name":"Snom","steam_id":76561198333827920,"connected_time":955000000000,"state":"active","ping":99},{"user_id":222,"name":"Influrrno","steam_id":76561198398893302,"connected_time":4161000000000,"state":"active","ping":74},{"user_id":254,"name":"Hoop","steam_id":76561199124865843,"connected_time":955000000000,"state":"active","ping":61},{"user_id":204,"name":"feliser","steam_id":76561198084336096,"connected_time":6496000000000,"state":"active","ping":56},{"user_id":261,"name":"Error 4 Oh Four","steam_id":76561198121637567,"connected_time":489000000000,"state":"active","ping":77},{"user_id":246,"name":"picklejuice dealer","steam_id":76561198031675881,"connected_time":2168000000000,"state":"active","ping":43}]},{"server_id":106,"name":"Uncletopia | Chicago | 2 | All Maps","name_short":"chi-2","host":"chi-1.us.uncletopia.com","port":27025,"enabled":true,"region":"us-central","cc":"us","latitude":41.881832,"longitude":-87.62318,"reserved":0,"last_update":"0001-01-01T00:00:00Z","name_a2s":"Uncletopia | Chicago | 2 | All Maps","protocol":17,"map":"cp_process_final","folder":"tf","game":"Team Fortress","app_id":440,"player_count":23,"max_players":24,"Bots":0,"server_type":"Dedicated","server_os":"Linux","password":true,"vac":true,"version":"7882260","steam_id":85568392924469985,"keywords":["cp","nocrits","nodmgspread","uncletopia"],"game_id":440,"stv_port":27026,"stv_name":"Uncletopia | Chicago | 2 | All Maps | STV","players":[{"user_id":261,"name":"Death72233","steam_id":76561199474336352,"connected_time":57000000000,"state":"active","ping":90},{"user_id":169,"name":"crashymicsplody","steam_id":76561198213916765,"connected_time":2650000000000,"state":"active","ping":68},{"user_id":255,"name":"sky walker","steam_id":76561198937717599,"connected_time":425000000000,"state":"active","ping":67},{"user_id":250,"name":"xiPoison","steam_id":76561198064961659,"connected_time":944000000000,"state":"active","ping":68},{"user_id":252,"name":"robotman5","steam_id":76561197996783330,"connected_time":798000000000,"state":"active","ping":74},{"user_id":249,"name":"The local hobo","steam_id":76561198289650060,"connected_time":975000000000,"state":"active","ping":78},{"user_id":253,"name":"KaleScrooge","steam_id":76561199229442595,"connected_time":759000000000,"state":"active","ping":159},{"user_id":244,"name":"‚éæ Ethereal ‚èå","steam_id":76561199385170644,"connected_time":1016000000000,"state":"active","ping":52},{"user_id":242,"name":"Legit_Jaxer","steam_id":76561198172234053,"connected_time":1023000000000,"state":"active","ping":128},{"user_id":245,"name":"6t26j","steam_id":76561198278282836,"connected_time":1011000000000,"state":"active","ping":58},{"user_id":150,"name":"abcdefghijklmnopqrstuvwxyz","steam_id":76561198175741741,"connected_time":4167000000000,"state":"active","ping":68},{"user_id":258,"name":"Womp","steam_id":76561198245103000,"connected_time":219000000000,"state":"active","ping":71},{"user_id":240,"name":"puffy","steam_id":76561198411347037,"connected_time":1037000000000,"state":"active","ping":73},{"user_id":246,"name":"MankTKO","steam_id":76561198189421005,"connected_time":1011000000000,"state":"active","ping":46},{"user_id":254,"name":"Temujin","steam_id":76561198030936583,"connected_time":565000000000,"state":"active","ping":51},{"user_id":77,"name":"TrashMann","steam_id":76561198040969743,"connected_time":8729000000000,"state":"active","ping":84},{"user_id":256,"name":"STENDO_CLIP","steam_id":76561198059570167,"connected_time":392000000000,"state":"active","ping":114},{"user_id":247,"name":"J The Jounin","steam_id":76561198034583622,"connected_time":1000000000000,"state":"active","ping":72},{"user_id":153,"name":"LtK","steam_id":76561197993180943,"connected_time":4082000000000,"state":"active","ping":60},{"user_id":257,"name":"Local","steam_id":76561198069537437,"connected_time":380000000000,"state":"active","ping":101},{"user_id":160,"name":"hatchetax","steam_id":76561199013337543,"connected_time":3159000000000,"state":"active","ping":69},{"user_id":260,"name":"Hiser","steam_id":76561198308193624,"connected_time":144000000000,"state":"active","ping":88},{"user_id":262,"name":"tasty","steam_id":76561198083839061,"connected_time":56000000000,"state":"active","ping":69}]},{"server_id":402,"name":"Uncletopia | Chicago | 3 | All Maps","name_short":"chi-3","host":"chi-1.us.uncletopia.com","port":27035,"enabled":true,"region":"us-central","cc":"us","latitude":41.881832,"longitude":-87.62318,"reserved":0,"last_update":"0001-01-01T00:00:00Z","name_a2s":"Uncletopia | Chicago | 3 | All Maps","protocol":17,"map":"pl_barnblitz","folder":"tf","game":"Team Fortress","app_id":440,"player_count":24,"max_players":24,"Bots":0,"server_type":"Dedicated","server_os":"Linux","password":true,"vac":true,"version":"7882260","steam_id":85568392924515191,"keywords":["nocrits","nodmgspread","payload","uncletopia"],"game_id":440,"stv_port":27036,"stv_name":"Uncletopia | Chicago | 3 | All Maps | STV","players":[{"user_id":367,"name":"Infinity","steam_id":76561199134919099,"connected_time":436000000000,"state":"active","ping":75},{"user_id":340,"name":"nnobi","steam_id":76561198878729277,"connected_time":2007000000000,"state":"active","ping":75},{"user_id":341,"name":"C papi","steam_id":76561198027779564,"connected_time":1962000000000,"state":"active","ping":52},{"user_id":338,"name":"Scruffy 3.0","steam_id":76561198317503778,"connected_time":2040000000000,"state":"active","ping":110},{"user_id":319,"name":"DISCO BITCH!!","steam_id":76561198111259720,"connected_time":2381000000000,"state":"active","ping":69},{"user_id":320,"name":"Gracefulhippo","steam_id":76561198329904011,"connected_time":2299000000000,"state":"active","ping":74},{"user_id":317,"name":"Mr. Dick‚Ñ¢","steam_id":76561198047309044,"connected_time":2890000000000,"state":"active","ping":59},{"user_id":351,"name":"Deltaco","steam_id":76561198094572694,"connected_time":895000000000,"state":"active","ping":111},{"user_id":352,"name":"bachphong760","steam_id":76561199433780443,"connected_time":852000000000,"state":"active","ping":111},{"user_id":354,"name":"frizzle fried","steam_id":76561198062991744,"connected_time":817000000000,"state":"active","ping":70},{"user_id":359,"name":"Illuminaughty","steam_id":76561199163662910,"connected_time":783000000000,"state":"active","ping":69},{"user_id":365,"name":"Dunkin' Ponuts","steam_id":76561198082382465,"connected_time":633000000000,"state":"active","ping":75},{"user_id":353,"name":"burt","steam_id":76561198137548311,"connected_time":849000000000,"state":"active","ping":73},{"user_id":326,"name":"CyMeryy/TTV","steam_id":76561197984986540,"connected_time":2179000000000,"state":"active","ping":67},{"user_id":366,"name":"Amazon","steam_id":76561198156095880,"connected_time":554000000000,"state":"active","ping":92},{"user_id":328,"name":"rat","steam_id":76561198313364985,"connected_time":2162000000000,"state":"active","ping":72},{"user_id":329,"name":"Cedric","steam_id":76561198072090580,"connected_time":2156000000000,"state":"active","ping":87},{"user_id":355,"name":"Wan Shi Tong","steam_id":76561198076441225,"connected_time":808000000000,"state":"active","ping":71},{"user_id":363,"name":"BOTBOT","steam_id":76561198271928618,"connected_time":685000000000,"state":"active","ping":82},{"user_id":368,"name":"Milf n' Cookies","steam_id":76561198104805359,"connected_time":415000000000,"state":"active","ping":68},{"user_id":358,"name":"Carrion Crawler","steam_id":76561198069814977,"connected_time":791000000000,"state":"active","ping":70},{"user_id":334,"name":"raps","steam_id":76561198188722751,"connected_time":2089000000000,"state":"active","ping":100},{"user_id":346,"name":"Dracula, King of All Vampires","steam_id":76561198026930160,"connected_time":1573000000000,"state":"active","ping":75},{"user_id":370,"name":"Chimpanzee","steam_id":76561198850387282,"connected_time":272000000000,"state":"active","ping":84}]},{"server_id":403,"name":"Uncletopia | Chicago | 4 | All Maps","name_short":"chi-4","host":"chi-1.us.uncletopia.com","port":27045,"enabled":true,"region":"us-central","cc":"us","latitude":41.881832,"longitude":-87.62318,"reserved":0,"last_update":"0001-01-01T00:00:00Z","name_a2s":"Uncletopia | Chicago | 4 | All Maps","protocol":17,"map":"cp_snakewater_final1","folder":"tf","game":"Team Fortress","app_id":440,"player_count":24,"max_players":24,"Bots":0,"server_type":"Dedicated","server_os":"Linux","password":true,"vac":true,"version":"7882260","steam_id":85568392924515193,"keywords":["cp","nocrits","nodmgspread","uncletopia"],"game_id":440,"stv_port":27046,"stv_name":"Uncletopia | Chicago | 4 | All Maps | STV","players":[{"user_id":236,"name":"Metapod","steam_id":76561198008725465,"connected_time":1718000000000,"state":"active","ping":81},{"user_id":266,"name":"PorkTheChop","steam_id":76561198008883658,"connected_time":33000000000,"state":"active","ping":60},{"user_id":247,"name":"Mr. E","steam_id":76561198060381147,"connected_time":1406000000000,"state":"active","ping":116},{"user_id":248,"name":"totally not a pile of beans","steam_id":76561198119851931,"connected_time":1404000000000,"state":"active","ping":80},{"user_id":211,"name":"Merpling","steam_id":76561198048272047,"connected_time":3936000000000,"state":"active","ping":80},{"user_id":183,"name":"james may","steam_id":76561198043857339,"connected_time":6270000000000,"state":"active","ping":97},{"user_id":245,"name":"som0307","steam_id":76561199073175376,"connected_time":1443000000000,"state":"active","ping":118},{"user_id":243,"name":"ÔºîÔºê Ôº¶Ôº∞Ôº≥","steam_id":76561198272394965,"connected_time":1534000000000,"state":"active","ping":137},{"user_id":212,"name":"mel","steam_id":76561198215559840,"connected_time":3878000000000,"state":"active","ping":65},{"user_id":259,"name":"j1mmy","steam_id":76561198098554331,"connected_time":500000000000,"state":"active","ping":86},{"user_id":201,"name":"Passion","steam_id":76561198818233217,"connected_time":5217000000000,"state":"active","ping":84},{"user_id":261,"name":"zzz","steam_id":76561198143727547,"connected_time":320000000000,"state":"active","ping":106},{"user_id":256,"name":"seeyouauntie","steam_id":76561198045852999,"connected_time":1015000000000,"state":"active","ping":65},{"user_id":264,"name":"Trout","steam_id":76561198075180255,"connected_time":174000000000,"state":"active","ping":76},{"user_id":258,"name":"Retro Phoenix","steam_id":76561198077176271,"connected_time":962000000000,"state":"active","ping":60},{"user_id":260,"name":"Splinto","steam_id":76561198111260488,"connected_time":497000000000,"state":"active","ping":46},{"user_id":234,"name":"Femtofarad","steam_id":76561198308583053,"connected_time":1944000000000,"state":"active","ping":81},{"user_id":265,"name":"engiqueer69","steam_id":76561199153261850,"connected_time":95000000000,"state":"active","ping":162},{"user_id":226,"name":"Unreliable Narrator","steam_id":76561198021303959,"connected_time":2730000000000,"state":"active","ping":91},{"user_id":251,"name":"The Theory Of Everything","steam_id":76561198286792807,"connected_time":1373000000000,"state":"active","ping":66},{"user_id":225,"name":"guac","steam_id":76561198070305720,"connected_time":2904000000000,"state":"active","ping":82},{"user_id":204,"name":"Drew P. Sack","steam_id":76561198036201738,"connected_time":4533000000000,"state":"active","ping":54},{"user_id":125,"name":"Twitch University","steam_id":76561198120758046,"connected_time":9822000000000,"state":"active","ping":69},{"user_id":252,"name":"Fightin Cow","steam_id":76561198080941486,"connected_time":1371000000000,"state":"active","ping":83}]},{"server_id":36,"name":"Uncletopia | Chicago | 5 | All Maps","name_short":"chi-5","host":"chi-2.us.uncletopia.com","port":27015,"enabled":true,"region":"us-central","cc":"us","latitude":41.881832,"longitude":-87.62318,"reserved":0,"last_update":"0001-01-01T00:00:00Z","name_a2s":"Uncletopia | Chicago | 5 | All Maps","protocol":17,"map":"ctf_2fort","folder":"tf","game":"Team Fortress","app_id":440,"player_count":22,"max_players":24,"Bots":0,"server_type":"Dedicated","server_os":"Linux","password":true,"vac":true,"version":"7882260","steam_id":85568392924866362,"keywords":["ctf","nocrits","nodmgspread","uncletopia"],"game_id":440,"stv_port":27016,"stv_name":"Uncletopia | Chicago | 5 | All Maps | STV","players":[{"user_id":111,"name":"Dev","steam_id":76561198388276870,"connected_time":831000000000,"state":"active","ping":87},{"user_id":58,"name":"Petrivus","steam_id":76561198202152453,"connected_time":4963000000000,"state":"active","ping":99},{"user_id":126,"name":"Peri","steam_id":76561198255311543,"connected_time":216000000000,"state":"active","ping":79},{"user_id":101,"name":"Big Cheddar","steam_id":76561198332150669,"connected_time":967000000000,"state":"active","ping":62},{"user_id":130,"name":"Angel Wolfie","steam_id":76561198026562237,"connected_time":49000000000,"state":"active","ping":35},{"user_id":109,"name":"cakgamin","steam_id":76561199088909749,"connected_time":854000000000,"state":"active","ping":64},{"user_id":54,"name":"19037189","steam_id":76561198053960810,"connected_time":5179000000000,"state":"active","ping":78},{"user_id":87,"name":"nurp","steam_id":76561198071687616,"connected_time":2142000000000,"state":"active","ping":59},{"user_id":84,"name":"thorn648","steam_id":76561198012565777,"connected_time":2225000000000,"state":"active","ping":68},{"user_id":104,"name":"Happy 100 Gaming","steam_id":76561199066576538,"connected_time":943000000000,"state":"active","ping":90},{"user_id":113,"name":"FATRAT","steam_id":76561198319338299,"connected_time":713000000000,"state":"active","ping":145},{"user_id":125,"name":"Wigl","steam_id":76561198019324464,"connected_time":268000000000,"state":"active","ping":68},{"user_id":132,"name":"98 Koshien","steam_id":76561198883741129,"connected_time":20000000000,"state":"active","ping":62},{"user_id":129,"name":"-œÄ- BakaD","steam_id":76561197960559169,"connected_time":128000000000,"state":"active","ping":57},{"user_id":89,"name":"bing","steam_id":76561198005160560,"connected_time":2067000000000,"state":"active","ping":85},{"user_id":128,"name":"drwwby","steam_id":76561198067741339,"connected_time":182000000000,"state":"active","ping":54},{"user_id":74,"name":"NFT(non functioning testicle)","steam_id":76561198092435966,"connected_time":3701000000000,"state":"active","ping":65},{"user_id":119,"name":"Tahm Selleck","steam_id":76561198138083134,"connected_time":528000000000,"state":"active","ping":80},{"user_id":103,"name":"CyberZayne","steam_id":76561198002351356,"connected_time":958000000000,"state":"active","ping":90},{"user_id":94,"name":"Elud4","steam_id":76561198049072796,"connected_time":1575000000000,"state":"active","ping":67},{"user_id":69,"name":"Stan","steam_id":76561198209150708,"connected_time":4050000000000,"state":"active","ping":68},{"user_id":106,"name":"Riley","steam_id":76561198091245047,"connected_time":926000000000,"state":"active","ping":145}]},{"server_id":37,"name":"Uncletopia | Chicago | 6 | All Maps","name_short":"chi-6","host":"chi-2.us.uncletopia.com","port":27025,"enabled":true,"region":"us-central","cc":"us","latitude":41.881832,"longitude":-87.62318,"reserved":0,"last_update":"0001-01-01T00:00:00Z","name_a2s":"Uncletopia | Chicago | 6 | All Maps","protocol":17,"map":"koth_cascade","folder":"tf","game":"Team Fortress","app_id":440,"player_count":0,"max_players":24,"Bots":0,"server_type":"Dedicated","server_os":"Linux","password":true,"vac":true,"version":"7882260","steam_id":85568392924866363,"keywords":["cp","nocrits","nodmgspread","uncletopia"],"game_id":440,"stv_port":27026,"stv_name":"Uncletopia | Chicago | 6 | All Maps | STV","players":null},{"server_id":38,"name":"Uncletopia | Chicago | 7 | Stopwatch Beta","name_short":"chi-7","host":"chi-2.us.uncletopia.com","port":27035,"enabled":true,"region":"us-central","cc":"us","latitude":41.881832,"longitude":-87.62318,"reserved":0,"last_update":"0001-01-01T00:00:00Z","name_a2s":"Uncletopia | Chicago | 7 | Stopwatch Beta","protocol":17,"map":"pl_borneo","folder":"tf","game":"Team Fortress","app_id":440,"player_count":0,"max_players":24,"Bots":0,"server_type":"Dedicated","server_os":"Linux","password":true,"vac":true,"version":"7882260","steam_id":85568392924866364,"keywords":["nocrits","nodmgspread","payload","uncletopia"],"game_id":440,"stv_port":27036,"stv_name":"Uncletopia | Chicago | 7 | Stopwatch Beta | STV","players":null},{"server_id":39,"name":"Uncletopia | Chicago | 8 | Community","name_short":"chi-8","host":"chi-2.us.uncletopia.com","port":27045,"enabled":true,"region":"us-central","cc":"us","latitude":41.881832,"longitude":-87.62318,"reserved":0,"last_update":"0001-01-01T00:00:00Z","name_a2s":"Uncletopia | Chicago | 8 | Community","protocol":17,"map":"workshop/pl_barnblitz_pro7.ugc582280235","folder":"tf","game":"Team Fortress","app_id":440,"player_count":0,"max_players":24,"Bots":0,"server_type":"Dedicated","server_os":"Linux","password":true,"vac":true,"version":"7882260","steam_id":85568392924866365,"keywords":["nocrits","nodmgspread","payload","uncletopia"],"game_id":440,"stv_port":27046,"stv_name":"Uncletopia | Chicago | 8 | Community | STV","players":null},{"server_id":8,"name":"Uncletopia | Dallas | 1 | All Maps","name_short":"dal-1","host":"dal-1.us.uncletopia.com","port":27015,"enabled":true,"region":"us-central","cc":"us","latitude":32.779167,"longitude":-96.80889,"reserved":0,"last_update":"0001-01-01T00:00:00Z","name_a2s":"Uncletopia | Dallas | 1 | All Maps","protocol":17,"map":"koth_viaduct","folder":"tf","game":"Team Fortress","app_id":440,"player_count":0,"max_players":24,"Bots":0,"server_type":"Dedicated","server_os":"Linux","password":true,"vac":true,"version":"7882260","steam_id":85568392924469986,"keywords":["cp","nocrits","nodmgspread","uncletopia"],"game_id":440,"stv_port":27016,"stv_name":"Uncletopia | Dallas | 1 | All Maps | STV","players":null},{"server_id":108,"name":"Uncletopia | Dallas | 2 | All Maps","name_short":"dal-2","host":"dal-1.us.uncletopia.com","port":27025,"enabled":true,"region":"us-central","cc":"us","latitude":32.779167,"longitude":-96.80889,"reserved":0,"last_update":"0001-01-01T00:00:00Z","name_a2s":"Uncletopia | Dallas | 2 | All Maps","protocol":17,"map":"koth_viaduct","folder":"tf","game":"Team Fortress","app_id":440,"player_count":0,"max_players":24,"Bots":0,"server_type":"Dedicated","server_os":"Linux","password":true,"vac":true,"version":"7882260","steam_id":85568392924469988,"keywords":["cp","nocrits","nodmgspread","uncletopia"],"game_id":440,"stv_port":27026,"stv_name":"Uncletopia | Dallas | 2 | All Maps | STV","players":null},{"server_id":5,"name":"Uncletopia | Frankfurt | 1 | All Maps","name_short":"frk-1","host":"frk-1.de.uncletopia.com","port":27015,"enabled":true,"region":"eu","cc":"de","latitude":50.110924,"longitude":8.682127,"reserved":0,"last_update":"0001-01-01T00:00:00Z","name_a2s":"Uncletopia | Frankfurt | 1 | All Maps","protocol":17,"map":"plr_hightower","folder":"tf","game":"Team Fortress","app_id":440,"player_count":24,"max_players":24,"Bots":0,"server_type":"Dedicated","server_os":"Linux","password":true,"vac":true,"version":"7882260","steam_id":85568392924469989,"keywords":["nocrits","nodmgspread","payload","uncletopia"],"game_id":440,"stv_port":27016,"stv_name":"Uncletopia | Frankfurt | 1 | All Maps | STV","players":[{"user_id":226,"name":"–∏–ª–∫–∞ –ø–∞–∞–Ω–∞–Ω–µ–Ω","steam_id":76561199149307190,"connected_time":626000000000,"state":"active","ping":75},{"user_id":220,"name":"1ggy","steam_id":76561199051285912,"connected_time":950000000000,"state":"active","ping":79},{"user_id":218,"name":"Gabys","steam_id":76561198282892553,"connected_time":1091000000000,"state":"active","ping":71},{"user_id":205,"name":"BELADIT","steam_id":76561198011911501,"connected_time":2275000000000,"state":"active","ping":63},{"user_id":227,"name":"üòà COCKDESTROYER üòà","steam_id":76561198042846999,"connected_time":582000000000,"state":"active","ping":62},{"user_id":228,"name":"burgz","steam_id":76561198109955787,"connected_time":558000000000,"state":"active","ping":59},{"user_id":229,"name":"crolee","steam_id":76561198865817316,"connected_time":549000000000,"state":"active","ping":54},{"user_id":233,"name":"M0rph","steam_id":76561198127339176,"connected_time":499000000000,"state":"active","ping":53},{"user_id":237,"name":"Greg","steam_id":76561198014131702,"connected_time":451000000000,"state":"active","ping":118},{"user_id":244,"name":"peso enjoyer","steam_id":76561198798177799,"connected_time":123000000000,"state":"active","ping":161},{"user_id":231,"name":"Average Sniper Enjoyer","steam_id":76561197965556042,"connected_time":535000000000,"state":"active","ping":87},{"user_id":243,"name":"Jyghc","steam_id":76561198405980575,"connected_time":151000000000,"state":"active","ping":65},{"user_id":163,"name":"TheShadowScribe","steam_id":76561199037525945,"connected_time":5491000000000,"state":"active","ping":99},{"user_id":138,"name":"LordTrap.exe","steam_id":76561198318089716,"connected_time":7044000000000,"state":"active","ping":61},{"user_id":222,"name":"gegit08","steam_id":76561199040010283,"connected_time":804000000000,"state":"active","ping":89},{"user_id":209,"name":"Tea guy","steam_id":76561198797847641,"connected_time":2005000000000,"state":"active","ping":77},{"user_id":194,"name":"stefanbejenari","steam_id":76561199466718294,"connected_time":2840000000000,"state":"active","ping":71},{"user_id":245,"name":"–ù–ï–ì–†–´","steam_id":76561198016657120,"connected_time":39000000000,"state":"active","ping":109},{"user_id":234,"name":"ùïØùñéùñÜùñáùñëùñî","steam_id":76561198257082081,"connected_time":487000000000,"state":"active","ping":89},{"user_id":235,"name":"Sonic","steam_id":76561198081692577,"connected_time":487000000000,"state":"active","ping":60},{"user_id":223,"name":"Lazer","steam_id":76561198150041285,"connected_time":768000000000,"state":"active","ping":62},{"user_id":240,"name":"Megik Wizard","steam_id":76561198079302316,"connected_time":221000000000,"state":"active","ping":92},{"user_id":213,"name":"dollar foot long","steam_id":76561199250808808,"connected_time":1623000000000,"state":"active","ping":75},{"user_id":238,"name":"Krefa12","steam_id":76561198268375393,"connected_time":343000000000,"state":"active","ping":93}]},{"server_id":110,"name":"Uncletopia | Frankfurt | 2 | All Maps","name_short":"frk-2","host":"frk-1.de.uncletopia.com","port":27025,"enabled":true,"region":"eu","cc":"de","latitude":50.110924,"longitude":8.682127,"reserved":0,"last_update":"0001-01-01T00:00:00Z","name_a2s":"Uncletopia | Frankfurt | 2 | All Maps","protocol":17,"map":"cp_dustbowl","folder":"tf","game":"Team Fortress","app_id":440,"player_count":23,"max_players":24,"Bots":0,"server_type":"Dedicated","server_os":"Linux","password":true,"vac":true,"version":"7882260","steam_id":85568392924469990,"keywords":["cp","nocrits","nodmgspread","uncletopia"],"game_id":440,"stv_port":27026,"stv_name":"Uncletopia | Frankfurt | 2 | All Maps | STV","players":[{"user_id":160,"name":"WHUSSKEY","steam_id":76561198137827441,"connected_time":1608000000000,"state":"active","ping":64},{"user_id":137,"name":"GamerNigel","steam_id":76561198144281028,"connected_time":3753000000000,"state":"active","ping":54},{"user_id":164,"name":"pull out method","steam_id":76561199235435358,"connected_time":55000000000,"state":"active","ping":82},{"user_id":162,"name":"Omni","steam_id":76561197964320557,"connected_time":497000000000,"state":"active","ping":66},{"user_id":126,"name":"Yelowchy","steam_id":76561198199416121,"connected_time":4255000000000,"state":"active","ping":60},{"user_id":144,"name":"juan Mannco.store","steam_id":76561199098499873,"connected_time":3360000000000,"state":"active","ping":59},{"user_id":141,"name":"cat","steam_id":76561198832231975,"connected_time":3474000000000,"state":"active","ping":89},{"user_id":156,"name":"Emesis Green","steam_id":76561198110470565,"connected_time":1865000000000,"state":"active","ping":96},{"user_id":146,"name":"molderfaker","steam_id":76561199347900130,"connected_time":3208000000000,"state":"active","ping":91},{"user_id":149,"name":"Doctor racism (OFFICIAL)","steam_id":76561199196316280,"connected_time":3093000000000,"state":"active","ping":97},{"user_id":152,"name":"√Ñ√§rik ‚ô£","steam_id":76561198131871737,"connected_time":2501000000000,"state":"active","ping":48},{"user_id":158,"name":"Ham","steam_id":76561198248478444,"connected_time":1678000000000,"state":"active","ping":83},{"user_id":165,"name":"lobzade","steam_id":76561198195685370,"connected_time":44000000000,"state":"active","ping":45},{"user_id":131,"name":"apple","steam_id":76561198350676879,"connected_time":3962000000000,"state":"active","ping":94},{"user_id":117,"name":"tea girl","steam_id":76561198068054530,"connected_time":4466000000000,"state":"active","ping":85},{"user_id":85,"name":"Thales gaming","steam_id":76561198154569703,"connected_time":6484000000000,"state":"active","ping":74},{"user_id":86,"name":"Ecin","steam_id":76561198816655769,"connected_time":6294000000000,"state":"active","ping":53},{"user_id":159,"name":"Simbe","steam_id":76561199103242939,"connected_time":1658000000000,"state":"active","ping":69},{"user_id":120,"name":"I am the one who donks","steam_id":76561198419583460,"connected_time":4442000000000,"state":"active","ping":52},{"user_id":53,"name":"Creature :3:3","steam_id":76561198869564327,"connected_time":8349000000000,"state":"active","ping":108},{"user_id":138,"name":"Acu1000","steam_id":76561198996751455,"connected_time":3692000000000,"state":"active","ping":86},{"user_id":163,"name":"Blitzy","steam_id":76561198059253518,"connected_time":156000000000,"state":"active","ping":83},{"user_id":155,"name":"Rudegolf","steam_id":76561198445496741,"connected_time":2068000000000,"state":"active","ping":58}]},{"server_id":308,"name":"Uncletopia | Frankfurt | 3 | All Maps","name_short":"frk-3","host":"frk-1.de.uncletopia.com","port":27035,"enabled":true,"region":"eu","cc":"de","latitude":50.110924,"longitude":8.682127,"reserved":0,"last_update":"0001-01-01T00:00:00Z","name_a2s":"Uncletopia | Frankfurt | 3 | All Maps","protocol":17,"map":"cp_dustbowl","folder":"tf","game":"Team Fortress","app_id":440,"player_count":0,"max_players":24,"Bots":0,"server_type":"Dedicated","server_os":"Linux","password":true,"vac":true,"version":"7882260","steam_id":85568392924504274,"keywords":["cp","nocrits","nodmgspread","uncletopia"],"game_id":440,"stv_port":27036,"stv_name":"Uncletopia | Frankfurt | 3 | All Maps | STV","players":null},{"server_id":309,"name":"Uncletopia | Frankfurt | 4 | All Maps","name_short":"frk-4","host":"frk-1.de.uncletopia.com","port":27045,"enabled":true,"region":"eu","cc":"de","latitude":50.110924,"longitude":8.682127,"reserved":0,"last_update":"0001-01-01T00:00:00Z","name_a2s":"Uncletopia | Frankfurt | 4 | All Maps","protocol":17,"map":"cp_snakewater_final1","folder":"tf","game":"Team Fortress","app_id":440,"player_count":24,"max_players":24,"Bots":0,"server_type":"Dedicated","server_os":"Linux","password":true,"vac":true,"version":"7882260","steam_id":85568392924504275,"keywords":["cp","nocrits","nodmgspread","uncletopia"],"game_id":440,"stv_port":27046,"stv_name":"Uncletopia | Frankfurt | 4 | All Maps | STV","players":[{"user_id":409,"name":"You're doin good lad","steam_id":76561198350707031,"connected_time":1349000000000,"state":"active","ping":86},{"user_id":410,"name":"Star in a pond","steam_id":76561198205501279,"connected_time":1345000000000,"state":"active","ping":92},{"user_id":425,"name":"xopow","steam_id":76561198435829093,"connected_time":361000000000,"state":"active","ping":78},{"user_id":427,"name":"JC","steam_id":76561198029213352,"connected_time":173000000000,"state":"active","ping":45},{"user_id":416,"name":"–∫–∏—Å–æ—á–∫–∞","steam_id":76561197994078745,"connected_time":1136000000000,"state":"active","ping":103},{"user_id":426,"name":"„ÄêAdam„Äë","steam_id":76561198803089620,"connected_time":336000000000,"state":"active","ping":66},{"user_id":323,"name":"monaskick","steam_id":76561198326190912,"connected_time":5744000000000,"state":"active","ping":76},{"user_id":422,"name":"M/S Jeeztonia","steam_id":76561198123592400,"connected_time":442000000000,"state":"active","ping":134},{"user_id":366,"name":"Proud Jojo Fan #TF2SP","steam_id":76561198847327216,"connected_time":3224000000000,"state":"active","ping":57},{"user_id":371,"name":"frank","steam_id":76561198214063660,"connected_time":2866000000000,"state":"active","ping":70},{"user_id":421,"name":"outlaw","steam_id":76561198323805289,"connected_time":703000000000,"state":"active","ping":45},{"user_id":397,"name":"hananamanna","steam_id":76561198006570285,"connected_time":1810000000000,"state":"active","ping":106},{"user_id":356,"name":"Milosz52","steam_id":76561199060940204,"connected_time":4252000000000,"state":"active","ping":74},{"user_id":402,"name":"Saihtama","steam_id":76561198067497192,"connected_time":1569000000000,"state":"active","ping":80},{"user_id":420,"name":"Buddy","steam_id":76561198050185582,"connected_time":818000000000,"state":"active","ping":69},{"user_id":379,"name":"1couver","steam_id":76561198168553215,"connected_time":2311000000000,"state":"active","ping":97},{"user_id":428,"name":"Drift7114","steam_id":76561199044419505,"connected_time":93000000000,"state":"active","ping":80},{"user_id":377,"name":"Banzar1","steam_id":76561198170325423,"connected_time":2344000000000,"state":"active","ping":134},{"user_id":373,"name":"Uriziel","steam_id":76561198046950794,"connected_time":2746000000000,"state":"active","ping":86},{"user_id":344,"name":"herbal tea","steam_id":76561197980736364,"connected_time":5063000000000,"state":"active","ping":76},{"user_id":414,"name":"skille","steam_id":76561198005794325,"connected_time":1314000000000,"state":"active","ping":61},{"user_id":424,"name":"ÊÇ™","steam_id":76561198095879087,"connected_time":398000000000,"state":"active","ping":71},{"user_id":389,"name":"Suomenjuusto","steam_id":76561198991491758,"connected_time":2179000000000,"state":"active","ping":686},{"user_id":413,"name":"fifafunnies@hotmail.com","steam_id":76561198103908668,"connected_time":1327000000000,"state":"active","ping":74}]},{"server_id":310,"name":"Uncletopia | Frankfurt | 5 | All Maps","name_short":"frk-5","host":"frk-1.de.uncletopia.com","port":27055,"enabled":true,"region":"eu","cc":"de","latitude":50.110924,"longitude":8.682127,"reserved":0,"last_update":"0001-01-01T00:00:00Z","name_a2s":"Uncletopia | Frankfurt | 5 | All Maps","protocol":17,"map":"cp_metalworks","folder":"tf","game":"Team Fortress","app_id":440,"player_count":24,"max_players":24,"Bots":0,"server_type":"Dedicated","server_os":"Linux","password":true,"vac":true,"version":"7882260","steam_id":85568392924504277,"keywords":["cp","nocrits","nodmgspread","uncletopia"],"game_id":440,"stv_port":27056,"stv_name":"Uncletopia | Frankfurt | 5 | All Maps | STV","players":[{"user_id":174,"name":"Rimx","steam_id":76561198053034840,"connected_time":1498000000000,"state":"active","ping":88},{"user_id":182,"name":"Szeregowy LowiRyb","steam_id":76561198855967762,"connected_time":1197000000000,"state":"active","ping":99},{"user_id":163,"name":"ryft #freenioh","steam_id":76561198429138254,"connected_time":1930000000000,"state":"active","ping":61},{"user_id":197,"name":"NoobfromHell","steam_id":76561198394221491,"connected_time":1000000000,"state":"spawning","ping":49},{"user_id":184,"name":"LivEssense","steam_id":76561198052476979,"connected_time":1154000000000,"state":"active","ping":75},{"user_id":161,"name":"Pilaarius","steam_id":76561198120273212,"connected_time":2020000000000,"state":"active","ping":92},{"user_id":162,"name":"notMe","steam_id":76561198040429367,"connected_time":2001000000000,"state":"active","ping":85},{"user_id":192,"name":"Vershal Smershal","steam_id":76561198116223995,"connected_time":366000000000,"state":"active","ping":59},{"user_id":190,"name":"The Empire Ant","steam_id":76561198082466790,"connected_time":724000000000,"state":"active","ping":52},{"user_id":140,"name":"Bajas","steam_id":76561198179339326,"connected_time":4753000000000,"state":"active","ping":84},{"user_id":95,"name":"Kahvi","steam_id":76561198723244199,"connected_time":8442000000000,"state":"active","ping":80},{"user_id":164,"name":"Digio","steam_id":76561199065101964,"connected_time":1845000000000,"state":"active","ping":89},{"user_id":183,"name":"SlowMode","steam_id":76561198039631442,"connected_time":1165000000000,"state":"active","ping":81},{"user_id":185,"name":"big poo","steam_id":76561199088284199,"connected_time":1055000000000,"state":"active","ping":62},{"user_id":127,"name":"[‚òÖSh4dowThem‚òÖ]","steam_id":76561198090435179,"connected_time":6336000000000,"state":"active","ping":94},{"user_id":152,"name":"/ff¬™ tompp","steam_id":76561198143529110,"connected_time":3267000000000,"state":"active","ping":49},{"user_id":194,"name":"d1zitio","steam_id":76561198084056439,"connected_time":210000000000,"state":"active","ping":52},{"user_id":132,"name":"top 10 movement videos","steam_id":76561199195985387,"connected_time":6173000000000,"state":"active","ping":85},{"user_id":193,"name":"yeldad","steam_id":76561198447264153,"connected_time":321000000000,"state":"active","ping":174},{"user_id":175,"name":"Toasty5050","steam_id":76561198073540881,"connected_time":1457000000000,"state":"active","ping":46},{"user_id":171,"name":"Skwodo","steam_id":76561198304424584,"connected_time":1739000000000,"state":"active","ping":73},{"user_id":188,"name":"agent youppii","steam_id":76561198055264447,"connected_time":804000000000,"state":"active","ping":74},{"user_id":179,"name":"Solymr ibn Wali Barad","steam_id":76561198044008976,"connected_time":1280000000000,"state":"active","ping":74},{"user_id":195,"name":"rwota","steam_id":76561198385769722,"connected_time":138000000000,"state":"active","ping":104}]},{"server_id":311,"name":"Uncletopia | Frankfurt | 6 | All Maps","name_short":"frk-6","host":"frk-1.de.uncletopia.com","port":27065,"enabled":true,"region":"eu","cc":"de","latitude":50.110924,"longitude":8.682127,"reserved":0,"last_update":"0001-01-01T00:00:00Z","name_a2s":"Uncletopia | Frankfurt | 6 | All Maps","protocol":17,"map":"pl_snowycoast","folder":"tf","game":"Team Fortress","app_id":440,"player_count":24,"max_players":24,"Bots":0,"server_type":"Dedicated","server_os":"Linux","password":true,"vac":true,"version":"7882260","steam_id":85568392924504278,"keywords":["nocrits","nodmgspread","payload","uncletopia"],"game_id":440,"stv_port":27066,"stv_name":"Uncletopia | Frankfurt | 6 | All Maps | STV","players":[{"user_id":293,"name":"phoenix","steam_id":76561198065008074,"connected_time":2394000000000,"state":"active","ping":68},{"user_id":327,"name":"Fish 'n' Chips","steam_id":76561198033476886,"connected_time":595000000000,"state":"active","ping":46},{"user_id":305,"name":"Ewelinka Zniszczenia","steam_id":76561198307374456,"connected_time":1545000000000,"state":"active","ping":68},{"user_id":326,"name":"Saint","steam_id":76561198003296382,"connected_time":656000000000,"state":"active","ping":66},{"user_id":233,"name":"biohazard","steam_id":76561198162873354,"connected_time":6084000000000,"state":"active","ping":100},{"user_id":222,"name":"sunshine (he/him)","steam_id":76561198084597975,"connected_time":6590000000000,"state":"active","ping":66},{"user_id":328,"name":"Pascal Darras","steam_id":76561198052136478,"connected_time":576000000000,"state":"active","ping":68},{"user_id":318,"name":"Benzo Fury","steam_id":76561198025259336,"connected_time":865000000000,"state":"active","ping":54},{"user_id":313,"name":"tax fraud enthusiast","steam_id":76561198115208030,"connected_time":995000000000,"state":"active","ping":45},{"user_id":295,"name":"R0Z3","steam_id":76561199027065608,"connected_time":2364000000000,"state":"active","ping":81},{"user_id":290,"name":"bunglar","steam_id":76561198027374166,"connected_time":2623000000000,"state":"active","ping":57},{"user_id":316,"name":"gort","steam_id":76561198060339391,"connected_time":983000000000,"state":"active","ping":45},{"user_id":319,"name":"DeSepp","steam_id":76561198063149086,"connected_time":858000000000,"state":"active","ping":59},{"user_id":308,"name":"One-Face","steam_id":76561197999384826,"connected_time":1227000000000,"state":"active","ping":54},{"user_id":296,"name":"Virgineer","steam_id":76561199140814522,"connected_time":2356000000000,"state":"active","ping":84},{"user_id":265,"name":"Jos√© Antonio Primo de Rivera","steam_id":76561197981932264,"connected_time":4102000000000,"state":"active","ping":62},{"user_id":312,"name":"Spectral Sloth","steam_id":76561198170083139,"connected_time":1133000000000,"state":"active","ping":82},{"user_id":320,"name":"Devil","steam_id":76561198129721935,"connected_time":841000000000,"state":"active","ping":84},{"user_id":330,"name":"MAKENTAKEN","steam_id":76561199127359587,"connected_time":294000000000,"state":"active","ping":92},{"user_id":302,"name":"i heal gay people","steam_id":76561198032167311,"connected_time":1790000000000,"state":"active","ping":74},{"user_id":321,"name":"üóªüé¥Hadrian Maloneüé¥üóª","steam_id":76561198036151103,"connected_time":838000000000,"state":"active","ping":64},{"user_id":212,"name":"giclure :;","steam_id":76561197986362828,"connected_time":7059000000000,"state":"active","ping":63},{"user_id":311,"name":"Mr. Mundy","steam_id":76561198132008918,"connected_time":1174000000000,"state":"active","ping":86},{"user_id":325,"name":"skindiver376","steam_id":76561198056533071,"connected_time":687000000000,"state":"active","ping":58}]},{"server_id":23,"name":"Uncletopia | Frankfurt | 7 | Stopwatch Beta","name_short":"frk-7","host":"frk-1.de.uncletopia.com","port":27075,"enabled":true,"region":"eu","cc":"de","latitude":50.110924,"longitude":8.682127,"reserved":0,"last_update":"0001-01-01T00:00:00Z","name_a2s":"Uncletopia | Frankfurt | 7 | Stopwatch Beta","protocol":17,"map":"workshop/koth_clearcut_b15.ugc2107050255","folder":"tf","game":"Team Fortress","app_id":440,"player_count":0,"max_players":24,"Bots":0,"server_type":"Dedicated","server_os":"Linux","password":true,"vac":true,"version":"7882260","steam_id":85568392924742827,"keywords":["cp","nocrits","nodmgspread","uncletopia"],"game_id":440,"stv_port":27076,"stv_name":"Uncletopia | Frankfurt | 7 | Stopwatch Beta | STV","players":null},{"server_id":24,"name":"Uncletopia | Frankfurt | 8 | Community","name_short":"frk-8","host":"frk-1.de.uncletopia.com","port":27085,"enabled":true,"region":"eu","cc":"de","latitude":50.110924,"longitude":8.682127,"reserved":0,"last_update":"0001-01-01T00:00:00Z","name_a2s":"Uncletopia | Frankfurt | 8 | Community","protocol":17,"map":"workshop/koth_ashville_final.ugc2130459942","folder":"tf","game":"Team Fortress","app_id":440,"player_count":23,"max_players":24,"Bots":0,"server_type":"Dedicated","server_os":"Linux","password":true,"vac":true,"version":"7882260","steam_id":85568392924742828,"keywords":["cp","nocrits","nodmgspread","uncletopia"],"game_id":440,"stv_port":27086,"stv_name":"Uncletopia | Frankfurt | 8 | Community | STV","players":[{"user_id":58,"name":"toastmiro","steam_id":76561199112031154,"connected_time":1752000000000,"state":"active","ping":56},{"user_id":91,"name":"TheFox.tf","steam_id":76561197996851702,"connected_time":591000000000,"state":"active","ping":75},{"user_id":96,"name":"Stigurna","steam_id":76561198063906822,"connected_time":218000000000,"state":"active","ping":98},{"user_id":19,"name":"TSx* {Demon-Angel}","steam_id":76561198151486463,"connected_time":4237000000000,"state":"active","ping":72},{"user_id":70,"name":"Jeerven","steam_id":76561198259189841,"connected_time":1376000000000,"state":"active","ping":60},{"user_id":21,"name":"TSx* Osa__PL","steam_id":76561198027016799,"connected_time":4189000000000,"state":"active","ping":69},{"user_id":22,"name":"TSx* Bargal","steam_id":76561198040266872,"connected_time":4164000000000,"state":"active","ping":77},{"user_id":97,"name":"Ando","steam_id":76561198176784641,"connected_time":58000000000,"state":"spawning","ping":144},{"user_id":26,"name":"SDCK! GardenFungus tf2easy.com","steam_id":76561198054894337,"connected_time":3854000000000,"state":"active","ping":52},{"user_id":85,"name":"Zank Frappa","steam_id":76561199227624104,"connected_time":980000000000,"state":"active","ping":54},{"user_id":86,"name":"you're wasting your time","steam_id":76561199282911650,"connected_time":835000000000,"state":"active","ping":53},{"user_id":40,"name":"evegioyidechadab","steam_id":76561198075991626,"connected_time":2764000000000,"state":"active","ping":59},{"user_id":89,"name":"Jackie Chan","steam_id":76561199378865926,"connected_time":670000000000,"state":"active","ping":101},{"user_id":92,"name":"Mak≈Çowicz","steam_id":76561198281831506,"connected_time":556000000000,"state":"active","ping":74},{"user_id":47,"name":"Ashen","steam_id":76561198274631806,"connected_time":2256000000000,"state":"active","ping":60},{"user_id":99,"name":"Captain Scrumpe","steam_id":76561198032206577,"connected_time":26000000000,"state":"active","ping":164},{"user_id":87,"name":"Shoot people","steam_id":76561199042470246,"connected_time":789000000000,"state":"active","ping":54},{"user_id":67,"name":"Mewdica","steam_id":76561199081625951,"connected_time":1506000000000,"state":"active","ping":64},{"user_id":95,"name":"I.AM.THE.BOOP.WHICH.IS.APROACHI","steam_id":76561198049342507,"connected_time":431000000000,"state":"active","ping":86},{"user_id":98,"name":"Dr.Dag","steam_id":76561198301430910,"connected_time":47000000000,"state":"active","ping":73},{"user_id":94,"name":"That One Guy","steam_id":76561198945646560,"connected_time":532000000000,"state":"active","ping":194},{"user_id":74,"name":"NANI?!?!?!","steam_id":76561198172078559,"connected_time":1361000000000,"state":"active","ping":88},{"user_id":76,"name":"t3l3fon1","steam_id":76561199252129777,"connected_time":1359000000000,"state":"active","ping":75}]},{"server_id":202,"name":"Uncletopia | Hong Kong | 1 | All Maps","name_short":"hgk-1","host":"hgk-1.hk.uncletopia.com","port":27015,"enabled":true,"region":"asia","cc":"hk","latitude":22.302711,"longitude":114.177216,"reserved":0,"last_update":"0001-01-01T00:00:00Z","name_a2s":"Uncletopia | Hong Kong | 1 | All Maps","protocol":17,"map":"pl_pier","folder":"tf","game":"Team Fortress","app_id":440,"player_count":0,"max_players":24,"Bots":0,"server_type":"Dedicated","server_os":"Linux","password":true,"vac":true,"version":"7882260","steam_id":85568392924494504,"keywords":["nocrits","nodmgspread","payload","uncletopia"],"game_id":440,"stv_port":27016,"stv_name":"Uncletopia | Hong Kong | 1 | All Maps | STV","players":null},{"server_id":1,"name":"Uncletopia | Los Angeles | 1 | All Maps","name_short":"lax-1","host":"lax-1.us.uncletopia.com","port":27015,"enabled":true,"region":"us-west","cc":"us","latitude":33.94279,"longitude":-118.41004,"reserved":0,"last_update":"0001-01-01T00:00:00Z","name_a2s":"Uncletopia | Los Angeles | 1 | All Maps","protocol":17,"map":"cp_snakewater_final1","folder":"tf","game":"Team Fortress","app_id":440,"player_count":0,"max_players":24,"Bots":0,"server_type":"Dedicated","server_os":"Linux","password":true,"vac":true,"version":"7882260","steam_id":85568392924469991,"keywords":["cp","nocrits","nodmgspread","uncletopia"],"game_id":440,"stv_port":27016,"stv_name":"Uncletopia | Los Angeles | 1 | All Maps | STV","players":null},{"server_id":112,"name":"Uncletopia | Los Angeles | 2 | All Maps","name_short":"lax-2","host":"lax-1.us.uncletopia.com","port":27025,"enabled":true,"region":"us-west","cc":"us","latitude":33.94279,"longitude":-118.41004,"reserved":0,"last_update":"0001-01-01T00:00:00Z","name_a2s":"Uncletopia | Los Angeles | 2 | All Maps","protocol":17,"map":"koth_viaduct","folder":"tf","game":"Team Fortress","app_id":440,"player_count":0,"max_players":24,"Bots":0,"server_type":"Dedicated","server_os":"Linux","password":true,"vac":true,"version":"7882260","steam_id":85568392924469992,"keywords":["cp","nocrits","nodmgspread","uncletopia"],"game_id":440,"stv_port":27026,"stv_name":"Uncletopia | Los Angeles | 2 | All Maps | STV","players":null},{"server_id":324,"name":"Uncletopia | Los Angeles | 3 | All Maps","name_short":"lax-3","host":"lax-1.us.uncletopia.com","port":27035,"enabled":true,"region":"us-west","cc":"us","latitude":33.94279,"longitude":-118.41004,"reserved":0,"last_update":"0001-01-01T00:00:00Z","name_a2s":"Uncletopia | Los Angeles | 3 | All Maps","protocol":17,"map":"koth_lakeside_final","folder":"tf","game":"Team Fortress","app_id":440,"player_count":8,"max_players":24,"Bots":0,"server_type":"Dedicated","server_os":"Linux","password":true,"vac":true,"version":"7882260","steam_id":85568392924510198,"keywords":["cp","nocrits","nodmgspread","uncletopia"],"game_id":440,"stv_port":27036,"stv_name":"Uncletopia | Los Angeles | 3 | All Maps | STV","players":[{"user_id":3,"name":"SillyHead","steam_id":76561198844773637,"connected_time":3015000000000,"state":"active","ping":86},{"user_id":4,"name":"bobletoob","steam_id":76561199184464900,"connected_time":2536000000000,"state":"active","ping":54},{"user_id":5,"name":"Re:Lie","steam_id":76561198125401588,"connected_time":1029000000000,"state":"active","ping":60},{"user_id":7,"name":"The Cool Man","steam_id":76561198096420556,"connected_time":1005000000000,"state":"active","ping":99},{"user_id":8,"name":"Op banana","steam_id":76561198303231451,"connected_time":796000000000,"state":"active","ping":74},{"user_id":9,"name":"JOL_MAX","steam_id":76561199196047539,"connected_time":692000000000,"state":"active","ping":248},{"user_id":10,"name":"Lapisüíõ ","steam_id":76561198009198502,"connected_time":305000000000,"state":"active","ping":100},{"user_id":11,"name":"Odd Life","steam_id":76561198244979998,"connected_time":267000000000,"state":"active","ping":41}]},{"server_id":25,"name":"Uncletopia | Los Angeles | 4 | Stopwatch Beta","name_short":"lax-4","host":"lax-1.us.uncletopia.com","port":27045,"enabled":true,"region":"us-west","cc":"us","latitude":33.94279,"longitude":-118.41004,"reserved":0,"last_update":"0001-01-01T00:00:00Z","name_a2s":"Uncletopia | Los Angeles | 4 | Stopwatch Beta","protocol":17,"map":"workshop/koth_ramjam_rc1.ugc459778887","folder":"tf","game":"Team Fortress","app_id":440,"player_count":0,"max_players":24,"Bots":0,"server_type":"Dedicated","server_os":"Linux","password":true,"vac":true,"version":"7882260","steam_id":85568392924510199,"keywords":["cp","nocrits","nodmgspread","uncletopia"],"game_id":440,"stv_port":27046,"stv_name":"Uncletopia | Los Angeles | 4 | Stopwatch Beta | STV","players":null},{"server_id":11,"name":"Uncletopia | London | 1 | All Maps","name_short":"lon-1","host":"lon-1.uk.uncletopia.com","port":27015,"enabled":true,"region":"eu","cc":"gb","latitude":51.509865,"longitude":-0.118092,"reserved":0,"last_update":"0001-01-01T00:00:00Z","name_a2s":"Uncletopia | London | 1 | All Maps","protocol":17,"map":"pl_frontier_final","folder":"tf","game":"Team Fortress","app_id":440,"player_count":24,"max_players":24,"Bots":0,"server_type":"Dedicated","server_os":"Linux","password":true,"vac":true,"version":"7882260","steam_id":85568392924367362,"keywords":["nocrits","nodmgspread","payload","uncletopia"],"game_id":440,"stv_port":27016,"stv_name":"Uncletopia | London | 1 | All Maps | STV","players":[{"user_id":546,"name":"csnipery","steam_id":76561199435280050,"connected_time":1885000000000,"state":"active","ping":111},{"user_id":504,"name":"akakez","steam_id":76561198095432821,"connected_time":4329000000000,"state":"active","ping":115},{"user_id":511,"name":"Mr_Pulse_","steam_id":76561198095001602,"connected_time":4088000000000,"state":"active","ping":110},{"user_id":577,"name":"permed ball hair gaming","steam_id":76561198294857933,"connected_time":221000000000,"state":"active","ping":56},{"user_id":570,"name":"Mitrev","steam_id":76561198157124880,"connected_time":587000000000,"state":"active","ping":67},{"user_id":567,"name":"General Petrov","steam_id":76561198027204104,"connected_time":675000000000,"state":"active","ping":78},{"user_id":571,"name":"epic gamer moment","steam_id":76561198299515070,"connected_time":556000000000,"state":"active","ping":102},{"user_id":510,"name":"Real photograph of me","steam_id":76561198236015392,"connected_time":4149000000000,"state":"active","ping":120},{"user_id":578,"name":"Arcweld","steam_id":76561198816060720,"connected_time":165000000000,"state":"active","ping":68},{"user_id":557,"name":"Watermelon","steam_id":76561198078349914,"connected_time":1437000000000,"state":"active","ping":51},{"user_id":565,"name":"Son Goku","steam_id":76561199383437138,"connected_time":807000000000,"state":"active","ping":131},{"user_id":538,"name":"Xenometan","steam_id":76561198208408392,"connected_time":2624000000000,"state":"active","ping":115},{"user_id":563,"name":"Syd","steam_id":76561198020515027,"connected_time":1277000000000,"state":"active","ping":88},{"user_id":513,"name":"Seron-Lowell","steam_id":76561198070291347,"connected_time":4040000000000,"state":"active","ping":60},{"user_id":566,"name":"dripstein","steam_id":76561198059598696,"connected_time":798000000000,"state":"active","ping":67},{"user_id":561,"name":"Quiet Kid","steam_id":76561199134800446,"connected_time":1304000000000,"state":"active","ping":104},{"user_id":527,"name":"Smokio","steam_id":76561198069650580,"connected_time":3251000000000,"state":"active","ping":90},{"user_id":580,"name":"goff","steam_id":76561198118989010,"connected_time":137000000000,"state":"active","ping":53},{"user_id":552,"name":"Jonno","steam_id":76561198023443744,"connected_time":1585000000000,"state":"active","ping":54},{"user_id":564,"name":"Hanƒ±mSever23","steam_id":76561198142124751,"connected_time":1137000000000,"state":"active","ping":128},{"user_id":572,"name":"Skye","steam_id":76561198058946511,"connected_time":552000000000,"state":"active","ping":61},{"user_id":579,"name":"CottonPicker404","steam_id":76561199485020000,"connected_time":154000000000,"state":"active","ping":91},{"user_id":573,"name":"AHumanoidNugget","steam_id":76561198299887406,"connected_time":536000000000,"state":"active","ping":91},{"user_id":533,"name":"Alexandre","steam_id":76561198121784446,"connected_time":2982000000000,"state":"active","ping":40}]},{"server_id":114,"name":"Uncletopia | London | 2 | All Maps","name_short":"lon-2","host":"lon-1.uk.uncletopia.com","port":27025,"enabled":true,"region":"eu","cc":"gb","latitude":51.509865,"longitude":-0.118092,"reserved":0,"last_update":"0001-01-01T00:00:00Z","name_a2s":"Uncletopia | London | 2 | All Maps","protocol":17,"map":"pl_thundermountain","folder":"tf","game":"Team Fortress","app_id":440,"player_count":26,"max_players":24,"Bots":0,"server_type":"Dedicated","server_os":"Linux","password":true,"vac":true,"version":"7882260","steam_id":85568392924470941,"keywords":["nocrits","nodmgspread","payload","uncletopia"],"game_id":440,"stv_port":27026,"stv_name":"Uncletopia | London | 2 | All Maps | STV","players":[{"user_id":432,"name":"Well, off to hang myself","steam_id":76561198053374944,"connected_time":6364000000000,"state":"active","ping":68},{"user_id":509,"name":"Acanda","steam_id":76561198123246537,"connected_time":718000000000,"state":"active","ping":68},{"user_id":495,"name":"spy","steam_id":76561199382354647,"connected_time":1491000000000,"state":"active","ping":145},{"user_id":538,"name":"skullhead289","steam_id":76561199086481600,"connected_time":49000000000,"state":"active","ping":115},{"user_id":532,"name":"Delta Melta","steam_id":76561198283391403,"connected_time":126000000000,"state":"active","ping":55},{"user_id":496,"name":"Thing","steam_id":76561197997904403,"connected_time":1472000000000,"state":"active","ping":103},{"user_id":397,"name":"Scikesr","steam_id":76561198105182357,"connected_time":8194000000000,"state":"active","ping":85},{"user_id":503,"name":"Carrot (woman)","steam_id":76561198139404261,"connected_time":1216000000000,"state":"active","ping":42},{"user_id":505,"name":"Yuzu","steam_id":76561198121694613,"connected_time":1126000000000,"state":"active","ping":51},{"user_id":527,"name":"night.s","steam_id":76561198326287823,"connected_time":316000000000,"state":"active","ping":75},{"user_id":490,"name":"The Bee","steam_id":76561198127779511,"connected_time":1664000000000,"state":"active","ping":60},{"user_id":511,"name":"Doctor Marijuana","steam_id":76561198288289879,"connected_time":701000000000,"state":"active","ping":49},{"user_id":513,"name":"triple","steam_id":76561198119449463,"connected_time":691000000000,"state":"active","ping":59},{"user_id":504,"name":"Carrot","steam_id":76561198119340863,"connected_time":1213000000000,"state":"active","ping":40},{"user_id":515,"name":"Mr.Duck","steam_id":76561197983710667,"connected_time":666000000000,"state":"active","ping":90},{"user_id":487,"name":"shooer! :D \u003e\u003c(((¬∫\u003e","steam_id":76561198110531281,"connected_time":1743000000000,"state":"active","ping":71},{"user_id":493,"name":"El`Capitano Flex","steam_id":76561198061813730,"connected_time":1616000000000,"state":"active","ping":74},{"user_id":354,"name":"Lotto","steam_id":76561198012295174,"connected_time":10587000000000,"state":"active","ping":80},{"user_id":474,"name":"danko_skills1345","steam_id":76561199146399559,"connected_time":3290000000000,"state":"active","ping":75},{"user_id":501,"name":"DoubleTee","steam_id":76561198018980347,"connected_time":1375000000000,"state":"active","ping":146},{"user_id":516,"name":"Petight","steam_id":76561197999438798,"connected_time":648000000000,"state":"active","ping":33},{"user_id":502,"name":"Germanium_Ge","steam_id":76561198130561775,"connected_time":1362000000000,"state":"active","ping":59},{"user_id":517,"name":"dash.","steam_id":76561198084796149,"connected_time":646000000000,"state":"active","ping":46},{"user_id":530,"name":"Sylvanas","steam_id":76561198154904165,"connected_time":275000000000,"state":"active","ping":112},{"user_id":533,"name":"TunnelVision","steam_id":76561198232823472,"connected_time":97000000000,"state":"active","ping":59},{"user_id":539,"name":"Juno4","steam_id":76561198034518616,"connected_time":31000000000,"state":"spawning","ping":84}]},{"server_id":320,"name":"Uncletopia | London | 3 | All Maps","name_short":"lon-3","host":"lon-1.uk.uncletopia.com","port":27035,"enabled":true,"region":"eu","cc":"gb","latitude":51.509865,"longitude":-0.118092,"reserved":0,"last_update":"0001-01-01T00:00:00Z","name_a2s":"Uncletopia | London | 3 | All Maps","protocol":17,"map":"pl_upward","folder":"tf","game":"Team Fortress","app_id":440,"player_count":24,"max_players":24,"Bots":0,"server_type":"Dedicated","server_os":"Linux","password":true,"vac":true,"version":"7882260","steam_id":85568392924510192,"keywords":["nocrits","nodmgspread","payload","uncletopia"],"game_id":440,"stv_port":27036,"stv_name":"Uncletopia | London | 3 | All Maps | STV","players":[{"user_id":382,"name":"Wujek Cacek","steam_id":76561198010267943,"connected_time":3222000000000,"state":"active","ping":75},{"user_id":369,"name":"Zizman","steam_id":76561198446562910,"connected_time":4191000000000,"state":"active","ping":144},{"user_id":386,"name":"astigmatic","steam_id":76561199103959197,"connected_time":3175000000000,"state":"active","ping":99},{"user_id":407,"name":"dopamine enjoyer","steam_id":76561198140591983,"connected_time":1189000000000,"state":"active","ping":92},{"user_id":408,"name":"Pyrolander","steam_id":76561198050785450,"connected_time":1165000000000,"state":"active","ping":54},{"user_id":416,"name":"Femboy Ambassador","steam_id":76561198972418498,"connected_time":319000000000,"state":"active","ping":100},{"user_id":394,"name":"zvekan","steam_id":76561198381101196,"connected_time":2043000000000,"state":"active","ping":90},{"user_id":418,"name":"Not Clickbait (Real)","steam_id":76561198951275407,"connected_time":241000000000,"state":"active","ping":88},{"user_id":366,"name":"BRICK TOP","steam_id":76561198014366715,"connected_time":4339000000000,"state":"active","ping":44},{"user_id":390,"name":"HilldogGaming","steam_id":76561198082209322,"connected_time":2716000000000,"state":"active","ping":80},{"user_id":419,"name":"Tywhip","steam_id":76561199207545191,"connected_time":234000000000,"state":"active","ping":54},{"user_id":409,"name":"VolcanicArts","steam_id":76561198063453246,"connected_time":1157000000000,"state":"active","ping":54},{"user_id":380,"name":"Gnarville","steam_id":76561198006373329,"connected_time":3325000000000,"state":"active","ping":47},{"user_id":403,"name":"Circular","steam_id":76561198001536710,"connected_time":1453000000000,"state":"active","ping":47},{"user_id":387,"name":"taivaltaja","steam_id":76561198093458326,"connected_time":2995000000000,"state":"active","ping":73},{"user_id":415,"name":"generic alias","steam_id":76561198271607226,"connected_time":525000000000,"state":"active","ping":80},{"user_id":349,"name":"Defecticon","steam_id":76561198394837863,"connected_time":5366000000000,"state":"active","ping":98},{"user_id":417,"name":"edw!","steam_id":76561198020141317,"connected_time":303000000000,"state":"active","ping":98},{"user_id":396,"name":"slim skulla","steam_id":76561198048721726,"connected_time":1783000000000,"state":"active","ping":59},{"user_id":411,"name":"Silent","steam_id":76561198344588858,"connected_time":1138000000000,"state":"active","ping":55},{"user_id":406,"name":"murf","steam_id":76561199184831395,"connected_time":1410000000000,"state":"active","ping":43},{"user_id":420,"name":"DreamDiver","steam_id":76561198025087989,"connected_time":179000000000,"state":"active","ping":75},{"user_id":363,"name":"registered M203 owner","steam_id":76561199090545523,"connected_time":4691000000000,"state":"active","ping":34},{"user_id":414,"name":"alleged idiot cyclops","steam_id":76561198013502376,"connected_time":1108000000000,"state":"active","ping":56}]},{"server_id":321,"name":"Uncletopia | London | 4 | All Maps","name_short":"lon-4","host":"lon-1.uk.uncletopia.com","port":27045,"enabled":true,"region":"eu","cc":"gb","latitude":51.509865,"longitude":-0.118092,"reserved":0,"last_update":"0001-01-01T00:00:00Z","name_a2s":"Uncletopia | London | 4 | All Maps","protocol":17,"map":"pl_pier","folder":"tf","game":"Team Fortress","app_id":440,"player_count":20,"max_players":24,"Bots":0,"server_type":"Dedicated","server_os":"Linux","password":true,"vac":true,"version":"7882260","steam_id":85568392924510193,"keywords":["nocrits","nodmgspread","payload","uncletopia"],"game_id":440,"stv_port":27046,"stv_name":"Uncletopia | London | 4 | All Maps | STV","players":[{"user_id":602,"name":"Jabussy","steam_id":76561198111148719,"connected_time":379000000000,"state":"active","ping":69},{"user_id":564,"name":"Droy","steam_id":76561198065854668,"connected_time":2406000000000,"state":"active","ping":31},{"user_id":582,"name":"Rizz","steam_id":76561198192135953,"connected_time":1198000000000,"state":"active","ping":80},{"user_id":589,"name":"tWx","steam_id":76561198123145824,"connected_time":734000000000,"state":"active","ping":75},{"user_id":604,"name":"Koli","steam_id":76561197992428783,"connected_time":36000000000,"state":"active","ping":53},{"user_id":593,"name":"cortex","steam_id":76561198839790230,"connected_time":697000000000,"state":"active","ping":76},{"user_id":584,"name":"crashfault","steam_id":76561197994450944,"connected_time":1113000000000,"state":"active","ping":85},{"user_id":519,"name":"Killer13","steam_id":76561198303460133,"connected_time":4644000000000,"state":"active","ping":134},{"user_id":594,"name":"Enkloth!","steam_id":76561198115106008,"connected_time":613000000000,"state":"active","ping":53},{"user_id":603,"name":"Zekken","steam_id":76561198165941760,"connected_time":42000000000,"state":"active","ping":34},{"user_id":578,"name":"Matrix108","steam_id":76561198180382327,"connected_time":1667000000000,"state":"active","ping":65},{"user_id":596,"name":"clems17","steam_id":76561199420685482,"connected_time":552000000000,"state":"active","ping":63},{"user_id":597,"name":"Rez","steam_id":76561198410598772,"connected_time":543000000000,"state":"active","ping":57},{"user_id":599,"name":"Vanta_BlackLD","steam_id":76561198346271576,"connected_time":484000000000,"state":"active","ping":69},{"user_id":514,"name":"XuMuK","steam_id":76561198102102340,"connected_time":4772000000000,"state":"active","ping":82},{"user_id":601,"name":"[P-roc] Cmm Bert","steam_id":76561198016658674,"connected_time":460000000000,"state":"active","ping":63},{"user_id":585,"name":"Potato","steam_id":76561198115604238,"connected_time":1112000000000,"state":"active","ping":45},{"user_id":557,"name":"Distinguished Gentlemann","steam_id":76561198064734905,"connected_time":3119000000000,"state":"active","ping":100},{"user_id":495,"name":"png.png","steam_id":76561198444446521,"connected_time":5676000000000,"state":"active","ping":104},{"user_id":562,"name":"SnowShot","steam_id":76561198004766638,"connected_time":2928000000000,"state":"active","ping":70}]},{"server_id":21,"name":"Uncletopia | London | 5 | All Maps","name_short":"lon-5","host":"lon-1.uk.uncletopia.com","port":27055,"enabled":true,"region":"eu","cc":"gb","latitude":51.509865,"longitude":-0.118092,"reserved":0,"last_update":"0001-01-01T00:00:00Z","name_a2s":"Uncletopia | London | 5 | All Maps","protocol":17,"map":"pl_rumford_event","folder":"tf","game":"Team Fortress","app_id":440,"player_count":24,"max_players":24,"Bots":0,"server_type":"Dedicated","server_os":"Linux","password":true,"vac":true,"version":"7882260","steam_id":85568392924742829,"keywords":["nocrits","nodmgspread","payload","uncletopia"],"game_id":440,"stv_port":27056,"stv_name":"Uncletopia | London | 5 | All Maps | STV","players":[{"user_id":269,"name":"‚òÖ Luxe","steam_id":76561198866691839,"connected_time":1118000000000,"state":"active","ping":46},{"user_id":276,"name":"Government Hooker","steam_id":76561198005361358,"connected_time":611000000000,"state":"active","ping":46},{"user_id":267,"name":"WolfmanCZ","steam_id":76561199157141414,"connected_time":1152000000000,"state":"active","ping":82},{"user_id":209,"name":"Caliban","steam_id":76561197999696839,"connected_time":4242000000000,"state":"active","ping":119},{"user_id":118,"name":"jona3838","steam_id":76561199097658195,"connected_time":9283000000000,"state":"active","ping":102},{"user_id":275,"name":"Akira","steam_id":76561198323636432,"connected_time":655000000000,"state":"active","ping":55},{"user_id":233,"name":"The Subway Scientist","steam_id":76561198193757646,"connected_time":2825000000000,"state":"active","ping":50},{"user_id":243,"name":"Ba≈°ƒáanska ploƒça TF2","steam_id":76561199165355017,"connected_time":2545000000000,"state":"active","ping":104},{"user_id":260,"name":"slafflow","steam_id":76561199381012350,"connected_time":1601000000000,"state":"active","ping":176},{"user_id":244,"name":"Sta≈Ñczyk","steam_id":76561197998906563,"connected_time":2509000000000,"state":"active","ping":41},{"user_id":253,"name":"lupe","steam_id":76561198079813788,"connected_time":1920000000000,"state":"active","ping":60},{"user_id":274,"name":"zsonyik :^D","steam_id":76561198180119047,"connected_time":734000000000,"state":"active","ping":88},{"user_id":270,"name":"Chish n' Fips","steam_id":76561198012300440,"connected_time":1117000000000,"state":"active","ping":48},{"user_id":254,"name":"–ù—ñ–∫—ñ—Ç—Ä–æ–Ω","steam_id":76561198044401080,"connected_time":1905000000000,"state":"active","ping":67},{"user_id":277,"name":"Providence","steam_id":76561198003920270,"connected_time":542000000000,"state":"active","ping":72},{"user_id":249,"name":"BROOMSTER","steam_id":76561198344833818,"connected_time":2290000000000,"state":"active","ping":65},{"user_id":265,"name":"the scringly dingly","steam_id":76561198192179174,"connected_time":1348000000000,"state":"active","ping":114},{"user_id":278,"name":"DENZ3L","steam_id":76561198121892767,"connected_time":232000000000,"state":"active","ping":86},{"user_id":271,"name":"Milk","steam_id":76561198125876588,"connected_time":1072000000000,"state":"active","ping":42},{"user_id":240,"name":"dvh","steam_id":76561198058700815,"connected_time":2698000000000,"state":"active","ping":75},{"user_id":231,"name":"Yeets3er","steam_id":76561199137127757,"connected_time":3005000000000,"state":"active","ping":55},{"user_id":239,"name":"Kiif","steam_id":76561198175271494,"connected_time":2712000000000,"state":"active","ping":91},{"user_id":272,"name":"Max","steam_id":76561198080956366,"connected_time":1052000000000,"state":"active","ping":95},{"user_id":273,"name":"Kamanie","steam_id":76561198135448255,"connected_time":1048000000000,"state":"active","ping":70}]},{"server_id":22,"name":"Uncletopia | London | 6 | All Maps","name_short":"lon-6","host":"lon-1.uk.uncletopia.com","port":27065,"enabled":true,"region":"eu","cc":"gb","latitude":51.509865,"longitude":-0.118092,"reserved":0,"last_update":"0001-01-01T00:00:00Z","name_a2s":"Uncletopia | London | 6 | All Maps","protocol":17,"map":"pl_pier","folder":"tf","game":"Team Fortress","app_id":440,"player_count":10,"max_players":24,"Bots":0,"server_type":"Dedicated","server_os":"Linux","password":true,"vac":true,"version":"7882260","steam_id":85568392924742830,"keywords":["nocrits","nodmgspread","payload","uncletopia"],"game_id":440,"stv_port":27066,"stv_name":"Uncletopia | London | 6 | All Maps | STV","players":[{"user_id":11,"name":"SimonTheOverseer","steam_id":76561198957685588,"connected_time":1956000000000,"state":"active","ping":61},{"user_id":12,"name":"sub class?","steam_id":76561199184873889,"connected_time":1953000000000,"state":"active","ping":62},{"user_id":13,"name":"sethlington14","steam_id":76561199438357690,"connected_time":1769000000000,"state":"active","ping":56},{"user_id":14,"name":"name me pls","steam_id":76561199273576072,"connected_time":1551000000000,"state":"active","ping":55},{"user_id":15,"name":"godzillaturkmen","steam_id":76561198399184483,"connected_time":1139000000000,"state":"active","ping":158},{"user_id":23,"name":"Chin Chung Phong","steam_id":76561198097244166,"connected_time":124000000000,"state":"active","ping":77},{"user_id":24,"name":"Omyskull","steam_id":76561198131711758,"connected_time":63000000000,"state":"active","ping":58},{"user_id":25,"name":"Unusual Spycrab","steam_id":76561198164397570,"connected_time":7000000000,"state":"active","ping":147},{"user_id":21,"name":"zebulon","steam_id":76561198384683504,"connected_time":283000000000,"state":"active","ping":54},{"user_id":22,"name":"Trippy","steam_id":76561198962647544,"connected_time":281000000000,"state":"active","ping":67}]},{"server_id":40,"name":"Uncletopia | London | 7 | No Payload","name_short":"lon-7","host":"lon-1.uk.uncletopia.com","port":27075,"enabled":true,"region":"eu","cc":"gb","latitude":51.509865,"longitude":-0.118092,"reserved":0,"last_update":"0001-01-01T00:00:00Z","name_a2s":"Uncletopia | London | 7 | No Payload","protocol":17,"map":"cp_egypt_final","folder":"tf","game":"Team Fortress","app_id":440,"player_count":0,"max_players":24,"Bots":0,"server_type":"Dedicated","server_os":"Linux","password":true,"vac":true,"version":"7882260","steam_id":85568392924964314,"keywords":["cp","nocrits","nodmgspread","uncletopia"],"game_id":440,"stv_port":27076,"stv_name":"Uncletopia | London | 7 | No Payload | STV","players":null},{"server_id":41,"name":"Uncletopia | London | 8 | Community","name_short":"lon-8","host":"lon-1.uk.uncletopia.com","port":27085,"enabled":true,"region":"eu","cc":"gb","latitude":51.509865,"longitude":-0.118092,"reserved":0,"last_update":"0001-01-01T00:00:00Z","name_a2s":"Uncletopia | London | 8 | Community","protocol":17,"map":"workshop/koth_synthetic_rc6a.ugc1549817316","folder":"tf","game":"Team Fortress","app_id":440,"player_count":0,"max_players":24,"Bots":0,"server_type":"Dedicated","server_os":"Linux","password":true,"vac":true,"version":"7882260","steam_id":85568392924964315,"keywords":["cp","nocrits","nodmgspread","uncletopia"],"game_id":440,"stv_port":27086,"stv_name":"Uncletopia | London | 8 | Community | STV","players":null},{"server_id":300,"name":"Uncletopia | Montr√©al | 1 | All Maps","name_short":"mtl-1","host":"mtl-1.ca.uncletopia.com","port":27015,"enabled":true,"region":"us-east","cc":"ca","latitude":45.50889,"longitude":-73.56167,"reserved":0,"last_update":"0001-01-01T00:00:00Z","name_a2s":"Uncletopia | Montr√©al | 1 | All Maps","protocol":17,"map":"pl_pier","folder":"tf","game":"Team Fortress","app_id":440,"player_count":1,"max_players":24,"Bots":0,"server_type":"Dedicated","server_os":"Linux","password":true,"vac":true,"version":"7882260","steam_id":85568392924500087,"keywords":["nocrits","nodmgspread","payload","uncletopia"],"game_id":440,"stv_port":27016,"stv_name":"Uncletopia | Montr√©al | 1 | All Maps | STV","players":[{"user_id":9,"name":"jelly","steam_id":76561198843670000,"connected_time":11000000000,"state":"spawning","ping":61}]},{"server_id":301,"name":"Uncletopia | Montr√©al | 2 | All Maps","name_short":"mtl-2","host":"mtl-1.ca.uncletopia.com","port":27025,"enabled":true,"region":"us-east","cc":"ca","latitude":45.50889,"longitude":-73.56167,"reserved":0,"last_update":"0001-01-01T00:00:00Z","name_a2s":"Uncletopia | Montr√©al | 2 | All Maps","protocol":17,"map":"pl_swiftwater_final1","folder":"tf","game":"Team Fortress","app_id":440,"player_count":0,"max_players":24,"Bots":0,"server_type":"Dedicated","server_os":"Linux","password":true,"vac":true,"version":"7882260","steam_id":85568392924500088,"keywords":["nocrits","nodmgspread","payload","uncletopia"],"game_id":440,"stv_port":27026,"stv_name":"Uncletopia | Montr√©al | 2 | All Maps | STV","players":null},{"server_id":302,"name":"Uncletopia | Montr√©al | 3 | All Maps","name_short":"mtl-3","host":"mtl-1.ca.uncletopia.com","port":27035,"enabled":true,"region":"us-east","cc":"ca","latitude":45.50889,"longitude":-73.56167,"reserved":0,"last_update":"0001-01-01T00:00:00Z","name_a2s":"Uncletopia | Montr√©al | 3 | All Maps","protocol":17,"map":"pl_borneo","folder":"tf","game":"Team Fortress","app_id":440,"player_count":0,"max_players":24,"Bots":0,"server_type":"Dedicated","server_os":"Linux","password":true,"vac":true,"version":"7882260","steam_id":85568392924500089,"keywords":["nocrits","nodmgspread","payload","uncletopia"],"game_id":440,"stv_port":27036,"stv_name":"Uncletopia | Montr√©al | 3 | All Maps | STV","players":null},{"server_id":303,"name":"Uncletopia | Montr√©al | 4 | No Payload","name_short":"mtl-4","host":"mtl-1.ca.uncletopia.com","port":27045,"enabled":true,"region":"us-east","cc":"ca","latitude":45.50889,"longitude":-73.56167,"reserved":0,"last_update":"0001-01-01T00:00:00Z","name_a2s":"Uncletopia | Montr√©al | 4 | No Payload","protocol":17,"map":"cp_altitude","folder":"tf","game":"Team Fortress","app_id":440,"player_count":0,"max_players":24,"Bots":0,"server_type":"Dedicated","server_os":"Linux","password":true,"vac":true,"version":"7882260","steam_id":85568392924500090,"keywords":["cp","nocrits","nodmgspread","uncletopia"],"game_id":440,"stv_port":27046,"stv_name":"Uncletopia | Montr√©al | 4 | No Payload | STV","players":null},{"server_id":13,"name":"Uncletopia | New York City | 1 | All Maps","name_short":"nyc-1","host":"nyc-1.us.uncletopia.com","port":27015,"enabled":true,"region":"us-east","cc":"us","latitude":40.73061,"longitude":-73.93524,"reserved":0,"last_update":"0001-01-01T00:00:00Z","name_a2s":"Uncletopia | New York City | 1 | All Maps","protocol":17,"map":"ctf_doublecross","folder":"tf","game":"Team Fortress","app_id":440,"player_count":21,"max_players":24,"Bots":0,"server_type":"Dedicated","server_os":"Linux","password":true,"vac":true,"version":"7882260","steam_id":85568392924469993,"keywords":["ctf","nocrits","nodmgspread","uncletopia"],"game_id":440,"stv_port":27016,"stv_name":"Uncletopia | New York City | 1 | All Maps | STV","players":[{"user_id":224,"name":"peace dog","steam_id":76561198267988522,"connected_time":58000000000,"state":"active","ping":68},{"user_id":217,"name":"Broadway Rose","steam_id":76561198046083342,"connected_time":706000000000,"state":"active","ping":39},{"user_id":189,"name":"Grilled Jizo","steam_id":76561199250875340,"connected_time":2650000000000,"state":"active","ping":99},{"user_id":89,"name":"custodian","steam_id":76561198058793778,"connected_time":8775000000000,"state":"active","ping":54},{"user_id":167,"name":"leer.","steam_id":76561198864458303,"connected_time":3575000000000,"state":"active","ping":59},{"user_id":221,"name":"Bother","steam_id":76561198336750909,"connected_time":471000000000,"state":"active","ping":46},{"user_id":200,"name":"trust me, i'm pro","steam_id":76561198337692867,"connected_time":1834000000000,"state":"active","ping":71},{"user_id":146,"name":"xen","steam_id":76561198048568188,"connected_time":4766000000000,"state":"active","ping":47},{"user_id":188,"name":"Kaithepi","steam_id":76561198431664933,"connected_time":2776000000000,"state":"active","ping":112},{"user_id":206,"name":"goopshit","steam_id":76561198126489501,"connected_time":1670000000000,"state":"active","ping":60},{"user_id":205,"name":"Trusty","steam_id":76561198123441319,"connected_time":1720000000000,"state":"active","ping":53},{"user_id":119,"name":"Mr. Crispy Lips","steam_id":76561198028157625,"connected_time":6852000000000,"state":"active","ping":133},{"user_id":120,"name":"Bee_Pirate","steam_id":76561199000599111,"connected_time":6840000000000,"state":"active","ping":85},{"user_id":211,"name":"Tony hawks pro skater 2 dlc","steam_id":76561198243387974,"connected_time":1258000000000,"state":"active","ping":49},{"user_id":201,"name":"pspsps","steam_id":76561198814096380,"connected_time":1818000000000,"state":"active","ping":77},{"user_id":194,"name":"King Baldski","steam_id":76561198359568400,"connected_time":2308000000000,"state":"active","ping":130},{"user_id":209,"name":"Jackass in a box","steam_id":76561198355268305,"connected_time":1473000000000,"state":"active","ping":86},{"user_id":210,"name":"Walla","steam_id":76561198103379757,"connected_time":1459000000000,"state":"active","ping":71},{"user_id":213,"name":"BasicPeaches","steam_id":76561198190890150,"connected_time":1253000000000,"state":"active","ping":70},{"user_id":171,"name":"sassy loli","steam_id":76561198402316065,"connected_time":3397000000000,"state":"active","ping":116},{"user_id":175,"name":"Pixel","steam_id":76561198129243055,"connected_time":3215000000000,"state":"active","ping":60}]},{"server_id":14,"name":"Uncletopia | New York City | 2 | All Maps","name_short":"nyc-2","host":"nyc-1.us.uncletopia.com","port":27025,"enabled":true,"region":"us-east","cc":"us","latitude":40.73061,"longitude":-73.93524,"reserved":0,"last_update":"0001-01-01T00:00:00Z","name_a2s":"Uncletopia | New York City | 2 | All Maps","protocol":17,"map":"pl_badwater","folder":"tf","game":"Team Fortress","app_id":440,"player_count":0,"max_players":24,"Bots":0,"server_type":"Dedicated","server_os":"Linux","password":true,"vac":true,"version":"7882260","steam_id":85568392924469994,"keywords":["nocrits","nodmgspread","payload","uncletopia"],"game_id":440,"stv_port":27026,"stv_name":"Uncletopia | New York City | 2 | All Maps | STV","players":null},{"server_id":15,"name":"Uncletopia | New York City | 3 | Stopwatch Beta","name_short":"nyc-3","host":"nyc-1.us.uncletopia.com","port":27035,"enabled":true,"region":"us-east","cc":"us","latitude":40.73061,"longitude":-73.93524,"reserved":0,"last_update":"0001-01-01T00:00:00Z","name_a2s":"Uncletopia | New York City | 3 | Stopwatch Beta","protocol":17,"map":"pl_borneo","folder":"tf","game":"Team Fortress","app_id":440,"player_count":0,"max_players":24,"Bots":0,"server_type":"Dedicated","server_os":"Linux","password":true,"vac":true,"version":"7882260","steam_id":85568392924742820,"keywords":["nocrits","nodmgspread","payload","uncletopia"],"game_id":440,"stv_port":27036,"stv_name":"Uncletopia | New York City | 3 | Stopwatch Beta | STV","players":null},{"server_id":16,"name":"Uncletopia | New York City | 4 | Community","name_short":"nyc-4","host":"nyc-1.us.uncletopia.com","port":27045,"enabled":true,"region":"us-east","cc":"us","latitude":40.73061,"longitude":-73.93524,"reserved":0,"last_update":"0001-01-01T00:00:00Z","name_a2s":"Uncletopia | New York City | 4 | Community","protocol":17,"map":"pl_badwater","folder":"tf","game":"Team Fortress","app_id":440,"player_count":0,"max_players":24,"Bots":0,"server_type":"Dedicated","server_os":"Linux","password":true,"vac":true,"version":"7882260","steam_id":85568392924742821,"keywords":["nocrits","nodmgspread","payload","uncletopia"],"game_id":440,"stv_port":27046,"stv_name":"Uncletopia | New York City | 4 | Community | STV","players":null},{"server_id":142,"name":"Uncletopia | S√£o Paulo | 1 | All Maps","name_short":"sao-1","host":"sao-1.br.uncletopia.com","port":27015,"enabled":true,"region":"sa","cc":"br","latitude":-23.533773,"longitude":-46.62529,"reserved":0,"last_update":"0001-01-01T00:00:00Z","name_a2s":"Uncletopia | S√£o Paulo | 1 | All Maps","protocol":17,"map":"cp_process_final","folder":"tf","game":"Team Fortress","app_id":440,"player_count":0,"max_players":24,"Bots":0,"server_type":"Dedicated","server_os":"Linux","password":true,"vac":true,"version":"7882260","steam_id":85568392924469996,"keywords":["cp","nocrits","nodmgspread","uncletopia"],"game_id":440,"stv_port":27016,"stv_name":"Uncletopia | S√£o Paulo | 1 | All Maps | STV","players":null},{"server_id":143,"name":"Uncletopia | S√£o Paulo | 2 | All Maps","name_short":"sao-2","host":"sao-2.br.uncletopia.com","port":27015,"enabled":true,"region":"sa","cc":"br","latitude":-23.533773,"longitude":-46.62529,"reserved":0,"last_update":"0001-01-01T00:00:00Z","name_a2s":"Uncletopia | S√£o Paulo | 2 | All Maps","protocol":17,"map":"cp_process_final","folder":"tf","game":"Team Fortress","app_id":440,"player_count":0,"max_players":24,"Bots":0,"server_type":"Dedicated","server_os":"Linux","password":true,"vac":true,"version":"7882260","steam_id":85568392924485349,"keywords":["cp","nocrits","nodmgspread","uncletopia"],"game_id":440,"stv_port":27016,"stv_name":"Uncletopia | S√£o Paulo | 2 | All Maps | STV","players":null},{"server_id":7,"name":"Uncletopia | Seattle | 1 | All Maps","name_short":"sea-1","host":"sea-1.us.uncletopia.com","port":27015,"enabled":true,"region":"us-west","cc":"us","latitude":47.608013,"longitude":-122.33517,"reserved":0,"last_update":"0001-01-01T00:00:00Z","name_a2s":"Uncletopia | Seattle | 1 | All Maps","protocol":17,"map":"koth_lakeside_final","folder":"tf","game":"Team Fortress","app_id":440,"player_count":24,"max_players":24,"Bots":0,"server_type":"Dedicated","server_os":"Linux","password":true,"vac":true,"version":"7882260","steam_id":85568392924469997,"keywords":["cp","nocrits","nodmgspread","uncletopia"],"game_id":440,"stv_port":27016,"stv_name":"Uncletopia | Seattle | 1 | All Maps | STV","players":[{"user_id":225,"name":"GreaticusDane","steam_id":76561198878411140,"connected_time":855000000000,"state":"active","ping":88},{"user_id":236,"name":"FunkyTortoise06","steam_id":76561198199327225,"connected_time":146000000000,"state":"active","ping":171},{"user_id":164,"name":"Training Arc","steam_id":76561198038832034,"connected_time":5778000000000,"state":"active","ping":58},{"user_id":233,"name":"ghostt·óù","steam_id":76561199214430703,"connected_time":356000000000,"state":"active","ping":103},{"user_id":165,"name":"SYMBOL_YT","steam_id":76561198848655517,"connected_time":5754000000000,"state":"active","ping":57},{"user_id":228,"name":"corg","steam_id":76561198338740292,"connected_time":580000000000,"state":"active","ping":81},{"user_id":198,"name":"Shivs","steam_id":76561198170708197,"connected_time":2592000000000,"state":"active","ping":81},{"user_id":224,"name":"Rook","steam_id":76561198372780831,"connected_time":861000000000,"state":"active","ping":115},{"user_id":216,"name":"Azosion","steam_id":76561198861267703,"connected_time":1293000000000,"state":"active","ping":78},{"user_id":237,"name":"cat","steam_id":76561198302651200,"connected_time":112000000000,"state":"active","ping":75},{"user_id":239,"name":"CoopYozu","steam_id":76561199133595778,"connected_time":2000000000,"state":"spawning","ping":96},{"user_id":235,"name":"Franz","steam_id":76561198041929745,"connected_time":249000000000,"state":"active","ping":73},{"user_id":217,"name":"¬∞Creamy Gilligan","steam_id":76561198001569384,"connected_time":1258000000000,"state":"active","ping":120},{"user_id":238,"name":"BlazedBunny","steam_id":76561198243610560,"connected_time":83000000000,"state":"active","ping":72},{"user_id":202,"name":"forest (italian)","steam_id":76561198157960257,"connected_time":2151000000000,"state":"active","ping":36},{"user_id":227,"name":"Bailster","steam_id":76561198091530428,"connected_time":694000000000,"state":"active","ping":83},{"user_id":215,"name":"AmiableNebula","steam_id":76561198094306627,"connected_time":1457000000000,"state":"active","ping":72},{"user_id":232,"name":"[SOTR]DEV1ATE","steam_id":76561198004960097,"connected_time":459000000000,"state":"active","ping":114},{"user_id":223,"name":"Strikerbolt","steam_id":76561199095622897,"connected_time":965000000000,"state":"active","ping":77},{"user_id":222,"name":"NightmareTheCEO","steam_id":76561198349694120,"connected_time":1008000000000,"state":"active","ping":56},{"user_id":231,"name":"SPYChicken427","steam_id":76561198072308602,"connected_time":511000000000,"state":"active","ping":96},{"user_id":207,"name":"green ninja [Skeletor]","steam_id":76561199087344972,"connected_time":1726000000000,"state":"active","ping":104},{"user_id":214,"name":"ju n","steam_id":76561199026569241,"connected_time":1518000000000,"state":"active","ping":162},{"user_id":221,"name":"Joseph Stalin","steam_id":76561198126234142,"connected_time":1029000000000,"state":"active","ping":61}]},{"server_id":119,"name":"Uncletopia | Seattle | 2 | All Maps","name_short":"sea-2","host":"sea-1.us.uncletopia.com","port":27025,"enabled":true,"region":"us-west","cc":"us","latitude":47.608013,"longitude":-122.33517,"reserved":0,"last_update":"0001-01-01T00:00:00Z","name_a2s":"Uncletopia | Seattle | 2 | All Maps","protocol":17,"map":"pl_badwater","folder":"tf","game":"Team Fortress","app_id":440,"player_count":24,"max_players":24,"Bots":0,"server_type":"Dedicated","server_os":"Linux","password":true,"vac":true,"version":"7882260","steam_id":85568392924469998,"keywords":["nocrits","nodmgspread","payload","uncletopia"],"game_id":440,"stv_port":27026,"stv_name":"Uncletopia | Seattle | 2 | All Maps | STV","players":[{"user_id":76,"name":"Spraxinator","steam_id":76561199083563607,"connected_time":1140000000000,"state":"active","ping":153},{"user_id":74,"name":"Shugar Lumps","steam_id":76561198043854564,"connected_time":1174000000000,"state":"active","ping":114},{"user_id":16,"name":"SeraphimDonn","steam_id":76561198853794152,"connected_time":5149000000000,"state":"active","ping":102},{"user_id":50,"name":"Meet The Kazoo","steam_id":76561199229748300,"connected_time":3364000000000,"state":"active","ping":88},{"user_id":77,"name":"eredyn lft rgb","steam_id":76561198868116439,"connected_time":1101000000000,"state":"active","ping":90},{"user_id":35,"name":"spy sex ‚òæÔ∏é‚ôöÔ∏é‚òΩ","steam_id":76561199138738952,"connected_time":3825000000000,"state":"active","ping":132},{"user_id":80,"name":"***** beheader","steam_id":76561199395351700,"connected_time":707000000000,"state":"active","ping":85},{"user_id":18,"name":"The Dinkle","steam_id":76561198098155041,"connected_time":4953000000000,"state":"active","ping":84},{"user_id":70,"name":"Harold","steam_id":76561198057317770,"connected_time":1978000000000,"state":"active","ping":57},{"user_id":71,"name":"Dr. Dingus PhD","steam_id":76561199209834538,"connected_time":1956000000000,"state":"active","ping":77},{"user_id":87,"name":"ShredMaan","steam_id":76561198429982138,"connected_time":95000000000,"state":"active","ping":81},{"user_id":86,"name":"The Collective","steam_id":76561198170423483,"connected_time":116000000000,"state":"active","ping":128},{"user_id":44,"name":"Charles","steam_id":76561199031612530,"connected_time":3464000000000,"state":"active","ping":54},{"user_id":51,"name":"Jacob Hornberger 2016","steam_id":76561198204549723,"connected_time":3313000000000,"state":"active","ping":107},{"user_id":32,"name":"FlamingManiac","steam_id":76561198361996837,"connected_time":4007000000000,"state":"active","ping":131},{"user_id":60,"name":"Tyler\u0026Fingers","steam_id":76561198085154485,"connected_time":2859000000000,"state":"active","ping":135},{"user_id":88,"name":"Robert E.T.","steam_id":76561197986439371,"connected_time":79000000000,"state":"active","ping":61},{"user_id":85,"name":"Jolly","steam_id":76561198116357972,"connected_time":135000000000,"state":"active","ping":69},{"user_id":89,"name":"Larra","steam_id":76561198087721593,"connected_time":23000000000,"state":"active","ping":99},{"user_id":72,"name":"cl4y","steam_id":76561198281197072,"connected_time":1819000000000,"state":"active","ping":130},{"user_id":75,"name":"bird doctor","steam_id":76561199144340440,"connected_time":1167000000000,"state":"active","ping":73},{"user_id":78,"name":"Blink","steam_id":76561197986181277,"connected_time":1089000000000,"state":"active","ping":90},{"user_id":82,"name":"FI LO","steam_id":76561198976530881,"connected_time":474000000000,"state":"active","ping":74},{"user_id":84,"name":"MacchuPeachu","steam_id":76561199093242587,"connected_time":428000000000,"state":"active","ping":64}]},{"server_id":406,"name":"Uncletopia | Seattle | 3 | Stopwatch Beta","name_short":"sea-3","host":"sea-1.us.uncletopia.com","port":27035,"enabled":true,"region":"us-west","cc":"us","latitude":47.608013,"longitude":-122.33517,"reserved":0,"last_update":"0001-01-01T00:00:00Z","name_a2s":"Uncletopia | Seattle | 3 | Stopwatch Beta","protocol":17,"map":"pl_swiftwater_final1","folder":"tf","game":"Team Fortress","app_id":440,"player_count":0,"max_players":24,"Bots":0,"server_type":"Dedicated","server_os":"Linux","password":true,"vac":true,"version":"7882260","steam_id":85568392924515217,"keywords":["nocrits","nodmgspread","payload","uncletopia"],"game_id":440,"stv_port":27036,"stv_name":"Uncletopia | Seattle | 3 | Stopwatch Beta | STV","players":null},{"server_id":17,"name":"Uncletopia | San Francisco | 1 | All Maps","name_short":"sfo-1","host":"sfo-1.us.uncletopia.com","port":27015,"enabled":true,"region":"us-west","cc":"us","latitude":37.77397,"longitude":-122.4313,"reserved":0,"last_update":"0001-01-01T00:00:00Z","name_a2s":"Uncletopia | San Francisco | 1 | All Maps","protocol":17,"map":"cp_process_final","folder":"tf","game":"Team Fortress","app_id":440,"player_count":0,"max_players":24,"Bots":0,"server_type":"Dedicated","server_os":"Linux","password":true,"vac":true,"version":"7757534","steam_id":85568392924469999,"keywords":["cp","nocrits","nodmgspread","uncletopia"],"game_id":440,"stv_port":27016,"stv_name":"Uncletopia | San Francisco | 1 | All Maps | STV","players":null},{"server_id":18,"name":"Uncletopia | San Francisco | 2 | All Maps","name_short":"sfo-2","host":"sfo-1.us.uncletopia.com","port":27025,"enabled":true,"region":"us-west","cc":"us","latitude":37.77397,"longitude":-122.4313,"reserved":0,"last_update":"0001-01-01T00:00:00Z","name_a2s":"Uncletopia | San Francisco | 2 | All Maps","protocol":17,"map":"koth_highpass","folder":"tf","game":"Team Fortress","app_id":440,"player_count":0,"max_players":24,"Bots":0,"server_type":"Dedicated","server_os":"Linux","password":true,"vac":true,"version":"7757534","steam_id":85568392924470000,"keywords":["cp","nocrits","nodmgspread","uncletopia"],"game_id":440,"stv_port":27026,"stv_name":"Uncletopia | San Francisco | 2 | All Maps | STV","players":null},{"server_id":19,"name":"Uncletopia | San Francisco | 3 | Stopwatch Beta","name_short":"sfo-3","host":"sfo-1.us.uncletopia.com","port":27035,"enabled":true,"region":"us-west","cc":"us","latitude":37.77397,"longitude":-122.4313,"reserved":0,"last_update":"0001-01-01T00:00:00Z","name_a2s":"Uncletopia | San Francisco | 3 | Stopwatch Beta","protocol":17,"map":"koth_lakeside_final","folder":"tf","game":"Team Fortress","app_id":440,"player_count":0,"max_players":24,"Bots":0,"server_type":"Dedicated","server_os":"Linux","password":true,"vac":true,"version":"7757534","steam_id":85568392924742824,"keywords":["cp","nocrits","nodmgspread","uncletopia"],"game_id":440,"stv_port":27036,"stv_name":"Uncletopia | San Francisco | 3 | Stopwatch Beta | STV","players":null},{"server_id":20,"name":"Uncletopia | San Francisco | 4 | Community","name_short":"sfo-4","host":"sfo-1.us.uncletopia.com","port":27045,"enabled":true,"region":"us-west","cc":"us","latitude":37.77397,"longitude":-122.4313,"reserved":0,"last_update":"0001-01-01T00:00:00Z","name_a2s":"Uncletopia | San Francisco | 4 | Community","protocol":17,"map":"cp_altitude","folder":"tf","game":"Team Fortress","app_id":440,"player_count":0,"max_players":24,"Bots":0,"server_type":"Dedicated","server_os":"Linux","password":true,"vac":true,"version":"7757534","steam_id":85568392924742826,"keywords":["cp","nocrits","nodmgspread","uncletopia"],"game_id":440,"stv_port":27046,"stv_name":"Uncletopia | San Francisco | 4 | Community | STV","players":null},{"server_id":141,"name":"Uncletopia | Sydney | 1 | All Maps","name_short":"syd-1","host":"syd-1.au.uncletopia.com","port":27015,"enabled":true,"region":"au","cc":"au","latitude":-33.865143,"longitude":151.2099,"reserved":0,"last_update":"0001-01-01T00:00:00Z","name_a2s":"Uncletopia | Sydney | 1 | All Maps","protocol":17,"map":"koth_lakeside_final","folder":"tf","game":"Team Fortress","app_id":440,"player_count":0,"max_players":24,"Bots":0,"server_type":"Dedicated","server_os":"Linux","password":true,"vac":true,"version":"7882260","steam_id":85568392924470001,"keywords":["cp","nocrits","nodmgspread","uncletopia"],"game_id":440,"stv_port":27016,"stv_name":"Uncletopia | Sydney | 1 | All Maps | STV","players":null},{"server_id":123,"name":"Uncletopia | Sydney | 2 | All Maps","name_short":"syd-2","host":"syd-1.au.uncletopia.com","port":27025,"enabled":true,"region":"au","cc":"au","latitude":-33.865143,"longitude":151.2099,"reserved":0,"last_update":"0001-01-01T00:00:00Z","name_a2s":"Uncletopia | Sydney | 2 | All Maps","protocol":17,"map":"pl_swiftwater_final1","folder":"tf","game":"Team Fortress","app_id":440,"player_count":0,"max_players":24,"Bots":0,"server_type":"Dedicated","server_os":"Linux","password":true,"vac":true,"version":"7882260","steam_id":85568392924470002,"keywords":["nocrits","nodmgspread","payload","uncletopia"],"game_id":440,"stv_port":27026,"stv_name":"Uncletopia | Sydney | 2 | All Maps | STV","players":null},{"server_id":395,"name":"Uncletopia | Sydney | 3 | All Maps","name_short":"syd-3","host":"syd-1.au.uncletopia.com","port":27035,"enabled":true,"region":"au","cc":"au","latitude":-33.865143,"longitude":151.2099,"reserved":0,"last_update":"0001-01-01T00:00:00Z","name_a2s":"Uncletopia | Sydney | 3 | All Maps","protocol":17,"map":"cp_dustbowl","folder":"tf","game":"Team Fortress","app_id":440,"player_count":0,"max_players":24,"Bots":0,"server_type":"Dedicated","server_os":"Linux","password":true,"vac":true,"version":"7882260","steam_id":85568392925194467,"keywords":["cp","nocrits","nodmgspread","uncletopia"],"game_id":440,"stv_port":27036,"stv_name":"Uncletopia | Sydney | 3 | All Maps | STV","players":null},{"server_id":396,"name":"Uncletopia | Sydney | 4 | All Maps","name_short":"syd-4","host":"syd-1.au.uncletopia.com","port":27045,"enabled":true,"region":"au","cc":"au","latitude":-33.865143,"longitude":151.2099,"reserved":0,"last_update":"0001-01-01T00:00:00Z","name_a2s":"Uncletopia | Sydney | 4 | All Maps","protocol":17,"map":"koth_cascade","folder":"tf","game":"Team Fortress","app_id":440,"player_count":0,"max_players":24,"Bots":0,"server_type":"Dedicated","server_os":"Linux","password":true,"vac":true,"version":"7882260","steam_id":85568392925397958,"keywords":["cp","nocrits","nodmgspread","uncletopia"],"game_id":440,"stv_port":27046,"stv_name":"Uncletopia | Sydney | 4 | All Maps | STV","players":null},{"server_id":58,"name":"Uncletopia | Sydney | 5 | Stopwatch Beta","name_short":"syd-5","host":"syd-1.au.uncletopia.com","port":27055,"enabled":true,"region":"au","cc":"au","latitude":-33.865143,"longitude":151.2099,"reserved":0,"last_update":"0001-01-01T00:00:00Z","name_a2s":"Uncletopia | Sydney | 5 | Stopwatch Beta","protocol":17,"map":"workshop/pl_barnblitz_pro7.ugc582280235","folder":"tf","game":"Team Fortress","app_id":440,"player_count":0,"max_players":24,"Bots":0,"server_type":"Dedicated","server_os":"Linux","password":true,"vac":true,"version":"7882260","steam_id":85568392925397959,"keywords":["nocrits","nodmgspread","payload","uncletopia"],"game_id":440,"stv_port":27056,"stv_name":"Uncletopia | Sydney | 5 | Stopwatch Beta | STV","players":null},{"server_id":59,"name":"Uncletopia | Sydney | 6 | Community","name_short":"syd-6","host":"syd-1.au.uncletopia.com","port":27065,"enabled":true,"region":"au","cc":"au","latitude":-33.865143,"longitude":151.2099,"reserved":0,"last_update":"0001-01-01T00:00:00Z","name_a2s":"Uncletopia | Sydney | 6 | Community","protocol":17,"map":"workshop/koth_ramjam_rc1.ugc459778887","folder":"tf","game":"Team Fortress","app_id":440,"player_count":0,"max_players":24,"Bots":0,"server_type":"Dedicated","server_os":"Linux","password":true,"vac":true,"version":"7882260","steam_id":85568392925397960,"keywords":["cp","nocrits","nodmgspread","uncletopia"],"game_id":440,"stv_port":27066,"stv_name":"Uncletopia | Sydney | 6 | Community | STV","players":null},{"server_id":49,"name":"Uncletopia | Warsaw | 1 | All Maps","name_short":"waw-1","host":"waw-1.pl.uncletopia.com","port":27015,"enabled":true,"region":"eu","cc":"pl","latitude":52.2297,"longitude":21.017532,"reserved":0,"last_update":"0001-01-01T00:00:00Z","name_a2s":"","protocol":0,"map":"","folder":"","game":"","app_id":0,"player_count":0,"max_players":0,"Bots":0,"server_type":"","server_os":"","password":false,"vac":false,"version":"","steam_id":0,"keywords":null,"game_id":0,"stv_port":0,"stv_name":"","players":null},{"server_id":50,"name":"Uncletopia | Warsaw | 2 | All Maps","name_short":"waw-2","host":"waw-1.pl.uncletopia.com","port":27025,"enabled":true,"region":"eu","cc":"pl","latitude":52.2297,"longitude":21.017532,"reserved":0,"last_update":"0001-01-01T00:00:00Z","name_a2s":"Uncletopia | Warsaw | 2 | All Maps","protocol":17,"map":"cp_mountainlab","folder":"tf","game":"Team Fortress","app_id":440,"player_count":0,"max_players":24,"Bots":0,"server_type":"Dedicated","server_os":"Linux","password":true,"vac":true,"version":"7882260","steam_id":85568392925397851,"keywords":["cp","nocrits","nodmgspread","uncletopia"],"game_id":440,"stv_port":27026,"stv_name":"Uncletopia | Warsaw | 2 | All Maps | STV","players":null},{"server_id":51,"name":"Uncletopia | Warsaw | 3 | All Maps","name_short":"waw-3","host":"waw-1.pl.uncletopia.com","port":27035,"enabled":true,"region":"eu","cc":"pl","latitude":52.2297,"longitude":21.017532,"reserved":0,"last_update":"0001-01-01T00:00:00Z","name_a2s":"Uncletopia | Warsaw | 3 | All Maps","protocol":17,"map":"koth_viaduct","folder":"tf","game":"Team Fortress","app_id":440,"player_count":0,"max_players":24,"Bots":0,"server_type":"Dedicated","server_os":"Linux","password":true,"vac":true,"version":"7882260","steam_id":85568392925397852,"keywords":["cp","nocrits","nodmgspread","uncletopia"],"game_id":440,"stv_port":27036,"stv_name":"Uncletopia | Warsaw | 3 | All Maps | STV","players":null},{"server_id":52,"name":"Uncletopia | Warsaw | 4 | All Maps","name_short":"waw-4","host":"waw-1.pl.uncletopia.com","port":27045,"enabled":true,"region":"eu","cc":"pl","latitude":52.2297,"longitude":21.017532,"reserved":0,"last_update":"0001-01-01T00:00:00Z","name_a2s":"Uncletopia | Warsaw | 4 | All Maps","protocol":17,"map":"koth_highpass","folder":"tf","game":"Team Fortress","app_id":440,"player_count":3,"max_players":24,"Bots":0,"server_type":"Dedicated","server_os":"Linux","password":true,"vac":true,"version":"7882260","steam_id":85568392925397853,"keywords":["cp","nocrits","nodmgspread","uncletopia"],"game_id":440,"stv_port":27046,"stv_name":"Uncletopia | Warsaw | 4 | All Maps | STV","players":[{"user_id":9,"name":"CHOKETTO","steam_id":76561199063768635,"connected_time":679000000000,"state":"active","ping":66},{"user_id":10,"name":"–ü–∞–ªi–π","steam_id":76561198845861407,"connected_time":647000000000,"state":"active","ping":49},{"user_id":12,"name":"Kwetch","steam_id":76561199405413425,"connected_time":398000000000,"state":"active","ping":113}]},{"server_id":53,"name":"Uncletopia | Warsaw | 5 | Stopwatch Beta","name_short":"waw-5","host":"waw-1.pl.uncletopia.com","port":27055,"enabled":true,"region":"eu","cc":"pl","latitude":52.2297,"longitude":21.017532,"reserved":0,"last_update":"0001-01-01T00:00:00Z","name_a2s":"Uncletopia | Warsaw | 5 | Stopwatch Beta","protocol":17,"map":"cp_mountainlab","folder":"tf","game":"Team Fortress","app_id":440,"player_count":0,"max_players":24,"Bots":0,"server_type":"Dedicated","server_os":"Linux","password":true,"vac":true,"version":"7882260","steam_id":85568392925397854,"keywords":["cp","nocrits","nodmgspread","uncletopia"],"game_id":440,"stv_port":27056,"stv_name":"Uncletopia | Warsaw | 5 | Stopwatch Beta | STV","players":null},{"server_id":54,"name":"Uncletopia | Warsaw | 6 | Community","name_short":"waw-6","host":"waw-1.pl.uncletopia.com","port":27065,"enabled":true,"region":"eu","cc":"pl","latitude":52.2297,"longitude":21.017532,"reserved":0,"last_update":"0001-01-01T00:00:00Z","name_a2s":"Uncletopia | Warsaw | 6 | Community","protocol":17,"map":"koth_viaduct","folder":"tf","game":"Team Fortress","app_id":440,"player_count":5,"max_players":24,"Bots":0,"server_type":"Dedicated","server_os":"Linux","password":true,"vac":true,"version":"7882260","steam_id":85568392925397856,"keywords":["cp","nocrits","nodmgspread","uncletopia"],"game_id":440,"stv_port":27066,"stv_name":"Uncletopia | Warsaw | 6 | Community | STV","players":[{"user_id":4,"name":"sad","steam_id":76561198112247500,"connected_time":1104000000000,"state":"active","ping":88},{"user_id":5,"name":"I,M HERE","steam_id":76561199242174740,"connected_time":980000000000,"state":"active","ping":100},{"user_id":6,"name":"498","steam_id":76561198053894030,"connected_time":972000000000,"state":"active","ping":91},{"user_id":7,"name":"hunter","steam_id":76561199440645561,"connected_time":963000000000,"state":"active","ping":92},{"user_id":9,"name":"Garlen18","steam_id":76561198254402868,"connected_time":408000000000,"state":"active","ping":133}]}]}