{"status":true,"message":"","result":[{"server_id":2,"name":"Uncletopia | Chicago | 1 | All Maps","name_short":"chi-1","host":"chi-1.us.uncletopia.com","port":27015,"enabled":true,"region":"us-central","cc":"us","latitude":41.881832,"longitude":-87.62318,"reserved":0,"last_update":"0001-01-01T00:00:00Z","name_a2s":"Uncletopia | Chicago | 1 | All Maps","protocol":17,"map":"cp_sunshine","folder":"tf","game":"Team Fortress","app_id":440,"player_count":25,"max_players":24,"Bots":0,"server_type":"Dedicated","server_os":"Linux","password":true,"vac":true,"version":"7961495","steam_id":85568392924469984,"keywords":["cp","nocrits","nodmgspread","uncletopia"],"game_id":440,"stv_port":27016,"stv_name":"Uncletopia | Chicago | 1 | All Maps | STV","players":[{"user_id":297,"name":"Flint","steam_id":76561198066547582,"connected_time":706000000000,"state":"active","ping":85},{"user_id":212,"name":"trash beast","steam_id":76561198015792736,"connected_time":2066000000000,"state":"active","ping":69},{"user_id":200,"name":"Snom","steam_id":76561198333827920,"connected_time":3647000000000,"state":"active","ping":147},{"user_id":293,"name":"paetho YT (new vid!)","steam_id":76561198152690003,"connected_time":756000000000,"state":"active","ping":59},{"user_id":218,"name":"Lucky","steam_id":76561198418262145,"connected_time":1910000000000,"state":"active","ping":125},{"user_id":253,"name":"Waddlehi","steam_id":76561198072553840,"connected_time":1366000000000,"state":"active","ping":61},{"user_id":176,"name":"eish","steam_id":76561198089463603,"connected_time":5827000000000,"state":"active","ping":135},{"user_id":207,"name":"winrarFanatic","steam_id":76561198026538317,"connected_time":2148000000000,"state":"active","ping":57},{"user_id":205,"name":"Space","steam_id":76561198350489754,"connected_time":2165000000000,"state":"active","ping":45},{"user_id":326,"name":"checkswing","steam_id":76561198999816132,"connected_time":167000000000,"state":"active","ping":77},{"user_id":298,"name":"Motreir","steam_id":76561198151717946,"connected_time":694000000000,"state":"active","ping":82},{"user_id":206,"name":"loser","steam_id":76561198259380127,"connected_time":2156000000000,"state":"active","ping":63},{"user_id":327,"name":"Tenerance Love","steam_id":76561199132268907,"connected_time":157000000000,"state":"active","ping":49},{"user_id":190,"name":"David De Bergerac","steam_id":76561198010306294,"connected_time":4830000000000,"state":"active","ping":87},{"user_id":323,"name":"dunk","steam_id":76561198132476501,"connected_time":205000000000,"state":"active","ping":44},{"user_id":334,"name":"FiddyFoMike","steam_id":76561198057072581,"connected_time":14000000000,"state":"spawning","ping":104},{"user_id":221,"name":"Barbados Slim","steam_id":76561199483183459,"connected_time":1890000000000,"state":"active","ping":98},{"user_id":300,"name":"CampinCarl","steam_id":76561197997373624,"connected_time":666000000000,"state":"active","ping":102},{"user_id":301,"name":"jim","steam_id":76561198091829950,"connected_time":642000000000,"state":"active","ping":86},{"user_id":294,"name":"Terror","steam_id":76561198188685728,"connected_time":748000000000,"state":"active","ping":51},{"user_id":295,"name":"Jabawakai","steam_id":76561198088881254,"connected_time":741000000000,"state":"active","ping":59},{"user_id":303,"name":"vevetables","steam_id":76561198404178400,"connected_time":617000000000,"state":"active","ping":58},{"user_id":249,"name":"Quiet","steam_id":76561198119175817,"connected_time":1411000000000,"state":"active","ping":93},{"user_id":322,"name":"Maid Knight","steam_id":76561198214370515,"connected_time":210000000000,"state":"active","ping":67},{"user_id":335,"name":"mechiimi","steam_id":76561198321627268,"connected_time":14000000000,"state":"spawning","ping":124}]},{"server_id":106,"name":"Uncletopia | Chicago | 2 | All Maps","name_short":"chi-2","host":"chi-1.us.uncletopia.com","port":27025,"enabled":true,"region":"us-central","cc":"us","latitude":41.881832,"longitude":-87.62318,"reserved":0,"last_update":"0001-01-01T00:00:00Z","name_a2s":"Uncletopia | Chicago | 2 | All Maps","protocol":17,"map":"koth_lakeside_final","folder":"tf","game":"Team Fortress","app_id":440,"player_count":24,"max_players":24,"Bots":0,"server_type":"Dedicated","server_os":"Linux","password":true,"vac":true,"version":"7961495","steam_id":85568392924469985,"keywords":["cp","nocrits","nodmgspread","uncletopia"],"game_id":440,"stv_port":27026,"stv_name":"Uncletopia | Chicago | 2 | All Maps | STV","players":[{"user_id":348,"name":"raduski","steam_id":76561198795699119,"connected_time":790000000000,"state":"active","ping":89},{"user_id":64,"name":"Pizza","steam_id":76561198118748364,"connected_time":11078000000000,"state":"active","ping":76},{"user_id":358,"name":"Zoot","steam_id":76561198121944243,"connected_time":520000000000,"state":"active","ping":71},{"user_id":329,"name":"OneLess","steam_id":76561198150870338,"connected_time":1896000000000,"state":"active","ping":79},{"user_id":345,"name":"BNT","steam_id":76561198044064831,"connected_time":811000000000,"state":"active","ping":68},{"user_id":346,"name":"kob","steam_id":76561198126058118,"connected_time":811000000000,"state":"active","ping":87},{"user_id":351,"name":"Loopy baby haha look at him","steam_id":76561198170084405,"connected_time":783000000000,"state":"active","ping":95},{"user_id":353,"name":"thecal","steam_id":76561198307893384,"connected_time":746000000000,"state":"active","ping":49},{"user_id":324,"name":"Numanis","steam_id":76561199229661082,"connected_time":2288000000000,"state":"active","ping":65},{"user_id":333,"name":"eat Pant","steam_id":76561197974965536,"connected_time":1526000000000,"state":"active","ping":56},{"user_id":293,"name":"Lion","steam_id":76561198848879603,"connected_time":4019000000000,"state":"active","ping":65},{"user_id":102,"name":"Fog Champ","steam_id":76561198120777991,"connected_time":9386000000000,"state":"active","ping":50},{"user_id":363,"name":"klover","steam_id":76561198072254781,"connected_time":329000000000,"state":"active","ping":103},{"user_id":342,"name":"Jo","steam_id":76561198060447015,"connected_time":829000000000,"state":"active","ping":76},{"user_id":356,"name":"'Ki||-Your_Landlords7","steam_id":76561197999542043,"connected_time":571000000000,"state":"active","ping":61},{"user_id":332,"name":"on that zaza?","steam_id":76561198038713198,"connected_time":1542000000000,"state":"active","ping":61},{"user_id":331,"name":":]","steam_id":76561198119826352,"connected_time":1572000000000,"state":"active","ping":71},{"user_id":340,"name":"FunGi","steam_id":76561198881418662,"connected_time":1045000000000,"state":"active","ping":84},{"user_id":341,"name":"deadmian.","steam_id":76561198089098014,"connected_time":1023000000000,"state":"active","ping":86},{"user_id":94,"name":"Makina","steam_id":76561198057475567,"connected_time":9486000000000,"state":"active","ping":69},{"user_id":365,"name":"·∂ú·µÉÀ¢ ∞·µá·µÉ‚Åø·µç","steam_id":76561198201978097,"connected_time":243000000000,"state":"active","ping":150},{"user_id":343,"name":"Mr. Tickle","steam_id":76561198126684647,"connected_time":819000000000,"state":"active","ping":56},{"user_id":364,"name":"Wizard Raccoon","steam_id":76561198072562591,"connected_time":286000000000,"state":"active","ping":80},{"user_id":362,"name":"GreekGoat_Coffee","steam_id":76561198129331088,"connected_time":345000000000,"state":"active","ping":50}]},{"server_id":402,"name":"Uncletopia | Chicago | 3 | All Maps","name_short":"chi-3","host":"chi-1.us.uncletopia.com","port":27035,"enabled":true,"region":"us-central","cc":"us","latitude":41.881832,"longitude":-87.62318,"reserved":0,"last_update":"0001-01-01T00:00:00Z","name_a2s":"Uncletopia | Chicago | 3 | All Maps","protocol":17,"map":"pl_badwater","folder":"tf","game":"Team Fortress","app_id":440,"player_count":24,"max_players":24,"Bots":0,"server_type":"Dedicated","server_os":"Linux","password":true,"vac":true,"version":"7961495","steam_id":85568392924515191,"keywords":["nocrits","nodmgspread","payload","uncletopia"],"game_id":440,"stv_port":27036,"stv_name":"Uncletopia | Chicago | 3 | All Maps | STV","players":[{"user_id":191,"name":"JoJoJo LF Demoman","steam_id":76561198067153390,"connected_time":2943000000000,"state":"active","ping":50},{"user_id":223,"name":"K. O. E.","steam_id":76561198025188490,"connected_time":460000000000,"state":"active","ping":82},{"user_id":219,"name":"Laptop","steam_id":76561198431402952,"connected_time":690000000000,"state":"active","ping":49},{"user_id":188,"name":"JtsRes","steam_id":76561197994809241,"connected_time":3513000000000,"state":"active","ping":58},{"user_id":181,"name":"DoubleX2000","steam_id":76561198164134387,"connected_time":3732000000000,"state":"active","ping":109},{"user_id":205,"name":"Goober","steam_id":76561198988863807,"connected_time":1909000000000,"state":"active","ping":73},{"user_id":225,"name":"Zero","steam_id":76561198033384990,"connected_time":394000000000,"state":"active","ping":52},{"user_id":214,"name":"Hugh Mann","steam_id":76561198212049401,"connected_time":1414000000000,"state":"active","ping":79},{"user_id":215,"name":"MALWARE9000","steam_id":76561198065238093,"connected_time":1414000000000,"state":"active","ping":84},{"user_id":226,"name":"squaggles!","steam_id":76561197994995011,"connected_time":3000000000,"state":"spawning","ping":43},{"user_id":218,"name":"sonikro","steam_id":76561197989428692,"connected_time":1103000000000,"state":"active","ping":60},{"user_id":157,"name":"Pattar","steam_id":76561198146276146,"connected_time":4988000000000,"state":"active","ping":62},{"user_id":195,"name":"Gamba","steam_id":76561198069264650,"connected_time":2905000000000,"state":"active","ping":57},{"user_id":212,"name":"Augister","steam_id":76561199069883830,"connected_time":1451000000000,"state":"active","ping":55},{"user_id":204,"name":"Madeline","steam_id":76561198002123006,"connected_time":1987000000000,"state":"active","ping":78},{"user_id":209,"name":"breathing meat donut","steam_id":76561198123566649,"connected_time":1676000000000,"state":"active","ping":105},{"user_id":216,"name":"Engineer TF2","steam_id":76561199012801731,"connected_time":1409000000000,"state":"active","ping":58},{"user_id":197,"name":"fruitpunch","steam_id":76561198156516161,"connected_time":2729000000000,"state":"active","ping":67},{"user_id":162,"name":"Fish","steam_id":76561198872926297,"connected_time":4586000000000,"state":"active","ping":90},{"user_id":200,"name":"ohio survivor","steam_id":76561198031675881,"connected_time":2312000000000,"state":"active","ping":41},{"user_id":220,"name":"Petrichor","steam_id":76561198323397375,"connected_time":681000000000,"state":"active","ping":83},{"user_id":183,"name":"nah","steam_id":76561198150248019,"connected_time":3719000000000,"state":"active","ping":131},{"user_id":187,"name":"get rotated idiot","steam_id":76561198045724540,"connected_time":3530000000000,"state":"active","ping":117},{"user_id":222,"name":"LunarDark","steam_id":76561199225446889,"connected_time":598000000000,"state":"active","ping":154}]},{"server_id":403,"name":"Uncletopia | Chicago | 4 | All Maps","name_short":"chi-4","host":"chi-1.us.uncletopia.com","port":27045,"enabled":true,"region":"us-central","cc":"us","latitude":41.881832,"longitude":-87.62318,"reserved":0,"last_update":"0001-01-01T00:00:00Z","name_a2s":"Uncletopia | Chicago | 4 | All Maps","protocol":17,"map":"koth_viaduct","folder":"tf","game":"Team Fortress","app_id":440,"player_count":24,"max_players":24,"Bots":0,"server_type":"Dedicated","server_os":"Linux","password":true,"vac":true,"version":"7961495","steam_id":85568392924515193,"keywords":["cp","nocrits","nodmgspread","uncletopia"],"game_id":440,"stv_port":27046,"stv_name":"Uncletopia | Chicago | 4 | All Maps | STV","players":[{"user_id":153,"name":"--_Cook_--","steam_id":76561198080855748,"connected_time":4136000000000,"state":"active","ping":47},{"user_id":194,"name":"Jeff Probst","steam_id":76561199215811448,"connected_time":1079000000000,"state":"active","ping":82},{"user_id":173,"name":"yate","steam_id":76561198311004039,"connected_time":2354000000000,"state":"active","ping":92},{"user_id":187,"name":"[„Éü„É©„Éº„Ç∏„É•] Mirage","steam_id":76561198205500300,"connected_time":1198000000000,"state":"active","ping":60},{"user_id":180,"name":"Krissy","steam_id":76561197960848174,"connected_time":1785000000000,"state":"active","ping":65},{"user_id":176,"name":"THICCBEEF GRANDPA","steam_id":76561197993550572,"connected_time":2330000000000,"state":"active","ping":67},{"user_id":195,"name":"vyx","steam_id":76561198037205391,"connected_time":1072000000000,"state":"active","ping":57},{"user_id":171,"name":"Rudy","steam_id":76561198013456828,"connected_time":2366000000000,"state":"active","ping":72},{"user_id":18,"name":"daemon","steam_id":76561198001541433,"connected_time":13387000000000,"state":"active","ping":60},{"user_id":142,"name":"Tanuki with a gun.","steam_id":76561198027487285,"connected_time":4504000000000,"state":"active","ping":92},{"user_id":206,"name":"Hou Tou Gu","steam_id":76561198041196591,"connected_time":107000000000,"state":"active","ping":66},{"user_id":202,"name":"The local hobo","steam_id":76561198289650060,"connected_time":177000000000,"state":"active","ping":79},{"user_id":197,"name":"Voodo133","steam_id":76561198042670351,"connected_time":1065000000000,"state":"active","ping":91},{"user_id":204,"name":"mikufan9182","steam_id":76561198807272495,"connected_time":148000000000,"state":"active","ping":79},{"user_id":199,"name":"caleb","steam_id":76561198039260688,"connected_time":319000000000,"state":"active","ping":63},{"user_id":207,"name":"seepy","steam_id":76561198057884377,"connected_time":96000000000,"state":"active","ping":60},{"user_id":205,"name":"Opium","steam_id":76561198396340174,"connected_time":118000000000,"state":"active","ping":79},{"user_id":167,"name":"_SCOOBER_","steam_id":76561199239122502,"connected_time":3082000000000,"state":"active","ping":106},{"user_id":200,"name":"k1tty","steam_id":76561198869348268,"connected_time":225000000000,"state":"active","ping":107},{"user_id":164,"name":"SPIRE_FAN","steam_id":76561198001486573,"connected_time":3767000000000,"state":"active","ping":64},{"user_id":172,"name":"yeah","steam_id":76561198245846186,"connected_time":2361000000000,"state":"active","ping":68},{"user_id":95,"name":"daemon's favorite concubine ;P","steam_id":76561198172454407,"connected_time":9034000000000,"state":"active","ping":77},{"user_id":98,"name":"High School Nudical","steam_id":76561198172120615,"connected_time":8893000000000,"state":"active","ping":74},{"user_id":192,"name":"ApertureCity","steam_id":76561198004153607,"connected_time":1141000000000,"state":"active","ping":85}]},{"server_id":36,"name":"Uncletopia | Chicago | 5 | All Maps","name_short":"chi-5","host":"chi-2.us.uncletopia.com","port":27015,"enabled":true,"region":"us-central","cc":"us","latitude":41.881832,"longitude":-87.62318,"reserved":0,"last_update":"0001-01-01T00:00:00Z","name_a2s":"Uncletopia | Chicago | 5 | All Maps","protocol":17,"map":"cp_process_final","folder":"tf","game":"Team Fortress","app_id":440,"player_count":24,"max_players":24,"Bots":0,"server_type":"Dedicated","server_os":"Linux","password":true,"vac":true,"version":"7961495","steam_id":85568392924866362,"keywords":["cp","nocrits","nodmgspread","uncletopia"],"game_id":440,"stv_port":27016,"stv_name":"Uncletopia | Chicago | 5 | All Maps | STV","players":[{"user_id":188,"name":"Lord Scrubling","steam_id":76561198263744445,"connected_time":786000000000,"state":"active","ping":75},{"user_id":149,"name":"SUMMONFISH","steam_id":76561198427908545,"connected_time":3344000000000,"state":"active","ping":96},{"user_id":186,"name":"Kzjytsugn","steam_id":76561198130241974,"connected_time":803000000000,"state":"active","ping":85},{"user_id":207,"name":"St. Michael","steam_id":76561198037611052,"connected_time":117000000000,"state":"active","ping":66},{"user_id":153,"name":"Dirt Mammal","steam_id":76561198040781653,"connected_time":3126000000000,"state":"active","ping":105},{"user_id":181,"name":"Ba-Zing-Ga","steam_id":76561198323260286,"connected_time":837000000000,"state":"active","ping":78},{"user_id":187,"name":"OneTrueCorvid","steam_id":76561199012953221,"connected_time":802000000000,"state":"active","ping":85},{"user_id":171,"name":"Wet Deer","steam_id":76561198145045927,"connected_time":2365000000000,"state":"active","ping":75},{"user_id":197,"name":"Gunkzilla","steam_id":76561198068228415,"connected_time":610000000000,"state":"active","ping":68},{"user_id":154,"name":"Clump","steam_id":76561198049690860,"connected_time":2965000000000,"state":"active","ping":105},{"user_id":179,"name":"hej","steam_id":76561197996366940,"connected_time":984000000000,"state":"active","ping":60},{"user_id":141,"name":"Chin, Bruce Lee's Relative","steam_id":76561198240105522,"connected_time":4508000000000,"state":"active","ping":83},{"user_id":156,"name":"Dr Oshawott","steam_id":76561198042021629,"connected_time":2949000000000,"state":"active","ping":68},{"user_id":189,"name":"Oops","steam_id":76561198015032646,"connected_time":782000000000,"state":"active","ping":101},{"user_id":172,"name":"mina","steam_id":76561198881665250,"connected_time":2251000000000,"state":"active","ping":118},{"user_id":206,"name":"Doritos Jacked","steam_id":76561198073103529,"connected_time":173000000000,"state":"active","ping":75},{"user_id":159,"name":"ChozoChorizo","steam_id":76561198272609196,"connected_time":2917000000000,"state":"active","ping":70},{"user_id":178,"name":"MedRed‚Ñ¢ #IATAH","steam_id":76561198002962970,"connected_time":1380000000000,"state":"active","ping":94},{"user_id":204,"name":"gruae","steam_id":76561198123901933,"connected_time":253000000000,"state":"active","ping":51},{"user_id":190,"name":"Strangelove","steam_id":76561198353773611,"connected_time":773000000000,"state":"active","ping":99},{"user_id":192,"name":"Geore","steam_id":76561198348274875,"connected_time":711000000000,"state":"active","ping":65},{"user_id":198,"name":"Soundproof","steam_id":76561198133392504,"connected_time":599000000000,"state":"active","ping":59},{"user_id":199,"name":"cran","steam_id":76561198178840075,"connected_time":538000000000,"state":"active","ping":152},{"user_id":201,"name":"Squiddysquibbles","steam_id":76561198268476001,"connected_time":461000000000,"state":"active","ping":69}]},{"server_id":37,"name":"Uncletopia | Chicago | 6 | All Maps","name_short":"chi-6","host":"chi-2.us.uncletopia.com","port":27025,"enabled":true,"region":"us-central","cc":"us","latitude":41.881832,"longitude":-87.62318,"reserved":0,"last_update":"0001-01-01T00:00:00Z","name_a2s":"Uncletopia | Chicago | 6 | All Maps","protocol":17,"map":"pl_barnblitz","folder":"tf","game":"Team Fortress","app_id":440,"player_count":24,"max_players":24,"Bots":0,"server_type":"Dedicated","server_os":"Linux","password":true,"vac":true,"version":"7961495","steam_id":85568392924866363,"keywords":["nocrits","nodmgspread","payload","uncletopia"],"game_id":440,"stv_port":27026,"stv_name":"Uncletopia | Chicago | 6 | All Maps | STV","players":[{"user_id":124,"name":"pepemantixd","steam_id":76561198854300888,"connected_time":1733000000000,"state":"active","ping":115},{"user_id":110,"name":"gIBBY","steam_id":76561198080099598,"connected_time":2522000000000,"state":"active","ping":60},{"user_id":112,"name":"coms","steam_id":76561198359456881,"connected_time":2468000000000,"state":"active","ping":51},{"user_id":108,"name":"ultralisk52","steam_id":76561198051666604,"connected_time":2653000000000,"state":"active","ping":62},{"user_id":128,"name":"Brendan_Lalo","steam_id":76561198804979242,"connected_time":788000000000,"state":"active","ping":126},{"user_id":92,"name":"lenn","steam_id":76561198058036859,"connected_time":3367000000000,"state":"active","ping":61},{"user_id":138,"name":"red","steam_id":76561198090531755,"connected_time":260000000000,"state":"active","ping":73},{"user_id":116,"name":"scrich scrich","steam_id":76561198123287268,"connected_time":2135000000000,"state":"active","ping":46},{"user_id":61,"name":"unc havin a fent battle","steam_id":76561198144766439,"connected_time":5819000000000,"state":"active","ping":61},{"user_id":60,"name":"kentrell jr.","steam_id":76561198136642793,"connected_time":6070000000000,"state":"active","ping":84},{"user_id":129,"name":"Universe Man","steam_id":76561197997710655,"connected_time":785000000000,"state":"active","ping":91},{"user_id":117,"name":"Antonpirulero10","steam_id":76561198253036781,"connected_time":2123000000000,"state":"active","ping":131},{"user_id":88,"name":"Banned from Goodwill","steam_id":76561198408159536,"connected_time":3565000000000,"state":"active","ping":48},{"user_id":126,"name":"Siz","steam_id":76561198072962154,"connected_time":1113000000000,"state":"active","ping":72},{"user_id":137,"name":"blitzkriiegi","steam_id":76561198200944766,"connected_time":355000000000,"state":"active","ping":47},{"user_id":139,"name":"hashmap","steam_id":76561198043794014,"connected_time":183000000000,"state":"active","ping":57},{"user_id":122,"name":"Lane","steam_id":76561197965828506,"connected_time":1855000000000,"state":"active","ping":48},{"user_id":118,"name":"Matches_","steam_id":76561198048925904,"connected_time":2118000000000,"state":"active","ping":108},{"user_id":132,"name":"usmnt==chokers","steam_id":76561198043456370,"connected_time":767000000000,"state":"active","ping":104},{"user_id":98,"name":"Yummy Kabobz","steam_id":76561198067661705,"connected_time":3346000000000,"state":"active","ping":73},{"user_id":119,"name":"silk","steam_id":76561198238329996,"connected_time":2105000000000,"state":"active","ping":105},{"user_id":87,"name":"evasive species","steam_id":76561198068089999,"connected_time":3656000000000,"state":"active","ping":57},{"user_id":103,"name":"Lemon","steam_id":76561198119362095,"connected_time":3186000000000,"state":"active","ping":60},{"user_id":136,"name":"Boomerish","steam_id":76561198083946878,"connected_time":497000000000,"state":"active","ping":79}]},{"server_id":38,"name":"Uncletopia | Chicago | 7 | Stopwatch Beta","name_short":"chi-7","host":"chi-2.us.uncletopia.com","port":27035,"enabled":true,"region":"us-central","cc":"us","latitude":41.881832,"longitude":-87.62318,"reserved":0,"last_update":"0001-01-01T00:00:00Z","name_a2s":"Uncletopia | Chicago | 7 | Stopwatch Beta","protocol":17,"map":"pl_borneo","folder":"tf","game":"Team Fortress","app_id":440,"player_count":0,"max_players":24,"Bots":0,"server_type":"Dedicated","server_os":"Linux","password":true,"vac":true,"version":"7961495","steam_id":85568392924866364,"keywords":["nocrits","nodmgspread","payload","uncletopia"],"game_id":440,"stv_port":27036,"stv_name":"Uncletopia | Chicago | 7 | Stopwatch Beta | STV","players":null},{"server_id":39,"name":"Uncletopia | Chicago | 8 | Community","name_short":"chi-8","host":"chi-2.us.uncletopia.com","port":27045,"enabled":true,"region":"us-central","cc":"us","latitude":41.881832,"longitude":-87.62318,"reserved":0,"last_update":"0001-01-01T00:00:00Z","name_a2s":"Uncletopia | Chicago | 8 | Community","protocol":17,"map":"workshop/rd_asteroid_redux_b1.ugc2154902912","folder":"tf","game":"Team Fortress","app_id":440,"player_count":24,"max_players":24,"Bots":0,"server_type":"Dedicated","server_os":"Linux","password":true,"vac":true,"version":"7961495","steam_id":85568392924866365,"keywords":["beta","nocrits","nodmgspread","rd","uncletopia"],"game_id":440,"stv_port":27046,"stv_name":"Uncletopia | Chicago | 8 | Community | STV","players":[{"user_id":68,"name":"DeckofDragons","steam_id":76561198057398213,"connected_time":454000000000,"state":"active","ping":78},{"user_id":20,"name":"oomper","steam_id":76561199189982701,"connected_time":3334000000000,"state":"active","ping":52},{"user_id":21,"name":"whimsical little creature","steam_id":76561198271710504,"connected_time":3234000000000,"state":"active","ping":60},{"user_id":23,"name":"Engideer","steam_id":76561198145733164,"connected_time":2716000000000,"state":"active","ping":75},{"user_id":24,"name":"Isaac Clarke","steam_id":76561198317662346,"connected_time":2601000000000,"state":"active","ping":79},{"user_id":65,"name":"Space Lizard","steam_id":76561198056798193,"connected_time":577000000000,"state":"active","ping":81},{"user_id":26,"name":"NoarBear","steam_id":76561198145929802,"connected_time":2579000000000,"state":"active","ping":51},{"user_id":73,"name":"MeatwadMeatwad","steam_id":76561198202194160,"connected_time":21000000000,"state":"active","ping":45},{"user_id":66,"name":"Grimbo","steam_id":76561198826767537,"connected_time":571000000000,"state":"active","ping":58},{"user_id":72,"name":"Aeonspassed","steam_id":76561198014016451,"connected_time":305000000000,"state":"active","ping":57},{"user_id":58,"name":"scientific","steam_id":76561198009312737,"connected_time":1469000000000,"state":"active","ping":101},{"user_id":54,"name":"Captain S. Forrest","steam_id":76561198062463029,"connected_time":1725000000000,"state":"active","ping":72},{"user_id":46,"name":"{Malik} Lightnin œü Phoenix‚Ñ¢","steam_id":76561198042509328,"connected_time":1999000000000,"state":"active","ping":95},{"user_id":34,"name":"Cheeseburger","steam_id":76561198044131927,"connected_time":2473000000000,"state":"active","ping":73},{"user_id":71,"name":"Help! I'm Underwater!","steam_id":76561198030291655,"connected_time":318000000000,"state":"active","ping":46},{"user_id":59,"name":"tsbro40","steam_id":76561199455605580,"connected_time":1462000000000,"state":"active","ping":115},{"user_id":37,"name":"canofspaghettios","steam_id":76561198124204246,"connected_time":2421000000000,"state":"active","ping":55},{"user_id":38,"name":"lp","steam_id":76561198058469527,"connected_time":2416000000000,"state":"active","ping":61},{"user_id":64,"name":"Gh0w0st","steam_id":76561199471261226,"connected_time":728000000000,"state":"active","ping":89},{"user_id":40,"name":"bald man on a plane to turkey","steam_id":76561198060296782,"connected_time":2402000000000,"state":"active","ping":117},{"user_id":67,"name":"Monkey Mode","steam_id":76561197961267543,"connected_time":571000000000,"state":"active","ping":85},{"user_id":61,"name":"Gram Tokers Count Doinkula","steam_id":76561198112811565,"connected_time":1436000000000,"state":"active","ping":75},{"user_id":69,"name":"Oxygen Denier","steam_id":76561197986051713,"connected_time":415000000000,"state":"active","ping":85},{"user_id":70,"name":"Rockinbacon","steam_id":76561198047159811,"connected_time":338000000000,"state":"active","ping":75}]},{"server_id":8,"name":"Uncletopia | Dallas | 1 | All Maps","name_short":"dal-1","host":"dal-1.us.uncletopia.com","port":27015,"enabled":true,"region":"us-central","cc":"us","latitude":32.779167,"longitude":-96.80889,"reserved":0,"last_update":"0001-01-01T00:00:00Z","name_a2s":"Uncletopia | Dallas | 1 | All Maps","protocol":17,"map":"pl_thundermountain","folder":"tf","game":"Team Fortress","app_id":440,"player_count":24,"max_players":24,"Bots":0,"server_type":"Dedicated","server_os":"Linux","password":true,"vac":true,"version":"7961495","steam_id":85568392924469986,"keywords":["nocrits","nodmgspread","payload","uncletopia"],"game_id":440,"stv_port":27016,"stv_name":"Uncletopia | Dallas | 1 | All Maps | STV","players":[{"user_id":127,"name":"barker bill","steam_id":76561198018451994,"connected_time":6760000000000,"state":"active","ping":53},{"user_id":156,"name":"FalconDestroyer1","steam_id":76561198412019922,"connected_time":3995000000000,"state":"active","ping":108},{"user_id":184,"name":"Rookie","steam_id":76561198074607715,"connected_time":850000000000,"state":"active","ping":83},{"user_id":180,"name":"ChottoAMinute","steam_id":76561198873157775,"connected_time":1367000000000,"state":"active","ping":41},{"user_id":186,"name":"how tf","steam_id":76561198179370087,"connected_time":417000000000,"state":"active","ping":62},{"user_id":174,"name":"bear 5","steam_id":76561198066566813,"connected_time":2049000000000,"state":"active","ping":116},{"user_id":183,"name":"AliensHauntedMyWorld","steam_id":76561198179354186,"connected_time":1115000000000,"state":"active","ping":135},{"user_id":135,"name":"tiernan330","steam_id":76561198271912722,"connected_time":5319000000000,"state":"active","ping":85},{"user_id":187,"name":"banana gaming","steam_id":76561198334907218,"connected_time":335000000000,"state":"active","ping":57},{"user_id":153,"name":"Bogey","steam_id":76561198096227944,"connected_time":4015000000000,"state":"active","ping":48},{"user_id":150,"name":"Fermenting Kiwi","steam_id":76561198253303497,"connected_time":4395000000000,"state":"active","ping":71},{"user_id":147,"name":"Frank Forearms.","steam_id":76561198225910596,"connected_time":4833000000000,"state":"active","ping":59},{"user_id":179,"name":"Hiser","steam_id":76561198308193624,"connected_time":1391000000000,"state":"active","ping":65},{"user_id":176,"name":"a bucket of chicken","steam_id":76561198023710042,"connected_time":1646000000000,"state":"active","ping":58},{"user_id":142,"name":"Yapple Dapple","steam_id":76561198082422815,"connected_time":5025000000000,"state":"active","ping":63},{"user_id":158,"name":"ronny","steam_id":76561197994180230,"connected_time":3820000000000,"state":"active","ping":62},{"user_id":169,"name":"JJ","steam_id":76561199200296010,"connected_time":3115000000000,"state":"active","ping":73},{"user_id":181,"name":"helen keller","steam_id":76561197979870540,"connected_time":1359000000000,"state":"active","ping":74},{"user_id":182,"name":"k3nny11","steam_id":76561198182533757,"connected_time":1347000000000,"state":"active","ping":75},{"user_id":130,"name":"Fatpoob","steam_id":76561198056730096,"connected_time":6685000000000,"state":"active","ping":76},{"user_id":126,"name":"sebjzy ‚ô•","steam_id":76561198009959034,"connected_time":6800000000000,"state":"active","ping":52},{"user_id":185,"name":"Major Depression","steam_id":76561198018103878,"connected_time":594000000000,"state":"active","ping":95},{"user_id":173,"name":"Ironaka","steam_id":76561198029993183,"connected_time":2621000000000,"state":"active","ping":91},{"user_id":140,"name":"GLG.Liz","steam_id":76561198021957956,"connected_time":5062000000000,"state":"active","ping":57}]},{"server_id":108,"name":"Uncletopia | Dallas | 2 | All Maps","name_short":"dal-2","host":"dal-1.us.uncletopia.com","port":27025,"enabled":true,"region":"us-central","cc":"us","latitude":32.779167,"longitude":-96.80889,"reserved":0,"last_update":"0001-01-01T00:00:00Z","name_a2s":"Uncletopia | Dallas | 2 | All Maps","protocol":17,"map":"cp_altitude","folder":"tf","game":"Team Fortress","app_id":440,"player_count":24,"max_players":24,"Bots":0,"server_type":"Dedicated","server_os":"Linux","password":true,"vac":true,"version":"7961495","steam_id":85568392924469988,"keywords":["cp","nocrits","nodmgspread","uncletopia"],"game_id":440,"stv_port":27026,"stv_name":"Uncletopia | Dallas | 2 | All Maps | STV","players":[{"user_id":118,"name":"Phosu","steam_id":76561198180162801,"connected_time":5132000000000,"state":"active","ping":63},{"user_id":192,"name":"Koishi Komeiji","steam_id":76561198063315650,"connected_time":135000000000,"state":"active","ping":78},{"user_id":188,"name":"Tockbird","steam_id":76561199437964594,"connected_time":162000000000,"state":"active","ping":88},{"user_id":187,"name":"Manic","steam_id":76561198128149670,"connected_time":193000000000,"state":"active","ping":45},{"user_id":189,"name":"chiswola","steam_id":76561198046920142,"connected_time":159000000000,"state":"active","ping":95},{"user_id":111,"name":"Fletcher","steam_id":76561198317846538,"connected_time":5305000000000,"state":"active","ping":77},{"user_id":144,"name":"porz","steam_id":76561198195711453,"connected_time":2988000000000,"state":"active","ping":45},{"user_id":190,"name":"glue inhaler","steam_id":76561199085645300,"connected_time":144000000000,"state":"active","ping":241},{"user_id":184,"name":"then they come for you","steam_id":76561198102681457,"connected_time":504000000000,"state":"active","ping":73},{"user_id":177,"name":"Dragorf2010","steam_id":76561199238402270,"connected_time":1349000000000,"state":"active","ping":75},{"user_id":173,"name":"totally not a pile of beans","steam_id":76561198119851931,"connected_time":1612000000000,"state":"active","ping":94},{"user_id":149,"name":"errant","steam_id":76561197961758410,"connected_time":2702000000000,"state":"active","ping":41},{"user_id":181,"name":"Sup m8","steam_id":76561198081659121,"connected_time":874000000000,"state":"active","ping":35},{"user_id":172,"name":"giveit5","steam_id":76561198030815437,"connected_time":1634000000000,"state":"active","ping":61},{"user_id":193,"name":"FOOL","steam_id":76561198370866973,"connected_time":119000000000,"state":"active","ping":93},{"user_id":174,"name":"Hindmost","steam_id":76561199081837220,"connected_time":1600000000000,"state":"active","ping":70},{"user_id":191,"name":"The Witchfinder General","steam_id":76561199113662942,"connected_time":142000000000,"state":"active","ping":75},{"user_id":194,"name":"Null | Crack Clan","steam_id":76561198895762836,"connected_time":113000000000,"state":"active","ping":81},{"user_id":186,"name":"mush","steam_id":76561198310089797,"connected_time":412000000000,"state":"active","ping":98},{"user_id":185,"name":"Catto_Maddo","steam_id":76561199233131990,"connected_time":456000000000,"state":"active","ping":97},{"user_id":161,"name":"TOKENLIZARD","steam_id":76561198218765205,"connected_time":1955000000000,"state":"active","ping":62},{"user_id":162,"name":"Sal Vulcano","steam_id":76561198016677665,"connected_time":1919000000000,"state":"active","ping":95},{"user_id":163,"name":"_-XXW0LFXX-_","steam_id":76561198026147104,"connected_time":1914000000000,"state":"active","ping":96},{"user_id":195,"name":"Artemy","steam_id":76561198095712179,"connected_time":97000000000,"state":"active","ping":95}]},{"server_id":5,"name":"Uncletopia | Frankfurt | 1 | All Maps","name_short":"frk-1","host":"frk-1.de.uncletopia.com","port":27015,"enabled":true,"region":"eu","cc":"de","latitude":50.110924,"longitude":8.682127,"reserved":0,"last_update":"0001-01-01T00:00:00Z","name_a2s":"Uncletopia | Frankfurt | 1 | All Maps","protocol":17,"map":"cp_altitude","folder":"tf","game":"Team Fortress","app_id":440,"player_count":0,"max_players":24,"Bots":0,"server_type":"Dedicated","server_os":"Linux","password":true,"vac":true,"version":"7961495","steam_id":85568392924469989,"keywords":["cp","nocrits","nodmgspread","uncletopia"],"game_id":440,"stv_port":27016,"stv_name":"Uncletopia | Frankfurt | 1 | All Maps | STV","players":null},{"server_id":110,"name":"Uncletopia | Frankfurt | 2 | All Maps","name_short":"frk-2","host":"frk-1.de.uncletopia.com","port":27025,"enabled":true,"region":"eu","cc":"de","latitude":50.110924,"longitude":8.682127,"reserved":0,"last_update":"0001-01-01T00:00:00Z","name_a2s":"Uncletopia | Frankfurt | 2 | All Maps","protocol":17,"map":"koth_cascade","folder":"tf","game":"Team Fortress","app_id":440,"player_count":0,"max_players":24,"Bots":0,"server_type":"Dedicated","server_os":"Linux","password":true,"vac":true,"version":"7961495","steam_id":85568392924469990,"keywords":["cp","nocrits","nodmgspread","uncletopia"],"game_id":440,"stv_port":27026,"stv_name":"Uncletopia | Frankfurt | 2 | All Maps | STV","players":null},{"server_id":308,"name":"Uncletopia | Frankfurt | 3 | All Maps","name_short":"frk-3","host":"frk-1.de.uncletopia.com","port":27035,"enabled":true,"region":"eu","cc":"de","latitude":50.110924,"longitude":8.682127,"reserved":0,"last_update":"0001-01-01T00:00:00Z","name_a2s":"Uncletopia | Frankfurt | 3 | All Maps","protocol":17,"map":"cp_mountainlab","folder":"tf","game":"Team Fortress","app_id":440,"player_count":0,"max_players":24,"Bots":0,"server_type":"Dedicated","server_os":"Linux","password":true,"vac":true,"version":"7961495","steam_id":85568392924504274,"keywords":["cp","nocrits","nodmgspread","uncletopia"],"game_id":440,"stv_port":27036,"stv_name":"Uncletopia | Frankfurt | 3 | All Maps | STV","players":null},{"server_id":309,"name":"Uncletopia | Frankfurt | 4 | All Maps","name_short":"frk-4","host":"frk-1.de.uncletopia.com","port":27045,"enabled":true,"region":"eu","cc":"de","latitude":50.110924,"longitude":8.682127,"reserved":0,"last_update":"0001-01-01T00:00:00Z","name_a2s":"Uncletopia | Frankfurt | 4 | All Maps","protocol":17,"map":"cp_process_final","folder":"tf","game":"Team Fortress","app_id":440,"player_count":0,"max_players":24,"Bots":0,"server_type":"Dedicated","server_os":"Linux","password":true,"vac":true,"version":"7961495","steam_id":85568392924504275,"keywords":["cp","nocrits","nodmgspread","uncletopia"],"game_id":440,"stv_port":27046,"stv_name":"Uncletopia | Frankfurt | 4 | All Maps | STV","players":null},{"server_id":310,"name":"Uncletopia | Frankfurt | 5 | All Maps","name_short":"frk-5","host":"frk-1.de.uncletopia.com","port":27055,"enabled":true,"region":"eu","cc":"de","latitude":50.110924,"longitude":8.682127,"reserved":0,"last_update":"0001-01-01T00:00:00Z","name_a2s":"Uncletopia | Frankfurt | 5 | All Maps","protocol":17,"map":"koth_viaduct","folder":"tf","game":"Team Fortress","app_id":440,"player_count":0,"max_players":24,"Bots":0,"server_type":"Dedicated","server_os":"Linux","password":true,"vac":true,"version":"7961495","steam_id":85568392924504277,"keywords":["cp","nocrits","nodmgspread","uncletopia"],"game_id":440,"stv_port":27056,"stv_name":"Uncletopia | Frankfurt | 5 | All Maps | STV","players":null},{"server_id":311,"name":"Uncletopia | Frankfurt | 6 | All Maps","name_short":"frk-6","host":"frk-1.de.uncletopia.com","port":27065,"enabled":true,"region":"eu","cc":"de","latitude":50.110924,"longitude":8.682127,"reserved":0,"last_update":"0001-01-01T00:00:00Z","name_a2s":"Uncletopia | Frankfurt | 6 | All Maps","protocol":17,"map":"pl_pier","folder":"tf","game":"Team Fortress","app_id":440,"player_count":0,"max_players":24,"Bots":0,"server_type":"Dedicated","server_os":"Linux","password":true,"vac":true,"version":"7961495","steam_id":85568392924504278,"keywords":["nocrits","nodmgspread","payload","uncletopia"],"game_id":440,"stv_port":27066,"stv_name":"Uncletopia | Frankfurt | 6 | All Maps | STV","players":null},{"server_id":23,"name":"Uncletopia | Frankfurt | 7 | Stopwatch Beta","name_short":"frk-7","host":"frk-1.de.uncletopia.com","port":27075,"enabled":true,"region":"eu","cc":"de","latitude":50.110924,"longitude":8.682127,"reserved":0,"last_update":"0001-01-01T00:00:00Z","name_a2s":"Uncletopia | Frankfurt | 7 | Stopwatch Beta","protocol":17,"map":"koth_cascade","folder":"tf","game":"Team Fortress","app_id":440,"player_count":0,"max_players":24,"Bots":0,"server_type":"Dedicated","server_os":"Linux","password":true,"vac":true,"version":"7961495","steam_id":85568392924742827,"keywords":["cp","nocrits","nodmgspread","uncletopia"],"game_id":440,"stv_port":27076,"stv_name":"Uncletopia | Frankfurt | 7 | Stopwatch Beta | STV","players":null},{"server_id":24,"name":"Uncletopia | Frankfurt | 8 | Community","name_short":"frk-8","host":"frk-1.de.uncletopia.com","port":27085,"enabled":true,"region":"eu","cc":"de","latitude":50.110924,"longitude":8.682127,"reserved":0,"last_update":"0001-01-01T00:00:00Z","name_a2s":"Uncletopia | Frankfurt | 8 | Community","protocol":17,"map":"cp_process_final","folder":"tf","game":"Team Fortress","app_id":440,"player_count":0,"max_players":24,"Bots":0,"server_type":"Dedicated","server_os":"Linux","password":true,"vac":true,"version":"7961495","steam_id":85568392924742828,"keywords":["cp","nocrits","nodmgspread","uncletopia"],"game_id":440,"stv_port":27086,"stv_name":"Uncletopia | Frankfurt | 8 | Community | STV","players":null},{"server_id":202,"name":"Uncletopia | Hong Kong | 1 | All Maps","name_short":"hgk-1","host":"hgk-1.hk.uncletopia.com","port":27015,"enabled":true,"region":"asia","cc":"hk","latitude":22.302711,"longitude":114.177216,"reserved":0,"last_update":"0001-01-01T00:00:00Z","name_a2s":"Uncletopia | Hong Kong | 1 | All Maps","protocol":17,"map":"koth_lakeside_final","folder":"tf","game":"Team Fortress","app_id":440,"player_count":0,"max_players":24,"Bots":0,"server_type":"Dedicated","server_os":"Linux","password":true,"vac":true,"version":"7961495","steam_id":85568392924494504,"keywords":["cp","nocrits","nodmgspread","uncletopia"],"game_id":440,"stv_port":27016,"stv_name":"Uncletopia | Hong Kong | 1 | All Maps | STV","players":null},{"server_id":1,"name":"Uncletopia | Los Angeles | 1 | All Maps","name_short":"lax-1","host":"lax-1.us.uncletopia.com","port":27015,"enabled":true,"region":"us-west","cc":"us","latitude":33.94279,"longitude":-118.41004,"reserved":0,"last_update":"0001-01-01T00:00:00Z","name_a2s":"Uncletopia | Los Angeles | 1 | All Maps","protocol":17,"map":"cp_process_final","folder":"tf","game":"Team Fortress","app_id":440,"player_count":24,"max_players":24,"Bots":0,"server_type":"Dedicated","server_os":"Linux","password":true,"vac":true,"version":"7961495","steam_id":85568392924469991,"keywords":["cp","nocrits","nodmgspread","uncletopia"],"game_id":440,"stv_port":27016,"stv_name":"Uncletopia | Los Angeles | 1 | All Maps | STV","players":[{"user_id":134,"name":"pudl","steam_id":76561198043726592,"connected_time":1449000000000,"state":"active","ping":75},{"user_id":131,"name":"a chicken","steam_id":76561198313121580,"connected_time":1610000000000,"state":"active","ping":43},{"user_id":115,"name":"GrACE n' TrUth","steam_id":76561198042919056,"connected_time":3299000000000,"state":"active","ping":76},{"user_id":133,"name":"Culprit Shy","steam_id":76561198206506481,"connected_time":1455000000000,"state":"active","ping":45},{"user_id":135,"name":"RegrexitHexit","steam_id":76561198069603316,"connected_time":1448000000000,"state":"active","ping":123},{"user_id":42,"name":"TwoForFlinching","steam_id":76561198073814209,"connected_time":9552000000000,"state":"active","ping":94},{"user_id":126,"name":"NobodyMonkey","steam_id":76561198318360972,"connected_time":2626000000000,"state":"active","ping":55},{"user_id":136,"name":"danielarmvt","steam_id":76561198799723201,"connected_time":1435000000000,"state":"active","ping":96},{"user_id":148,"name":"miguelrodriguez2013","steam_id":76561198269253587,"connected_time":352000000000,"state":"active","ping":49},{"user_id":132,"name":"Sol","steam_id":76561198121500201,"connected_time":1459000000000,"state":"active","ping":45},{"user_id":118,"name":"Paradon","steam_id":76561198242214772,"connected_time":3229000000000,"state":"active","ping":59},{"user_id":149,"name":"groovetomanny","steam_id":76561198371660675,"connected_time":12000000000,"state":"spawning","ping":49},{"user_id":125,"name":"riSygneD","steam_id":76561198331618687,"connected_time":2661000000000,"state":"active","ping":30},{"user_id":129,"name":"-The_Under_Miner-","steam_id":76561199195735972,"connected_time":2055000000000,"state":"active","ping":59},{"user_id":130,"name":"Stick","steam_id":76561198001509374,"connected_time":1931000000000,"state":"active","ping":71},{"user_id":109,"name":"StanchAxis","steam_id":76561199489268564,"connected_time":3793000000000,"state":"active","ping":50},{"user_id":140,"name":"RazuIce","steam_id":76561199279200907,"connected_time":1402000000000,"state":"active","ping":62},{"user_id":139,"name":"‚òπ","steam_id":76561198804763186,"connected_time":1409000000000,"state":"active","ping":105},{"user_id":142,"name":"Rose","steam_id":76561198955581861,"connected_time":1386000000000,"state":"active","ping":50},{"user_id":143,"name":"TwoBit","steam_id":76561198062437559,"connected_time":1339000000000,"state":"active","ping":128},{"user_id":145,"name":"Imnotnuggets","steam_id":76561198886670414,"connected_time":1161000000000,"state":"active","ping":69},{"user_id":106,"name":"ùíÜùíóùíäùíçArnoldGamingÔæ†","steam_id":76561198040140247,"connected_time":4076000000000,"state":"active","ping":127},{"user_id":122,"name":"Wavelengths","steam_id":76561197997621320,"connected_time":2835000000000,"state":"active","ping":88},{"user_id":128,"name":"samvaluez","steam_id":76561199213743808,"connected_time":2389000000000,"state":"active","ping":77}]},{"server_id":112,"name":"Uncletopia | Los Angeles | 2 | All Maps","name_short":"lax-2","host":"lax-1.us.uncletopia.com","port":27025,"enabled":true,"region":"us-west","cc":"us","latitude":33.94279,"longitude":-118.41004,"reserved":0,"last_update":"0001-01-01T00:00:00Z","name_a2s":"Uncletopia | Los Angeles | 2 | All Maps","protocol":17,"map":"cp_dustbowl","folder":"tf","game":"Team Fortress","app_id":440,"player_count":24,"max_players":24,"Bots":0,"server_type":"Dedicated","server_os":"Linux","password":true,"vac":true,"version":"7961495","steam_id":85568392924469992,"keywords":["cp","nocrits","nodmgspread","uncletopia"],"game_id":440,"stv_port":27026,"stv_name":"Uncletopia | Los Angeles | 2 | All Maps | STV","players":[{"user_id":140,"name":"A UsedNom","steam_id":76561198402832756,"connected_time":341000000000,"state":"active","ping":44},{"user_id":84,"name":"SanitysEdge","steam_id":76561198130732813,"connected_time":3496000000000,"state":"active","ping":49},{"user_id":119,"name":"Ajayajax","steam_id":76561198389802335,"connected_time":1438000000000,"state":"active","ping":75},{"user_id":118,"name":"u,____u","steam_id":76561198370431307,"connected_time":1490000000000,"state":"active","ping":34},{"user_id":131,"name":"Ockulus","steam_id":76561199069638460,"connected_time":947000000000,"state":"active","ping":52},{"user_id":64,"name":"the mug maniac","steam_id":76561198389268114,"connected_time":5686000000000,"state":"active","ping":88},{"user_id":95,"name":"[FGCP] party hat","steam_id":76561198044268609,"connected_time":2730000000000,"state":"active","ping":107},{"user_id":115,"name":"Ian","steam_id":76561198159334435,"connected_time":1672000000000,"state":"active","ping":170},{"user_id":141,"name":"Truffles","steam_id":76561198095868800,"connected_time":217000000000,"state":"active","ping":95},{"user_id":51,"name":"nav","steam_id":76561198872608266,"connected_time":6788000000000,"state":"active","ping":119},{"user_id":120,"name":"TheTroller1Billion","steam_id":76561198328017774,"connected_time":1424000000000,"state":"active","ping":78},{"user_id":136,"name":"Imabox","steam_id":76561199206177858,"connected_time":587000000000,"state":"active","ping":77},{"user_id":139,"name":"Grungus","steam_id":76561198047700230,"connected_time":379000000000,"state":"active","ping":60},{"user_id":122,"name":"LEE","steam_id":76561199127408846,"connected_time":1384000000000,"state":"active","ping":70},{"user_id":128,"name":"Redspot","steam_id":76561199047876159,"connected_time":1233000000000,"state":"active","ping":81},{"user_id":134,"name":"Rebby","steam_id":76561198099221955,"connected_time":683000000000,"state":"active","ping":117},{"user_id":85,"name":"De Monki","steam_id":76561198964210411,"connected_time":3467000000000,"state":"active","ping":55},{"user_id":104,"name":"bobbymcbobington","steam_id":76561199089411172,"connected_time":2653000000000,"state":"active","ping":137},{"user_id":127,"name":"Limbo","steam_id":76561198391827925,"connected_time":1301000000000,"state":"active","ping":101},{"user_id":126,"name":"basilberry","steam_id":76561198145275937,"connected_time":1340000000000,"state":"active","ping":98},{"user_id":49,"name":"Ferret","steam_id":76561198060416458,"connected_time":6808000000000,"state":"active","ping":62},{"user_id":138,"name":"Grand","steam_id":76561198290143399,"connected_time":416000000000,"state":"active","ping":90},{"user_id":143,"name":"i cant aim","steam_id":76561198065873462,"connected_time":46000000000,"state":"active","ping":46},{"user_id":130,"name":"Snoot Booper","steam_id":76561198323154712,"connected_time":1231000000000,"state":"active","ping":55}]},{"server_id":324,"name":"Uncletopia | Los Angeles | 3 | All Maps","name_short":"lax-3","host":"lax-1.us.uncletopia.com","port":27035,"enabled":true,"region":"us-west","cc":"us","latitude":33.94279,"longitude":-118.41004,"reserved":0,"last_update":"0001-01-01T00:00:00Z","name_a2s":"Uncletopia | Los Angeles | 3 | All Maps","protocol":17,"map":"koth_harvest_final","folder":"tf","game":"Team Fortress","app_id":440,"player_count":22,"max_players":24,"Bots":0,"server_type":"Dedicated","server_os":"Linux","password":true,"vac":true,"version":"7961495","steam_id":85568392924510198,"keywords":["cp","nocrits","nodmgspread","uncletopia"],"game_id":440,"stv_port":27036,"stv_name":"Uncletopia | Los Angeles | 3 | All Maps | STV","players":[{"user_id":39,"name":"M249 | Spectre","steam_id":76561198118334485,"connected_time":5776000000000,"state":"active","ping":120},{"user_id":124,"name":"El Duderino","steam_id":76561198084404539,"connected_time":24000000000,"state":"active","ping":127},{"user_id":125,"name":"pmerle702","steam_id":76561199247090059,"connected_time":21000000000,"state":"active","ping":113},{"user_id":123,"name":"adolf tickler","steam_id":76561198163120788,"connected_time":34000000000,"state":"active","ping":34},{"user_id":114,"name":"Toastered","steam_id":76561198178459042,"connected_time":628000000000,"state":"active","ping":62},{"user_id":115,"name":"nelly modelo","steam_id":76561198044875206,"connected_time":626000000000,"state":"active","ping":64},{"user_id":126,"name":"Abu Shoosh","steam_id":76561198094990358,"connected_time":12000000000,"state":"active","ping":46},{"user_id":90,"name":"Peanuts","steam_id":76561199133082806,"connected_time":2406000000000,"state":"active","ping":53},{"user_id":102,"name":"TimTam","steam_id":76561198080434949,"connected_time":1651000000000,"state":"active","ping":98},{"user_id":76,"name":"Subderhenge","steam_id":76561198090955892,"connected_time":3598000000000,"state":"active","ping":97},{"user_id":106,"name":"thai tea","steam_id":76561198308290211,"connected_time":1056000000000,"state":"active","ping":161},{"user_id":109,"name":"i hate linkin park","steam_id":76561198145784505,"connected_time":690000000000,"state":"active","ping":45},{"user_id":92,"name":"your local xbox 360 slim","steam_id":76561199243489976,"connected_time":2284000000000,"state":"active","ping":95},{"user_id":116,"name":"LockHeart","steam_id":76561198868205853,"connected_time":501000000000,"state":"active","ping":61},{"user_id":117,"name":"DocDankDandy","steam_id":76561197999440195,"connected_time":365000000000,"state":"active","ping":44},{"user_id":103,"name":"The Mascara Snake","steam_id":76561198025626653,"connected_time":1636000000000,"state":"active","ping":66},{"user_id":46,"name":"thezranger","steam_id":76561198454086460,"connected_time":5431000000000,"state":"active","ping":143},{"user_id":118,"name":"MaDeuce","steam_id":76561198110732835,"connected_time":330000000000,"state":"active","ping":97},{"user_id":127,"name":"Mocha Josie","steam_id":76561198066452726,"connected_time":10000000000,"state":"spawning","ping":66},{"user_id":122,"name":"eau:","steam_id":76561198110020262,"connected_time":173000000000,"state":"active","ping":36},{"user_id":120,"name":"Purple Silence","steam_id":76561198402755987,"connected_time":227000000000,"state":"active","ping":60},{"user_id":111,"name":"Timewaves","steam_id":76561198000186054,"connected_time":679000000000,"state":"active","ping":48}]},{"server_id":25,"name":"Uncletopia | Los Angeles | 4 | Stopwatch Beta","name_short":"lax-4","host":"lax-1.us.uncletopia.com","port":27045,"enabled":true,"region":"us-west","cc":"us","latitude":33.94279,"longitude":-118.41004,"reserved":0,"last_update":"0001-01-01T00:00:00Z","name_a2s":"Uncletopia | Los Angeles | 4 | Stopwatch Beta","protocol":17,"map":"pl_frontier_final","folder":"tf","game":"Team Fortress","app_id":440,"player_count":0,"max_players":24,"Bots":0,"server_type":"Dedicated","server_os":"Linux","password":true,"vac":true,"version":"7961495","steam_id":85568392924510199,"keywords":["nocrits","nodmgspread","payload","uncletopia"],"game_id":440,"stv_port":27046,"stv_name":"Uncletopia | Los Angeles | 4 | Stopwatch Beta | STV","players":null},{"server_id":11,"name":"Uncletopia | London | 1 | All Maps","name_short":"lon-1","host":"lon-1.uk.uncletopia.com","port":27015,"enabled":true,"region":"eu","cc":"gb","latitude":51.509865,"longitude":-0.118092,"reserved":0,"last_update":"0001-01-01T00:00:00Z","name_a2s":"Uncletopia | London | 1 | All Maps","protocol":17,"map":"pl_borneo","folder":"tf","game":"Team Fortress","app_id":440,"player_count":21,"max_players":24,"Bots":0,"server_type":"Dedicated","server_os":"Linux","password":true,"vac":true,"version":"7961495","steam_id":85568392924367362,"keywords":["nocrits","nodmgspread","payload","uncletopia"],"game_id":440,"stv_port":27016,"stv_name":"Uncletopia | London | 1 | All Maps | STV","players":[{"user_id":187,"name":"eden :3","steam_id":76561198188345226,"connected_time":1744000000000,"state":"active","ping":30},{"user_id":189,"name":"LOKKI","steam_id":76561198259022887,"connected_time":1172000000000,"state":"active","ping":76},{"user_id":200,"name":"whimsy.","steam_id":76561198878171763,"connected_time":109000000000,"state":"connecting","ping":50},{"user_id":198,"name":"Edd","steam_id":76561198028740487,"connected_time":204000000000,"state":"active","ping":83},{"user_id":196,"name":"ur so pretty ^_^ \u003c3","steam_id":76561198832230598,"connected_time":504000000000,"state":"active","ping":114},{"user_id":173,"name":"zFn","steam_id":76561197997440377,"connected_time":2821000000000,"state":"active","ping":77},{"user_id":176,"name":"big baby :)","steam_id":76561198257497429,"connected_time":2766000000000,"state":"active","ping":87},{"user_id":194,"name":"Triple Lizard","steam_id":76561198188459654,"connected_time":912000000000,"state":"active","ping":135},{"user_id":180,"name":"exRage","steam_id":76561198449953655,"connected_time":2589000000000,"state":"active","ping":63},{"user_id":82,"name":"beebo","steam_id":76561199120277007,"connected_time":10183000000000,"state":"active","ping":37},{"user_id":81,"name":"Kosmonaukt","steam_id":76561198168108777,"connected_time":10292000000000,"state":"active","ping":47},{"user_id":79,"name":"cervantes","steam_id":76561198099245500,"connected_time":10395000000000,"state":"active","ping":52},{"user_id":174,"name":"FarisKO","steam_id":76561198259234555,"connected_time":2778000000000,"state":"active","ping":152},{"user_id":182,"name":"puck","steam_id":76561198121260981,"connected_time":2540000000000,"state":"active","ping":45},{"user_id":115,"name":"Clown","steam_id":76561198074657015,"connected_time":6979000000000,"state":"active","ping":68},{"user_id":160,"name":"guac","steam_id":76561198070305720,"connected_time":3677000000000,"state":"active","ping":162},{"user_id":193,"name":"FORNTITELOVERKYLE2011","steam_id":76561198382509396,"connected_time":1072000000000,"state":"active","ping":54},{"user_id":186,"name":"charlotte","steam_id":76561198075129898,"connected_time":2056000000000,"state":"active","ping":30},{"user_id":116,"name":"lepicah","steam_id":76561198797345502,"connected_time":6973000000000,"state":"active","ping":58},{"user_id":122,"name":"Bobirulez","steam_id":76561198009125458,"connected_time":6621000000000,"state":"active","ping":67},{"user_id":154,"name":"going bananas","steam_id":76561199480942903,"connected_time":4486000000000,"state":"active","ping":75}]},{"server_id":114,"name":"Uncletopia | London | 2 | All Maps","name_short":"lon-2","host":"lon-1.uk.uncletopia.com","port":27025,"enabled":true,"region":"eu","cc":"gb","latitude":51.509865,"longitude":-0.118092,"reserved":0,"last_update":"0001-01-01T00:00:00Z","name_a2s":"Uncletopia | London | 2 | All Maps","protocol":17,"map":"pl_frontier_final","folder":"tf","game":"Team Fortress","app_id":440,"player_count":12,"max_players":24,"Bots":0,"server_type":"Dedicated","server_os":"Linux","password":true,"vac":true,"version":"7961495","steam_id":85568392924470941,"keywords":["nocrits","nodmgspread","payload","uncletopia"],"game_id":440,"stv_port":27026,"stv_name":"Uncletopia | London | 2 | All Maps | STV","players":[{"user_id":196,"name":"bibsi","steam_id":76561198042428907,"connected_time":1366000000000,"state":"active","ping":113},{"user_id":164,"name":"Ruby Gillman","steam_id":76561198366299848,"connected_time":4566000000000,"state":"active","ping":126},{"user_id":123,"name":"yuno appreciator","steam_id":76561198083286511,"connected_time":7413000000000,"state":"active","ping":41},{"user_id":163,"name":"Colonel Dissapointment","steam_id":76561198181891649,"connected_time":5025000000000,"state":"active","ping":160},{"user_id":191,"name":"Yuzu","steam_id":76561198121694613,"connected_time":2525000000000,"state":"active","ping":48},{"user_id":168,"name":"Spex","steam_id":76561198404566859,"connected_time":3674000000000,"state":"active","ping":124},{"user_id":203,"name":"Krustytoepaste","steam_id":76561198320265524,"connected_time":424000000000,"state":"active","ping":213},{"user_id":172,"name":"pond","steam_id":76561198214849363,"connected_time":3169000000000,"state":"active","ping":85},{"user_id":201,"name":"Û†Ä°Û†Ä°","steam_id":76561199169154431,"connected_time":668000000000,"state":"active","ping":56},{"user_id":204,"name":"gullywash","steam_id":76561199085984801,"connected_time":376000000000,"state":"active","ping":48},{"user_id":177,"name":"Frank The Fragger","steam_id":76561198088767519,"connected_time":2919000000000,"state":"active","ping":183},{"user_id":180,"name":"Fish_man_Jon","steam_id":76561198068158264,"connected_time":2818000000000,"state":"active","ping":134}]},{"server_id":320,"name":"Uncletopia | London | 3 | All Maps","name_short":"lon-3","host":"lon-1.uk.uncletopia.com","port":27035,"enabled":true,"region":"eu","cc":"gb","latitude":51.509865,"longitude":-0.118092,"reserved":0,"last_update":"0001-01-01T00:00:00Z","name_a2s":"Uncletopia | London | 3 | All Maps","protocol":17,"map":"koth_lakeside_final","folder":"tf","game":"Team Fortress","app_id":440,"player_count":0,"max_players":24,"Bots":0,"server_type":"Dedicated","server_os":"Linux","password":true,"vac":true,"version":"7961495","steam_id":85568392924510192,"keywords":["cp","nocrits","nodmgspread","uncletopia"],"game_id":440,"stv_port":27036,"stv_name":"Uncletopia | London | 3 | All Maps | STV","players":null},{"server_id":321,"name":"Uncletopia | London | 4 | All Maps","name_short":"lon-4","host":"lon-1.uk.uncletopia.com","port":27045,"enabled":true,"region":"eu","cc":"gb","latitude":51.509865,"longitude":-0.118092,"reserved":0,"last_update":"0001-01-01T00:00:00Z","name_a2s":"Uncletopia | London | 4 | All Maps","protocol":17,"map":"koth_cascade","folder":"tf","game":"Team Fortress","app_id":440,"player_count":0,"max_players":24,"Bots":0,"server_type":"Dedicated","server_os":"Linux","password":true,"vac":true,"version":"7961495","steam_id":85568392924510193,"keywords":["cp","nocrits","nodmgspread","uncletopia"],"game_id":440,"stv_port":27046,"stv_name":"Uncletopia | London | 4 | All Maps | STV","players":null},{"server_id":21,"name":"Uncletopia | London | 5 | All Maps","name_short":"lon-5","host":"lon-1.uk.uncletopia.com","port":27055,"enabled":true,"region":"eu","cc":"gb","latitude":51.509865,"longitude":-0.118092,"reserved":0,"last_update":"0001-01-01T00:00:00Z","name_a2s":"Uncletopia | London | 5 | All Maps","protocol":17,"map":"pl_snowycoast","folder":"tf","game":"Team Fortress","app_id":440,"player_count":0,"max_players":24,"Bots":0,"server_type":"Dedicated","server_os":"Linux","password":true,"vac":true,"version":"7961495","steam_id":85568392924742829,"keywords":["nocrits","nodmgspread","payload","uncletopia"],"game_id":440,"stv_port":27056,"stv_name":"Uncletopia | London | 5 | All Maps | STV","players":null},{"server_id":22,"name":"Uncletopia | London | 6 | All Maps","name_short":"lon-6","host":"lon-1.uk.uncletopia.com","port":27065,"enabled":true,"region":"eu","cc":"gb","latitude":51.509865,"longitude":-0.118092,"reserved":0,"last_update":"0001-01-01T00:00:00Z","name_a2s":"Uncletopia | London | 6 | All Maps","protocol":17,"map":"koth_lakeside_final","folder":"tf","game":"Team Fortress","app_id":440,"player_count":0,"max_players":24,"Bots":0,"server_type":"Dedicated","server_os":"Linux","password":true,"vac":true,"version":"7961495","steam_id":85568392924742830,"keywords":["cp","nocrits","nodmgspread","uncletopia"],"game_id":440,"stv_port":27066,"stv_name":"Uncletopia | London | 6 | All Maps | STV","players":null},{"server_id":40,"name":"Uncletopia | London | 7 | No Payload","name_short":"lon-7","host":"lon-1.uk.uncletopia.com","port":27075,"enabled":true,"region":"eu","cc":"gb","latitude":51.509865,"longitude":-0.118092,"reserved":0,"last_update":"0001-01-01T00:00:00Z","name_a2s":"Uncletopia | London | 7 | No Payload","protocol":17,"map":"pl_snowycoast","folder":"tf","game":"Team Fortress","app_id":440,"player_count":0,"max_players":24,"Bots":0,"server_type":"Dedicated","server_os":"Linux","password":true,"vac":true,"version":"7961495","steam_id":85568392924964314,"keywords":["nocrits","nodmgspread","payload","uncletopia"],"game_id":440,"stv_port":27076,"stv_name":"Uncletopia | London | 7 | No Payload | STV","players":null},{"server_id":41,"name":"Uncletopia | London | 8 | Community","name_short":"lon-8","host":"lon-1.uk.uncletopia.com","port":27085,"enabled":true,"region":"eu","cc":"gb","latitude":51.509865,"longitude":-0.118092,"reserved":0,"last_update":"0001-01-01T00:00:00Z","name_a2s":"Uncletopia | London | 8 | Community","protocol":17,"map":"koth_viaduct","folder":"tf","game":"Team Fortress","app_id":440,"player_count":0,"max_players":24,"Bots":0,"server_type":"Dedicated","server_os":"Linux","password":true,"vac":true,"version":"7961495","steam_id":85568392924964315,"keywords":["cp","nocrits","nodmgspread","uncletopia"],"game_id":440,"stv_port":27086,"stv_name":"Uncletopia | London | 8 | Community | STV","players":null},{"server_id":300,"name":"Uncletopia | Montr√©al | 1 | All Maps","name_short":"mtl-1","host":"mtl-1.ca.uncletopia.com","port":27015,"enabled":true,"region":"us-east","cc":"ca","latitude":45.50889,"longitude":-73.56167,"reserved":0,"last_update":"0001-01-01T00:00:00Z","name_a2s":"Uncletopia | Montr√©al | 1 | All Maps","protocol":17,"map":"koth_cascade","folder":"tf","game":"Team Fortress","app_id":440,"player_count":0,"max_players":24,"Bots":0,"server_type":"Dedicated","server_os":"Linux","password":true,"vac":true,"version":"7961495","steam_id":85568392924500087,"keywords":["cp","nocrits","nodmgspread","uncletopia"],"game_id":440,"stv_port":27016,"stv_name":"Uncletopia | Montr√©al | 1 | All Maps | STV","players":null},{"server_id":301,"name":"Uncletopia | Montr√©al | 2 | All Maps","name_short":"mtl-2","host":"mtl-1.ca.uncletopia.com","port":27025,"enabled":true,"region":"us-east","cc":"ca","latitude":45.50889,"longitude":-73.56167,"reserved":0,"last_update":"0001-01-01T00:00:00Z","name_a2s":"Uncletopia | Montr√©al | 2 | All Maps","protocol":17,"map":"pl_frontier_final","folder":"tf","game":"Team Fortress","app_id":440,"player_count":0,"max_players":24,"Bots":0,"server_type":"Dedicated","server_os":"Linux","password":true,"vac":true,"version":"7961495","steam_id":85568392924500088,"keywords":["nocrits","nodmgspread","payload","uncletopia"],"game_id":440,"stv_port":27026,"stv_name":"Uncletopia | Montr√©al | 2 | All Maps | STV","players":null},{"server_id":302,"name":"Uncletopia | Montr√©al | 3 | All Maps","name_short":"mtl-3","host":"mtl-1.ca.uncletopia.com","port":27035,"enabled":true,"region":"us-east","cc":"ca","latitude":45.50889,"longitude":-73.56167,"reserved":0,"last_update":"0001-01-01T00:00:00Z","name_a2s":"Uncletopia | Montr√©al | 3 | All Maps","protocol":17,"map":"pl_upward","folder":"tf","game":"Team Fortress","app_id":440,"player_count":24,"max_players":24,"Bots":0,"server_type":"Dedicated","server_os":"Linux","password":true,"vac":true,"version":"7961495","steam_id":85568392924500089,"keywords":["nocrits","nodmgspread","payload","uncletopia"],"game_id":440,"stv_port":27036,"stv_name":"Uncletopia | Montr√©al | 3 | All Maps | STV","players":[{"user_id":224,"name":"KennytheHedgehog","steam_id":76561198094607721,"connected_time":1123000000000,"state":"active","ping":94},{"user_id":214,"name":"Dr. Blair Chao","steam_id":76561198146027518,"connected_time":2440000000000,"state":"active","ping":59},{"user_id":225,"name":"two-bit Thief","steam_id":76561199202681534,"connected_time":1109000000000,"state":"active","ping":129},{"user_id":226,"name":"demo that laughs at sentries","steam_id":76561198083561382,"connected_time":1103000000000,"state":"active","ping":128},{"user_id":245,"name":"sweaterfan","steam_id":76561199389567214,"connected_time":208000000000,"state":"active","ping":76},{"user_id":234,"name":"MidniteMayor","steam_id":76561198449524589,"connected_time":867000000000,"state":"active","ping":137},{"user_id":213,"name":"Leaf","steam_id":76561198348965524,"connected_time":2513000000000,"state":"active","ping":61},{"user_id":227,"name":"art_of_the_fruit","steam_id":76561198086608978,"connected_time":1095000000000,"state":"active","ping":130},{"user_id":131,"name":"J-Booty Rasengan","steam_id":76561198088854411,"connected_time":6842000000000,"state":"active","ping":63},{"user_id":244,"name":"PrinceBean","steam_id":76561199055077408,"connected_time":221000000000,"state":"active","ping":131},{"user_id":221,"name":"Gaming","steam_id":76561198107080532,"connected_time":1252000000000,"state":"active","ping":81},{"user_id":156,"name":"‚òÜRuke‚òÜ","steam_id":76561198072441047,"connected_time":5633000000000,"state":"active","ping":136},{"user_id":228,"name":"Gender? I 'ardly know 'er!","steam_id":76561198024754397,"connected_time":1083000000000,"state":"active","ping":97},{"user_id":229,"name":"Cahootles","steam_id":76561198056407485,"connected_time":1072000000000,"state":"active","ping":94},{"user_id":241,"name":"HOTA","steam_id":76561199002778841,"connected_time":496000000000,"state":"active","ping":65},{"user_id":246,"name":"aaaace","steam_id":76561198128093659,"connected_time":82000000000,"state":"active","ping":128},{"user_id":193,"name":"Kip üêá","steam_id":76561198075476523,"connected_time":3559000000000,"state":"active","ping":81},{"user_id":233,"name":"monkeycake","steam_id":76561198272061915,"connected_time":940000000000,"state":"active","ping":69},{"user_id":231,"name":"xLeoparrd","steam_id":76561198940657194,"connected_time":1015000000000,"state":"active","ping":88},{"user_id":216,"name":"Grilled Jizo","steam_id":76561199250875340,"connected_time":1998000000000,"state":"active","ping":96},{"user_id":200,"name":"cheeser","steam_id":76561198281772700,"connected_time":3315000000000,"state":"active","ping":48},{"user_id":243,"name":"6t26j","steam_id":76561198278282836,"connected_time":343000000000,"state":"active","ping":45},{"user_id":242,"name":"ƒ†1 ‚ô¶ Synth","steam_id":76561198058660228,"connected_time":393000000000,"state":"active","ping":71},{"user_id":239,"name":"0rion‚Äôs Knight","steam_id":76561198024761729,"connected_time":708000000000,"state":"active","ping":160}]},{"server_id":303,"name":"Uncletopia | Montr√©al | 4 | No Payload","name_short":"mtl-4","host":"mtl-1.ca.uncletopia.com","port":27045,"enabled":true,"region":"us-east","cc":"ca","latitude":45.50889,"longitude":-73.56167,"reserved":0,"last_update":"0001-01-01T00:00:00Z","name_a2s":"Uncletopia | Montr√©al | 4 | No Payload","protocol":17,"map":"cp_mountainlab","folder":"tf","game":"Team Fortress","app_id":440,"player_count":0,"max_players":24,"Bots":0,"server_type":"Dedicated","server_os":"Linux","password":true,"vac":true,"version":"7961495","steam_id":85568392924500090,"keywords":["cp","nocrits","nodmgspread","uncletopia"],"game_id":440,"stv_port":27046,"stv_name":"Uncletopia | Montr√©al | 4 | No Payload | STV","players":null},{"server_id":13,"name":"Uncletopia | New York City | 1 | All Maps","name_short":"nyc-1","host":"nyc-1.us.uncletopia.com","port":27015,"enabled":true,"region":"us-east","cc":"us","latitude":40.73061,"longitude":-73.93524,"reserved":0,"last_update":"0001-01-01T00:00:00Z","name_a2s":"Uncletopia | New York City | 1 | All Maps","protocol":17,"map":"pl_badwater","folder":"tf","game":"Team Fortress","app_id":440,"player_count":23,"max_players":24,"Bots":0,"server_type":"Dedicated","server_os":"Linux","password":true,"vac":true,"version":"7961495","steam_id":85568392924469993,"keywords":["nocrits","nodmgspread","payload","uncletopia"],"game_id":440,"stv_port":27016,"stv_name":"Uncletopia | New York City | 1 | All Maps | STV","players":[{"user_id":215,"name":"Two-Teste Tommy","steam_id":76561198064308936,"connected_time":1439000000000,"state":"active","ping":56},{"user_id":200,"name":"Al Cabone","steam_id":76561198956823243,"connected_time":2593000000000,"state":"active","ping":60},{"user_id":182,"name":"Spiral Mountain","steam_id":76561198058683715,"connected_time":4654000000000,"state":"active","ping":73},{"user_id":197,"name":"baconandx","steam_id":76561198355074004,"connected_time":2940000000000,"state":"active","ping":64},{"user_id":212,"name":"GHOST SHARK!!!!!","steam_id":76561198400684437,"connected_time":1592000000000,"state":"active","ping":115},{"user_id":230,"name":"Fat Kid","steam_id":76561198304180941,"connected_time":193000000000,"state":"active","ping":103},{"user_id":187,"name":"OKAY","steam_id":76561198091980659,"connected_time":3872000000000,"state":"active","ping":63},{"user_id":227,"name":"nugalaa","steam_id":76561198074584362,"connected_time":773000000000,"state":"active","ping":52},{"user_id":228,"name":"Charlotte","steam_id":76561198194975870,"connected_time":738000000000,"state":"active","ping":66},{"user_id":201,"name":"Dam","steam_id":76561198146943059,"connected_time":2548000000000,"state":"active","ping":63},{"user_id":193,"name":"sleeperino","steam_id":76561198061504714,"connected_time":3270000000000,"state":"active","ping":57},{"user_id":220,"name":"trobin120","steam_id":76561199122420273,"connected_time":1025000000000,"state":"active","ping":47},{"user_id":218,"name":"liquid bread","steam_id":76561198012441419,"connected_time":1057000000000,"state":"active","ping":61},{"user_id":226,"name":"Dr. Underscore","steam_id":76561198097430579,"connected_time":831000000000,"state":"active","ping":45},{"user_id":229,"name":"corncakecoolcat","steam_id":76561198090716968,"connected_time":257000000000,"state":"active","ping":65},{"user_id":196,"name":"CrunchCisco","steam_id":76561199162724832,"connected_time":3092000000000,"state":"active","ping":84},{"user_id":223,"name":"Yzur","steam_id":76561198333847502,"connected_time":968000000000,"state":"active","ping":82},{"user_id":222,"name":"Evil little man","steam_id":76561198311053471,"connected_time":1004000000000,"state":"active","ping":89},{"user_id":224,"name":"ceres","steam_id":76561198291976960,"connected_time":966000000000,"state":"active","ping":153},{"user_id":217,"name":"pigfarmer.gov","steam_id":76561199071167548,"connected_time":1066000000000,"state":"active","ping":81},{"user_id":214,"name":"SLaPPy- oNaSiS","steam_id":76561198009286862,"connected_time":1563000000000,"state":"active","ping":81},{"user_id":231,"name":"Comfy!","steam_id":76561198008818346,"connected_time":48000000000,"state":"active","ping":45},{"user_id":225,"name":"Beep Boop Head","steam_id":76561198368008413,"connected_time":962000000000,"state":"active","ping":141}]},{"server_id":14,"name":"Uncletopia | New York City | 2 | All Maps","name_short":"nyc-2","host":"nyc-1.us.uncletopia.com","port":27025,"enabled":true,"region":"us-east","cc":"us","latitude":40.73061,"longitude":-73.93524,"reserved":0,"last_update":"0001-01-01T00:00:00Z","name_a2s":"Uncletopia | New York City | 2 | All Maps","protocol":17,"map":"pl_barnblitz","folder":"tf","game":"Team Fortress","app_id":440,"player_count":24,"max_players":24,"Bots":0,"server_type":"Dedicated","server_os":"Linux","password":true,"vac":true,"version":"7961495","steam_id":85568392924469994,"keywords":["nocrits","nodmgspread","payload","uncletopia"],"game_id":440,"stv_port":27026,"stv_name":"Uncletopia | New York City | 2 | All Maps | STV","players":[{"user_id":166,"name":"King of Ping","steam_id":76561198278737470,"connected_time":3669000000000,"state":"active","ping":52},{"user_id":192,"name":"Dr Ivo Robotnik","steam_id":76561198135948924,"connected_time":1816000000000,"state":"active","ping":79},{"user_id":204,"name":"chilis baby back ribs","steam_id":76561198813516435,"connected_time":593000000000,"state":"active","ping":104},{"user_id":155,"name":"gluechugger369","steam_id":76561198164037160,"connected_time":4300000000000,"state":"active","ping":77},{"user_id":203,"name":"banan team fortes","steam_id":76561199073621650,"connected_time":1069000000000,"state":"active","ping":116},{"user_id":205,"name":"creature","steam_id":76561198068257774,"connected_time":460000000000,"state":"active","ping":125},{"user_id":206,"name":"dillon","steam_id":76561198118054166,"connected_time":452000000000,"state":"active","ping":54},{"user_id":187,"name":"roman","steam_id":76561198170066797,"connected_time":2114000000000,"state":"active","ping":49},{"user_id":207,"name":"BuCookie","steam_id":76561198089890170,"connected_time":447000000000,"state":"active","ping":104},{"user_id":208,"name":"WaywardFinn","steam_id":76561198040391296,"connected_time":443000000000,"state":"active","ping":72},{"user_id":209,"name":"cakgamin","steam_id":76561199088909749,"connected_time":440000000000,"state":"active","ping":81},{"user_id":183,"name":"Discourse","steam_id":76561198984286678,"connected_time":2434000000000,"state":"active","ping":73},{"user_id":182,"name":"lexi","steam_id":76561198176299759,"connected_time":2590000000000,"state":"active","ping":89},{"user_id":218,"name":"!! NOT A FLYING TOY !!","steam_id":76561198069735882,"connected_time":168000000000,"state":"active","ping":83},{"user_id":164,"name":"Tri_Hunter","steam_id":76561198108176706,"connected_time":3879000000000,"state":"active","ping":54},{"user_id":211,"name":"Denzel McFlurry","steam_id":76561199231296521,"connected_time":394000000000,"state":"active","ping":63},{"user_id":201,"name":"Grand Wizard Autismo","steam_id":76561198069834979,"connected_time":1238000000000,"state":"active","ping":90},{"user_id":217,"name":"Soulidity","steam_id":76561198429603550,"connected_time":277000000000,"state":"active","ping":66},{"user_id":213,"name":"QWERTY","steam_id":76561198211430420,"connected_time":381000000000,"state":"active","ping":77},{"user_id":197,"name":"wise","steam_id":76561198030066204,"connected_time":1486000000000,"state":"active","ping":43},{"user_id":216,"name":"Ghost Lord","steam_id":76561198088956723,"connected_time":327000000000,"state":"active","ping":106},{"user_id":172,"name":"Queso2469","steam_id":76561197993024580,"connected_time":3480000000000,"state":"active","ping":49},{"user_id":199,"name":"Lorberry","steam_id":76561198023706058,"connected_time":1400000000000,"state":"active","ping":53},{"user_id":214,"name":"Wintery Solstices","steam_id":76561198251108612,"connected_time":380000000000,"state":"active","ping":65}]},{"server_id":15,"name":"Uncletopia | New York City | 3 | Stopwatch Beta","name_short":"nyc-3","host":"nyc-1.us.uncletopia.com","port":27035,"enabled":true,"region":"us-east","cc":"us","latitude":40.73061,"longitude":-73.93524,"reserved":0,"last_update":"0001-01-01T00:00:00Z","name_a2s":"Uncletopia | New York City | 3 | Stopwatch Beta","protocol":17,"map":"workshop/pl_badwater_pro_v12.ugc2142942074","folder":"tf","game":"Team Fortress","app_id":440,"player_count":0,"max_players":24,"Bots":0,"server_type":"Dedicated","server_os":"Linux","password":true,"vac":true,"version":"7961495","steam_id":85568392924742820,"keywords":["nocrits","nodmgspread","payload","uncletopia"],"game_id":440,"stv_port":27036,"stv_name":"Uncletopia | New York City | 3 | Stopwatch Beta | STV","players":null},{"server_id":16,"name":"Uncletopia | New York City | 4 | Community","name_short":"nyc-4","host":"nyc-1.us.uncletopia.com","port":27045,"enabled":true,"region":"us-east","cc":"us","latitude":40.73061,"longitude":-73.93524,"reserved":0,"last_update":"0001-01-01T00:00:00Z","name_a2s":"Uncletopia | New York City | 4 | Community","protocol":17,"map":"workshop/pl_highwood_b13.ugc1769496557","folder":"tf","game":"Team Fortress","app_id":440,"player_count":23,"max_players":24,"Bots":0,"server_type":"Dedicated","server_os":"Linux","password":true,"vac":true,"version":"7961495","steam_id":85568392924742821,"keywords":["nocrits","nodmgspread","payload","uncletopia"],"game_id":440,"stv_port":27046,"stv_name":"Uncletopia | New York City | 4 | Community | STV","players":[{"user_id":209,"name":"Real Azure #SaveTF2","steam_id":76561198095912284,"connected_time":1706000000000,"state":"active","ping":132},{"user_id":222,"name":"Ask Nicely For Heals","steam_id":76561198138478907,"connected_time":594000000000,"state":"active","ping":73},{"user_id":223,"name":"Juvice","steam_id":76561198843371502,"connected_time":535000000000,"state":"active","ping":42},{"user_id":210,"name":"NihonPenguin","steam_id":76561198064421504,"connected_time":1706000000000,"state":"active","ping":80},{"user_id":133,"name":"Broadway Rose","steam_id":76561198046083342,"connected_time":7768000000000,"state":"active","ping":41},{"user_id":224,"name":"mer5277","steam_id":76561198192171041,"connected_time":499000000000,"state":"active","ping":146},{"user_id":208,"name":"Bio_Optical","steam_id":76561199128084374,"connected_time":1964000000000,"state":"active","ping":88},{"user_id":213,"name":"Argo","steam_id":76561198353725622,"connected_time":1439000000000,"state":"active","ping":69},{"user_id":225,"name":"Saint Alfonso","steam_id":76561198076562158,"connected_time":433000000000,"state":"active","ping":84},{"user_id":221,"name":"dave","steam_id":76561198135961731,"connected_time":1177000000000,"state":"active","ping":92},{"user_id":201,"name":"Jray","steam_id":76561198831619367,"connected_time":2796000000000,"state":"active","ping":94},{"user_id":226,"name":"Jasper Zawn","steam_id":76561198077651204,"connected_time":431000000000,"state":"active","ping":65},{"user_id":229,"name":"Duncan Idaho","steam_id":76561197988963861,"connected_time":241000000000,"state":"active","ping":61},{"user_id":212,"name":"BigOrca54","steam_id":76561198181360271,"connected_time":1546000000000,"state":"active","ping":78},{"user_id":217,"name":"carrion goat","steam_id":76561198262064871,"connected_time":1340000000000,"state":"active","ping":42},{"user_id":215,"name":"Not Ghostie","steam_id":76561198068686762,"connected_time":1404000000000,"state":"active","ping":50},{"user_id":230,"name":"Ze Atomsk","steam_id":76561198103527910,"connected_time":204000000000,"state":"active","ping":77},{"user_id":231,"name":"Quill","steam_id":76561198843773162,"connected_time":204000000000,"state":"active","ping":72},{"user_id":220,"name":"ukraine is committing war crime","steam_id":76561198061450151,"connected_time":1211000000000,"state":"active","ping":86},{"user_id":155,"name":"Horrizan","steam_id":76561197965028480,"connected_time":6522000000000,"state":"active","ping":92},{"user_id":232,"name":"nymph","steam_id":76561199249569889,"connected_time":203000000000,"state":"active","ping":144},{"user_id":200,"name":"RuinLucky","steam_id":76561199481172481,"connected_time":2980000000000,"state":"active","ping":91},{"user_id":206,"name":"peee pee man","steam_id":76561198044979205,"connected_time":2240000000000,"state":"active","ping":56}]},{"server_id":142,"name":"Uncletopia | S√£o Paulo | 1 | All Maps","name_short":"sao-1","host":"sao-1.br.uncletopia.com","port":27015,"enabled":true,"region":"sa","cc":"br","latitude":-23.533773,"longitude":-46.62529,"reserved":0,"last_update":"0001-01-01T00:00:00Z","name_a2s":"Uncletopia | S√£o Paulo | 1 | All Maps","protocol":17,"map":"cp_process_final","folder":"tf","game":"Team Fortress","app_id":440,"player_count":0,"max_players":24,"Bots":0,"server_type":"Dedicated","server_os":"Linux","password":true,"vac":true,"version":"7961495","steam_id":85568392924469996,"keywords":["cp","nocrits","nodmgspread","uncletopia"],"game_id":440,"stv_port":27016,"stv_name":"Uncletopia | S√£o Paulo | 1 | All Maps | STV","players":null},{"server_id":143,"name":"Uncletopia | S√£o Paulo | 2 | All Maps","name_short":"sao-2","host":"sao-2.br.uncletopia.com","port":27015,"enabled":true,"region":"sa","cc":"br","latitude":-23.533773,"longitude":-46.62529,"reserved":0,"last_update":"0001-01-01T00:00:00Z","name_a2s":"Uncletopia | S√£o Paulo | 2 | All Maps","protocol":17,"map":"pl_badwater","folder":"tf","game":"Team Fortress","app_id":440,"player_count":2,"max_players":24,"Bots":0,"server_type":"Dedicated","server_os":"Linux","password":true,"vac":true,"version":"7961495","steam_id":85568392924485349,"keywords":["nocrits","nodmgspread","payload","uncletopia"],"game_id":440,"stv_port":27016,"stv_name":"Uncletopia | S√£o Paulo | 2 | All Maps | STV","players":[{"user_id":7,"name":"Un petardo","steam_id":76561199331900381,"connected_time":3285000000000,"state":"active","ping":97},{"user_id":9,"name":"Silver","steam_id":76561199235618933,"connected_time":1659000000000,"state":"active","ping":97}]},{"server_id":7,"name":"Uncletopia | Seattle | 1 | All Maps","name_short":"sea-1","host":"sea-1.us.uncletopia.com","port":27015,"enabled":true,"region":"us-west","cc":"us","latitude":47.608013,"longitude":-122.33517,"reserved":0,"last_update":"0001-01-01T00:00:00Z","name_a2s":"Uncletopia | Seattle | 1 | All Maps","protocol":17,"map":"pl_pier","folder":"tf","game":"Team Fortress","app_id":440,"player_count":24,"max_players":24,"Bots":0,"server_type":"Dedicated","server_os":"Linux","password":true,"vac":true,"version":"7961495","steam_id":85568392924469997,"keywords":["nocrits","nodmgspread","payload","uncletopia"],"game_id":440,"stv_port":27016,"stv_name":"Uncletopia | Seattle | 1 | All Maps | STV","players":[{"user_id":174,"name":"CashGordon","steam_id":76561197975594096,"connected_time":3409000000000,"state":"active","ping":38},{"user_id":188,"name":"Epifiny","steam_id":76561198027958086,"connected_time":2101000000000,"state":"active","ping":120},{"user_id":180,"name":"crumbles","steam_id":76561198168707036,"connected_time":3328000000000,"state":"active","ping":93},{"user_id":164,"name":"[ibb‚Ñ¢]Shadow20X6-ENGI","steam_id":76561198019292755,"connected_time":5074000000000,"state":"active","ping":87},{"user_id":177,"name":"Ayayayayayahuasca","steam_id":76561199002906056,"connected_time":3405000000000,"state":"active","ping":62},{"user_id":192,"name":"Owl Of Delos","steam_id":76561198437116566,"connected_time":1474000000000,"state":"active","ping":63},{"user_id":175,"name":"DudeBro42","steam_id":76561198021838197,"connected_time":3409000000000,"state":"active","ping":60},{"user_id":170,"name":"L√© Mon","steam_id":76561198078626283,"connected_time":4350000000000,"state":"active","ping":121},{"user_id":189,"name":"Crake","steam_id":76561198001959071,"connected_time":1979000000000,"state":"active","ping":57},{"user_id":185,"name":"firestabber","steam_id":76561198057055577,"connected_time":2368000000000,"state":"active","ping":47},{"user_id":89,"name":"NeptuneÀñ‚Å∫ÔΩ°Àö‚ãÜÀô‚ô•","steam_id":76561199054203198,"connected_time":11408000000000,"state":"active","ping":144},{"user_id":193,"name":"Themasterman75","steam_id":76561199385573293,"connected_time":1462000000000,"state":"active","ping":74},{"user_id":190,"name":"bbbbb","steam_id":76561198095480838,"connected_time":1721000000000,"state":"active","ping":46},{"user_id":184,"name":"Justy","steam_id":76561198044014069,"connected_time":2968000000000,"state":"active","ping":76},{"user_id":176,"name":"evilOlive","steam_id":76561198106222025,"connected_time":3407000000000,"state":"active","ping":83},{"user_id":197,"name":"Queen Elizabeth II Gaming","steam_id":76561198193312834,"connected_time":777000000000,"state":"active","ping":73},{"user_id":169,"name":"bendera","steam_id":76561197965486503,"connected_time":4444000000000,"state":"active","ping":130},{"user_id":195,"name":"RainboomCrash","steam_id":76561198065612273,"connected_time":1040000000000,"state":"active","ping":53},{"user_id":200,"name":"resting neutral face","steam_id":76561197999259502,"connected_time":204000000000,"state":"active","ping":71},{"user_id":191,"name":"comfycaffeine","steam_id":76561198058690096,"connected_time":1508000000000,"state":"active","ping":47},{"user_id":194,"name":"QBR","steam_id":76561198088024854,"connected_time":1265000000000,"state":"active","ping":105},{"user_id":111,"name":"Pukei-Pukei","steam_id":76561197992722546,"connected_time":9147000000000,"state":"active","ping":85},{"user_id":159,"name":"BolognaWithOlives","steam_id":76561198101262668,"connected_time":5246000000000,"state":"active","ping":84},{"user_id":182,"name":"Eepy Puppygirl","steam_id":76561198085813708,"connected_time":3265000000000,"state":"active","ping":118}]},{"server_id":119,"name":"Uncletopia | Seattle | 2 | All Maps","name_short":"sea-2","host":"sea-1.us.uncletopia.com","port":27025,"enabled":true,"region":"us-west","cc":"us","latitude":47.608013,"longitude":-122.33517,"reserved":0,"last_update":"0001-01-01T00:00:00Z","name_a2s":"Uncletopia | Seattle | 2 | All Maps","protocol":17,"map":"cp_steel","folder":"tf","game":"Team Fortress","app_id":440,"player_count":24,"max_players":24,"Bots":0,"server_type":"Dedicated","server_os":"Linux","password":true,"vac":true,"version":"7961495","steam_id":85568392924469998,"keywords":["cp","nocrits","nodmgspread","uncletopia"],"game_id":440,"stv_port":27026,"stv_name":"Uncletopia | Seattle | 2 | All Maps | STV","players":[{"user_id":200,"name":"Joe Biden","steam_id":76561198238699798,"connected_time":220000000000,"state":"active","ping":79},{"user_id":206,"name":"maiesiophile","steam_id":76561198889501613,"connected_time":142000000000,"state":"active","ping":40},{"user_id":153,"name":"Wiggee","steam_id":76561197972792989,"connected_time":3922000000000,"state":"active","ping":92},{"user_id":99,"name":"Count Chompula Fan","steam_id":76561198370183096,"connected_time":7471000000000,"state":"active","ping":57},{"user_id":202,"name":"WaffleWithNoToppings","steam_id":76561199088280111,"connected_time":205000000000,"state":"active","ping":45},{"user_id":176,"name":"blueboy23","steam_id":76561199121889873,"connected_time":2031000000000,"state":"active","ping":45},{"user_id":198,"name":"Forty","steam_id":76561198257410181,"connected_time":237000000000,"state":"active","ping":59},{"user_id":203,"name":"Lentil Soup","steam_id":76561198051834684,"connected_time":204000000000,"state":"active","ping":73},{"user_id":167,"name":"Leon Skennedy","steam_id":76561198053582170,"connected_time":2440000000000,"state":"active","ping":78},{"user_id":195,"name":"amorcito corazon","steam_id":76561198860460013,"connected_time":631000000000,"state":"active","ping":79},{"user_id":196,"name":"swift","steam_id":76561198190461447,"connected_time":491000000000,"state":"active","ping":90},{"user_id":190,"name":"frick off law enforcement","steam_id":76561198255022731,"connected_time":967000000000,"state":"active","ping":73},{"user_id":125,"name":"spurious george","steam_id":76561198043558709,"connected_time":6066000000000,"state":"active","ping":46},{"user_id":158,"name":"what da dog doin","steam_id":76561198090573639,"connected_time":3870000000000,"state":"active","ping":71},{"user_id":192,"name":"2Fort Cactus","steam_id":76561199273395913,"connected_time":714000000000,"state":"active","ping":49},{"user_id":185,"name":"Tideflat","steam_id":76561198179850851,"connected_time":1450000000000,"state":"active","ping":57},{"user_id":191,"name":"Spare(8)Ball","steam_id":76561197982432995,"connected_time":933000000000,"state":"active","ping":105},{"user_id":193,"name":"ArchmageF","steam_id":76561197992246851,"connected_time":660000000000,"state":"active","ping":55},{"user_id":197,"name":"BlazedBunny","steam_id":76561198243610560,"connected_time":418000000000,"state":"active","ping":71},{"user_id":194,"name":"Inferior_Elmo","steam_id":76561199001464241,"connected_time":647000000000,"state":"active","ping":105},{"user_id":204,"name":"AXZIOM","steam_id":76561198255074952,"connected_time":202000000000,"state":"active","ping":42},{"user_id":98,"name":"Krill Issue","steam_id":76561198158964531,"connected_time":7576000000000,"state":"active","ping":64},{"user_id":205,"name":"McLOVIN","steam_id":76561197968524675,"connected_time":191000000000,"state":"active","ping":45},{"user_id":186,"name":"Andalite Warrior","steam_id":76561198057999536,"connected_time":1385000000000,"state":"active","ping":33}]},{"server_id":406,"name":"Uncletopia | Seattle | 3 | Stopwatch Beta","name_short":"sea-3","host":"sea-1.us.uncletopia.com","port":27035,"enabled":true,"region":"us-west","cc":"us","latitude":47.608013,"longitude":-122.33517,"reserved":0,"last_update":"0001-01-01T00:00:00Z","name_a2s":"Uncletopia | Seattle | 3 | Stopwatch Beta","protocol":17,"map":"pl_swiftwater_final1","folder":"tf","game":"Team Fortress","app_id":440,"player_count":0,"max_players":24,"Bots":0,"server_type":"Dedicated","server_os":"Linux","password":true,"vac":true,"version":"7961495","steam_id":85568392924515217,"keywords":["nocrits","nodmgspread","payload","uncletopia"],"game_id":440,"stv_port":27036,"stv_name":"Uncletopia | Seattle | 3 | Stopwatch Beta | STV","players":null},{"server_id":17,"name":"Uncletopia | San Francisco | 1 | All Maps","name_short":"sfo-1","host":"sfo-1.us.uncletopia.com","port":27015,"enabled":true,"region":"us-west","cc":"us","latitude":37.77397,"longitude":-122.4313,"reserved":0,"last_update":"0001-01-01T00:00:00Z","name_a2s":"Uncletopia | San Francisco | 1 | All Maps","protocol":17,"map":"pl_frontier_final","folder":"tf","game":"Team Fortress","app_id":440,"player_count":0,"max_players":24,"Bots":0,"server_type":"Dedicated","server_os":"Linux","password":true,"vac":true,"version":"7932396","steam_id":85568392924469999,"keywords":["nocrits","nodmgspread","payload","uncletopia"],"game_id":440,"stv_port":27016,"stv_name":"Uncletopia | San Francisco | 1 | All Maps | STV","players":null},{"server_id":18,"name":"Uncletopia | San Francisco | 2 | All Maps","name_short":"sfo-2","host":"sfo-1.us.uncletopia.com","port":27025,"enabled":true,"region":"us-west","cc":"us","latitude":37.77397,"longitude":-122.4313,"reserved":0,"last_update":"0001-01-01T00:00:00Z","name_a2s":"Uncletopia | San Francisco | 2 | All Maps","protocol":17,"map":"cp_snakewater_final1","folder":"tf","game":"Team Fortress","app_id":440,"player_count":0,"max_players":24,"Bots":0,"server_type":"Dedicated","server_os":"Linux","password":true,"vac":true,"version":"7932396","steam_id":85568392924470000,"keywords":["cp","nocrits","nodmgspread","uncletopia"],"game_id":440,"stv_port":27026,"stv_name":"Uncletopia | San Francisco | 2 | All Maps | STV","players":null},{"server_id":19,"name":"Uncletopia | San Francisco | 3 | Stopwatch Beta","name_short":"sfo-3","host":"sfo-1.us.uncletopia.com","port":27035,"enabled":true,"region":"us-west","cc":"us","latitude":37.77397,"longitude":-122.4313,"reserved":0,"last_update":"0001-01-01T00:00:00Z","name_a2s":"Uncletopia | San Francisco | 3 | Stopwatch Beta","protocol":17,"map":"koth_lakeside_final","folder":"tf","game":"Team Fortress","app_id":440,"player_count":0,"max_players":24,"Bots":0,"server_type":"Dedicated","server_os":"Linux","password":true,"vac":true,"version":"7932396","steam_id":85568392924742824,"keywords":["cp","nocrits","nodmgspread","uncletopia"],"game_id":440,"stv_port":27036,"stv_name":"Uncletopia | San Francisco | 3 | Stopwatch Beta | STV","players":null},{"server_id":20,"name":"Uncletopia | San Francisco | 4 | Community","name_short":"sfo-4","host":"sfo-1.us.uncletopia.com","port":27045,"enabled":true,"region":"us-west","cc":"us","latitude":37.77397,"longitude":-122.4313,"reserved":0,"last_update":"0001-01-01T00:00:00Z","name_a2s":"Uncletopia | San Francisco | 4 | Community","protocol":17,"map":"pl_borneo","folder":"tf","game":"Team Fortress","app_id":440,"player_count":0,"max_players":24,"Bots":0,"server_type":"Dedicated","server_os":"Linux","password":true,"vac":true,"version":"7932396","steam_id":85568392924742826,"keywords":["nocrits","nodmgspread","payload","uncletopia"],"game_id":440,"stv_port":27046,"stv_name":"Uncletopia | San Francisco | 4 | Community | STV","players":null},{"server_id":141,"name":"Uncletopia | Sydney | 1 | All Maps","name_short":"syd-1","host":"syd-1.au.uncletopia.com","port":27015,"enabled":true,"region":"au","cc":"au","latitude":-33.865143,"longitude":151.2099,"reserved":0,"last_update":"0001-01-01T00:00:00Z","name_a2s":"Uncletopia | Sydney | 1 | All Maps","protocol":17,"map":"koth_highpass","folder":"tf","game":"Team Fortress","app_id":440,"player_count":0,"max_players":24,"Bots":0,"server_type":"Dedicated","server_os":"Linux","password":true,"vac":true,"version":"7961495","steam_id":85568392924470001,"keywords":["cp","nocrits","nodmgspread","uncletopia"],"game_id":440,"stv_port":27016,"stv_name":"Uncletopia | Sydney | 1 | All Maps | STV","players":null},{"server_id":123,"name":"Uncletopia | Sydney | 2 | All Maps","name_short":"syd-2","host":"syd-1.au.uncletopia.com","port":27025,"enabled":true,"region":"au","cc":"au","latitude":-33.865143,"longitude":151.2099,"reserved":0,"last_update":"0001-01-01T00:00:00Z","name_a2s":"Uncletopia | Sydney | 2 | All Maps","protocol":17,"map":"koth_viaduct","folder":"tf","game":"Team Fortress","app_id":440,"player_count":0,"max_players":24,"Bots":0,"server_type":"Dedicated","server_os":"Linux","password":true,"vac":true,"version":"7961495","steam_id":85568392924470002,"keywords":["cp","nocrits","nodmgspread","uncletopia"],"game_id":440,"stv_port":27026,"stv_name":"Uncletopia | Sydney | 2 | All Maps | STV","players":null},{"server_id":395,"name":"Uncletopia | Sydney | 3 | All Maps","name_short":"syd-3","host":"syd-1.au.uncletopia.com","port":27035,"enabled":true,"region":"au","cc":"au","latitude":-33.865143,"longitude":151.2099,"reserved":0,"last_update":"0001-01-01T00:00:00Z","name_a2s":"Uncletopia | Sydney | 3 | All Maps","protocol":17,"map":"cp_dustbowl","folder":"tf","game":"Team Fortress","app_id":440,"player_count":0,"max_players":24,"Bots":0,"server_type":"Dedicated","server_os":"Linux","password":true,"vac":true,"version":"7961495","steam_id":85568392925194467,"keywords":["cp","nocrits","nodmgspread","uncletopia"],"game_id":440,"stv_port":27036,"stv_name":"Uncletopia | Sydney | 3 | All Maps | STV","players":null},{"server_id":396,"name":"Uncletopia | Sydney | 4 | All Maps","name_short":"syd-4","host":"syd-1.au.uncletopia.com","port":27045,"enabled":true,"region":"au","cc":"au","latitude":-33.865143,"longitude":151.2099,"reserved":0,"last_update":"0001-01-01T00:00:00Z","name_a2s":"Uncletopia | Sydney | 4 | All Maps","protocol":17,"map":"koth_cascade","folder":"tf","game":"Team Fortress","app_id":440,"player_count":0,"max_players":24,"Bots":0,"server_type":"Dedicated","server_os":"Linux","password":true,"vac":true,"version":"7961495","steam_id":85568392925397958,"keywords":["cp","nocrits","nodmgspread","uncletopia"],"game_id":440,"stv_port":27046,"stv_name":"Uncletopia | Sydney | 4 | All Maps | STV","players":null},{"server_id":58,"name":"Uncletopia | Sydney | 5 | Stopwatch Beta","name_short":"syd-5","host":"syd-1.au.uncletopia.com","port":27055,"enabled":true,"region":"au","cc":"au","latitude":-33.865143,"longitude":151.2099,"reserved":0,"last_update":"0001-01-01T00:00:00Z","name_a2s":"Uncletopia | Sydney | 5 | Stopwatch Beta","protocol":17,"map":"koth_viaduct","folder":"tf","game":"Team Fortress","app_id":440,"player_count":0,"max_players":24,"Bots":0,"server_type":"Dedicated","server_os":"Linux","password":true,"vac":true,"version":"7961495","steam_id":85568392925397959,"keywords":["cp","nocrits","nodmgspread","uncletopia"],"game_id":440,"stv_port":27056,"stv_name":"Uncletopia | Sydney | 5 | Stopwatch Beta | STV","players":null},{"server_id":59,"name":"Uncletopia | Sydney | 6 | Community","name_short":"syd-6","host":"syd-1.au.uncletopia.com","port":27065,"enabled":true,"region":"au","cc":"au","latitude":-33.865143,"longitude":151.2099,"reserved":0,"last_update":"0001-01-01T00:00:00Z","name_a2s":"Uncletopia | Sydney | 6 | Community","protocol":17,"map":"pl_barnblitz","folder":"tf","game":"Team Fortress","app_id":440,"player_count":0,"max_players":24,"Bots":0,"server_type":"Dedicated","server_os":"Linux","password":true,"vac":true,"version":"7961495","steam_id":85568392925397960,"keywords":["nocrits","nodmgspread","payload","uncletopia"],"game_id":440,"stv_port":27066,"stv_name":"Uncletopia | Sydney | 6 | Community | STV","players":null},{"server_id":49,"name":"Uncletopia | Warsaw | 1 | All Maps","name_short":"waw-1","host":"waw-1.pl.uncletopia.com","port":27015,"enabled":true,"region":"eu","cc":"pl","latitude":52.2297,"longitude":21.017532,"reserved":0,"last_update":"0001-01-01T00:00:00Z","name_a2s":"","protocol":0,"map":"","folder":"","game":"","app_id":0,"player_count":0,"max_players":0,"Bots":0,"server_type":"","server_os":"","password":false,"vac":false,"version":"","steam_id":0,"keywords":null,"game_id":0,"stv_port":0,"stv_name":"","players":null},{"server_id":50,"name":"Uncletopia | Warsaw | 2 | All Maps","name_short":"waw-2","host":"waw-1.pl.uncletopia.com","port":27025,"enabled":true,"region":"eu","cc":"pl","latitude":52.2297,"longitude":21.017532,"reserved":0,"last_update":"0001-01-01T00:00:00Z","name_a2s":"Uncletopia | Warsaw | 2 | All Maps","protocol":17,"map":"cp_mountainlab","folder":"tf","game":"Team Fortress","app_id":440,"player_count":0,"max_players":24,"Bots":0,"server_type":"Dedicated","server_os":"Linux","password":true,"vac":true,"version":"7961495","steam_id":85568392925397851,"keywords":["cp","nocrits","nodmgspread","uncletopia"],"game_id":440,"stv_port":27026,"stv_name":"Uncletopia | Warsaw | 2 | All Maps | STV","players":null},{"server_id":51,"name":"Uncletopia | Warsaw | 3 | All Maps","name_short":"waw-3","host":"waw-1.pl.uncletopia.com","port":27035,"enabled":true,"region":"eu","cc":"pl","latitude":52.2297,"longitude":21.017532,"reserved":0,"last_update":"0001-01-01T00:00:00Z","name_a2s":"Uncletopia | Warsaw | 3 | All Maps","protocol":17,"map":"pl_barnblitz","folder":"tf","game":"Team Fortress","app_id":440,"player_count":0,"max_players":24,"Bots":0,"server_type":"Dedicated","server_os":"Linux","password":true,"vac":true,"version":"7961495","steam_id":85568392925397852,"keywords":["nocrits","nodmgspread","payload","uncletopia"],"game_id":440,"stv_port":27036,"stv_name":"Uncletopia | Warsaw | 3 | All Maps | STV","players":null},{"server_id":52,"name":"Uncletopia | Warsaw | 4 | All Maps","name_short":"waw-4","host":"waw-1.pl.uncletopia.com","port":27045,"enabled":true,"region":"eu","cc":"pl","latitude":52.2297,"longitude":21.017532,"reserved":0,"last_update":"0001-01-01T00:00:00Z","name_a2s":"Uncletopia | Warsaw | 4 | All Maps","protocol":17,"map":"pl_swiftwater_final1","folder":"tf","game":"Team Fortress","app_id":440,"player_count":0,"max_players":24,"Bots":0,"server_type":"Dedicated","server_os":"Linux","password":true,"vac":true,"version":"7961495","steam_id":85568392925397853,"keywords":["nocrits","nodmgspread","payload","uncletopia"],"game_id":440,"stv_port":27046,"stv_name":"Uncletopia | Warsaw | 4 | All Maps | STV","players":null},{"server_id":53,"name":"Uncletopia | Warsaw | 5 | Stopwatch Beta","name_short":"waw-5","host":"waw-1.pl.uncletopia.com","port":27055,"enabled":true,"region":"eu","cc":"pl","latitude":52.2297,"longitude":21.017532,"reserved":0,"last_update":"0001-01-01T00:00:00Z","name_a2s":"Uncletopia | Warsaw | 5 | Stopwatch Beta","protocol":17,"map":"pl_snowycoast","folder":"tf","game":"Team Fortress","app_id":440,"player_count":0,"max_players":24,"Bots":0,"server_type":"Dedicated","server_os":"Linux","password":true,"vac":true,"version":"7961495","steam_id":85568392925397854,"keywords":["nocrits","nodmgspread","payload","uncletopia"],"game_id":440,"stv_port":27056,"stv_name":"Uncletopia | Warsaw | 5 | Stopwatch Beta | STV","players":null},{"server_id":54,"name":"Uncletopia | Warsaw | 6 | Community","name_short":"waw-6","host":"waw-1.pl.uncletopia.com","port":27065,"enabled":true,"region":"eu","cc":"pl","latitude":52.2297,"longitude":21.017532,"reserved":0,"last_update":"0001-01-01T00:00:00Z","name_a2s":"Uncletopia | Warsaw | 6 | Community","protocol":17,"map":"pl_borneo","folder":"tf","game":"Team Fortress","app_id":440,"player_count":0,"max_players":24,"Bots":0,"server_type":"Dedicated","server_os":"Linux","password":true,"vac":true,"version":"7961495","steam_id":85568392925397856,"keywords":["nocrits","nodmgspread","payload","uncletopia"],"game_id":440,"stv_port":27066,"stv_name":"Uncletopia | Warsaw | 6 | Community | STV","players":null}]}