{"status":true,"message":"","result":[{"server_id":9,"name":"Uncletopia | Atlanta | 1 | All Maps","name_short":"atl-1","host":"atl-1.us.uncletopia.com","port":27015,"enabled":true,"region":"us-east","cc":"us","latitude":33.753746,"longitude":-84.38633,"reserved":0,"last_update":"0001-01-01T00:00:00Z","name_a2s":"Uncletopia | Atlanta | 1 | All Maps","protocol":17,"map":"pl_frontier_final","folder":"tf","game":"Team Fortress","app_id":440,"player_count":2,"max_players":24,"Bots":0,"server_type":"Dedicated","server_os":"Linux","password":true,"vac":true,"version":"7757534","steam_id":85568392924469982,"keywords":["nocrits","nodmgspread","payload","uncletopia"],"game_id":440,"stv_port":27016,"stv_name":"Uncletopia | Atlanta | 1 | All Maps | STV","players":[{"user_id":401,"name":"jake1west","steam_id":76561199468452444,"connected_time":1230000000000,"state":"active","ping":121},{"user_id":402,"name":"jerrypv2009","steam_id":76561199470009516,"connected_time":1218000000000,"state":"active","ping":178}]},{"server_id":400,"name":"Uncletopia | Atlanta | 3 | Community","name_short":"atl-3","host":"atl-1.us.uncletopia.com","port":27035,"enabled":true,"region":"us-east","cc":"us","latitude":33.753746,"longitude":-84.38633,"reserved":0,"last_update":"0001-01-01T00:00:00Z","name_a2s":"Uncletopia | Atlanta | 3 | Community","protocol":17,"map":"workshop/pl_highwood_b13.ugc1769496557","folder":"tf","game":"Team Fortress","app_id":440,"player_count":0,"max_players":24,"Bots":0,"server_type":"Dedicated","server_os":"Linux","password":true,"vac":true,"version":"7757534","steam_id":85568392924515187,"keywords":["nocrits","nodmgspread","payload","uncletopia"],"game_id":440,"stv_port":27036,"stv_name":"Uncletopia | Atlanta | 3 | Community | STV","players":null},{"server_id":401,"name":"Uncletopia | Atlanta | 4 | No Payload","name_short":"atl-4","host":"atl-1.us.uncletopia.com","port":27045,"enabled":true,"region":"us-east","cc":"us","latitude":33.753746,"longitude":-84.38633,"reserved":0,"last_update":"0001-01-01T00:00:00Z","name_a2s":"Uncletopia | Atlanta | 4 | No Payload","protocol":17,"map":"pl_pier","folder":"tf","game":"Team Fortress","app_id":440,"player_count":0,"max_players":24,"Bots":0,"server_type":"Dedicated","server_os":"Linux","password":true,"vac":true,"version":"7723704","steam_id":85568392924515188,"keywords":["nocrits","nodmgspread","payload","uncletopia"],"game_id":440,"stv_port":27046,"stv_name":"Uncletopia | Atlanta | 4 | No Payload | STV","players":null},{"server_id":2,"name":"Uncletopia | Chicago | 1 | All Maps","name_short":"chi-1","host":"chi-1.us.uncletopia.com","port":27015,"enabled":true,"region":"us-central","cc":"us","latitude":41.881832,"longitude":-87.62318,"reserved":0,"last_update":"0001-01-01T00:00:00Z","name_a2s":"Uncletopia | Chicago | 1 | All Maps","protocol":17,"map":"pl_snowycoast","folder":"tf","game":"Team Fortress","app_id":440,"player_count":18,"max_players":24,"Bots":0,"server_type":"Dedicated","server_os":"Linux","password":true,"vac":true,"version":"7757534","steam_id":85568392924469984,"keywords":["nocrits","nodmgspread","payload","uncletopia"],"game_id":440,"stv_port":27016,"stv_name":"Uncletopia | Chicago | 1 | All Maps | STV","players":[{"user_id":413,"name":"loco503","steam_id":76561198827495121,"connected_time":5123000000000,"state":"active","ping":103},{"user_id":468,"name":"Marceline the Vampire Queen","steam_id":76561198322969864,"connected_time":730000000000,"state":"active","ping":77},{"user_id":426,"name":"Yukon Cornelius","steam_id":76561198261512781,"connected_time":4343000000000,"state":"active","ping":66},{"user_id":472,"name":"Unravel","steam_id":76561198822808403,"connected_time":497000000000,"state":"active","ping":84},{"user_id":473,"name":"loyaldandan0764","steam_id":76561199231020424,"connected_time":426000000000,"state":"active","ping":171},{"user_id":470,"name":"Unregistered Hypercam 2","steam_id":76561198046895822,"connected_time":546000000000,"state":"active","ping":74},{"user_id":471,"name":"Lunchables Tier List","steam_id":76561199059257565,"connected_time":516000000000,"state":"active","ping":101},{"user_id":467,"name":"rontu","steam_id":76561199072955534,"connected_time":1079000000000,"state":"active","ping":47},{"user_id":483,"name":"yema","steam_id":76561198095638530,"connected_time":9000000000,"state":"spawning","ping":93},{"user_id":481,"name":"Godfinger","steam_id":76561198426346549,"connected_time":163000000000,"state":"active","ping":53},{"user_id":436,"name":"SpinnerSpecial","steam_id":76561198065661869,"connected_time":3767000000000,"state":"active","ping":105},{"user_id":448,"name":"Gnilkaew","steam_id":76561198202093367,"connected_time":3242000000000,"state":"active","ping":85},{"user_id":441,"name":"HammerHead","steam_id":76561197975668646,"connected_time":3676000000000,"state":"active","ping":77},{"user_id":477,"name":"CCC","steam_id":76561199051064354,"connected_time":317000000000,"state":"active","ping":104},{"user_id":428,"name":"Zero","steam_id":76561199383267408,"connected_time":4260000000000,"state":"active","ping":75},{"user_id":480,"name":"Big Cock Brock","steam_id":76561198093244204,"connected_time":223000000000,"state":"active","ping":73},{"user_id":432,"name":"germba","steam_id":76561198421591995,"connected_time":4090000000000,"state":"active","ping":74},{"user_id":462,"name":"The_Pacific_gamer","steam_id":76561198089491446,"connected_time":1948000000000,"state":"active","ping":94}]},{"server_id":106,"name":"Uncletopia | Chicago | 2 | All Maps","name_short":"chi-2","host":"chi-1.us.uncletopia.com","port":27025,"enabled":true,"region":"us-central","cc":"us","latitude":41.881832,"longitude":-87.62318,"reserved":0,"last_update":"0001-01-01T00:00:00Z","name_a2s":"Uncletopia | Chicago | 2 | All Maps","protocol":17,"map":"pl_barnblitz","folder":"tf","game":"Team Fortress","app_id":440,"player_count":24,"max_players":24,"Bots":0,"server_type":"Dedicated","server_os":"Linux","password":true,"vac":true,"version":"7757534","steam_id":85568392924469985,"keywords":["nocrits","nodmgspread","payload","uncletopia"],"game_id":440,"stv_port":27026,"stv_name":"Uncletopia | Chicago | 2 | All Maps | STV","players":[{"user_id":508,"name":"fashion habits","steam_id":76561198030625151,"connected_time":1036000000000,"state":"active","ping":97},{"user_id":487,"name":"Salad","steam_id":76561198842089895,"connected_time":2069000000000,"state":"active","ping":64},{"user_id":480,"name":"Lucy","steam_id":76561198032590343,"connected_time":3518000000000,"state":"active","ping":89},{"user_id":504,"name":"Ojen","steam_id":76561197998414482,"connected_time":1311000000000,"state":"active","ping":72},{"user_id":515,"name":"kite","steam_id":76561198346516392,"connected_time":751000000000,"state":"active","ping":62},{"user_id":492,"name":"pandora da king","steam_id":76561198075490385,"connected_time":1841000000000,"state":"active","ping":106},{"user_id":509,"name":"OddSlaush","steam_id":76561198043898488,"connected_time":1029000000000,"state":"active","ping":91},{"user_id":408,"name":"HTA","steam_id":76561198043879140,"connected_time":8157000000000,"state":"active","ping":37},{"user_id":510,"name":"Arkut","steam_id":76561198036998075,"connected_time":979000000000,"state":"active","ping":87},{"user_id":491,"name":"Hindmost","steam_id":76561199081837220,"connected_time":1856000000000,"state":"active","ping":76},{"user_id":511,"name":"Shaunhan","steam_id":76561198386596938,"connected_time":976000000000,"state":"active","ping":58},{"user_id":493,"name":"Kol","steam_id":76561199151398882,"connected_time":1831000000000,"state":"active","ping":93},{"user_id":516,"name":"number 4","steam_id":76561198066867150,"connected_time":597000000000,"state":"active","ping":71},{"user_id":458,"name":"Baby gaming","steam_id":76561198867319323,"connected_time":4685000000000,"state":"active","ping":64},{"user_id":505,"name":"Banzai","steam_id":76561198006518981,"connected_time":1244000000000,"state":"active","ping":122},{"user_id":452,"name":"Nagol","steam_id":76561198125274726,"connected_time":4890000000000,"state":"active","ping":88},{"user_id":472,"name":"M.L.JEW","steam_id":76561198997375055,"connected_time":3813000000000,"state":"active","ping":76},{"user_id":512,"name":"Jack from Jack in The Box","steam_id":76561199083594971,"connected_time":935000000000,"state":"active","ping":90},{"user_id":498,"name":"XxAWPxX","steam_id":76561198007305525,"connected_time":1728000000000,"state":"active","ping":89},{"user_id":404,"name":"Sirius","steam_id":76561198031295225,"connected_time":8425000000000,"state":"active","ping":43},{"user_id":499,"name":"Gryphon","steam_id":76561198021269203,"connected_time":1718000000000,"state":"active","ping":69},{"user_id":513,"name":"senorpapel","steam_id":76561198040507073,"connected_time":921000000000,"state":"active","ping":70},{"user_id":483,"name":"lamadre07","steam_id":76561198067337453,"connected_time":3159000000000,"state":"active","ping":100},{"user_id":388,"name":"The Engie","steam_id":76561198049418537,"connected_time":8846000000000,"state":"active","ping":80}]},{"server_id":402,"name":"Uncletopia | Chicago | 3 | All Maps","name_short":"chi-3","host":"chi-1.us.uncletopia.com","port":27035,"enabled":true,"region":"us-central","cc":"us","latitude":41.881832,"longitude":-87.62318,"reserved":0,"last_update":"0001-01-01T00:00:00Z","name_a2s":"Uncletopia | Chicago | 3 | All Maps","protocol":17,"map":"cp_dustbowl","folder":"tf","game":"Team Fortress","app_id":440,"player_count":24,"max_players":24,"Bots":0,"server_type":"Dedicated","server_os":"Linux","password":true,"vac":true,"version":"7757534","steam_id":85568392924515191,"keywords":["cp","nocrits","nodmgspread","uncletopia"],"game_id":440,"stv_port":27036,"stv_name":"Uncletopia | Chicago | 3 | All Maps | STV","players":[{"user_id":405,"name":"Nobody","steam_id":76561198286486517,"connected_time":4527000000000,"state":"active","ping":60},{"user_id":431,"name":"YungChefMingus","steam_id":76561198087122048,"connected_time":2209000000000,"state":"active","ping":44},{"user_id":362,"name":"McGangBang","steam_id":76561198862379865,"connected_time":6885000000000,"state":"active","ping":60},{"user_id":389,"name":"daemon","steam_id":76561198001541433,"connected_time":5402000000000,"state":"active","ping":57},{"user_id":390,"name":"trappy","steam_id":76561198402801140,"connected_time":5401000000000,"state":"active","ping":61},{"user_id":423,"name":"Chuck's Feed and Seed","steam_id":76561198121955432,"connected_time":2635000000000,"state":"active","ping":72},{"user_id":447,"name":"Scrotum Stealer","steam_id":76561198362839738,"connected_time":391000000000,"state":"active","ping":66},{"user_id":391,"name":"C papi","steam_id":76561198027779564,"connected_time":5397000000000,"state":"active","ping":52},{"user_id":422,"name":"K","steam_id":76561198171446177,"connected_time":2678000000000,"state":"active","ping":100},{"user_id":438,"name":"Mr.Hands","steam_id":76561199024146278,"connected_time":1352000000000,"state":"active","ping":116},{"user_id":448,"name":"MisterMac193","steam_id":76561199024428088,"connected_time":175000000000,"state":"active","ping":57},{"user_id":393,"name":"Vladikr1","steam_id":76561198401495362,"connected_time":5329000000000,"state":"active","ping":80},{"user_id":446,"name":"Krellah","steam_id":76561198287045069,"connected_time":667000000000,"state":"active","ping":48},{"user_id":437,"name":"littlerigizz","steam_id":76561198365001489,"connected_time":1437000000000,"state":"active","ping":92},{"user_id":439,"name":"correctedwolf42","steam_id":76561198988908375,"connected_time":1347000000000,"state":"active","ping":78},{"user_id":440,"name":"Fumpo","steam_id":76561198206873365,"connected_time":1308000000000,"state":"active","ping":60},{"user_id":441,"name":"Lots0","steam_id":76561198043143145,"connected_time":1256000000000,"state":"active","ping":92},{"user_id":445,"name":"sagejay","steam_id":76561198118149530,"connected_time":734000000000,"state":"active","ping":60},{"user_id":409,"name":"Braindawg","steam_id":76561197988531991,"connected_time":4273000000000,"state":"active","ping":87},{"user_id":407,"name":"Raniel Dicciardo","steam_id":76561198053859538,"connected_time":4508000000000,"state":"active","ping":75},{"user_id":408,"name":"gettysburg","steam_id":76561198016157051,"connected_time":4463000000000,"state":"active","ping":64},{"user_id":410,"name":"Souper Scott","steam_id":76561198045518926,"connected_time":3922000000000,"state":"active","ping":55},{"user_id":444,"name":"SomeFatPoptart","steam_id":76561198085433807,"connected_time":903000000000,"state":"active","ping":80},{"user_id":442,"name":"kezia","steam_id":76561198059815894,"connected_time":1195000000000,"state":"active","ping":45}]},{"server_id":403,"name":"Uncletopia | Chicago | 4 | All Maps","name_short":"chi-4","host":"chi-1.us.uncletopia.com","port":27045,"enabled":true,"region":"us-central","cc":"us","latitude":41.881832,"longitude":-87.62318,"reserved":0,"last_update":"0001-01-01T00:00:00Z","name_a2s":"Uncletopia | Chicago | 4 | All Maps","protocol":17,"map":"cp_mountainlab","folder":"tf","game":"Team Fortress","app_id":440,"player_count":24,"max_players":24,"Bots":0,"server_type":"Dedicated","server_os":"Linux","password":true,"vac":true,"version":"7757534","steam_id":85568392924515193,"keywords":["cp","nocrits","nodmgspread","uncletopia"],"game_id":440,"stv_port":27046,"stv_name":"Uncletopia | Chicago | 4 | All Maps | STV","players":[{"user_id":454,"name":"Klip","steam_id":76561198316254429,"connected_time":1207000000000,"state":"active","ping":80},{"user_id":451,"name":"Mr RocknRoll","steam_id":76561198067495035,"connected_time":1273000000000,"state":"active","ping":46},{"user_id":455,"name":"Look at me Ma! No jaw!","steam_id":76561198870122769,"connected_time":1168000000000,"state":"active","ping":66},{"user_id":384,"name":"Presto","steam_id":76561198069293923,"connected_time":5527000000000,"state":"active","ping":75},{"user_id":433,"name":"$200 Shirt","steam_id":76561197977329534,"connected_time":2597000000000,"state":"active","ping":52},{"user_id":448,"name":"Splinto","steam_id":76561198111260488,"connected_time":1427000000000,"state":"active","ping":46},{"user_id":452,"name":"Bear_Naked99","steam_id":76561199384938957,"connected_time":1255000000000,"state":"active","ping":66},{"user_id":385,"name":"f_stop","steam_id":76561198065281390,"connected_time":5516000000000,"state":"active","ping":73},{"user_id":388,"name":"Salmon Destroyer 9000","steam_id":76561198065826749,"connected_time":5192000000000,"state":"active","ping":85},{"user_id":465,"name":"portal2trollin","steam_id":76561198046869828,"connected_time":385000000000,"state":"active","ping":106},{"user_id":389,"name":"Dingongus","steam_id":76561198249960240,"connected_time":5153000000000,"state":"active","ping":83},{"user_id":467,"name":"TheCheeseWizard","steam_id":76561198058931315,"connected_time":284000000000,"state":"active","ping":54},{"user_id":450,"name":"VibingVicinity","steam_id":76561198208211285,"connected_time":1321000000000,"state":"active","ping":67},{"user_id":456,"name":"Spike","steam_id":76561198141356571,"connected_time":1138000000000,"state":"active","ping":56},{"user_id":462,"name":"Anthoneeee","steam_id":76561199209220671,"connected_time":1000000000000,"state":"active","ping":118},{"user_id":463,"name":"JazzMuted","steam_id":76561197974184265,"connected_time":663000000000,"state":"active","ping":51},{"user_id":466,"name":"Kaestal","steam_id":76561198033174157,"connected_time":372000000000,"state":"active","ping":74},{"user_id":453,"name":"ÂÖ≠ÂõõÂ§©ÂÆâÈñÄ‰∫ã‰ª∂","steam_id":76561198042836412,"connected_time":1254000000000,"state":"active","ping":70},{"user_id":435,"name":"AliCat","steam_id":76561198308360862,"connected_time":2549000000000,"state":"active","ping":62},{"user_id":459,"name":"Bliztank | RGL.gg","steam_id":76561198019252798,"connected_time":1040000000000,"state":"active","ping":57},{"user_id":460,"name":"Dr. Pleasant","steam_id":76561198111945101,"connected_time":1020000000000,"state":"active","ping":70},{"user_id":464,"name":"PeopleOrderOurPatties","steam_id":76561198323144922,"connected_time":431000000000,"state":"active","ping":61},{"user_id":402,"name":"Maxxycat","steam_id":76561198194062681,"connected_time":4725000000000,"state":"active","ping":55},{"user_id":442,"name":"ArnoldGaming","steam_id":76561198040140247,"connected_time":2125000000000,"state":"active","ping":95}]},{"server_id":36,"name":"Uncletopia | Chicago | 5 | All Maps","name_short":"chi-5","host":"chi-2.us.uncletopia.com","port":27015,"enabled":true,"region":"us-central","cc":"us","latitude":41.881832,"longitude":-87.62318,"reserved":0,"last_update":"0001-01-01T00:00:00Z","name_a2s":"Uncletopia | Chicago | 5 | All Maps","protocol":17,"map":"pl_frontier_final","folder":"tf","game":"Team Fortress","app_id":440,"player_count":24,"max_players":24,"Bots":0,"server_type":"Dedicated","server_os":"Linux","password":true,"vac":true,"version":"7757534","steam_id":85568392924866362,"keywords":["nocrits","nodmgspread","payload","uncletopia"],"game_id":440,"stv_port":27016,"stv_name":"Uncletopia | Chicago | 5 | All Maps | STV","players":[{"user_id":411,"name":"Joe Grumbo","steam_id":76561198048485190,"connected_time":1538000000000,"state":"active","ping":68},{"user_id":436,"name":"Kretim","steam_id":76561199204273483,"connected_time":506000000000,"state":"active","ping":72},{"user_id":382,"name":"PretzelDracula","steam_id":76561198069895947,"connected_time":3596000000000,"state":"active","ping":47},{"user_id":430,"name":"Cocksneed Fartin","steam_id":76561198126675787,"connected_time":1186000000000,"state":"active","ping":74},{"user_id":374,"name":"Soap Man","steam_id":76561198000490235,"connected_time":4124000000000,"state":"active","ping":116},{"user_id":413,"name":"tydogzilla","steam_id":76561198054254518,"connected_time":1527000000000,"state":"active","ping":60},{"user_id":415,"name":"chimp sauce","steam_id":76561198121757512,"connected_time":1473000000000,"state":"active","ping":83},{"user_id":383,"name":"PANarchyroad","steam_id":76561198055413199,"connected_time":3519000000000,"state":"active","ping":60},{"user_id":416,"name":"‚ù§Blunt.Babe420‚ù§","steam_id":76561199014055970,"connected_time":1473000000000,"state":"active","ping":57},{"user_id":417,"name":"Suns","steam_id":76561198042280156,"connected_time":1457000000000,"state":"active","ping":79},{"user_id":418,"name":"Chi-Chia","steam_id":76561198067955987,"connected_time":1448000000000,"state":"active","ping":89},{"user_id":419,"name":"Chickensoupyy","steam_id":76561198222498520,"connected_time":1442000000000,"state":"active","ping":90},{"user_id":420,"name":"Matches_                       ","steam_id":76561198048925904,"connected_time":1429000000000,"state":"active","ping":121},{"user_id":421,"name":"honked off the bobo","steam_id":76561198123287268,"connected_time":1428000000000,"state":"active","ping":46},{"user_id":434,"name":"yesoko","steam_id":76561198072917024,"connected_time":567000000000,"state":"active","ping":54},{"user_id":422,"name":"Drindy","steam_id":76561198275479142,"connected_time":1423000000000,"state":"active","ping":44},{"user_id":429,"name":"honestyworks","steam_id":76561198219030248,"connected_time":1303000000000,"state":"active","ping":70},{"user_id":433,"name":"El Monte","steam_id":76561198263562991,"connected_time":948000000000,"state":"active","ping":91},{"user_id":354,"name":"ToughGuy311","steam_id":76561198131458027,"connected_time":5224000000000,"state":"active","ping":73},{"user_id":423,"name":"nShxny","steam_id":76561198308608114,"connected_time":1421000000000,"state":"active","ping":60},{"user_id":435,"name":"substance","steam_id":76561198050103868,"connected_time":567000000000,"state":"active","ping":111},{"user_id":425,"name":"shoobs","steam_id":76561198042507255,"connected_time":1400000000000,"state":"active","ping":85},{"user_id":426,"name":"Shoopdai","steam_id":76561198031612988,"connected_time":1398000000000,"state":"active","ping":58},{"user_id":427,"name":"whitr","steam_id":76561198043981478,"connected_time":1389000000000,"state":"active","ping":85}]},{"server_id":37,"name":"Uncletopia | Chicago | 6 | All Maps","name_short":"chi-6","host":"chi-2.us.uncletopia.com","port":27025,"enabled":true,"region":"us-central","cc":"us","latitude":41.881832,"longitude":-87.62318,"reserved":0,"last_update":"0001-01-01T00:00:00Z","name_a2s":"Uncletopia | Chicago | 6 | All Maps","protocol":17,"map":"pl_frontier_final","folder":"tf","game":"Team Fortress","app_id":440,"player_count":0,"max_players":24,"Bots":0,"server_type":"Dedicated","server_os":"Linux","password":true,"vac":true,"version":"7757534","steam_id":85568392924866363,"keywords":["nocrits","nodmgspread","payload","uncletopia"],"game_id":440,"stv_port":27026,"stv_name":"Uncletopia | Chicago | 6 | All Maps | STV","players":null},{"server_id":38,"name":"Uncletopia | Chicago | 7 | Stopwatch Beta","name_short":"chi-7","host":"chi-2.us.uncletopia.com","port":27035,"enabled":true,"region":"us-central","cc":"us","latitude":41.881832,"longitude":-87.62318,"reserved":0,"last_update":"0001-01-01T00:00:00Z","name_a2s":"Uncletopia | Chicago | 7 | Stopwatch Beta","protocol":17,"map":"workshop/pl_summercoast_rc8e.ugc1761528829","folder":"tf","game":"Team Fortress","app_id":440,"player_count":0,"max_players":24,"Bots":0,"server_type":"Dedicated","server_os":"Linux","password":true,"vac":true,"version":"7757534","steam_id":85568392924866364,"keywords":["nocrits","nodmgspread","payload","uncletopia"],"game_id":440,"stv_port":27036,"stv_name":"Uncletopia | Chicago | 7 | Stopwatch Beta | STV","players":null},{"server_id":39,"name":"Uncletopia | Chicago | 8 | Community","name_short":"chi-8","host":"chi-2.us.uncletopia.com","port":27045,"enabled":true,"region":"us-central","cc":"us","latitude":41.881832,"longitude":-87.62318,"reserved":0,"last_update":"0001-01-01T00:00:00Z","name_a2s":"Uncletopia | Chicago | 8 | Community","protocol":17,"map":"workshop/pl_cashworks_final1.ugc2904065412","folder":"tf","game":"Team Fortress","app_id":440,"player_count":0,"max_players":24,"Bots":0,"server_type":"Dedicated","server_os":"Linux","password":true,"vac":true,"version":"7757534","steam_id":85568392924866365,"keywords":["nocrits","nodmgspread","payload","uncletopia"],"game_id":440,"stv_port":27046,"stv_name":"Uncletopia | Chicago | 8 | Community | STV","players":null},{"server_id":8,"name":"Uncletopia | Dallas | 1 | All Maps","name_short":"dal-1","host":"dal-1.us.uncletopia.com","port":27015,"enabled":true,"region":"us-central","cc":"us","latitude":32.779167,"longitude":-96.80889,"reserved":0,"last_update":"0001-01-01T00:00:00Z","name_a2s":"Uncletopia | Dallas | 1 | All Maps","protocol":17,"map":"pl_snowycoast","folder":"tf","game":"Team Fortress","app_id":440,"player_count":23,"max_players":24,"Bots":0,"server_type":"Dedicated","server_os":"Linux","password":true,"vac":true,"version":"7757534","steam_id":85568392924469986,"keywords":["nocrits","nodmgspread","payload","uncletopia"],"game_id":440,"stv_port":27016,"stv_name":"Uncletopia | Dallas | 1 | All Maps | STV","players":[{"user_id":429,"name":"guy","steam_id":76561198196443262,"connected_time":1923000000000,"state":"active","ping":75},{"user_id":426,"name":"giura","steam_id":76561197986794525,"connected_time":1946000000000,"state":"active","ping":84},{"user_id":423,"name":"Tribrothers_2","steam_id":76561198143972134,"connected_time":2083000000000,"state":"active","ping":90},{"user_id":439,"name":"Metatron","steam_id":76561198332386371,"connected_time":1154000000000,"state":"active","ping":62},{"user_id":403,"name":"teatimesukka","steam_id":76561198978749594,"connected_time":3988000000000,"state":"active","ping":36},{"user_id":444,"name":"Riske","steam_id":76561198115840568,"connected_time":550000000000,"state":"active","ping":91},{"user_id":416,"name":"FearTheJynx","steam_id":76561198136487957,"connected_time":2811000000000,"state":"active","ping":61},{"user_id":381,"name":"Markz","steam_id":76561197996278159,"connected_time":4826000000000,"state":"active","ping":92},{"user_id":433,"name":"Manly Emerald","steam_id":76561198245838476,"connected_time":1476000000000,"state":"active","ping":52},{"user_id":410,"name":"DeckofDragons","steam_id":76561198057398213,"connected_time":3197000000000,"state":"active","ping":70},{"user_id":443,"name":"Distou","steam_id":76561198397886545,"connected_time":592000000000,"state":"active","ping":82},{"user_id":446,"name":"klaus","steam_id":76561199008634102,"connected_time":312000000000,"state":"active","ping":74},{"user_id":428,"name":"Digital_Tea","steam_id":76561198930601062,"connected_time":1928000000000,"state":"active","ping":87},{"user_id":413,"name":"ronodar","steam_id":76561197997669014,"connected_time":3004000000000,"state":"active","ping":60},{"user_id":398,"name":"damiankiller1243","steam_id":76561198868885090,"connected_time":4121000000000,"state":"active","ping":66},{"user_id":422,"name":"joyeuxnoelle","steam_id":76561198062423120,"connected_time":2224000000000,"state":"active","ping":93},{"user_id":378,"name":"floofy","steam_id":76561198389769098,"connected_time":4891000000000,"state":"active","ping":83},{"user_id":432,"name":"mac_cheese","steam_id":76561198071334162,"connected_time":1613000000000,"state":"active","ping":90},{"user_id":437,"name":"Shortbane","steam_id":76561198247166584,"connected_time":1184000000000,"state":"active","ping":59},{"user_id":408,"name":"mel","steam_id":76561198019820977,"connected_time":3852000000000,"state":"active","ping":49},{"user_id":407,"name":"Nicole+","steam_id":76561198051599174,"connected_time":3863000000000,"state":"active","ping":118},{"user_id":440,"name":"lana_del_Rei.com","steam_id":76561198172447621,"connected_time":1137000000000,"state":"active","ping":69},{"user_id":441,"name":"Punished Shitster","steam_id":76561198150452857,"connected_time":999000000000,"state":"active","ping":48}]},{"server_id":108,"name":"Uncletopia | Dallas | 2 | All Maps","name_short":"dal-2","host":"dal-1.us.uncletopia.com","port":27025,"enabled":true,"region":"us-central","cc":"us","latitude":32.779167,"longitude":-96.80889,"reserved":0,"last_update":"0001-01-01T00:00:00Z","name_a2s":"Uncletopia | Dallas | 2 | All Maps","protocol":17,"map":"cp_sunshine","folder":"tf","game":"Team Fortress","app_id":440,"player_count":24,"max_players":24,"Bots":0,"server_type":"Dedicated","server_os":"Linux","password":true,"vac":true,"version":"7757534","steam_id":85568392924469988,"keywords":["cp","nocrits","nodmgspread","uncletopia"],"game_id":440,"stv_port":27026,"stv_name":"Uncletopia | Dallas | 2 | All Maps | STV","players":[{"user_id":373,"name":"gup","steam_id":76561198108938632,"connected_time":4547000000000,"state":"active","ping":71},{"user_id":374,"name":"nabla","steam_id":76561198066923067,"connected_time":4537000000000,"state":"active","ping":45},{"user_id":375,"name":"checkswing","steam_id":76561198999816132,"connected_time":4511000000000,"state":"active","ping":83},{"user_id":422,"name":"SuperBurgerBoy","steam_id":76561198856387197,"connected_time":1441000000000,"state":"active","ping":90},{"user_id":379,"name":"alexwasherefirst","steam_id":76561198846755124,"connected_time":3963000000000,"state":"active","ping":90},{"user_id":420,"name":"potato pat lft(?)","steam_id":76561198025489194,"connected_time":1710000000000,"state":"active","ping":54},{"user_id":380,"name":"üé∂","steam_id":76561198018213050,"connected_time":3960000000000,"state":"active","ping":60},{"user_id":431,"name":"Joocebox","steam_id":76561198259997021,"connected_time":1065000000000,"state":"active","ping":74},{"user_id":424,"name":"Zacku","steam_id":76561198031758603,"connected_time":1406000000000,"state":"active","ping":80},{"user_id":416,"name":"the almighty one","steam_id":76561199219901486,"connected_time":2315000000000,"state":"active","ping":91},{"user_id":425,"name":"Krystal Pepsi","steam_id":76561198083111889,"connected_time":1400000000000,"state":"active","ping":117},{"user_id":436,"name":"FemboyNate","steam_id":76561198146636410,"connected_time":96000000000,"state":"active","ping":75},{"user_id":432,"name":"Squatter1","steam_id":76561198078987734,"connected_time":1053000000000,"state":"active","ping":87},{"user_id":417,"name":"dash23‚Ñ¢","steam_id":76561198314951185,"connected_time":2182000000000,"state":"active","ping":79},{"user_id":435,"name":"basil","steam_id":76561198075758026,"connected_time":307000000000,"state":"active","ping":93},{"user_id":352,"name":"Stillkill","steam_id":76561198065069057,"connected_time":6454000000000,"state":"active","ping":35},{"user_id":405,"name":"Polar","steam_id":76561198108010247,"connected_time":3078000000000,"state":"active","ping":82},{"user_id":406,"name":"Etomb","steam_id":76561198210017208,"connected_time":3010000000000,"state":"active","ping":95},{"user_id":428,"name":"Vixxystix","steam_id":76561198059982715,"connected_time":1353000000000,"state":"active","ping":95},{"user_id":414,"name":"yomommasabitch","steam_id":76561198323217150,"connected_time":2579000000000,"state":"active","ping":42},{"user_id":433,"name":"nabroleon","steam_id":76561198038080028,"connected_time":925000000000,"state":"active","ping":90},{"user_id":434,"name":"Offinova","steam_id":76561198041297948,"connected_time":828000000000,"state":"active","ping":131},{"user_id":359,"name":"Gelliterate","steam_id":76561198107233070,"connected_time":6290000000000,"state":"active","ping":59},{"user_id":411,"name":"{ST} Oxythemoron","steam_id":76561198060089965,"connected_time":2840000000000,"state":"active","ping":57}]},{"server_id":5,"name":"Uncletopia | Frankfurt | 1 | All Maps","name_short":"frk-1","host":"frk-1.de.uncletopia.com","port":27015,"enabled":true,"region":"eu","cc":"de","latitude":50.110924,"longitude":8.682127,"reserved":0,"last_update":"0001-01-01T00:00:00Z","name_a2s":"Uncletopia | Frankfurt | 1 | All Maps","protocol":17,"map":"cp_snakewater_final1","folder":"tf","game":"Team Fortress","app_id":440,"player_count":0,"max_players":24,"Bots":0,"server_type":"Dedicated","server_os":"Linux","password":true,"vac":true,"version":"7757534","steam_id":85568392924469989,"keywords":["cp","nocrits","nodmgspread","uncletopia"],"game_id":440,"stv_port":27016,"stv_name":"Uncletopia | Frankfurt | 1 | All Maps | STV","players":null},{"server_id":110,"name":"Uncletopia | Frankfurt | 2 | All Maps","name_short":"frk-2","host":"frk-1.de.uncletopia.com","port":27025,"enabled":true,"region":"eu","cc":"de","latitude":50.110924,"longitude":8.682127,"reserved":0,"last_update":"0001-01-01T00:00:00Z","name_a2s":"Uncletopia | Frankfurt | 2 | All Maps","protocol":17,"map":"pl_snowycoast","folder":"tf","game":"Team Fortress","app_id":440,"player_count":0,"max_players":24,"Bots":0,"server_type":"Dedicated","server_os":"Linux","password":true,"vac":true,"version":"7757534","steam_id":85568392924469990,"keywords":["nocrits","nodmgspread","payload","uncletopia"],"game_id":440,"stv_port":27026,"stv_name":"Uncletopia | Frankfurt | 2 | All Maps | STV","players":null},{"server_id":308,"name":"Uncletopia | Frankfurt | 3 | All Maps","name_short":"frk-3","host":"frk-1.de.uncletopia.com","port":27035,"enabled":true,"region":"eu","cc":"de","latitude":50.110924,"longitude":8.682127,"reserved":0,"last_update":"0001-01-01T00:00:00Z","name_a2s":"Uncletopia | Frankfurt | 3 | All Maps","protocol":17,"map":"cp_altitude","folder":"tf","game":"Team Fortress","app_id":440,"player_count":0,"max_players":24,"Bots":0,"server_type":"Dedicated","server_os":"Linux","password":true,"vac":true,"version":"7757534","steam_id":85568392924504274,"keywords":["cp","nocrits","nodmgspread","uncletopia"],"game_id":440,"stv_port":27036,"stv_name":"Uncletopia | Frankfurt | 3 | All Maps | STV","players":null},{"server_id":309,"name":"Uncletopia | Frankfurt | 4 | All Maps","name_short":"frk-4","host":"frk-1.de.uncletopia.com","port":27045,"enabled":true,"region":"eu","cc":"de","latitude":50.110924,"longitude":8.682127,"reserved":0,"last_update":"0001-01-01T00:00:00Z","name_a2s":"Uncletopia | Frankfurt | 4 | All Maps","protocol":17,"map":"cp_altitude","folder":"tf","game":"Team Fortress","app_id":440,"player_count":0,"max_players":24,"Bots":0,"server_type":"Dedicated","server_os":"Linux","password":true,"vac":true,"version":"7757534","steam_id":85568392924504275,"keywords":["cp","nocrits","nodmgspread","uncletopia"],"game_id":440,"stv_port":27046,"stv_name":"Uncletopia | Frankfurt | 4 | All Maps | STV","players":null},{"server_id":310,"name":"Uncletopia | Frankfurt | 5 | All Maps","name_short":"frk-5","host":"frk-1.de.uncletopia.com","port":27055,"enabled":true,"region":"eu","cc":"de","latitude":50.110924,"longitude":8.682127,"reserved":0,"last_update":"0001-01-01T00:00:00Z","name_a2s":"Uncletopia | Frankfurt | 5 | All Maps","protocol":17,"map":"cp_altitude","folder":"tf","game":"Team Fortress","app_id":440,"player_count":0,"max_players":24,"Bots":0,"server_type":"Dedicated","server_os":"Linux","password":true,"vac":true,"version":"7757534","steam_id":85568392924504277,"keywords":["cp","nocrits","nodmgspread","uncletopia"],"game_id":440,"stv_port":27056,"stv_name":"Uncletopia | Frankfurt | 5 | All Maps | STV","players":null},{"server_id":311,"name":"Uncletopia | Frankfurt | 6 | All Maps","name_short":"frk-6","host":"frk-1.de.uncletopia.com","port":27065,"enabled":true,"region":"eu","cc":"de","latitude":50.110924,"longitude":8.682127,"reserved":0,"last_update":"0001-01-01T00:00:00Z","name_a2s":"Uncletopia | Frankfurt | 6 | All Maps","protocol":17,"map":"koth_highpass","folder":"tf","game":"Team Fortress","app_id":440,"player_count":0,"max_players":24,"Bots":0,"server_type":"Dedicated","server_os":"Linux","password":true,"vac":true,"version":"7757534","steam_id":85568392924504278,"keywords":["cp","nocrits","nodmgspread","uncletopia"],"game_id":440,"stv_port":27066,"stv_name":"Uncletopia | Frankfurt | 6 | All Maps | STV","players":null},{"server_id":23,"name":"Uncletopia | Frankfurt | 7 | Stopwatch Beta","name_short":"frk-7","host":"frk-1.de.uncletopia.com","port":27075,"enabled":true,"region":"eu","cc":"de","latitude":50.110924,"longitude":8.682127,"reserved":0,"last_update":"0001-01-01T00:00:00Z","name_a2s":"Uncletopia | Frankfurt | 7 | Stopwatch Beta","protocol":17,"map":"pl_frontier_final","folder":"tf","game":"Team Fortress","app_id":440,"player_count":0,"max_players":24,"Bots":0,"server_type":"Dedicated","server_os":"Linux","password":true,"vac":true,"version":"7757534","steam_id":85568392924742827,"keywords":["nocrits","nodmgspread","payload","uncletopia"],"game_id":440,"stv_port":27076,"stv_name":"Uncletopia | Frankfurt | 7 | Stopwatch Beta | STV","players":null},{"server_id":24,"name":"Uncletopia | Frankfurt | 8 | Community","name_short":"frk-8","host":"frk-1.de.uncletopia.com","port":27085,"enabled":true,"region":"eu","cc":"de","latitude":50.110924,"longitude":8.682127,"reserved":0,"last_update":"0001-01-01T00:00:00Z","name_a2s":"Uncletopia | Frankfurt | 8 | Community","protocol":17,"map":"pl_badwater","folder":"tf","game":"Team Fortress","app_id":440,"player_count":0,"max_players":24,"Bots":0,"server_type":"Dedicated","server_os":"Linux","password":true,"vac":true,"version":"7757534","steam_id":85568392924742828,"keywords":["nocrits","nodmgspread","payload","uncletopia"],"game_id":440,"stv_port":27086,"stv_name":"Uncletopia | Frankfurt | 8 | Community | STV","players":null},{"server_id":202,"name":"Uncletopia | Hong Kong | 1 | All Maps","name_short":"hgk-1","host":"hgk-1.hk.uncletopia.com","port":27015,"enabled":true,"region":"asia","cc":"hk","latitude":22.302711,"longitude":114.177216,"reserved":0,"last_update":"0001-01-01T00:00:00Z","name_a2s":"Uncletopia | Hong Kong | 1 | All Maps","protocol":17,"map":"pl_badwater","folder":"tf","game":"Team Fortress","app_id":440,"player_count":7,"max_players":24,"Bots":0,"server_type":"Dedicated","server_os":"Linux","password":true,"vac":true,"version":"7757534","steam_id":85568392924494504,"keywords":["nocrits","nodmgspread","payload","uncletopia"],"game_id":440,"stv_port":27016,"stv_name":"Uncletopia | Hong Kong | 1 | All Maps | STV","players":[{"user_id":60,"name":"heaviest f2p","steam_id":76561199209331489,"connected_time":2150000000000,"state":"active","ping":106},{"user_id":67,"name":"MR. BUTTER","steam_id":76561198329902657,"connected_time":357000000000,"state":"active","ping":90},{"user_id":62,"name":"707","steam_id":76561198846610729,"connected_time":1746000000000,"state":"active","ping":100},{"user_id":64,"name":"A Gamer for fun","steam_id":76561198288042744,"connected_time":1211000000000,"state":"active","ping":86},{"user_id":68,"name":"ƒê·∫£ng C·ªông S·∫£n Vi·ªát Nam","steam_id":76561199113304832,"connected_time":254000000000,"state":"active","ping":180},{"user_id":69,"name":"kangconqueror","steam_id":76561199229806456,"connected_time":147000000000,"state":"active","ping":264},{"user_id":70,"name":"juan233","steam_id":76561198867566247,"connected_time":74000000000,"state":"active","ping":97}]},{"server_id":1,"name":"Uncletopia | Los Angeles | 1 | All Maps","name_short":"lax-1","host":"lax-1.us.uncletopia.com","port":27015,"enabled":true,"region":"us-west","cc":"us","latitude":33.94279,"longitude":-118.41004,"reserved":0,"last_update":"0001-01-01T00:00:00Z","name_a2s":"Uncletopia | Los Angeles | 1 | All Maps","protocol":17,"map":"cp_dustbowl","folder":"tf","game":"Team Fortress","app_id":440,"player_count":0,"max_players":24,"Bots":0,"server_type":"Dedicated","server_os":"Linux","password":true,"vac":true,"version":"7757534","steam_id":85568392924469991,"keywords":["cp","nocrits","nodmgspread","uncletopia"],"game_id":440,"stv_port":27016,"stv_name":"Uncletopia | Los Angeles | 1 | All Maps | STV","players":null},{"server_id":112,"name":"Uncletopia | Los Angeles | 2 | All Maps","name_short":"lax-2","host":"lax-1.us.uncletopia.com","port":27025,"enabled":true,"region":"us-west","cc":"us","latitude":33.94279,"longitude":-118.41004,"reserved":0,"last_update":"0001-01-01T00:00:00Z","name_a2s":"Uncletopia | Los Angeles | 2 | All Maps","protocol":17,"map":"pl_badwater","folder":"tf","game":"Team Fortress","app_id":440,"player_count":24,"max_players":24,"Bots":0,"server_type":"Dedicated","server_os":"Linux","password":true,"vac":true,"version":"7757534","steam_id":85568392924469992,"keywords":["nocrits","nodmgspread","payload","uncletopia"],"game_id":440,"stv_port":27026,"stv_name":"Uncletopia | Los Angeles | 2 | All Maps | STV","players":[{"user_id":219,"name":"Schnitz(Lost my Glasses)","steam_id":76561198265484253,"connected_time":9601000000000,"state":"active","ping":51},{"user_id":296,"name":"An00bis","steam_id":76561198044084508,"connected_time":677000000000,"state":"active","ping":47},{"user_id":245,"name":"N√º√æ","steam_id":76561198043956703,"connected_time":6035000000000,"state":"active","ping":52},{"user_id":299,"name":"Bizarre","steam_id":76561198374370308,"connected_time":675000000000,"state":"active","ping":39},{"user_id":289,"name":"player 2","steam_id":76561198158952440,"connected_time":1055000000000,"state":"active","ping":70},{"user_id":292,"name":":PunyStupidioT-R3ktz","steam_id":76561198858359332,"connected_time":1022000000000,"state":"active","ping":48},{"user_id":304,"name":"Rakk","steam_id":76561198855176174,"connected_time":299000000000,"state":"active","ping":52},{"user_id":197,"name":"Gyr0sphere","steam_id":76561198183900735,"connected_time":11737000000000,"state":"active","ping":66},{"user_id":238,"name":"hakken","steam_id":76561199102391736,"connected_time":7241000000000,"state":"active","ping":46},{"user_id":295,"name":"howtobepker","steam_id":76561198115053865,"connected_time":761000000000,"state":"active","ping":75},{"user_id":258,"name":"ValidSalad","steam_id":76561198948874685,"connected_time":5088000000000,"state":"active","ping":76},{"user_id":259,"name":"Chalupa Jones","steam_id":76561198335855588,"connected_time":5010000000000,"state":"active","ping":47},{"user_id":305,"name":"wonton","steam_id":76561198315721990,"connected_time":291000000000,"state":"active","ping":114},{"user_id":294,"name":"lyraaaaaaaaaaa","steam_id":76561198259331758,"connected_time":934000000000,"state":"active","ping":109},{"user_id":288,"name":"Video game victim","steam_id":76561198308017082,"connected_time":1057000000000,"state":"active","ping":57},{"user_id":236,"name":"who is doug","steam_id":76561198858328080,"connected_time":7880000000000,"state":"active","ping":40},{"user_id":293,"name":"JingleDingo","steam_id":76561198394666640,"connected_time":988000000000,"state":"active","ping":48},{"user_id":307,"name":"Double Tapp","steam_id":76561197993847700,"connected_time":229000000000,"state":"active","ping":66},{"user_id":302,"name":"GIRTHQUAKE, MAGNITUDE 11","steam_id":76561198023975674,"connected_time":631000000000,"state":"active","ping":116},{"user_id":287,"name":"GreaterNater","steam_id":76561198076516970,"connected_time":1339000000000,"state":"active","ping":130},{"user_id":283,"name":"cam","steam_id":76561198073426718,"connected_time":1894000000000,"state":"active","ping":55},{"user_id":303,"name":"lol","steam_id":76561198026491738,"connected_time":631000000000,"state":"active","ping":54},{"user_id":285,"name":"invb","steam_id":76561197998263914,"connected_time":1819000000000,"state":"active","ping":90},{"user_id":308,"name":"Rockinbacon","steam_id":76561198047159811,"connected_time":229000000000,"state":"active","ping":79}]},{"server_id":324,"name":"Uncletopia | Los Angeles | 3 | All Maps","name_short":"lax-3","host":"lax-1.us.uncletopia.com","port":27035,"enabled":true,"region":"us-west","cc":"us","latitude":33.94279,"longitude":-118.41004,"reserved":0,"last_update":"0001-01-01T00:00:00Z","name_a2s":"Uncletopia | Los Angeles | 3 | All Maps","protocol":17,"map":"pl_frontier_final","folder":"tf","game":"Team Fortress","app_id":440,"player_count":0,"max_players":24,"Bots":0,"server_type":"Dedicated","server_os":"Linux","password":true,"vac":true,"version":"7757534","steam_id":85568392924510198,"keywords":["nocrits","nodmgspread","payload","uncletopia"],"game_id":440,"stv_port":27036,"stv_name":"Uncletopia | Los Angeles | 3 | All Maps | STV","players":null},{"server_id":25,"name":"Uncletopia | Los Angeles | 4 | Stopwatch Beta","name_short":"lax-4","host":"lax-1.us.uncletopia.com","port":27045,"enabled":true,"region":"us-west","cc":"us","latitude":33.94279,"longitude":-118.41004,"reserved":0,"last_update":"0001-01-01T00:00:00Z","name_a2s":"Uncletopia | Los Angeles | 4 | Stopwatch Beta","protocol":17,"map":"workshop/pl_summercoast_rc8e.ugc1761528829","folder":"tf","game":"Team Fortress","app_id":440,"player_count":0,"max_players":24,"Bots":0,"server_type":"Dedicated","server_os":"Linux","password":true,"vac":true,"version":"7757534","steam_id":85568392924510199,"keywords":["nocrits","nodmgspread","payload","uncletopia"],"game_id":440,"stv_port":27046,"stv_name":"Uncletopia | Los Angeles | 4 | Stopwatch Beta | STV","players":null},{"server_id":11,"name":"Uncletopia | London | 1 | All Maps","name_short":"lon-1","host":"lon-1.uk.uncletopia.com","port":27015,"enabled":true,"region":"eu","cc":"gb","latitude":51.509865,"longitude":-0.118092,"reserved":0,"last_update":"0001-01-01T00:00:00Z","name_a2s":"Uncletopia | London | 1 | All Maps","protocol":17,"map":"pl_badwater","folder":"tf","game":"Team Fortress","app_id":440,"player_count":24,"max_players":24,"Bots":0,"server_type":"Dedicated","server_os":"Linux","password":true,"vac":true,"version":"7757534","steam_id":85568392924367362,"keywords":["nocrits","nodmgspread","payload","uncletopia"],"game_id":440,"stv_port":27016,"stv_name":"Uncletopia | London | 1 | All Maps | STV","players":[{"user_id":3,"name":"DocTwoEight","steam_id":76561198153488940,"connected_time":4511000000000,"state":"active","ping":74},{"user_id":24,"name":"Cippo95","steam_id":76561198255311582,"connected_time":2657000000000,"state":"active","ping":67},{"user_id":39,"name":"Mr. Fox","steam_id":76561198803610709,"connected_time":1111000000000,"state":"active","ping":105},{"user_id":10,"name":"MtnDew","steam_id":76561199100059743,"connected_time":4359000000000,"state":"active","ping":111},{"user_id":12,"name":"Ian","steam_id":76561198159334435,"connected_time":3709000000000,"state":"active","ping":176},{"user_id":44,"name":"tori_spring","steam_id":76561199375975842,"connected_time":781000000000,"state":"active","ping":40},{"user_id":26,"name":"BrainLacking","steam_id":76561198965574196,"connected_time":2342000000000,"state":"active","ping":54},{"user_id":35,"name":"Coffee","steam_id":76561199077316448,"connected_time":1361000000000,"state":"active","ping":74},{"user_id":15,"name":"posht0 @_@","steam_id":76561198106182078,"connected_time":3532000000000,"state":"active","ping":105},{"user_id":48,"name":"antlionguard","steam_id":76561198072747143,"connected_time":248000000000,"state":"active","ping":116},{"user_id":46,"name":"ParisXavi","steam_id":76561199451487415,"connected_time":350000000000,"state":"active","ping":82},{"user_id":47,"name":"GuSkand","steam_id":76561198043775605,"connected_time":339000000000,"state":"active","ping":90},{"user_id":49,"name":"–ü—É–∫—Å–µ–ª—å","steam_id":76561198294425174,"connected_time":205000000000,"state":"active","ping":76},{"user_id":54,"name":"Dr_Evil_1738","steam_id":76561199133770186,"connected_time":4000000000,"state":"spawning","ping":137},{"user_id":50,"name":"FairlyFatFungus","steam_id":76561199152828854,"connected_time":104000000000,"state":"active","ping":54},{"user_id":22,"name":"MRLOLENO","steam_id":76561198450911838,"connected_time":2816000000000,"state":"active","ping":76},{"user_id":31,"name":"Fishum","steam_id":76561198148556559,"connected_time":1847000000000,"state":"active","ping":54},{"user_id":51,"name":"–∏–≤–∞–Ω","steam_id":76561198072730591,"connected_time":101000000000,"state":"active","ping":67},{"user_id":36,"name":"MrXtr","steam_id":76561198966247397,"connected_time":1348000000000,"state":"active","ping":83},{"user_id":37,"name":"garbo","steam_id":76561198084208265,"connected_time":1193000000000,"state":"active","ping":52},{"user_id":53,"name":"Jhin","steam_id":76561198070137469,"connected_time":64000000000,"state":"active","ping":73},{"user_id":40,"name":"Ejeb","steam_id":76561198257334233,"connected_time":1035000000000,"state":"active","ping":34},{"user_id":41,"name":"Circle Square Cross","steam_id":76561198044823949,"connected_time":960000000000,"state":"active","ping":135},{"user_id":42,"name":"komantoN^-","steam_id":76561198017929662,"connected_time":954000000000,"state":"active","ping":70}]},{"server_id":114,"name":"Uncletopia | London | 2 | All Maps","name_short":"lon-2","host":"lon-1.uk.uncletopia.com","port":27025,"enabled":true,"region":"eu","cc":"gb","latitude":51.509865,"longitude":-0.118092,"reserved":0,"last_update":"0001-01-01T00:00:00Z","name_a2s":"Uncletopia | London | 2 | All Maps","protocol":17,"map":"cp_dustbowl","folder":"tf","game":"Team Fortress","app_id":440,"player_count":0,"max_players":24,"Bots":0,"server_type":"Dedicated","server_os":"Linux","password":true,"vac":true,"version":"7757534","steam_id":85568392924470941,"keywords":["cp","nocrits","nodmgspread","uncletopia"],"game_id":440,"stv_port":27026,"stv_name":"Uncletopia | London | 2 | All Maps | STV","players":null},{"server_id":320,"name":"Uncletopia | London | 3 | All Maps","name_short":"lon-3","host":"lon-1.uk.uncletopia.com","port":27035,"enabled":true,"region":"eu","cc":"gb","latitude":51.509865,"longitude":-0.118092,"reserved":0,"last_update":"0001-01-01T00:00:00Z","name_a2s":"Uncletopia | London | 3 | All Maps","protocol":17,"map":"pl_badwater","folder":"tf","game":"Team Fortress","app_id":440,"player_count":0,"max_players":24,"Bots":0,"server_type":"Dedicated","server_os":"Linux","password":true,"vac":true,"version":"7757534","steam_id":85568392924510192,"keywords":["nocrits","nodmgspread","payload","uncletopia"],"game_id":440,"stv_port":27036,"stv_name":"Uncletopia | London | 3 | All Maps | STV","players":null},{"server_id":321,"name":"Uncletopia | London | 4 | All Maps","name_short":"lon-4","host":"lon-1.uk.uncletopia.com","port":27045,"enabled":true,"region":"eu","cc":"gb","latitude":51.509865,"longitude":-0.118092,"reserved":0,"last_update":"0001-01-01T00:00:00Z","name_a2s":"Uncletopia | London | 4 | All Maps","protocol":17,"map":"koth_viaduct","folder":"tf","game":"Team Fortress","app_id":440,"player_count":0,"max_players":24,"Bots":0,"server_type":"Dedicated","server_os":"Linux","password":true,"vac":true,"version":"7757534","steam_id":85568392924510193,"keywords":["cp","nocrits","nodmgspread","uncletopia"],"game_id":440,"stv_port":27046,"stv_name":"Uncletopia | London | 4 | All Maps | STV","players":null},{"server_id":21,"name":"Uncletopia | London | 5 | All Maps","name_short":"lon-5","host":"lon-1.uk.uncletopia.com","port":27055,"enabled":true,"region":"eu","cc":"gb","latitude":51.509865,"longitude":-0.118092,"reserved":0,"last_update":"0001-01-01T00:00:00Z","name_a2s":"Uncletopia | London | 5 | All Maps","protocol":17,"map":"cp_snakewater_final1","folder":"tf","game":"Team Fortress","app_id":440,"player_count":0,"max_players":24,"Bots":0,"server_type":"Dedicated","server_os":"Linux","password":true,"vac":true,"version":"7757534","steam_id":85568392924742829,"keywords":["cp","nocrits","nodmgspread","uncletopia"],"game_id":440,"stv_port":27056,"stv_name":"Uncletopia | London | 5 | All Maps | STV","players":null},{"server_id":22,"name":"Uncletopia | London | 6 | All Maps","name_short":"lon-6","host":"lon-1.uk.uncletopia.com","port":27065,"enabled":true,"region":"eu","cc":"gb","latitude":51.509865,"longitude":-0.118092,"reserved":0,"last_update":"0001-01-01T00:00:00Z","name_a2s":"Uncletopia | London | 6 | All Maps","protocol":17,"map":"koth_cascade","folder":"tf","game":"Team Fortress","app_id":440,"player_count":0,"max_players":24,"Bots":0,"server_type":"Dedicated","server_os":"Linux","password":true,"vac":true,"version":"7757534","steam_id":85568392924742830,"keywords":["cp","nocrits","nodmgspread","uncletopia"],"game_id":440,"stv_port":27066,"stv_name":"Uncletopia | London | 6 | All Maps | STV","players":null},{"server_id":40,"name":"Uncletopia | London | 7 | No Payload","name_short":"lon-7","host":"lon-1.uk.uncletopia.com","port":27075,"enabled":true,"region":"eu","cc":"gb","latitude":51.509865,"longitude":-0.118092,"reserved":0,"last_update":"0001-01-01T00:00:00Z","name_a2s":"Uncletopia | London | 7 | No Payload","protocol":17,"map":"cp_process_final","folder":"tf","game":"Team Fortress","app_id":440,"player_count":0,"max_players":24,"Bots":0,"server_type":"Dedicated","server_os":"Linux","password":true,"vac":true,"version":"7757534","steam_id":85568392924964314,"keywords":["cp","nocrits","nodmgspread","uncletopia"],"game_id":440,"stv_port":27076,"stv_name":"Uncletopia | London | 7 | No Payload | STV","players":null},{"server_id":41,"name":"Uncletopia | London | 8 | Community","name_short":"lon-8","host":"lon-1.uk.uncletopia.com","port":27085,"enabled":true,"region":"eu","cc":"gb","latitude":51.509865,"longitude":-0.118092,"reserved":0,"last_update":"0001-01-01T00:00:00Z","name_a2s":"Uncletopia | London | 8 | Community","protocol":17,"map":"pl_upward","folder":"tf","game":"Team Fortress","app_id":440,"player_count":0,"max_players":24,"Bots":0,"server_type":"Dedicated","server_os":"Linux","password":true,"vac":true,"version":"7757534","steam_id":85568392924964315,"keywords":["nocrits","nodmgspread","payload","uncletopia"],"game_id":440,"stv_port":27086,"stv_name":"Uncletopia | London | 8 | Community | STV","players":null},{"server_id":300,"name":"Uncletopia | Montr√©al | 1 | All Maps","name_short":"mtl-1","host":"mtl-1.ca.uncletopia.com","port":27015,"enabled":true,"region":"us-east","cc":"ca","latitude":45.50889,"longitude":-73.56167,"reserved":0,"last_update":"0001-01-01T00:00:00Z","name_a2s":"Uncletopia | Montr√©al | 1 | All Maps","protocol":17,"map":"cp_sunshine","folder":"tf","game":"Team Fortress","app_id":440,"player_count":0,"max_players":24,"Bots":0,"server_type":"Dedicated","server_os":"Linux","password":true,"vac":true,"version":"7757534","steam_id":85568392924500087,"keywords":["cp","nocrits","nodmgspread","uncletopia"],"game_id":440,"stv_port":27016,"stv_name":"Uncletopia | Montr√©al | 1 | All Maps | STV","players":null},{"server_id":301,"name":"Uncletopia | Montr√©al | 2 | All Maps","name_short":"mtl-2","host":"mtl-1.ca.uncletopia.com","port":27025,"enabled":true,"region":"us-east","cc":"ca","latitude":45.50889,"longitude":-73.56167,"reserved":0,"last_update":"0001-01-01T00:00:00Z","name_a2s":"Uncletopia | Montr√©al | 2 | All Maps","protocol":17,"map":"cp_process_final","folder":"tf","game":"Team Fortress","app_id":440,"player_count":0,"max_players":24,"Bots":0,"server_type":"Dedicated","server_os":"Linux","password":true,"vac":true,"version":"7757534","steam_id":85568392924500088,"keywords":["cp","nocrits","nodmgspread","uncletopia"],"game_id":440,"stv_port":27026,"stv_name":"Uncletopia | Montr√©al | 2 | All Maps | STV","players":null},{"server_id":302,"name":"Uncletopia | Montr√©al | 3 | All Maps","name_short":"mtl-3","host":"mtl-1.ca.uncletopia.com","port":27035,"enabled":true,"region":"us-east","cc":"ca","latitude":45.50889,"longitude":-73.56167,"reserved":0,"last_update":"0001-01-01T00:00:00Z","name_a2s":"Uncletopia | Montr√©al | 3 | All Maps","protocol":17,"map":"pl_upward","folder":"tf","game":"Team Fortress","app_id":440,"player_count":0,"max_players":24,"Bots":0,"server_type":"Dedicated","server_os":"Linux","password":true,"vac":true,"version":"7757534","steam_id":85568392924500089,"keywords":["nocrits","nodmgspread","payload","uncletopia"],"game_id":440,"stv_port":27036,"stv_name":"Uncletopia | Montr√©al | 3 | All Maps | STV","players":null},{"server_id":303,"name":"Uncletopia | Montr√©al | 4 | No Payload","name_short":"mtl-4","host":"mtl-1.ca.uncletopia.com","port":27045,"enabled":true,"region":"us-east","cc":"ca","latitude":45.50889,"longitude":-73.56167,"reserved":0,"last_update":"0001-01-01T00:00:00Z","name_a2s":"Uncletopia | Montr√©al | 4 | No Payload","protocol":17,"map":"cp_badlands","folder":"tf","game":"Team Fortress","app_id":440,"player_count":0,"max_players":24,"Bots":0,"server_type":"Dedicated","server_os":"Linux","password":true,"vac":true,"version":"7757534","steam_id":85568392924500090,"keywords":["cp","nocrits","nodmgspread","uncletopia"],"game_id":440,"stv_port":27046,"stv_name":"Uncletopia | Montr√©al | 4 | No Payload | STV","players":null},{"server_id":13,"name":"Uncletopia | New York City | 1 | All Maps","name_short":"nyc-1","host":"nyc-1.us.uncletopia.com","port":27015,"enabled":true,"region":"us-east","cc":"us","latitude":40.73061,"longitude":-73.93524,"reserved":0,"last_update":"0001-01-01T00:00:00Z","name_a2s":"Uncletopia | New York City | 1 | All Maps","protocol":17,"map":"pl_pier","folder":"tf","game":"Team Fortress","app_id":440,"player_count":24,"max_players":24,"Bots":0,"server_type":"Dedicated","server_os":"Linux","password":true,"vac":true,"version":"7757534","steam_id":85568392924469993,"keywords":["nocrits","nodmgspread","payload","uncletopia"],"game_id":440,"stv_port":27016,"stv_name":"Uncletopia | New York City | 1 | All Maps | STV","players":[{"user_id":487,"name":"White Noiz","steam_id":76561198116408865,"connected_time":1581000000000,"state":"active","ping":57},{"user_id":464,"name":"illious","steam_id":76561198169925494,"connected_time":2882000000000,"state":"active","ping":67},{"user_id":434,"name":"Futa Lover","steam_id":76561198056775795,"connected_time":5585000000000,"state":"active","ping":75},{"user_id":488,"name":"wacky slappers","steam_id":76561198061103166,"connected_time":1443000000000,"state":"active","ping":34},{"user_id":340,"name":"Allie","steam_id":76561198272401589,"connected_time":14628000000000,"state":"active","ping":84},{"user_id":489,"name":"solitude freak","steam_id":76561198066585785,"connected_time":1440000000000,"state":"active","ping":58},{"user_id":435,"name":"Lumura","steam_id":76561197992852414,"connected_time":5575000000000,"state":"active","ping":78},{"user_id":504,"name":"jsparks00","steam_id":76561198355516166,"connected_time":905000000000,"state":"active","ping":141},{"user_id":422,"name":"Miffinity","steam_id":76561198140574001,"connected_time":8254000000000,"state":"active","ping":70},{"user_id":482,"name":"THELootGoblin","steam_id":76561198251891962,"connected_time":2269000000000,"state":"active","ping":77},{"user_id":496,"name":"Elegant Ejaculation","steam_id":76561198014190878,"connected_time":1175000000000,"state":"active","ping":107},{"user_id":502,"name":"Room","steam_id":76561199174579733,"connected_time":918000000000,"state":"active","ping":62},{"user_id":503,"name":"ElectronX","steam_id":76561198116034988,"connected_time":909000000000,"state":"active","ping":114},{"user_id":493,"name":"watchfull","steam_id":76561198433266742,"connected_time":1250000000000,"state":"active","ping":111},{"user_id":494,"name":"lost in the sauce","steam_id":76561199043827112,"connected_time":1230000000000,"state":"active","ping":85},{"user_id":506,"name":"godisamazing!","steam_id":76561198102681457,"connected_time":568000000000,"state":"active","ping":76},{"user_id":497,"name":"hashmap","steam_id":76561198043794014,"connected_time":1173000000000,"state":"active","ping":76},{"user_id":498,"name":"PrismaPlex","steam_id":76561199027292301,"connected_time":1170000000000,"state":"active","ping":99},{"user_id":499,"name":"Yu Plush","steam_id":76561198800891125,"connected_time":1155000000000,"state":"active","ping":117},{"user_id":439,"name":"Mr. May","steam_id":76561198132112804,"connected_time":5486000000000,"state":"active","ping":83},{"user_id":507,"name":"Xune","steam_id":76561198010708247,"connected_time":435000000000,"state":"active","ping":69},{"user_id":505,"name":"MacbookPro2015WithSsd","steam_id":76561199173336625,"connected_time":904000000000,"state":"active","ping":79},{"user_id":501,"name":"fopik","steam_id":76561198279220018,"connected_time":1103000000000,"state":"active","ping":68},{"user_id":459,"name":"[NoMic]SUPERJARATEMONKEYDEATHCA","steam_id":76561197971492734,"connected_time":3667000000000,"state":"active","ping":48}]},{"server_id":14,"name":"Uncletopia | New York City | 2 | All Maps","name_short":"nyc-2","host":"nyc-1.us.uncletopia.com","port":27025,"enabled":true,"region":"us-east","cc":"us","latitude":40.73061,"longitude":-73.93524,"reserved":0,"last_update":"0001-01-01T00:00:00Z","name_a2s":"Uncletopia | New York City | 2 | All Maps","protocol":17,"map":"cp_sunshine","folder":"tf","game":"Team Fortress","app_id":440,"player_count":20,"max_players":24,"Bots":0,"server_type":"Dedicated","server_os":"Linux","password":true,"vac":true,"version":"7757534","steam_id":85568392924469994,"keywords":["cp","nocrits","nodmgspread","uncletopia"],"game_id":440,"stv_port":27026,"stv_name":"Uncletopia | New York City | 2 | All Maps | STV","players":[{"user_id":266,"name":"McTwisty","steam_id":76561198138674351,"connected_time":2873000000000,"state":"active","ping":66},{"user_id":288,"name":"NotDart","steam_id":76561198032243571,"connected_time":73000000000,"state":"active","ping":55},{"user_id":246,"name":"SilentFootba11","steam_id":76561199006570947,"connected_time":3855000000000,"state":"active","ping":82},{"user_id":289,"name":"Take 5 Ghost","steam_id":76561198417885871,"connected_time":6000000000,"state":"spawning","ping":141},{"user_id":276,"name":"Plainclothes McDonalds employee","steam_id":76561198105919781,"connected_time":1902000000000,"state":"active","ping":87},{"user_id":277,"name":"walidov","steam_id":76561198079965605,"connected_time":1685000000000,"state":"active","ping":97},{"user_id":278,"name":"Dragon Shmurda","steam_id":76561199079655568,"connected_time":1554000000000,"state":"active","ping":60},{"user_id":279,"name":"doggy","steam_id":76561198162671964,"connected_time":1484000000000,"state":"active","ping":44},{"user_id":249,"name":"Lavender","steam_id":76561198142770666,"connected_time":3223000000000,"state":"active","ping":72},{"user_id":250,"name":"zeredis","steam_id":76561198076596689,"connected_time":3179000000000,"state":"active","ping":55},{"user_id":253,"name":"speck","steam_id":76561198147107736,"connected_time":3160000000000,"state":"active","ping":58},{"user_id":254,"name":"Merci?","steam_id":76561198096823118,"connected_time":3155000000000,"state":"active","ping":90},{"user_id":284,"name":"amani","steam_id":76561198085310326,"connected_time":919000000000,"state":"active","ping":48},{"user_id":258,"name":"googer","steam_id":76561198194556777,"connected_time":3058000000000,"state":"active","ping":92},{"user_id":216,"name":"CobyNoHoes","steam_id":76561198122236594,"connected_time":7466000000000,"state":"active","ping":72},{"user_id":280,"name":"Harmony","steam_id":76561198035606484,"connected_time":1431000000000,"state":"active","ping":132},{"user_id":260,"name":"FellowGamer","steam_id":76561198089600392,"connected_time":3040000000000,"state":"active","ping":62},{"user_id":283,"name":"aversa","steam_id":76561198840460101,"connected_time":1258000000000,"state":"active","ping":55},{"user_id":281,"name":"skaj","steam_id":76561198082278586,"connected_time":1415000000000,"state":"active","ping":83},{"user_id":273,"name":"dootsuit","steam_id":76561198178298931,"connected_time":2159000000000,"state":"active","ping":119}]},{"server_id":15,"name":"Uncletopia | New York City | 3 | Stopwatch Beta","name_short":"nyc-3","host":"nyc-1.us.uncletopia.com","port":27035,"enabled":true,"region":"us-east","cc":"us","latitude":40.73061,"longitude":-73.93524,"reserved":0,"last_update":"0001-01-01T00:00:00Z","name_a2s":"Uncletopia | New York City | 3 | Stopwatch Beta","protocol":17,"map":"koth_highpass","folder":"tf","game":"Team Fortress","app_id":440,"player_count":0,"max_players":24,"Bots":0,"server_type":"Dedicated","server_os":"Linux","password":true,"vac":true,"version":"7757534","steam_id":85568392924742820,"keywords":["cp","nocrits","nodmgspread","uncletopia"],"game_id":440,"stv_port":27036,"stv_name":"Uncletopia | New York City | 3 | Stopwatch Beta | STV","players":null},{"server_id":16,"name":"Uncletopia | New York City | 4 | Community","name_short":"nyc-4","host":"nyc-1.us.uncletopia.com","port":27045,"enabled":true,"region":"us-east","cc":"us","latitude":40.73061,"longitude":-73.93524,"reserved":0,"last_update":"0001-01-01T00:00:00Z","name_a2s":"Uncletopia | New York City | 4 | Community","protocol":17,"map":"workshop/pl_fifthcurve_rc1.ugc648227046","folder":"tf","game":"Team Fortress","app_id":440,"player_count":0,"max_players":24,"Bots":0,"server_type":"Dedicated","server_os":"Linux","password":true,"vac":true,"version":"7757534","steam_id":85568392924742821,"keywords":["nocrits","nodmgspread","payload","uncletopia"],"game_id":440,"stv_port":27046,"stv_name":"Uncletopia | New York City | 4 | Community | STV","players":null},{"server_id":142,"name":"Uncletopia | S√£o Paulo | 1 | All Maps","name_short":"sao-1","host":"sao-1.br.uncletopia.com","port":27015,"enabled":true,"region":"sa","cc":"br","latitude":-23.533773,"longitude":-46.62529,"reserved":0,"last_update":"0001-01-01T00:00:00Z","name_a2s":"Uncletopia | S√£o Paulo | 1 | All Maps","protocol":17,"map":"koth_highpass","folder":"tf","game":"Team Fortress","app_id":440,"player_count":0,"max_players":24,"Bots":0,"server_type":"Dedicated","server_os":"Linux","password":true,"vac":true,"version":"7757534","steam_id":85568392924469996,"keywords":["cp","nocrits","nodmgspread","uncletopia"],"game_id":440,"stv_port":27016,"stv_name":"Uncletopia | S√£o Paulo | 1 | All Maps | STV","players":null},{"server_id":143,"name":"Uncletopia | S√£o Paulo | 2 | All Maps","name_short":"sao-2","host":"sao-2.br.uncletopia.com","port":27015,"enabled":true,"region":"sa","cc":"br","latitude":-23.533773,"longitude":-46.62529,"reserved":0,"last_update":"0001-01-01T00:00:00Z","name_a2s":"Uncletopia | S√£o Paulo | 2 | All Maps","protocol":17,"map":"koth_cascade","folder":"tf","game":"Team Fortress","app_id":440,"player_count":0,"max_players":24,"Bots":0,"server_type":"Dedicated","server_os":"Linux","password":true,"vac":true,"version":"7757534","steam_id":85568392924485349,"keywords":["cp","nocrits","nodmgspread","uncletopia"],"game_id":440,"stv_port":27016,"stv_name":"Uncletopia | S√£o Paulo | 2 | All Maps | STV","players":null},{"server_id":7,"name":"Uncletopia | Seattle | 1 | All Maps","name_short":"sea-1","host":"sea-1.us.uncletopia.com","port":27015,"enabled":true,"region":"us-west","cc":"us","latitude":47.608013,"longitude":-122.33517,"reserved":0,"last_update":"0001-01-01T00:00:00Z","name_a2s":"Uncletopia | Seattle | 1 | All Maps","protocol":17,"map":"pl_frontier_final","folder":"tf","game":"Team Fortress","app_id":440,"player_count":24,"max_players":24,"Bots":0,"server_type":"Dedicated","server_os":"Linux","password":true,"vac":true,"version":"7757534","steam_id":85568392924469997,"keywords":["nocrits","nodmgspread","payload","uncletopia"],"game_id":440,"stv_port":27016,"stv_name":"Uncletopia | Seattle | 1 | All Maps | STV","players":[{"user_id":316,"name":"LegalizeCrack","steam_id":76561198034177447,"connected_time":551000000000,"state":"active","ping":58},{"user_id":324,"name":"arrayzk","steam_id":76561198280409646,"connected_time":71000000000,"state":"active","ping":73},{"user_id":310,"name":"exephur","steam_id":76561198135763234,"connected_time":1141000000000,"state":"active","ping":62},{"user_id":214,"name":"Lord Hater","steam_id":76561199158148782,"connected_time":13276000000000,"state":"active","ping":66},{"user_id":240,"name":"doopsies","steam_id":76561198083000867,"connected_time":9530000000000,"state":"active","ping":53},{"user_id":280,"name":"shane","steam_id":76561198060491451,"connected_time":4833000000000,"state":"active","ping":91},{"user_id":277,"name":"SvicidalBug","steam_id":76561198221390504,"connected_time":5664000000000,"state":"active","ping":65},{"user_id":319,"name":"An Old Lady","steam_id":76561198047480318,"connected_time":500000000000,"state":"active","ping":68},{"user_id":313,"name":"Google","steam_id":76561198857237473,"connected_time":952000000000,"state":"active","ping":48},{"user_id":285,"name":"gorlab","steam_id":76561198025089694,"connected_time":4552000000000,"state":"active","ping":66},{"user_id":311,"name":"alaska","steam_id":76561198017030029,"connected_time":1104000000000,"state":"active","ping":90},{"user_id":303,"name":"Escher","steam_id":76561198045058061,"connected_time":1891000000000,"state":"active","ping":59},{"user_id":299,"name":"SadFapping","steam_id":76561198076651049,"connected_time":3543000000000,"state":"active","ping":59},{"user_id":323,"name":"fa√ßade","steam_id":76561199157009256,"connected_time":80000000000,"state":"active","ping":62},{"user_id":292,"name":"ThatEmoEmu","steam_id":76561198272304706,"connected_time":3641000000000,"state":"active","ping":50},{"user_id":321,"name":"profile name","steam_id":76561198032625036,"connected_time":425000000000,"state":"active","ping":61},{"user_id":274,"name":"Arg0","steam_id":76561198074858755,"connected_time":5998000000000,"state":"active","ping":86},{"user_id":322,"name":"celedon_leader","steam_id":76561198378761346,"connected_time":402000000000,"state":"active","ping":71},{"user_id":315,"name":"Saikyo","steam_id":76561198212461467,"connected_time":748000000000,"state":"active","ping":106},{"user_id":302,"name":"Dr. Karl, the AUS Science Guy","steam_id":76561198031278747,"connected_time":1901000000000,"state":"active","ping":50},{"user_id":297,"name":"shoe","steam_id":76561198451476220,"connected_time":3568000000000,"state":"active","ping":73},{"user_id":304,"name":"jacix3 [gay wolfgirl]{she/it}","steam_id":76561198205004165,"connected_time":1882000000000,"state":"active","ping":73},{"user_id":318,"name":"Peppy","steam_id":76561198866629645,"connected_time":510000000000,"state":"active","ping":62},{"user_id":308,"name":"Max2point0","steam_id":76561198383609244,"connected_time":1190000000000,"state":"active","ping":71}]},{"server_id":119,"name":"Uncletopia | Seattle | 2 | All Maps","name_short":"sea-2","host":"sea-1.us.uncletopia.com","port":27025,"enabled":true,"region":"us-west","cc":"us","latitude":47.608013,"longitude":-122.33517,"reserved":0,"last_update":"0001-01-01T00:00:00Z","name_a2s":"Uncletopia | Seattle | 2 | All Maps","protocol":17,"map":"pl_swiftwater_final1","folder":"tf","game":"Team Fortress","app_id":440,"player_count":24,"max_players":24,"Bots":0,"server_type":"Dedicated","server_os":"Linux","password":true,"vac":true,"version":"7757534","steam_id":85568392924469998,"keywords":["nocrits","nodmgspread","payload","uncletopia"],"game_id":440,"stv_port":27026,"stv_name":"Uncletopia | Seattle | 2 | All Maps | STV","players":[{"user_id":439,"name":"PepperPotPete","steam_id":76561198251267326,"connected_time":2144000000000,"state":"active","ping":46},{"user_id":408,"name":"eees123","steam_id":76561198838130681,"connected_time":4856000000000,"state":"active","ping":75},{"user_id":448,"name":"General Fisticuffs","steam_id":76561198255721392,"connected_time":1089000000000,"state":"active","ping":104},{"user_id":394,"name":"Plasma_Effect","steam_id":76561199379707969,"connected_time":6106000000000,"state":"active","ping":62},{"user_id":412,"name":"Tom","steam_id":76561198070630154,"connected_time":4282000000000,"state":"active","ping":79},{"user_id":446,"name":"PinguEnjoyer6","steam_id":76561199186723516,"connected_time":1811000000000,"state":"active","ping":73},{"user_id":429,"name":"Shoggoth","steam_id":76561198117892299,"connected_time":2724000000000,"state":"active","ping":73},{"user_id":449,"name":"Literally Roxy's Wife Tsuyu","steam_id":76561198175421763,"connected_time":1075000000000,"state":"active","ping":111},{"user_id":454,"name":"strong and healthy gamer","steam_id":76561198049489349,"connected_time":986000000000,"state":"active","ping":69},{"user_id":430,"name":"Asphodel","steam_id":76561198750101819,"connected_time":2658000000000,"state":"active","ping":96},{"user_id":433,"name":"GarfeelingGood","steam_id":76561198320293423,"connected_time":2577000000000,"state":"active","ping":51},{"user_id":414,"name":"Suburban Sasquatch","steam_id":76561198023628300,"connected_time":4181000000000,"state":"active","ping":85},{"user_id":438,"name":"BIGWELDFROMROBOTS","steam_id":76561199275349806,"connected_time":2166000000000,"state":"active","ping":113},{"user_id":417,"name":"D0VE","steam_id":76561198151618566,"connected_time":4041000000000,"state":"active","ping":56},{"user_id":418,"name":"SQbuilder","steam_id":76561198076473375,"connected_time":4032000000000,"state":"active","ping":65},{"user_id":422,"name":"Defeat","steam_id":76561198065203818,"connected_time":3917000000000,"state":"active","ping":39},{"user_id":431,"name":"Mothman","steam_id":76561198050672409,"connected_time":2644000000000,"state":"active","ping":92},{"user_id":440,"name":"TehBroccolini","steam_id":76561198150308387,"connected_time":2122000000000,"state":"active","ping":84},{"user_id":450,"name":"stockOnly","steam_id":76561198975450630,"connected_time":1054000000000,"state":"active","ping":47},{"user_id":455,"name":"Stev the Prurient Oxymoron","steam_id":76561197999442625,"connected_time":939000000000,"state":"active","ping":64},{"user_id":445,"name":"SirBagettue","steam_id":76561199010270588,"connected_time":1880000000000,"state":"active","ping":81},{"user_id":452,"name":"Biznickel","steam_id":76561199422511230,"connected_time":1037000000000,"state":"active","ping":54},{"user_id":421,"name":"Indefiable","steam_id":76561198219238953,"connected_time":3997000000000,"state":"active","ping":45},{"user_id":453,"name":"Grill Skills","steam_id":76561198053575147,"connected_time":1036000000000,"state":"active","ping":69}]},{"server_id":406,"name":"Uncletopia | Seattle | 3 | Stopwatch Beta","name_short":"sea-3","host":"sea-1.us.uncletopia.com","port":27035,"enabled":true,"region":"us-west","cc":"us","latitude":47.608013,"longitude":-122.33517,"reserved":0,"last_update":"0001-01-01T00:00:00Z","name_a2s":"Uncletopia | Seattle | 3 | Stopwatch Beta","protocol":17,"map":"pl_borneo","folder":"tf","game":"Team Fortress","app_id":440,"player_count":0,"max_players":24,"Bots":0,"server_type":"Dedicated","server_os":"Linux","password":true,"vac":true,"version":"7757534","steam_id":85568392924515217,"keywords":["nocrits","nodmgspread","payload","uncletopia"],"game_id":440,"stv_port":27036,"stv_name":"Uncletopia | Seattle | 3 | Stopwatch Beta | STV","players":null},{"server_id":17,"name":"Uncletopia | San Francisco | 1 | All Maps","name_short":"sfo-1","host":"sfo-1.us.uncletopia.com","port":27015,"enabled":true,"region":"us-west","cc":"us","latitude":37.77397,"longitude":-122.4313,"reserved":0,"last_update":"0001-01-01T00:00:00Z","name_a2s":"Uncletopia | San Francisco | 1 | All Maps","protocol":17,"map":"cp_snakewater_final1","folder":"tf","game":"Team Fortress","app_id":440,"player_count":24,"max_players":24,"Bots":0,"server_type":"Dedicated","server_os":"Linux","password":true,"vac":true,"version":"7757534","steam_id":85568392924469999,"keywords":["cp","nocrits","nodmgspread","uncletopia"],"game_id":440,"stv_port":27016,"stv_name":"Uncletopia | San Francisco | 1 | All Maps | STV","players":[{"user_id":488,"name":"pitbull named princess","steam_id":76561198080114979,"connected_time":617000000000,"state":"active","ping":99},{"user_id":489,"name":"DumbRandomName","steam_id":76561199133390020,"connected_time":569000000000,"state":"active","ping":56},{"user_id":492,"name":"pooblygonzooly2012","steam_id":76561198982054880,"connected_time":122000000000,"state":"active","ping":57},{"user_id":395,"name":"Strength!!","steam_id":76561198001241984,"connected_time":3854000000000,"state":"active","ping":69},{"user_id":450,"name":"doo doo","steam_id":76561198049784197,"connected_time":1769000000000,"state":"active","ping":46},{"user_id":451,"name":"abset","steam_id":76561198093171376,"connected_time":1766000000000,"state":"active","ping":58},{"user_id":491,"name":"Lemur w/a Femur","steam_id":76561199008374083,"connected_time":161000000000,"state":"active","ping":65},{"user_id":279,"name":"Satori Komeiji","steam_id":76561198158211423,"connected_time":7044000000000,"state":"active","ping":52},{"user_id":454,"name":"brk","steam_id":76561198079634017,"connected_time":1699000000000,"state":"active","ping":63},{"user_id":424,"name":"EatSomeBEES","steam_id":76561198047334307,"connected_time":2602000000000,"state":"active","ping":71},{"user_id":455,"name":"berserker_tf2 ttv","steam_id":76561198303464488,"connected_time":1698000000000,"state":"active","ping":64},{"user_id":443,"name":"Pentatonic","steam_id":76561198126494507,"connected_time":2042000000000,"state":"active","ping":81},{"user_id":456,"name":"greens beans","steam_id":76561198153611491,"connected_time":1677000000000,"state":"active","ping":59},{"user_id":430,"name":"Hotter Than Your Dad","steam_id":76561198081504766,"connected_time":2405000000000,"state":"active","ping":83},{"user_id":457,"name":"Games Dean","steam_id":76561198799010228,"connected_time":1668000000000,"state":"active","ping":61},{"user_id":467,"name":"k","steam_id":76561198339542039,"connected_time":1316000000000,"state":"active","ping":72},{"user_id":313,"name":"How's your morale?","steam_id":76561198035698704,"connected_time":6382000000000,"state":"active","ping":55},{"user_id":458,"name":"Taxar Bloodred","steam_id":76561198340935333,"connected_time":1652000000000,"state":"active","ping":114},{"user_id":423,"name":"Zoroaz (3 Shots and a cocktail)","steam_id":76561199245203720,"connected_time":2709000000000,"state":"active","ping":97},{"user_id":459,"name":"zuna","steam_id":76561199038981515,"connected_time":1596000000000,"state":"active","ping":57},{"user_id":460,"name":"Uncle Drew","steam_id":76561198194555849,"connected_time":1564000000000,"state":"active","ping":136},{"user_id":404,"name":"Dr. Reaper","steam_id":76561198049436290,"connected_time":3706000000000,"state":"active","ping":81},{"user_id":485,"name":"nous","steam_id":76561198046278452,"connected_time":726000000000,"state":"active","ping":74},{"user_id":471,"name":"Gimmick","steam_id":76561198065873462,"connected_time":1168000000000,"state":"active","ping":55}]},{"server_id":18,"name":"Uncletopia | San Francisco | 2 | All Maps","name_short":"sfo-2","host":"sfo-1.us.uncletopia.com","port":27025,"enabled":true,"region":"us-west","cc":"us","latitude":37.77397,"longitude":-122.4313,"reserved":0,"last_update":"0001-01-01T00:00:00Z","name_a2s":"Uncletopia | San Francisco | 2 | All Maps","protocol":17,"map":"pl_snowycoast","folder":"tf","game":"Team Fortress","app_id":440,"player_count":24,"max_players":24,"Bots":0,"server_type":"Dedicated","server_os":"Linux","password":true,"vac":true,"version":"7757534","steam_id":85568392924470000,"keywords":["nocrits","nodmgspread","payload","uncletopia"],"game_id":440,"stv_port":27026,"stv_name":"Uncletopia | San Francisco | 2 | All Maps | STV","players":[{"user_id":311,"name":"The Scout Revolution","steam_id":76561198077160210,"connected_time":8049000000000,"state":"active","ping":108},{"user_id":344,"name":"Sir Galahad","steam_id":76561198195999859,"connected_time":4912000000000,"state":"active","ping":70},{"user_id":395,"name":"SuaveFrenchman","steam_id":76561198043762683,"connected_time":748000000000,"state":"active","ping":45},{"user_id":389,"name":"Mint Widget","steam_id":76561198036875245,"connected_time":890000000000,"state":"active","ping":86},{"user_id":362,"name":"DUMMIE","steam_id":76561199107386147,"connected_time":4105000000000,"state":"active","ping":90},{"user_id":393,"name":"JON","steam_id":76561198057971005,"connected_time":786000000000,"state":"active","ping":54},{"user_id":381,"name":"Bastion","steam_id":76561199133903803,"connected_time":2194000000000,"state":"active","ping":108},{"user_id":391,"name":"sniffy","steam_id":76561198184933255,"connected_time":832000000000,"state":"active","ping":61},{"user_id":353,"name":"Bob","steam_id":76561198225634032,"connected_time":4574000000000,"state":"active","ping":118},{"user_id":371,"name":"Ic3Soldi3r","steam_id":76561198027854776,"connected_time":3903000000000,"state":"active","ping":85},{"user_id":370,"name":"ŒªgentGlados","steam_id":76561198185395794,"connected_time":3954000000000,"state":"active","ping":74},{"user_id":383,"name":"Flo P. Weiner","steam_id":76561198979344968,"connected_time":2077000000000,"state":"active","ping":65},{"user_id":409,"name":"served","steam_id":76561199438267625,"connected_time":261000000000,"state":"active","ping":72},{"user_id":396,"name":"boyconflicx","steam_id":76561199016750966,"connected_time":738000000000,"state":"active","ping":96},{"user_id":394,"name":"Evanb","steam_id":76561198042057792,"connected_time":784000000000,"state":"active","ping":60},{"user_id":408,"name":"Jovo","steam_id":76561197993265970,"connected_time":419000000000,"state":"active","ping":61},{"user_id":397,"name":"Aprayne","steam_id":76561198131015474,"connected_time":738000000000,"state":"active","ping":59},{"user_id":352,"name":"Taxman","steam_id":76561198244002396,"connected_time":4592000000000,"state":"active","ping":97},{"user_id":403,"name":"Antking14","steam_id":76561198188971771,"connected_time":610000000000,"state":"active","ping":79},{"user_id":402,"name":"bong hits for jesus","steam_id":76561198093276401,"connected_time":660000000000,"state":"active","ping":71},{"user_id":407,"name":"NotAWeeb","steam_id":76561198165530739,"connected_time":483000000000,"state":"active","ping":45},{"user_id":390,"name":"PeptoBismol","steam_id":76561198082669076,"connected_time":890000000000,"state":"active","ping":72},{"user_id":410,"name":"RlyTomato","steam_id":76561198011644876,"connected_time":1000000000,"state":"spawning","ping":49},{"user_id":310,"name":"Abra","steam_id":76561198086309918,"connected_time":8084000000000,"state":"active","ping":102}]},{"server_id":19,"name":"Uncletopia | San Francisco | 3 | Stopwatch Beta","name_short":"sfo-3","host":"sfo-1.us.uncletopia.com","port":27035,"enabled":true,"region":"us-west","cc":"us","latitude":37.77397,"longitude":-122.4313,"reserved":0,"last_update":"0001-01-01T00:00:00Z","name_a2s":"Uncletopia | San Francisco | 3 | Stopwatch Beta","protocol":17,"map":"pl_borneo","folder":"tf","game":"Team Fortress","app_id":440,"player_count":0,"max_players":24,"Bots":0,"server_type":"Dedicated","server_os":"Linux","password":true,"vac":true,"version":"7757534","steam_id":85568392924742824,"keywords":["nocrits","nodmgspread","payload","uncletopia"],"game_id":440,"stv_port":27036,"stv_name":"Uncletopia | San Francisco | 3 | Stopwatch Beta | STV","players":null},{"server_id":20,"name":"Uncletopia | San Francisco | 4 | Community","name_short":"sfo-4","host":"sfo-1.us.uncletopia.com","port":27045,"enabled":true,"region":"us-west","cc":"us","latitude":37.77397,"longitude":-122.4313,"reserved":0,"last_update":"0001-01-01T00:00:00Z","name_a2s":"Uncletopia | San Francisco | 4 | Community","protocol":17,"map":"workshop/koth_ashville_final.ugc2130459942","folder":"tf","game":"Team Fortress","app_id":440,"player_count":19,"max_players":24,"Bots":0,"server_type":"Dedicated","server_os":"Linux","password":true,"vac":true,"version":"7757534","steam_id":85568392924742826,"keywords":["cp","nocrits","nodmgspread","uncletopia"],"game_id":440,"stv_port":27046,"stv_name":"Uncletopia | San Francisco | 4 | Community | STV","players":[{"user_id":174,"name":"Saggle","steam_id":76561198056075147,"connected_time":6145000000000,"state":"active","ping":175},{"user_id":248,"name":"Habber The Quesomancer","steam_id":76561198049642751,"connected_time":173000000000,"state":"spawning","ping":142},{"user_id":239,"name":"become part of wall","steam_id":76561198421913648,"connected_time":705000000000,"state":"active","ping":80},{"user_id":247,"name":"sukawaller","steam_id":76561198182108218,"connected_time":226000000000,"state":"active","ping":53},{"user_id":245,"name":"Orthodox Rabbi Bill Clinton","steam_id":76561198051000442,"connected_time":363000000000,"state":"spawning","ping":145},{"user_id":235,"name":"Squigzy_","steam_id":76561198061696667,"connected_time":1235000000000,"state":"spawning","ping":239},{"user_id":241,"name":"FCKGW-RHQQ2-YXRKT-8TG6W-2B7Q8","steam_id":76561197993138592,"connected_time":615000000000,"state":"spawning","ping":57},{"user_id":249,"name":"Occupant","steam_id":76561198038701409,"connected_time":144000000000,"state":"active","ping":48},{"user_id":250,"name":"monji","steam_id":76561198239598834,"connected_time":143000000000,"state":"active","ping":158},{"user_id":251,"name":"NeroStrimings / hAMMERgANG","steam_id":76561198250362028,"connected_time":142000000000,"state":"spawning","ping":177},{"user_id":225,"name":"borzier","steam_id":76561198069190432,"connected_time":2688000000000,"state":"active","ping":117},{"user_id":252,"name":"Nat the kat","steam_id":76561198144338191,"connected_time":135000000000,"state":"spawning","ping":113},{"user_id":230,"name":"Big Meaty Frogs","steam_id":76561198068328470,"connected_time":2284000000000,"state":"active","ping":67},{"user_id":254,"name":"Hydroxianchaos","steam_id":76561198043786828,"connected_time":52000000000,"state":"active","ping":119},{"user_id":193,"name":"carmillalover1334","steam_id":76561198325306660,"connected_time":4875000000000,"state":"active","ping":80},{"user_id":188,"name":"DiscoTraveler","steam_id":76561199240168088,"connected_time":5197000000000,"state":"active","ping":98},{"user_id":162,"name":"bruxing and boggling","steam_id":76561198204169516,"connected_time":6920000000000,"state":"spawning","ping":221},{"user_id":196,"name":"Speve Bobs","steam_id":76561198349908268,"connected_time":4749000000000,"state":"active","ping":50},{"user_id":232,"name":"ilMoose","steam_id":76561198827275420,"connected_time":2227000000000,"state":"active","ping":102}]},{"server_id":141,"name":"Uncletopia | Sydney | 1 | All Maps","name_short":"syd-1","host":"syd-1.au.uncletopia.com","port":27015,"enabled":true,"region":"au","cc":"au","latitude":-33.865143,"longitude":151.2099,"reserved":0,"last_update":"0001-01-01T00:00:00Z","name_a2s":"Uncletopia | Sydney | 1 | All Maps","protocol":17,"map":"pl_pier","folder":"tf","game":"Team Fortress","app_id":440,"player_count":24,"max_players":24,"Bots":0,"server_type":"Dedicated","server_os":"Linux","password":true,"vac":true,"version":"7757534","steam_id":85568392924470001,"keywords":["nocrits","nodmgspread","payload","uncletopia"],"game_id":440,"stv_port":27016,"stv_name":"Uncletopia | Sydney | 1 | All Maps | STV","players":[{"user_id":373,"name":"diamond","steam_id":76561198206754736,"connected_time":15000000000,"state":"spawning","ping":54},{"user_id":361,"name":"KeeperOfBalance","steam_id":76561198028070089,"connected_time":240000000000,"state":"spawning","ping":76},{"user_id":348,"name":"Blub","steam_id":76561199218460534,"connected_time":713000000000,"state":"spawning","ping":73},{"user_id":368,"name":"ArmoredInsecta","steam_id":76561198070405810,"connected_time":100000000000,"state":"spawning","ping":60},{"user_id":340,"name":"tex","steam_id":76561198364851711,"connected_time":1011000000000,"state":"spawning","ping":64},{"user_id":350,"name":"Peashooter","steam_id":76561198157250318,"connected_time":568000000000,"state":"spawning","ping":63},{"user_id":363,"name":"Frog Friend","steam_id":76561198054505772,"connected_time":235000000000,"state":"spawning","ping":38},{"user_id":369,"name":"pants money","steam_id":76561198066256359,"connected_time":77000000000,"state":"spawning","ping":47},{"user_id":297,"name":"demoman","steam_id":76561199083914239,"connected_time":3436000000000,"state":"spawning","ping":56},{"user_id":344,"name":"Kanga Bangas","steam_id":76561198162187264,"connected_time":800000000000,"state":"spawning","ping":77},{"user_id":332,"name":"Monad (Trans-Girl Arc)","steam_id":76561198895999428,"connected_time":1704000000000,"state":"spawning","ping":48},{"user_id":372,"name":"Death By Bougar","steam_id":76561198301282416,"connected_time":27000000000,"state":"spawning","ping":60},{"user_id":365,"name":"Dustin Poirier","steam_id":76561198060677406,"connected_time":205000000000,"state":"spawning","ping":112},{"user_id":351,"name":"Shaggy Gaming","steam_id":76561198065107870,"connected_time":553000000000,"state":"spawning","ping":110},{"user_id":354,"name":"Lemon|0_o","steam_id":76561198188258925,"connected_time":351000000000,"state":"spawning","ping":33},{"user_id":345,"name":"Abraham Lincoln","steam_id":76561198095292515,"connected_time":779000000000,"state":"spawning","ping":60},{"user_id":366,"name":"fritzz_2343","steam_id":76561198284667941,"connected_time":162000000000,"state":"spawning","ping":467},{"user_id":274,"name":"SaltierThanYou","steam_id":76561198444395188,"connected_time":4589000000000,"state":"spawning","ping":73},{"user_id":356,"name":"Link","steam_id":76561198043171944,"connected_time":318000000000,"state":"spawning","ping":54},{"user_id":371,"name":"ThirtyTwelve","steam_id":76561199192513554,"connected_time":43000000000,"state":"spawning","ping":35},{"user_id":374,"name":"Chevauch√©e","steam_id":76561198031293430,"connected_time":8000000000,"state":"spawning","ping":95},{"user_id":359,"name":"Worst Sniper","steam_id":76561198025733081,"connected_time":250000000000,"state":"spawning","ping":77},{"user_id":375,"name":"Courier","steam_id":76561198008866403,"connected_time":0,"state":"spawning","ping":22},{"user_id":360,"name":"Jagerfox","steam_id":76561197999134620,"connected_time":249000000000,"state":"spawning","ping":57}]},{"server_id":123,"name":"Uncletopia | Sydney | 2 | All Maps","name_short":"syd-2","host":"syd-1.au.uncletopia.com","port":27025,"enabled":true,"region":"au","cc":"au","latitude":-33.865143,"longitude":151.2099,"reserved":0,"last_update":"0001-01-01T00:00:00Z","name_a2s":"Uncletopia | Sydney | 2 | All Maps","protocol":17,"map":"koth_cascade","folder":"tf","game":"Team Fortress","app_id":440,"player_count":6,"max_players":24,"Bots":0,"server_type":"Dedicated","server_os":"Linux","password":true,"vac":true,"version":"7757534","steam_id":85568392924470002,"keywords":["cp","nocrits","nodmgspread","uncletopia"],"game_id":440,"stv_port":27026,"stv_name":"Uncletopia | Sydney | 2 | All Maps | STV","players":[{"user_id":53,"name":"JayTheLlamaKing","steam_id":76561198836354249,"connected_time":4591000000000,"state":"active","ping":62},{"user_id":54,"name":"a loaf of bread","steam_id":76561198206424961,"connected_time":4573000000000,"state":"active","ping":74},{"user_id":58,"name":"dinxie","steam_id":76561199448765541,"connected_time":1316000000000,"state":"active","ping":70},{"user_id":56,"name":"Oddish_Kid107","steam_id":76561198880527499,"connected_time":2042000000000,"state":"active","ping":327},{"user_id":59,"name":"dna.lewis.family","steam_id":76561198042546714,"connected_time":1173000000000,"state":"active","ping":183},{"user_id":62,"name":"Ashes","steam_id":76561198105820742,"connected_time":241000000000,"state":"active","ping":70}]},{"server_id":395,"name":"Uncletopia | Sydney | 3 | All Maps","name_short":"syd-3","host":"syd-1.au.uncletopia.com","port":27035,"enabled":true,"region":"au","cc":"au","latitude":-33.865143,"longitude":151.2099,"reserved":0,"last_update":"0001-01-01T00:00:00Z","name_a2s":"Uncletopia | Sydney | 3 | All Maps","protocol":17,"map":"pl_swiftwater_final1","folder":"tf","game":"Team Fortress","app_id":440,"player_count":3,"max_players":24,"Bots":0,"server_type":"Dedicated","server_os":"Linux","password":true,"vac":true,"version":"7757534","steam_id":85568392925194467,"keywords":["nocrits","nodmgspread","payload","uncletopia"],"game_id":440,"stv_port":27036,"stv_name":"Uncletopia | Sydney | 3 | All Maps | STV","players":[{"user_id":20,"name":"frostproto","steam_id":76561198911697195,"connected_time":720000000000,"state":"active","ping":98},{"user_id":15,"name":"The Bisoneer TF2","steam_id":76561199446773766,"connected_time":4542000000000,"state":"active","ping":85},{"user_id":13,"name":"TheCardboardKing","steam_id":76561199099769110,"connected_time":4860000000000,"state":"active","ping":58}]},{"server_id":396,"name":"Uncletopia | Sydney | 4 | All Maps","name_short":"syd-4","host":"syd-1.au.uncletopia.com","port":27045,"enabled":true,"region":"au","cc":"au","latitude":-33.865143,"longitude":151.2099,"reserved":0,"last_update":"0001-01-01T00:00:00Z","name_a2s":"Uncletopia | Sydney | 4 | All Maps","protocol":17,"map":"cp_egypt_final","folder":"tf","game":"Team Fortress","app_id":440,"player_count":1,"max_players":24,"Bots":0,"server_type":"Dedicated","server_os":"Linux","password":true,"vac":true,"version":"7757534","steam_id":85568392925397958,"keywords":["cp","nocrits","nodmgspread","uncletopia"],"game_id":440,"stv_port":27046,"stv_name":"Uncletopia | Sydney | 4 | All Maps | STV","players":[{"user_id":46,"name":"-Ech0-","steam_id":76561199121536801,"connected_time":5296000000000,"state":"active","ping":49}]},{"server_id":58,"name":"Uncletopia | Sydney | 5 | Stopwatch Beta","name_short":"syd-5","host":"syd-1.au.uncletopia.com","port":27055,"enabled":true,"region":"au","cc":"au","latitude":-33.865143,"longitude":151.2099,"reserved":0,"last_update":"0001-01-01T00:00:00Z","name_a2s":"Uncletopia | Sydney | 5 | Stopwatch Beta","protocol":17,"map":"pl_swiftwater_final1","folder":"tf","game":"Team Fortress","app_id":440,"player_count":0,"max_players":24,"Bots":0,"server_type":"Dedicated","server_os":"Linux","password":true,"vac":true,"version":"7757534","steam_id":85568392925397959,"keywords":["nocrits","nodmgspread","payload","uncletopia"],"game_id":440,"stv_port":27056,"stv_name":"Uncletopia | Sydney | 5 | Stopwatch Beta | STV","players":null},{"server_id":59,"name":"Uncletopia | Sydney | 6 | Community","name_short":"syd-6","host":"syd-1.au.uncletopia.com","port":27065,"enabled":true,"region":"au","cc":"au","latitude":-33.865143,"longitude":151.2099,"reserved":0,"last_update":"0001-01-01T00:00:00Z","name_a2s":"Uncletopia | Sydney | 6 | Community","protocol":17,"map":"workshop/koth_slaughter_rc1.ugc1712845210","folder":"tf","game":"Team Fortress","app_id":440,"player_count":0,"max_players":24,"Bots":0,"server_type":"Dedicated","server_os":"Linux","password":true,"vac":true,"version":"7757534","steam_id":85568392925397960,"keywords":["cp","nocrits","nodmgspread","uncletopia"],"game_id":440,"stv_port":27066,"stv_name":"Uncletopia | Sydney | 6 | Community | STV","players":null},{"server_id":49,"name":"Uncletopia | Warsaw | 1 | All Maps","name_short":"waw-1","host":"waw-1.pl.uncletopia.com","port":27015,"enabled":true,"region":"eu","cc":"pl","latitude":52.2297,"longitude":21.017532,"reserved":0,"last_update":"0001-01-01T00:00:00Z","name_a2s":"","protocol":0,"map":"","folder":"","game":"","app_id":0,"player_count":0,"max_players":0,"Bots":0,"server_type":"","server_os":"","password":false,"vac":false,"version":"","steam_id":0,"keywords":null,"game_id":0,"stv_port":0,"stv_name":"","players":null},{"server_id":50,"name":"Uncletopia | Warsaw | 2 | All Maps","name_short":"waw-2","host":"waw-1.pl.uncletopia.com","port":27025,"enabled":true,"region":"eu","cc":"pl","latitude":52.2297,"longitude":21.017532,"reserved":0,"last_update":"0001-01-01T00:00:00Z","name_a2s":"Uncletopia | Warsaw | 2 | All Maps","protocol":17,"map":"cp_process_final","folder":"tf","game":"Team Fortress","app_id":440,"player_count":0,"max_players":24,"Bots":0,"server_type":"Dedicated","server_os":"Linux","password":true,"vac":true,"version":"7757534","steam_id":85568392925397851,"keywords":["cp","nocrits","nodmgspread","uncletopia"],"game_id":440,"stv_port":27026,"stv_name":"Uncletopia | Warsaw | 2 | All Maps | STV","players":null},{"server_id":51,"name":"Uncletopia | Warsaw | 3 | All Maps","name_short":"waw-3","host":"waw-1.pl.uncletopia.com","port":27035,"enabled":true,"region":"eu","cc":"pl","latitude":52.2297,"longitude":21.017532,"reserved":0,"last_update":"0001-01-01T00:00:00Z","name_a2s":"Uncletopia | Warsaw | 3 | All Maps","protocol":17,"map":"pl_barnblitz","folder":"tf","game":"Team Fortress","app_id":440,"player_count":0,"max_players":24,"Bots":0,"server_type":"Dedicated","server_os":"Linux","password":true,"vac":true,"version":"7757534","steam_id":85568392925397852,"keywords":["nocrits","nodmgspread","payload","uncletopia"],"game_id":440,"stv_port":27036,"stv_name":"Uncletopia | Warsaw | 3 | All Maps | STV","players":null},{"server_id":52,"name":"Uncletopia | Warsaw | 4 | All Maps","name_short":"waw-4","host":"waw-1.pl.uncletopia.com","port":27045,"enabled":true,"region":"eu","cc":"pl","latitude":52.2297,"longitude":21.017532,"reserved":0,"last_update":"0001-01-01T00:00:00Z","name_a2s":"Uncletopia | Warsaw | 4 | All Maps","protocol":17,"map":"pl_snowycoast","folder":"tf","game":"Team Fortress","app_id":440,"player_count":0,"max_players":24,"Bots":0,"server_type":"Dedicated","server_os":"Linux","password":true,"vac":true,"version":"7757534","steam_id":85568392925397853,"keywords":["nocrits","nodmgspread","payload","uncletopia"],"game_id":440,"stv_port":27046,"stv_name":"Uncletopia | Warsaw | 4 | All Maps | STV","players":null},{"server_id":53,"name":"Uncletopia | Warsaw | 5 | Stopwatch Beta","name_short":"waw-5","host":"waw-1.pl.uncletopia.com","port":27055,"enabled":true,"region":"eu","cc":"pl","latitude":52.2297,"longitude":21.017532,"reserved":0,"last_update":"0001-01-01T00:00:00Z","name_a2s":"Uncletopia | Warsaw | 5 | Stopwatch Beta","protocol":17,"map":"pl_barnblitz","folder":"tf","game":"Team Fortress","app_id":440,"player_count":0,"max_players":24,"Bots":0,"server_type":"Dedicated","server_os":"Linux","password":true,"vac":true,"version":"7757534","steam_id":85568392925397854,"keywords":["nocrits","nodmgspread","payload","uncletopia"],"game_id":440,"stv_port":27056,"stv_name":"Uncletopia | Warsaw | 5 | Stopwatch Beta | STV","players":null},{"server_id":54,"name":"Uncletopia | Warsaw | 6 | Community","name_short":"waw-6","host":"waw-1.pl.uncletopia.com","port":27065,"enabled":true,"region":"eu","cc":"pl","latitude":52.2297,"longitude":21.017532,"reserved":0,"last_update":"0001-01-01T00:00:00Z","name_a2s":"Uncletopia | Warsaw | 6 | Community","protocol":17,"map":"pl_swiftwater_final1","folder":"tf","game":"Team Fortress","app_id":440,"player_count":0,"max_players":24,"Bots":0,"server_type":"Dedicated","server_os":"Linux","password":true,"vac":true,"version":"7757534","steam_id":85568392925397856,"keywords":["nocrits","nodmgspread","payload","uncletopia"],"game_id":440,"stv_port":27066,"stv_name":"Uncletopia | Warsaw | 6 | Community | STV","players":null}]}