{"status":true,"message":"","result":[{"server_id":9,"name":"Uncletopia | Atlanta | 1 | All Maps","name_short":"atl-1","host":"atl-1.us.uncletopia.com","port":27015,"enabled":true,"region":"us-east","cc":"us","latitude":33.753746,"longitude":-84.38633,"reserved":0,"last_update":"0001-01-01T00:00:00Z","name_a2s":"Uncletopia | Atlanta | 1 | All Maps","protocol":17,"map":"pl_upward","folder":"tf","game":"Team Fortress","app_id":440,"player_count":0,"max_players":24,"Bots":0,"server_type":"Dedicated","server_os":"Linux","password":true,"vac":true,"version":"7723704","steam_id":85568392924469982,"keywords":["nocrits","nodmgspread","payload","uncletopia"],"game_id":440,"stv_port":27016,"stv_name":"Uncletopia | Atlanta | 1 | All Maps | STV","players":null},{"server_id":400,"name":"Uncletopia | Atlanta | 3 | Stopwatch Beta","name_short":"atl-3","host":"atl-1.us.uncletopia.com","port":27035,"enabled":true,"region":"us-east","cc":"us","latitude":33.753746,"longitude":-84.38633,"reserved":0,"last_update":"0001-01-01T00:00:00Z","name_a2s":"Uncletopia | Atlanta | 3 | Stopwatch Beta","protocol":17,"map":"koth_cascade","folder":"tf","game":"Team Fortress","app_id":440,"player_count":0,"max_players":24,"Bots":0,"server_type":"Dedicated","server_os":"Linux","password":true,"vac":true,"version":"7723704","steam_id":85568392924515187,"keywords":["cp","nocrits","nodmgspread","uncletopia"],"game_id":440,"stv_port":27036,"stv_name":"Uncletopia | Atlanta | 3 | Stopwatch Beta | STV","players":null},{"server_id":401,"name":"Uncletopia | Atlanta | 4 | No Payload","name_short":"atl-4","host":"atl-1.us.uncletopia.com","port":27045,"enabled":true,"region":"us-east","cc":"us","latitude":33.753746,"longitude":-84.38633,"reserved":0,"last_update":"0001-01-01T00:00:00Z","name_a2s":"Uncletopia | Atlanta | 4 | No Payload","protocol":17,"map":"pl_pier","folder":"tf","game":"Team Fortress","app_id":440,"player_count":0,"max_players":24,"Bots":0,"server_type":"Dedicated","server_os":"Linux","password":true,"vac":true,"version":"7723704","steam_id":85568392924515188,"keywords":["nocrits","nodmgspread","payload","uncletopia"],"game_id":440,"stv_port":27046,"stv_name":"Uncletopia | Atlanta | 4 | No Payload | STV","players":null},{"server_id":2,"name":"Uncletopia | Chicago | 1 | All Maps","name_short":"chi-1","host":"chi-1.us.uncletopia.com","port":27015,"enabled":true,"region":"us-central","cc":"us","latitude":41.881832,"longitude":-87.62318,"reserved":0,"last_update":"0001-01-01T00:00:00Z","name_a2s":"Uncletopia | Chicago | 1 | All Maps","protocol":17,"map":"pl_upward","folder":"tf","game":"Team Fortress","app_id":440,"player_count":24,"max_players":24,"Bots":0,"server_type":"Dedicated","server_os":"Linux","password":true,"vac":true,"version":"7723704","steam_id":85568392924469984,"keywords":["nocrits","nodmgspread","payload","uncletopia"],"game_id":440,"stv_port":27016,"stv_name":"Uncletopia | Chicago | 1 | All Maps | STV","players":[{"user_id":387,"name":"Souper Scott","steam_id":76561198045518926,"connected_time":489000000000,"state":"active","ping":53},{"user_id":381,"name":"Kamin","steam_id":76561198255299559,"connected_time":1380000000000,"state":"active","ping":85},{"user_id":374,"name":"duneblaster0","steam_id":76561198040364680,"connected_time":2055000000000,"state":"active","ping":45},{"user_id":378,"name":"NoShen","steam_id":76561198147434663,"connected_time":1758000000000,"state":"active","ping":69},{"user_id":383,"name":"psihog","steam_id":76561197975797700,"connected_time":1310000000000,"state":"active","ping":102},{"user_id":364,"name":"Blorgus_J_Blart","steam_id":76561198430926135,"connected_time":2789000000000,"state":"active","ping":75},{"user_id":342,"name":"Ty","steam_id":76561198132068284,"connected_time":4936000000000,"state":"active","ping":67},{"user_id":380,"name":"Veirū Viseris","steam_id":76561197989857176,"connected_time":1403000000000,"state":"active","ping":152},{"user_id":337,"name":"coffee bagel","steam_id":76561198141198352,"connected_time":5402000000000,"state":"active","ping":45},{"user_id":362,"name":"SuperJagops","steam_id":76561198034689716,"connected_time":3156000000000,"state":"active","ping":61},{"user_id":367,"name":"Shepper2k","steam_id":76561198033960883,"connected_time":2548000000000,"state":"active","ping":159},{"user_id":385,"name":"Arizona","steam_id":76561198113748347,"connected_time":527000000000,"state":"active","ping":80},{"user_id":390,"name":"Spinch","steam_id":76561198296224166,"connected_time":351000000000,"state":"active","ping":87},{"user_id":351,"name":"debin","steam_id":76561198070711217,"connected_time":4186000000000,"state":"active","ping":51},{"user_id":347,"name":"Heavymainomegalul","steam_id":76561199171240696,"connected_time":4500000000000,"state":"active","ping":108},{"user_id":388,"name":"Xylemon","steam_id":76561197965297420,"connected_time":455000000000,"state":"active","ping":101},{"user_id":382,"name":"Scorpie Doodle","steam_id":76561198021845763,"connected_time":1378000000000,"state":"active","ping":39},{"user_id":340,"name":"pinglefingle","steam_id":76561198216580197,"connected_time":5351000000000,"state":"active","ping":85},{"user_id":379,"name":"CheeseCake488","steam_id":76561199407617942,"connected_time":1414000000000,"state":"active","ping":143},{"user_id":328,"name":"Croissant Guy","steam_id":76561198077719901,"connected_time":6313000000000,"state":"active","ping":81},{"user_id":334,"name":"timestew","steam_id":76561198367583372,"connected_time":5568000000000,"state":"active","ping":82},{"user_id":373,"name":"sosu","steam_id":76561198012675381,"connected_time":2143000000000,"state":"active","ping":75},{"user_id":363,"name":"Henk_de_Patatman","steam_id":76561198070103191,"connected_time":2978000000000,"state":"active","ping":133},{"user_id":392,"name":"Obsyas","steam_id":76561198374318238,"connected_time":252000000000,"state":"active","ping":87}]},{"server_id":106,"name":"Uncletopia | Chicago | 2 | All Maps","name_short":"chi-2","host":"chi-1.us.uncletopia.com","port":27025,"enabled":true,"region":"us-central","cc":"us","latitude":41.881832,"longitude":-87.62318,"reserved":0,"last_update":"0001-01-01T00:00:00Z","name_a2s":"Uncletopia | Chicago | 2 | All Maps","protocol":17,"map":"cp_dustbowl","folder":"tf","game":"Team Fortress","app_id":440,"player_count":0,"max_players":24,"Bots":0,"server_type":"Dedicated","server_os":"Linux","password":true,"vac":true,"version":"7723704","steam_id":85568392924469985,"keywords":["cp","nocrits","nodmgspread","uncletopia"],"game_id":440,"stv_port":27026,"stv_name":"Uncletopia | Chicago | 2 | All Maps | STV","players":null},{"server_id":402,"name":"Uncletopia | Chicago | 3 | All Maps","name_short":"chi-3","host":"chi-1.us.uncletopia.com","port":27035,"enabled":true,"region":"us-central","cc":"us","latitude":41.881832,"longitude":-87.62318,"reserved":0,"last_update":"0001-01-01T00:00:00Z","name_a2s":"Uncletopia | Chicago | 3 | All Maps","protocol":17,"map":"pl_frontier_final","folder":"tf","game":"Team Fortress","app_id":440,"player_count":0,"max_players":24,"Bots":0,"server_type":"Dedicated","server_os":"Linux","password":true,"vac":true,"version":"7723704","steam_id":85568392924515191,"keywords":["nocrits","nodmgspread","payload","uncletopia"],"game_id":440,"stv_port":27036,"stv_name":"Uncletopia | Chicago | 3 | All Maps | STV","players":null},{"server_id":403,"name":"Uncletopia | Chicago | 4 | All Maps","name_short":"chi-4","host":"chi-1.us.uncletopia.com","port":27045,"enabled":true,"region":"us-central","cc":"us","latitude":41.881832,"longitude":-87.62318,"reserved":0,"last_update":"0001-01-01T00:00:00Z","name_a2s":"Uncletopia | Chicago | 4 | All Maps","protocol":17,"map":"cp_coldfront","folder":"tf","game":"Team Fortress","app_id":440,"player_count":0,"max_players":24,"Bots":0,"server_type":"Dedicated","server_os":"Linux","password":true,"vac":true,"version":"7723704","steam_id":85568392924515193,"keywords":["cp","nocrits","nodmgspread","uncletopia"],"game_id":440,"stv_port":27046,"stv_name":"Uncletopia | Chicago | 4 | All Maps | STV","players":null},{"server_id":36,"name":"Uncletopia | Chicago | 5 | All Maps","name_short":"chi-5","host":"chi-2.us.uncletopia.com","port":27015,"enabled":true,"region":"us-central","cc":"us","latitude":41.881832,"longitude":-87.62318,"reserved":0,"last_update":"0001-01-01T00:00:00Z","name_a2s":"Uncletopia | Chicago | 5 | All Maps","protocol":17,"map":"pl_borneo","folder":"tf","game":"Team Fortress","app_id":440,"player_count":0,"max_players":24,"Bots":0,"server_type":"Dedicated","server_os":"Linux","password":true,"vac":true,"version":"7723704","steam_id":85568392924866362,"keywords":["nocrits","nodmgspread","payload","uncletopia"],"game_id":440,"stv_port":27016,"stv_name":"Uncletopia | Chicago | 5 | All Maps | STV","players":null},{"server_id":37,"name":"Uncletopia | Chicago | 6 | All Maps","name_short":"chi-6","host":"chi-2.us.uncletopia.com","port":27025,"enabled":true,"region":"us-central","cc":"us","latitude":41.881832,"longitude":-87.62318,"reserved":0,"last_update":"0001-01-01T00:00:00Z","name_a2s":"Uncletopia | Chicago | 6 | All Maps","protocol":17,"map":"cp_mountainlab","folder":"tf","game":"Team Fortress","app_id":440,"player_count":0,"max_players":24,"Bots":0,"server_type":"Dedicated","server_os":"Linux","password":true,"vac":true,"version":"7723704","steam_id":85568392924866363,"keywords":["cp","nocrits","nodmgspread","uncletopia"],"game_id":440,"stv_port":27026,"stv_name":"Uncletopia | Chicago | 6 | All Maps | STV","players":null},{"server_id":38,"name":"Uncletopia | Chicago | 7 | Stopwatch Beta","name_short":"chi-7","host":"chi-2.us.uncletopia.com","port":27035,"enabled":true,"region":"us-central","cc":"us","latitude":41.881832,"longitude":-87.62318,"reserved":0,"last_update":"0001-01-01T00:00:00Z","name_a2s":"Uncletopia | Chicago | 7 | Stopwatch Beta","protocol":17,"map":"pl_badwater","folder":"tf","game":"Team Fortress","app_id":440,"player_count":0,"max_players":24,"Bots":0,"server_type":"Dedicated","server_os":"Linux","password":true,"vac":true,"version":"7723704","steam_id":85568392924866364,"keywords":["nocrits","nodmgspread","payload","uncletopia"],"game_id":440,"stv_port":27036,"stv_name":"Uncletopia | Chicago | 7 | Stopwatch Beta | STV","players":null},{"server_id":39,"name":"Uncletopia | Chicago | 8 | Community","name_short":"chi-8","host":"chi-2.us.uncletopia.com","port":27045,"enabled":true,"region":"us-central","cc":"us","latitude":41.881832,"longitude":-87.62318,"reserved":0,"last_update":"0001-01-01T00:00:00Z","name_a2s":"Uncletopia | Chicago | 8 | Community","protocol":17,"map":"workshop/koth_slaughter_rc1.ugc1712845210","folder":"tf","game":"Team Fortress","app_id":440,"player_count":0,"max_players":24,"Bots":0,"server_type":"Dedicated","server_os":"Linux","password":true,"vac":true,"version":"7723704","steam_id":85568392924866365,"keywords":["cp","nocrits","nodmgspread","uncletopia"],"game_id":440,"stv_port":27046,"stv_name":"Uncletopia | Chicago | 8 | Community | STV","players":null},{"server_id":8,"name":"Uncletopia | Dallas | 1 | All Maps","name_short":"dal-1","host":"dal-1.us.uncletopia.com","port":27015,"enabled":true,"region":"us-central","cc":"us","latitude":32.779167,"longitude":-96.80889,"reserved":0,"last_update":"0001-01-01T00:00:00Z","name_a2s":"Uncletopia | Dallas | 1 | All Maps","protocol":17,"map":"cp_altitude","folder":"tf","game":"Team Fortress","app_id":440,"player_count":0,"max_players":24,"Bots":0,"server_type":"Dedicated","server_os":"Linux","password":true,"vac":true,"version":"7723704","steam_id":85568392924469986,"keywords":["cp","nocrits","nodmgspread","uncletopia"],"game_id":440,"stv_port":27016,"stv_name":"Uncletopia | Dallas | 1 | All Maps | STV","players":null},{"server_id":108,"name":"Uncletopia | Dallas | 2 | All Maps","name_short":"dal-2","host":"dal-1.us.uncletopia.com","port":27025,"enabled":true,"region":"us-central","cc":"us","latitude":32.779167,"longitude":-96.80889,"reserved":0,"last_update":"0001-01-01T00:00:00Z","name_a2s":"Uncletopia | Dallas | 2 | All Maps","protocol":17,"map":"cp_mountainlab","folder":"tf","game":"Team Fortress","app_id":440,"player_count":0,"max_players":24,"Bots":0,"server_type":"Dedicated","server_os":"Linux","password":true,"vac":true,"version":"7723704","steam_id":85568392924469988,"keywords":["cp","nocrits","nodmgspread","uncletopia"],"game_id":440,"stv_port":27026,"stv_name":"Uncletopia | Dallas | 2 | All Maps | STV","players":null},{"server_id":5,"name":"Uncletopia | Frankfurt | 1 | All Maps","name_short":"frk-1","host":"frk-1.de.uncletopia.com","port":27015,"enabled":true,"region":"eu","cc":"de","latitude":50.110924,"longitude":8.682127,"reserved":0,"last_update":"0001-01-01T00:00:00Z","name_a2s":"Uncletopia | Frankfurt | 1 | All Maps","protocol":17,"map":"koth_highpass","folder":"tf","game":"Team Fortress","app_id":440,"player_count":0,"max_players":24,"Bots":0,"server_type":"Dedicated","server_os":"Linux","password":true,"vac":true,"version":"7723704","steam_id":85568392924469989,"keywords":["cp","nocrits","nodmgspread","uncletopia"],"game_id":440,"stv_port":27016,"stv_name":"Uncletopia | Frankfurt | 1 | All Maps | STV","players":null},{"server_id":110,"name":"Uncletopia | Frankfurt | 2 | All Maps","name_short":"frk-2","host":"frk-1.de.uncletopia.com","port":27025,"enabled":true,"region":"eu","cc":"de","latitude":50.110924,"longitude":8.682127,"reserved":0,"last_update":"0001-01-01T00:00:00Z","name_a2s":"Uncletopia | Frankfurt | 2 | All Maps","protocol":17,"map":"pl_upward","folder":"tf","game":"Team Fortress","app_id":440,"player_count":24,"max_players":24,"Bots":0,"server_type":"Dedicated","server_os":"Linux","password":true,"vac":true,"version":"7723704","steam_id":85568392924469990,"keywords":["nocrits","nodmgspread","payload","uncletopia"],"game_id":440,"stv_port":27026,"stv_name":"Uncletopia | Frankfurt | 2 | All Maps | STV","players":[{"user_id":46,"name":"꧁༒Xenon༒꧂","steam_id":76561198120502313,"connected_time":4107000000000,"state":"active","ping":61},{"user_id":101,"name":"Jedi Knight","steam_id":76561198039030709,"connected_time":815000000000,"state":"active","ping":48},{"user_id":62,"name":"Millero15","steam_id":76561198143105719,"connected_time":3042000000000,"state":"active","ping":88},{"user_id":68,"name":"Sza","steam_id":76561198022132105,"connected_time":2715000000000,"state":"active","ping":61},{"user_id":104,"name":"fmdi","steam_id":76561199433879329,"connected_time":677000000000,"state":"active","ping":72},{"user_id":107,"name":"white bitch","steam_id":76561199226786465,"connected_time":591000000000,"state":"active","ping":64},{"user_id":89,"name":"\u003e:3","steam_id":76561198368312026,"connected_time":1339000000000,"state":"active","ping":69},{"user_id":108,"name":"Klik","steam_id":76561198891046692,"connected_time":573000000000,"state":"active","ping":74},{"user_id":106,"name":"Beb","steam_id":76561198106119248,"connected_time":602000000000,"state":"active","ping":67},{"user_id":103,"name":"dzban","steam_id":76561198013511672,"connected_time":712000000000,"state":"active","ping":64},{"user_id":105,"name":"twink","steam_id":76561198325760411,"connected_time":616000000000,"state":"active","ping":80},{"user_id":109,"name":"Fallen Dog","steam_id":76561198851387188,"connected_time":555000000000,"state":"active","ping":69},{"user_id":45,"name":"jorj3821","steam_id":76561198844794367,"connected_time":4133000000000,"state":"active","ping":75},{"user_id":93,"name":"generic alias","steam_id":76561198271607226,"connected_time":1181000000000,"state":"active","ping":90},{"user_id":63,"name":"cosmetical","steam_id":76561198444036574,"connected_time":2998000000000,"state":"active","ping":62},{"user_id":85,"name":"OmR","steam_id":76561198015792609,"connected_time":1440000000000,"state":"active","ping":54},{"user_id":111,"name":"Julez","steam_id":76561198045505082,"connected_time":339000000000,"state":"active","ping":75},{"user_id":110,"name":"0","steam_id":76561198335304615,"connected_time":531000000000,"state":"active","ping":85},{"user_id":56,"name":"ZazyLou_","steam_id":76561198411134617,"connected_time":3712000000000,"state":"active","ping":71},{"user_id":70,"name":"woosh","steam_id":76561198061127604,"connected_time":2277000000000,"state":"active","ping":52},{"user_id":99,"name":"meatsoupcube","steam_id":76561198276802249,"connected_time":832000000000,"state":"active","ping":103},{"user_id":100,"name":"Oak (trying native)","steam_id":76561198248567360,"connected_time":832000000000,"state":"active","ping":50},{"user_id":54,"name":"Naginacz","steam_id":76561199099232534,"connected_time":3794000000000,"state":"active","ping":64},{"user_id":92,"name":"ThighLove","steam_id":76561198055373332,"connected_time":1191000000000,"state":"active","ping":53}]},{"server_id":308,"name":"Uncletopia | Frankfurt | 3 | All Maps","name_short":"frk-3","host":"frk-1.de.uncletopia.com","port":27035,"enabled":true,"region":"eu","cc":"de","latitude":50.110924,"longitude":8.682127,"reserved":0,"last_update":"0001-01-01T00:00:00Z","name_a2s":"Uncletopia | Frankfurt | 3 | All Maps","protocol":17,"map":"pl_swiftwater_final1","folder":"tf","game":"Team Fortress","app_id":440,"player_count":24,"max_players":24,"Bots":0,"server_type":"Dedicated","server_os":"Linux","password":true,"vac":true,"version":"7723704","steam_id":85568392924504274,"keywords":["nocrits","nodmgspread","payload","uncletopia"],"game_id":440,"stv_port":27036,"stv_name":"Uncletopia | Frankfurt | 3 | All Maps | STV","players":[{"user_id":146,"name":"nyx","steam_id":76561197983889333,"connected_time":275000000000,"state":"active","ping":52},{"user_id":87,"name":"moldovan warlord","steam_id":76561198046873337,"connected_time":5409000000000,"state":"active","ping":68},{"user_id":117,"name":"lofi hip hop beats","steam_id":76561198348048790,"connected_time":3241000000000,"state":"active","ping":73},{"user_id":109,"name":"ratoshin","steam_id":76561198194433657,"connected_time":3714000000000,"state":"active","ping":52},{"user_id":57,"name":"gagalak","steam_id":76561198089979108,"connected_time":7359000000000,"state":"active","ping":90},{"user_id":147,"name":"M3talBlue","steam_id":76561198966031884,"connected_time":272000000000,"state":"active","ping":57},{"user_id":137,"name":"DannyWebbie","steam_id":76561198928086504,"connected_time":905000000000,"state":"active","ping":84},{"user_id":148,"name":"9TByron","steam_id":76561198086730020,"connected_time":230000000000,"state":"active","ping":68},{"user_id":18,"name":"wieto","steam_id":76561198050626427,"connected_time":10039000000000,"state":"active","ping":61},{"user_id":145,"name":"Senior","steam_id":76561198065014164,"connected_time":281000000000,"state":"active","ping":59},{"user_id":131,"name":"jankomit","steam_id":76561198043024857,"connected_time":1960000000000,"state":"active","ping":104},{"user_id":118,"name":"Festive Intruder","steam_id":76561198156128173,"connected_time":3234000000000,"state":"active","ping":71},{"user_id":150,"name":"Irbynx","steam_id":76561197980421195,"connected_time":211000000000,"state":"active","ping":90},{"user_id":152,"name":"tqla","steam_id":76561198073092585,"connected_time":125000000000,"state":"active","ping":86},{"user_id":139,"name":"snazzyyy","steam_id":76561198143529110,"connected_time":871000000000,"state":"active","ping":46},{"user_id":156,"name":"Fran","steam_id":76561199070516960,"connected_time":3000000000,"state":"spawning","ping":79},{"user_id":122,"name":"Vashontrash99","steam_id":76561199250946319,"connected_time":3188000000000,"state":"active","ping":125},{"user_id":143,"name":"Cuthbert","steam_id":76561198204649481,"connected_time":473000000000,"state":"active","ping":97},{"user_id":140,"name":"DeleteTrickster","steam_id":76561198397120242,"connected_time":820000000000,"state":"active","ping":76},{"user_id":149,"name":"Michael","steam_id":76561198003146906,"connected_time":225000000000,"state":"active","ping":60},{"user_id":144,"name":"104.3 kg/m² gaming","steam_id":76561198267411149,"connected_time":300000000000,"state":"active","ping":53},{"user_id":142,"name":"Tank","steam_id":76561199059174576,"connected_time":588000000000,"state":"active","ping":118},{"user_id":154,"name":"Fluffy","steam_id":76561198084447725,"connected_time":105000000000,"state":"active","ping":59},{"user_id":155,"name":"Nummi","steam_id":76561198980901935,"connected_time":104000000000,"state":"active","ping":86}]},{"server_id":309,"name":"Uncletopia | Frankfurt | 4 | All Maps","name_short":"frk-4","host":"frk-1.de.uncletopia.com","port":27045,"enabled":true,"region":"eu","cc":"de","latitude":50.110924,"longitude":8.682127,"reserved":0,"last_update":"0001-01-01T00:00:00Z","name_a2s":"Uncletopia | Frankfurt | 4 | All Maps","protocol":17,"map":"cp_dustbowl","folder":"tf","game":"Team Fortress","app_id":440,"player_count":1,"max_players":24,"Bots":0,"server_type":"Dedicated","server_os":"Linux","password":true,"vac":true,"version":"7723704","steam_id":85568392924504275,"keywords":["cp","nocrits","nodmgspread","uncletopia"],"game_id":440,"stv_port":27046,"stv_name":"Uncletopia | Frankfurt | 4 | All Maps | STV","players":[{"user_id":7,"name":"I-I","steam_id":76561198267969436,"connected_time":23000000000,"state":"active","ping":55}]},{"server_id":310,"name":"Uncletopia | Frankfurt | 5 | All Maps","name_short":"frk-5","host":"frk-1.de.uncletopia.com","port":27055,"enabled":true,"region":"eu","cc":"de","latitude":50.110924,"longitude":8.682127,"reserved":0,"last_update":"0001-01-01T00:00:00Z","name_a2s":"Uncletopia | Frankfurt | 5 | All Maps","protocol":17,"map":"pl_snowycoast","folder":"tf","game":"Team Fortress","app_id":440,"player_count":24,"max_players":24,"Bots":0,"server_type":"Dedicated","server_os":"Linux","password":true,"vac":true,"version":"7723704","steam_id":85568392924504277,"keywords":["nocrits","nodmgspread","payload","uncletopia"],"game_id":440,"stv_port":27056,"stv_name":"Uncletopia | Frankfurt | 5 | All Maps | STV","players":[{"user_id":92,"name":"bull.","steam_id":76561197965462062,"connected_time":1818000000000,"state":"active","ping":69},{"user_id":103,"name":"dafydd","steam_id":76561198052200325,"connected_time":631000000000,"state":"active","ping":77},{"user_id":81,"name":"Sloppy polish handyman","steam_id":76561198126398022,"connected_time":2786000000000,"state":"active","ping":73},{"user_id":74,"name":"VIN WEASEL","steam_id":76561198014387066,"connected_time":3558000000000,"state":"active","ping":48},{"user_id":102,"name":"Assassin","steam_id":76561199016050401,"connected_time":848000000000,"state":"active","ping":123},{"user_id":109,"name":"Cats4E","steam_id":76561198403547639,"connected_time":90000000000,"state":"active","ping":45},{"user_id":11,"name":"Wujek Cacek","steam_id":76561198010267943,"connected_time":7741000000000,"state":"active","ping":72},{"user_id":84,"name":"self care","steam_id":76561199117720299,"connected_time":2642000000000,"state":"active","ping":56},{"user_id":79,"name":"tete","steam_id":76561198045222850,"connected_time":2791000000000,"state":"active","ping":72},{"user_id":106,"name":"CAMON ENGELAND","steam_id":76561198054301125,"connected_time":527000000000,"state":"active","ping":90},{"user_id":95,"name":"low-income polish city","steam_id":76561199433578516,"connected_time":1318000000000,"state":"active","ping":80},{"user_id":104,"name":"WolfmanCZ","steam_id":76561199157141414,"connected_time":595000000000,"state":"active","ping":73},{"user_id":51,"name":"advanced polish lifeform","steam_id":76561198062107879,"connected_time":5376000000000,"state":"active","ping":78},{"user_id":90,"name":"Void_Walker","steam_id":76561199401516997,"connected_time":2239000000000,"state":"active","ping":66},{"user_id":107,"name":"bigfoot","steam_id":76561199250346307,"connected_time":519000000000,"state":"active","ping":66},{"user_id":93,"name":"Layton","steam_id":76561198087221314,"connected_time":1682000000000,"state":"active","ping":49},{"user_id":96,"name":":)","steam_id":76561198977420882,"connected_time":1287000000000,"state":"active","ping":53},{"user_id":108,"name":"spy","steam_id":76561199053898447,"connected_time":396000000000,"state":"active","ping":93},{"user_id":98,"name":"Hedj","steam_id":76561198108369687,"connected_time":1219000000000,"state":"active","ping":46},{"user_id":94,"name":"unbelievable polish behavior","steam_id":76561198126524735,"connected_time":1424000000000,"state":"active","ping":75},{"user_id":91,"name":"Scipionemiliano","steam_id":76561198027646559,"connected_time":1918000000000,"state":"active","ping":113},{"user_id":63,"name":"Saihtama","steam_id":76561198067497192,"connected_time":4856000000000,"state":"active","ping":59},{"user_id":77,"name":"xavier :)","steam_id":76561198076494034,"connected_time":2913000000000,"state":"active","ping":58},{"user_id":101,"name":"KGiorgios_Bully","steam_id":76561198825392728,"connected_time":1001000000000,"state":"active","ping":120}]},{"server_id":311,"name":"Uncletopia | Frankfurt | 6 | All Maps","name_short":"frk-6","host":"frk-1.de.uncletopia.com","port":27065,"enabled":true,"region":"eu","cc":"de","latitude":50.110924,"longitude":8.682127,"reserved":0,"last_update":"0001-01-01T00:00:00Z","name_a2s":"Uncletopia | Frankfurt | 6 | All Maps","protocol":17,"map":"pl_swiftwater_final1","folder":"tf","game":"Team Fortress","app_id":440,"player_count":0,"max_players":24,"Bots":0,"server_type":"Dedicated","server_os":"Linux","password":true,"vac":true,"version":"7723704","steam_id":85568392924504278,"keywords":["nocrits","nodmgspread","payload","uncletopia"],"game_id":440,"stv_port":27066,"stv_name":"Uncletopia | Frankfurt | 6 | All Maps | STV","players":null},{"server_id":23,"name":"Uncletopia | Frankfurt | 7 | Stopwatch Beta","name_short":"frk-7","host":"frk-1.de.uncletopia.com","port":27075,"enabled":true,"region":"eu","cc":"de","latitude":50.110924,"longitude":8.682127,"reserved":0,"last_update":"0001-01-01T00:00:00Z","name_a2s":"Uncletopia | Frankfurt | 7 | Stopwatch Beta","protocol":17,"map":"koth_viaduct","folder":"tf","game":"Team Fortress","app_id":440,"player_count":0,"max_players":24,"Bots":0,"server_type":"Dedicated","server_os":"Linux","password":true,"vac":true,"version":"7723704","steam_id":85568392924742827,"keywords":["cp","nocrits","nodmgspread","uncletopia"],"game_id":440,"stv_port":27076,"stv_name":"Uncletopia | Frankfurt | 7 | Stopwatch Beta | STV","players":null},{"server_id":24,"name":"Uncletopia | Frankfurt | 8 | Community","name_short":"frk-8","host":"frk-1.de.uncletopia.com","port":27085,"enabled":true,"region":"eu","cc":"de","latitude":50.110924,"longitude":8.682127,"reserved":0,"last_update":"0001-01-01T00:00:00Z","name_a2s":"Uncletopia | Frankfurt | 8 | Community","protocol":17,"map":"pl_frontier_final","folder":"tf","game":"Team Fortress","app_id":440,"player_count":0,"max_players":24,"Bots":0,"server_type":"Dedicated","server_os":"Linux","password":true,"vac":true,"version":"7723704","steam_id":85568392924742828,"keywords":["nocrits","nodmgspread","payload","uncletopia"],"game_id":440,"stv_port":27086,"stv_name":"Uncletopia | Frankfurt | 8 | Community | STV","players":null},{"server_id":202,"name":"Uncletopia | Hong Kong | 1 | All Maps","name_short":"hgk-1","host":"hgk-1.hk.uncletopia.com","port":27015,"enabled":true,"region":"asia","cc":"hk","latitude":22.302711,"longitude":114.177216,"reserved":0,"last_update":"0001-01-01T00:00:00Z","name_a2s":"Uncletopia | Hong Kong | 1 | All Maps","protocol":17,"map":"pl_borneo","folder":"tf","game":"Team Fortress","app_id":440,"player_count":20,"max_players":24,"Bots":0,"server_type":"Dedicated","server_os":"Linux","password":true,"vac":true,"version":"7723704","steam_id":85568392924494504,"keywords":["nocrits","nodmgspread","payload","uncletopia"],"game_id":440,"stv_port":27016,"stv_name":"Uncletopia | Hong Kong | 1 | All Maps | STV","players":[{"user_id":206,"name":"master glu eater","steam_id":76561198069402937,"connected_time":2266000000000,"state":"active","ping":84},{"user_id":207,"name":"Cá Tháng 4","steam_id":76561198047162026,"connected_time":2027000000000,"state":"active","ping":64},{"user_id":225,"name":"17","steam_id":76561198241530712,"connected_time":23000000000,"state":"active","ping":53},{"user_id":198,"name":"yw","steam_id":76561199382726488,"connected_time":3175000000000,"state":"active","ping":73},{"user_id":187,"name":"Cheesey","steam_id":76561198975684137,"connected_time":4595000000000,"state":"active","ping":91},{"user_id":201,"name":"bocchi have the bocchis","steam_id":76561198412329672,"connected_time":3103000000000,"state":"active","ping":97},{"user_id":192,"name":"SAD MUSIC FOR HORNY PEOPLE","steam_id":76561198413116920,"connected_time":3736000000000,"state":"active","ping":80},{"user_id":119,"name":"Cipher(#savetf2)","steam_id":76561198796591492,"connected_time":9209000000000,"state":"active","ping":104},{"user_id":167,"name":"煙海 | Enkai","steam_id":76561198050460825,"connected_time":5384000000000,"state":"active","ping":75},{"user_id":55,"name":"bistek","steam_id":76561198230213828,"connected_time":13761000000000,"state":"active","ping":64},{"user_id":161,"name":"Bertengkar","steam_id":76561198213031155,"connected_time":5479000000000,"state":"active","ping":97},{"user_id":194,"name":"screaming sniper","steam_id":76561199085568674,"connected_time":3663000000000,"state":"active","ping":59},{"user_id":215,"name":"dunkleshreken","steam_id":76561198044875028,"connected_time":783000000000,"state":"active","ping":95},{"user_id":209,"name":"Checkyoursix","steam_id":76561199080781578,"connected_time":1653000000000,"state":"active","ping":58},{"user_id":145,"name":"tiden2000","steam_id":76561198092969425,"connected_time":6701000000000,"state":"active","ping":68},{"user_id":223,"name":"TonXD","steam_id":76561199024372559,"connected_time":90000000000,"state":"active","ping":102},{"user_id":217,"name":"Noyour","steam_id":76561198323259830,"connected_time":616000000000,"state":"active","ping":112},{"user_id":226,"name":":D","steam_id":76561198009692495,"connected_time":19000000000,"state":"active","ping":94},{"user_id":184,"name":"ุ","steam_id":76561198865429561,"connected_time":4670000000000,"state":"active","ping":90},{"user_id":221,"name":"OwlOfHighMoist","steam_id":76561198231299276,"connected_time":135000000000,"state":"active","ping":104}]},{"server_id":1,"name":"Uncletopia | Los Angeles | 1 | All Maps","name_short":"lax-1","host":"lax-1.us.uncletopia.com","port":27015,"enabled":true,"region":"us-west","cc":"us","latitude":33.94279,"longitude":-118.41004,"reserved":0,"last_update":"0001-01-01T00:00:00Z","name_a2s":"Uncletopia | Los Angeles | 1 | All Maps","protocol":17,"map":"pl_snowycoast","folder":"tf","game":"Team Fortress","app_id":440,"player_count":0,"max_players":24,"Bots":0,"server_type":"Dedicated","server_os":"Linux","password":true,"vac":true,"version":"7723704","steam_id":85568392924469991,"keywords":["nocrits","nodmgspread","payload","uncletopia"],"game_id":440,"stv_port":27016,"stv_name":"Uncletopia | Los Angeles | 1 | All Maps | STV","players":null},{"server_id":112,"name":"Uncletopia | Los Angeles | 2 | All Maps","name_short":"lax-2","host":"lax-1.us.uncletopia.com","port":27025,"enabled":true,"region":"us-west","cc":"us","latitude":33.94279,"longitude":-118.41004,"reserved":0,"last_update":"0001-01-01T00:00:00Z","name_a2s":"Uncletopia | Los Angeles | 2 | All Maps","protocol":17,"map":"koth_viaduct","folder":"tf","game":"Team Fortress","app_id":440,"player_count":0,"max_players":24,"Bots":0,"server_type":"Dedicated","server_os":"Linux","password":true,"vac":true,"version":"7723704","steam_id":85568392924469992,"keywords":["cp","nocrits","nodmgspread","uncletopia"],"game_id":440,"stv_port":27026,"stv_name":"Uncletopia | Los Angeles | 2 | All Maps | STV","players":null},{"server_id":324,"name":"Uncletopia | Los Angeles | 3 | All Maps","name_short":"lax-3","host":"lax-1.us.uncletopia.com","port":27035,"enabled":true,"region":"us-west","cc":"us","latitude":33.94279,"longitude":-118.41004,"reserved":0,"last_update":"0001-01-01T00:00:00Z","name_a2s":"Uncletopia | Los Angeles | 3 | All Maps","protocol":17,"map":"koth_viaduct","folder":"tf","game":"Team Fortress","app_id":440,"player_count":0,"max_players":24,"Bots":0,"server_type":"Dedicated","server_os":"Linux","password":true,"vac":true,"version":"7723704","steam_id":85568392924510198,"keywords":["cp","nocrits","nodmgspread","uncletopia"],"game_id":440,"stv_port":27036,"stv_name":"Uncletopia | Los Angeles | 3 | All Maps | STV","players":null},{"server_id":25,"name":"Uncletopia | Los Angeles | 4 | Stopwatch Beta","name_short":"lax-4","host":"lax-1.us.uncletopia.com","port":27045,"enabled":true,"region":"us-west","cc":"us","latitude":33.94279,"longitude":-118.41004,"reserved":0,"last_update":"0001-01-01T00:00:00Z","name_a2s":"Uncletopia | Los Angeles | 4 | Stopwatch Beta","protocol":17,"map":"cp_sunshine","folder":"tf","game":"Team Fortress","app_id":440,"player_count":0,"max_players":24,"Bots":0,"server_type":"Dedicated","server_os":"Linux","password":true,"vac":true,"version":"7723704","steam_id":85568392924510199,"keywords":["cp","nocrits","nodmgspread","uncletopia"],"game_id":440,"stv_port":27046,"stv_name":"Uncletopia | Los Angeles | 4 | Stopwatch Beta | STV","players":null},{"server_id":11,"name":"Uncletopia | London | 1 | All Maps","name_short":"lon-1","host":"lon-1.uk.uncletopia.com","port":27015,"enabled":true,"region":"eu","cc":"gb","latitude":51.509865,"longitude":-0.118092,"reserved":0,"last_update":"0001-01-01T00:00:00Z","name_a2s":"Uncletopia | London | 1 | All Maps","protocol":17,"map":"pl_snowycoast","folder":"tf","game":"Team Fortress","app_id":440,"player_count":9,"max_players":24,"Bots":0,"server_type":"Dedicated","server_os":"Linux","password":true,"vac":true,"version":"7723704","steam_id":85568392924367362,"keywords":["nocrits","nodmgspread","payload","uncletopia"],"game_id":440,"stv_port":27016,"stv_name":"Uncletopia | London | 1 | All Maps | STV","players":[{"user_id":22,"name":"Kahvi","steam_id":76561198723244199,"connected_time":71000000000,"state":"active","ping":76},{"user_id":23,"name":"F","steam_id":76561199149462792,"connected_time":57000000000,"state":"active","ping":52},{"user_id":11,"name":"Shawty","steam_id":76561198256704286,"connected_time":744000000000,"state":"active","ping":60},{"user_id":18,"name":"Shimas","steam_id":76561198867546842,"connected_time":366000000000,"state":"active","ping":61},{"user_id":15,"name":"Speedwagon","steam_id":76561198387667243,"connected_time":446000000000,"state":"active","ping":132},{"user_id":16,"name":"Pauler le one","steam_id":76561198398152855,"connected_time":414000000000,"state":"active","ping":90},{"user_id":17,"name":"HOCK3N","steam_id":76561198805431094,"connected_time":401000000000,"state":"active","ping":146},{"user_id":20,"name":"AforeKingDwarf","steam_id":76561198043562926,"connected_time":258000000000,"state":"active","ping":45},{"user_id":21,"name":"Astrodion","steam_id":76561197996938388,"connected_time":253000000000,"state":"active","ping":47}]},{"server_id":114,"name":"Uncletopia | London | 2 | All Maps","name_short":"lon-2","host":"lon-1.uk.uncletopia.com","port":27025,"enabled":true,"region":"eu","cc":"gb","latitude":51.509865,"longitude":-0.118092,"reserved":0,"last_update":"0001-01-01T00:00:00Z","name_a2s":"Uncletopia | London | 2 | All Maps","protocol":17,"map":"pl_borneo","folder":"tf","game":"Team Fortress","app_id":440,"player_count":0,"max_players":24,"Bots":0,"server_type":"Dedicated","server_os":"Linux","password":true,"vac":true,"version":"7723704","steam_id":85568392924470941,"keywords":["nocrits","nodmgspread","payload","uncletopia"],"game_id":440,"stv_port":27026,"stv_name":"Uncletopia | London | 2 | All Maps | STV","players":null},{"server_id":320,"name":"Uncletopia | London | 3 | All Maps","name_short":"lon-3","host":"lon-1.uk.uncletopia.com","port":27035,"enabled":true,"region":"eu","cc":"gb","latitude":51.509865,"longitude":-0.118092,"reserved":0,"last_update":"0001-01-01T00:00:00Z","name_a2s":"Uncletopia | London | 3 | All Maps","protocol":17,"map":"pl_frontier_final","folder":"tf","game":"Team Fortress","app_id":440,"player_count":24,"max_players":24,"Bots":0,"server_type":"Dedicated","server_os":"Linux","password":true,"vac":true,"version":"7723704","steam_id":85568392924510192,"keywords":["nocrits","nodmgspread","payload","uncletopia"],"game_id":440,"stv_port":27036,"stv_name":"Uncletopia | London | 3 | All Maps | STV","players":[{"user_id":166,"name":"Joy","steam_id":76561198155314925,"connected_time":2674000000000,"state":"active","ping":53},{"user_id":188,"name":"stupid lil dingus","steam_id":76561199208482994,"connected_time":1202000000000,"state":"active","ping":59},{"user_id":170,"name":"godmodule","steam_id":76561198165995444,"connected_time":2355000000000,"state":"active","ping":75},{"user_id":196,"name":"Soerlssoelssöen","steam_id":76561197993060585,"connected_time":882000000000,"state":"active","ping":73},{"user_id":199,"name":"T_G_G","steam_id":76561199114568070,"connected_time":783000000000,"state":"active","ping":79},{"user_id":150,"name":"the funny","steam_id":76561198257158275,"connected_time":4219000000000,"state":"active","ping":155},{"user_id":208,"name":"Untermenshh","steam_id":76561198284636705,"connected_time":13000000000,"state":"spawning","ping":118},{"user_id":151,"name":"Vic maher","steam_id":76561198097523768,"connected_time":4117000000000,"state":"active","ping":56},{"user_id":183,"name":"ToxychDaPacket","steam_id":76561198191216334,"connected_time":1622000000000,"state":"active","ping":103},{"user_id":157,"name":"Svilar","steam_id":76561198828348612,"connected_time":3142000000000,"state":"active","ping":53},{"user_id":206,"name":"pinkerton","steam_id":76561198083103830,"connected_time":174000000000,"state":"active","ping":104},{"user_id":190,"name":"Shrimpeee","steam_id":76561199012689768,"connected_time":1157000000000,"state":"active","ping":54},{"user_id":55,"name":"Guy with squares as username","steam_id":76561198269524918,"connected_time":11942000000000,"state":"active","ping":50},{"user_id":178,"name":"Minecraftien_76","steam_id":76561198443111849,"connected_time":2045000000000,"state":"active","ping":93},{"user_id":201,"name":"lavandass","steam_id":76561198854254248,"connected_time":558000000000,"state":"active","ping":77},{"user_id":205,"name":"DrExplosive","steam_id":76561198063678579,"connected_time":333000000000,"state":"active","ping":41},{"user_id":176,"name":"Methro","steam_id":76561198090358585,"connected_time":2250000000000,"state":"active","ping":91},{"user_id":179,"name":"Lepek","steam_id":76561198092532526,"connected_time":2029000000000,"state":"active","ping":69},{"user_id":209,"name":"Jeg","steam_id":76561198405291408,"connected_time":10000000000,"state":"spawning","ping":215},{"user_id":193,"name":"Rodia","steam_id":76561197968293161,"connected_time":1121000000000,"state":"active","ping":74},{"user_id":177,"name":"juginjr","steam_id":76561198134899981,"connected_time":2220000000000,"state":"active","ping":41},{"user_id":158,"name":"Sputnik1","steam_id":76561199059003709,"connected_time":3135000000000,"state":"active","ping":115},{"user_id":204,"name":"madman hesus","steam_id":76561198159702599,"connected_time":362000000000,"state":"active","ping":72},{"user_id":197,"name":"tuukka","steam_id":76561198890409949,"connected_time":881000000000,"state":"active","ping":106}]},{"server_id":321,"name":"Uncletopia | London | 4 | All Maps","name_short":"lon-4","host":"lon-1.uk.uncletopia.com","port":27045,"enabled":true,"region":"eu","cc":"gb","latitude":51.509865,"longitude":-0.118092,"reserved":0,"last_update":"0001-01-01T00:00:00Z","name_a2s":"Uncletopia | London | 4 | All Maps","protocol":17,"map":"koth_lakeside_final","folder":"tf","game":"Team Fortress","app_id":440,"player_count":0,"max_players":24,"Bots":0,"server_type":"Dedicated","server_os":"Linux","password":true,"vac":true,"version":"7723704","steam_id":85568392924510193,"keywords":["cp","nocrits","nodmgspread","uncletopia"],"game_id":440,"stv_port":27046,"stv_name":"Uncletopia | London | 4 | All Maps | STV","players":null},{"server_id":21,"name":"Uncletopia | London | 5 | All Maps","name_short":"lon-5","host":"lon-1.uk.uncletopia.com","port":27055,"enabled":true,"region":"eu","cc":"gb","latitude":51.509865,"longitude":-0.118092,"reserved":0,"last_update":"0001-01-01T00:00:00Z","name_a2s":"Uncletopia | London | 5 | All Maps","protocol":17,"map":"koth_viaduct","folder":"tf","game":"Team Fortress","app_id":440,"player_count":0,"max_players":24,"Bots":0,"server_type":"Dedicated","server_os":"Linux","password":true,"vac":true,"version":"7723704","steam_id":85568392924742829,"keywords":["cp","nocrits","nodmgspread","uncletopia"],"game_id":440,"stv_port":27056,"stv_name":"Uncletopia | London | 5 | All Maps | STV","players":null},{"server_id":22,"name":"Uncletopia | London | 6 | All Maps","name_short":"lon-6","host":"lon-1.uk.uncletopia.com","port":27065,"enabled":true,"region":"eu","cc":"gb","latitude":51.509865,"longitude":-0.118092,"reserved":0,"last_update":"0001-01-01T00:00:00Z","name_a2s":"Uncletopia | London | 6 | All Maps","protocol":17,"map":"pl_upward","folder":"tf","game":"Team Fortress","app_id":440,"player_count":0,"max_players":24,"Bots":0,"server_type":"Dedicated","server_os":"Linux","password":true,"vac":true,"version":"7723704","steam_id":85568392924742830,"keywords":["nocrits","nodmgspread","payload","uncletopia"],"game_id":440,"stv_port":27066,"stv_name":"Uncletopia | London | 6 | All Maps | STV","players":null},{"server_id":40,"name":"Uncletopia | London | 7 | No Payload","name_short":"lon-7","host":"lon-1.uk.uncletopia.com","port":27075,"enabled":true,"region":"eu","cc":"gb","latitude":51.509865,"longitude":-0.118092,"reserved":0,"last_update":"0001-01-01T00:00:00Z","name_a2s":"Uncletopia | London | 7 | No Payload","protocol":17,"map":"koth_viaduct","folder":"tf","game":"Team Fortress","app_id":440,"player_count":0,"max_players":24,"Bots":0,"server_type":"Dedicated","server_os":"Linux","password":true,"vac":true,"version":"7723704","steam_id":85568392924964314,"keywords":["cp","nocrits","nodmgspread","uncletopia"],"game_id":440,"stv_port":27076,"stv_name":"Uncletopia | London | 7 | No Payload | STV","players":null},{"server_id":41,"name":"Uncletopia | London | 8 | Community","name_short":"lon-8","host":"lon-1.uk.uncletopia.com","port":27085,"enabled":true,"region":"eu","cc":"gb","latitude":51.509865,"longitude":-0.118092,"reserved":0,"last_update":"0001-01-01T00:00:00Z","name_a2s":"Uncletopia | London | 8 | Community","protocol":17,"map":"koth_highpass","folder":"tf","game":"Team Fortress","app_id":440,"player_count":0,"max_players":24,"Bots":0,"server_type":"Dedicated","server_os":"Linux","password":true,"vac":true,"version":"7723704","steam_id":85568392924964315,"keywords":["cp","nocrits","nodmgspread","uncletopia"],"game_id":440,"stv_port":27086,"stv_name":"Uncletopia | London | 8 | Community | STV","players":null},{"server_id":300,"name":"Uncletopia | Montréal | 1 | All Maps","name_short":"mtl-1","host":"mtl-1.ca.uncletopia.com","port":27015,"enabled":true,"region":"us-east","cc":"ca","latitude":45.50889,"longitude":-73.56167,"reserved":0,"last_update":"0001-01-01T00:00:00Z","name_a2s":"Uncletopia | Montréal | 1 | All Maps","protocol":17,"map":"pl_snowycoast","folder":"tf","game":"Team Fortress","app_id":440,"player_count":0,"max_players":24,"Bots":0,"server_type":"Dedicated","server_os":"Linux","password":true,"vac":true,"version":"7723704","steam_id":85568392924500087,"keywords":["nocrits","nodmgspread","payload","uncletopia"],"game_id":440,"stv_port":27016,"stv_name":"Uncletopia | Montréal | 1 | All Maps | STV","players":null},{"server_id":301,"name":"Uncletopia | Montréal | 2 | All Maps","name_short":"mtl-2","host":"mtl-1.ca.uncletopia.com","port":27025,"enabled":true,"region":"us-east","cc":"ca","latitude":45.50889,"longitude":-73.56167,"reserved":0,"last_update":"0001-01-01T00:00:00Z","name_a2s":"Uncletopia | Montréal | 2 | All Maps","protocol":17,"map":"cp_process_final","folder":"tf","game":"Team Fortress","app_id":440,"player_count":0,"max_players":24,"Bots":0,"server_type":"Dedicated","server_os":"Linux","password":true,"vac":true,"version":"7723704","steam_id":85568392924500088,"keywords":["cp","nocrits","nodmgspread","uncletopia"],"game_id":440,"stv_port":27026,"stv_name":"Uncletopia | Montréal | 2 | All Maps | STV","players":null},{"server_id":302,"name":"Uncletopia | Montréal | 3 | All Maps","name_short":"mtl-3","host":"mtl-1.ca.uncletopia.com","port":27035,"enabled":true,"region":"us-east","cc":"ca","latitude":45.50889,"longitude":-73.56167,"reserved":0,"last_update":"0001-01-01T00:00:00Z","name_a2s":"Uncletopia | Montréal | 3 | All Maps","protocol":17,"map":"pl_barnblitz","folder":"tf","game":"Team Fortress","app_id":440,"player_count":0,"max_players":24,"Bots":0,"server_type":"Dedicated","server_os":"Linux","password":true,"vac":true,"version":"7723704","steam_id":85568392924500089,"keywords":["nocrits","nodmgspread","payload","uncletopia"],"game_id":440,"stv_port":27036,"stv_name":"Uncletopia | Montréal | 3 | All Maps | STV","players":null},{"server_id":303,"name":"Uncletopia | Montréal | 4 | No Payload","name_short":"mtl-4","host":"mtl-1.ca.uncletopia.com","port":27045,"enabled":true,"region":"us-east","cc":"ca","latitude":45.50889,"longitude":-73.56167,"reserved":0,"last_update":"0001-01-01T00:00:00Z","name_a2s":"Uncletopia | Montréal | 4 | No Payload","protocol":17,"map":"koth_cascade","folder":"tf","game":"Team Fortress","app_id":440,"player_count":0,"max_players":24,"Bots":0,"server_type":"Dedicated","server_os":"Linux","password":true,"vac":true,"version":"7723704","steam_id":85568392924500090,"keywords":["cp","nocrits","nodmgspread","uncletopia"],"game_id":440,"stv_port":27046,"stv_name":"Uncletopia | Montréal | 4 | No Payload | STV","players":null},{"server_id":13,"name":"Uncletopia | New York City | 1 | All Maps","name_short":"nyc-1","host":"nyc-1.us.uncletopia.com","port":27015,"enabled":true,"region":"us-east","cc":"us","latitude":40.73061,"longitude":-73.93524,"reserved":0,"last_update":"0001-01-01T00:00:00Z","name_a2s":"Uncletopia | New York City | 1 | All Maps","protocol":17,"map":"pl_upward","folder":"tf","game":"Team Fortress","app_id":440,"player_count":0,"max_players":24,"Bots":0,"server_type":"Dedicated","server_os":"Linux","password":true,"vac":true,"version":"7723704","steam_id":85568392924469993,"keywords":["nocrits","nodmgspread","payload","uncletopia"],"game_id":440,"stv_port":27016,"stv_name":"Uncletopia | New York City | 1 | All Maps | STV","players":null},{"server_id":14,"name":"Uncletopia | New York City | 2 | All Maps","name_short":"nyc-2","host":"nyc-1.us.uncletopia.com","port":27025,"enabled":true,"region":"us-east","cc":"us","latitude":40.73061,"longitude":-73.93524,"reserved":0,"last_update":"0001-01-01T00:00:00Z","name_a2s":"Uncletopia | New York City | 2 | All Maps","protocol":17,"map":"pl_barnblitz","folder":"tf","game":"Team Fortress","app_id":440,"player_count":0,"max_players":24,"Bots":0,"server_type":"Dedicated","server_os":"Linux","password":true,"vac":true,"version":"7723704","steam_id":85568392924469994,"keywords":["nocrits","nodmgspread","payload","uncletopia"],"game_id":440,"stv_port":27026,"stv_name":"Uncletopia | New York City | 2 | All Maps | STV","players":null},{"server_id":15,"name":"Uncletopia | New York City | 3 | Stopwatch Beta","name_short":"nyc-3","host":"nyc-1.us.uncletopia.com","port":27035,"enabled":true,"region":"us-east","cc":"us","latitude":40.73061,"longitude":-73.93524,"reserved":0,"last_update":"0001-01-01T00:00:00Z","name_a2s":"Uncletopia | New York City | 3 | Stopwatch Beta","protocol":17,"map":"cp_sunshine","folder":"tf","game":"Team Fortress","app_id":440,"player_count":0,"max_players":24,"Bots":0,"server_type":"Dedicated","server_os":"Linux","password":true,"vac":true,"version":"7723704","steam_id":85568392924742820,"keywords":["cp","nocrits","nodmgspread","uncletopia"],"game_id":440,"stv_port":27036,"stv_name":"Uncletopia | New York City | 3 | Stopwatch Beta | STV","players":null},{"server_id":16,"name":"Uncletopia | New York City | 4 | Community","name_short":"nyc-4","host":"nyc-1.us.uncletopia.com","port":27045,"enabled":true,"region":"us-east","cc":"us","latitude":40.73061,"longitude":-73.93524,"reserved":0,"last_update":"0001-01-01T00:00:00Z","name_a2s":"Uncletopia | New York City | 4 | Community","protocol":17,"map":"pl_frontier_final","folder":"tf","game":"Team Fortress","app_id":440,"player_count":0,"max_players":24,"Bots":0,"server_type":"Dedicated","server_os":"Linux","password":true,"vac":true,"version":"7723704","steam_id":85568392924742821,"keywords":["nocrits","nodmgspread","payload","uncletopia"],"game_id":440,"stv_port":27046,"stv_name":"Uncletopia | New York City | 4 | Community | STV","players":null},{"server_id":142,"name":"Uncletopia | São Paulo | 1 | All Maps","name_short":"sao-1","host":"sao-1.br.uncletopia.com","port":27015,"enabled":true,"region":"sa","cc":"br","latitude":-23.533773,"longitude":-46.62529,"reserved":0,"last_update":"0001-01-01T00:00:00Z","name_a2s":"Uncletopia | São Paulo | 1 | All Maps","protocol":17,"map":"pl_badwater","folder":"tf","game":"Team Fortress","app_id":440,"player_count":0,"max_players":24,"Bots":0,"server_type":"Dedicated","server_os":"Linux","password":true,"vac":true,"version":"7723704","steam_id":85568392924469996,"keywords":["nocrits","nodmgspread","payload","uncletopia"],"game_id":440,"stv_port":27016,"stv_name":"Uncletopia | São Paulo | 1 | All Maps | STV","players":null},{"server_id":143,"name":"Uncletopia | São Paulo | 2 | All Maps","name_short":"sao-2","host":"sao-2.br.uncletopia.com","port":27015,"enabled":true,"region":"sa","cc":"br","latitude":-23.533773,"longitude":-46.62529,"reserved":0,"last_update":"0001-01-01T00:00:00Z","name_a2s":"Uncletopia | São Paulo | 2 | All Maps","protocol":17,"map":"pl_frontier_final","folder":"tf","game":"Team Fortress","app_id":440,"player_count":0,"max_players":24,"Bots":0,"server_type":"Dedicated","server_os":"Linux","password":true,"vac":true,"version":"7723704","steam_id":85568392924485349,"keywords":["nocrits","nodmgspread","payload","uncletopia"],"game_id":440,"stv_port":27016,"stv_name":"Uncletopia | São Paulo | 2 | All Maps | STV","players":null},{"server_id":7,"name":"Uncletopia | Seattle | 1 | All Maps","name_short":"sea-1","host":"sea-1.us.uncletopia.com","port":27015,"enabled":true,"region":"us-west","cc":"us","latitude":47.608013,"longitude":-122.33517,"reserved":0,"last_update":"0001-01-01T00:00:00Z","name_a2s":"Uncletopia | Seattle | 1 | All Maps","protocol":17,"map":"koth_highpass","folder":"tf","game":"Team Fortress","app_id":440,"player_count":0,"max_players":24,"Bots":0,"server_type":"Dedicated","server_os":"Linux","password":true,"vac":true,"version":"7723704","steam_id":85568392924469997,"keywords":["cp","nocrits","nodmgspread","uncletopia"],"game_id":440,"stv_port":27016,"stv_name":"Uncletopia | Seattle | 1 | All Maps | STV","players":null},{"server_id":119,"name":"Uncletopia | Seattle | 2 | All Maps","name_short":"sea-2","host":"sea-1.us.uncletopia.com","port":27025,"enabled":true,"region":"us-west","cc":"us","latitude":47.608013,"longitude":-122.33517,"reserved":0,"last_update":"0001-01-01T00:00:00Z","name_a2s":"Uncletopia | Seattle | 2 | All Maps","protocol":17,"map":"pl_pier","folder":"tf","game":"Team Fortress","app_id":440,"player_count":13,"max_players":24,"Bots":0,"server_type":"Dedicated","server_os":"Linux","password":true,"vac":true,"version":"7723704","steam_id":85568392924469998,"keywords":["nocrits","nodmgspread","payload","uncletopia"],"game_id":440,"stv_port":27026,"stv_name":"Uncletopia | Seattle | 2 | All Maps | STV","players":[{"user_id":146,"name":"blightrot","steam_id":76561198099445256,"connected_time":5485000000000,"state":"spawning","ping":127},{"user_id":198,"name":"Brando","steam_id":76561198078306678,"connected_time":21000000000,"state":"spawning","ping":129},{"user_id":197,"name":"Ecliptica","steam_id":76561198171951333,"connected_time":33000000000,"state":"spawning","ping":134},{"user_id":147,"name":"mommy claus","steam_id":76561199230929836,"connected_time":5454000000000,"state":"spawning","ping":123},{"user_id":148,"name":"pcplace","steam_id":76561198097987387,"connected_time":5433000000000,"state":"spawning","ping":51},{"user_id":192,"name":"kebo","steam_id":76561198237159430,"connected_time":739000000000,"state":"spawning","ping":95},{"user_id":151,"name":"AGTCO Texas","steam_id":76561198053276976,"connected_time":5369000000000,"state":"spawning","ping":88},{"user_id":191,"name":"Harley [Ramiel]","steam_id":76561198079510840,"connected_time":813000000000,"state":"spawning","ping":42},{"user_id":150,"name":"COLOSSAL HOG","steam_id":76561198079923652,"connected_time":5419000000000,"state":"spawning","ping":102},{"user_id":195,"name":"New Memes","steam_id":76561198009656676,"connected_time":408000000000,"state":"spawning","ping":74},{"user_id":193,"name":"noraneko","steam_id":76561198025418738,"connected_time":667000000000,"state":"spawning","ping":40},{"user_id":184,"name":"Ignignokt","steam_id":76561198162207470,"connected_time":1654000000000,"state":"spawning","ping":66},{"user_id":164,"name":"Masotan","steam_id":76561199047187302,"connected_time":3594000000000,"state":"spawning","ping":89}]},{"server_id":406,"name":"Uncletopia | Seattle | 3 | Stopwatch Beta","name_short":"sea-3","host":"sea-1.us.uncletopia.com","port":27035,"enabled":true,"region":"us-west","cc":"us","latitude":47.608013,"longitude":-122.33517,"reserved":0,"last_update":"0001-01-01T00:00:00Z","name_a2s":"Uncletopia | Seattle | 3 | Stopwatch Beta","protocol":17,"map":"cp_altitude","folder":"tf","game":"Team Fortress","app_id":440,"player_count":0,"max_players":24,"Bots":0,"server_type":"Dedicated","server_os":"Linux","password":true,"vac":false,"version":"7723704","steam_id":0,"keywords":["cp","nocrits","nodmgspread","uncletopia"],"game_id":440,"stv_port":27036,"stv_name":"Uncletopia | Seattle | 3 | Stopwatch Beta | STV","players":null},{"server_id":17,"name":"Uncletopia | San Francisco | 1 | All Maps","name_short":"sfo-1","host":"sfo-1.us.uncletopia.com","port":27015,"enabled":true,"region":"us-west","cc":"us","latitude":37.77397,"longitude":-122.4313,"reserved":0,"last_update":"0001-01-01T00:00:00Z","name_a2s":"Uncletopia | San Francisco | 1 | All Maps","protocol":17,"map":"pl_barnblitz","folder":"tf","game":"Team Fortress","app_id":440,"player_count":0,"max_players":24,"Bots":0,"server_type":"Dedicated","server_os":"Linux","password":true,"vac":true,"version":"7723704","steam_id":85568392924469999,"keywords":["nocrits","nodmgspread","payload","uncletopia"],"game_id":440,"stv_port":27016,"stv_name":"Uncletopia | San Francisco | 1 | All Maps | STV","players":null},{"server_id":18,"name":"Uncletopia | San Francisco | 2 | All Maps","name_short":"sfo-2","host":"sfo-1.us.uncletopia.com","port":27025,"enabled":true,"region":"us-west","cc":"us","latitude":37.77397,"longitude":-122.4313,"reserved":0,"last_update":"0001-01-01T00:00:00Z","name_a2s":"Uncletopia | San Francisco | 2 | All Maps","protocol":17,"map":"pl_borneo","folder":"tf","game":"Team Fortress","app_id":440,"player_count":0,"max_players":24,"Bots":0,"server_type":"Dedicated","server_os":"Linux","password":true,"vac":true,"version":"7723704","steam_id":85568392924470000,"keywords":["nocrits","nodmgspread","payload","uncletopia"],"game_id":440,"stv_port":27026,"stv_name":"Uncletopia | San Francisco | 2 | All Maps | STV","players":null},{"server_id":19,"name":"Uncletopia | San Francisco | 3 | Stopwatch Beta","name_short":"sfo-3","host":"sfo-1.us.uncletopia.com","port":27035,"enabled":true,"region":"us-west","cc":"us","latitude":37.77397,"longitude":-122.4313,"reserved":0,"last_update":"0001-01-01T00:00:00Z","name_a2s":"Uncletopia | San Francisco | 3 | Stopwatch Beta","protocol":17,"map":"cp_gullywash_final1","folder":"tf","game":"Team Fortress","app_id":440,"player_count":0,"max_players":24,"Bots":0,"server_type":"Dedicated","server_os":"Linux","password":true,"vac":true,"version":"7723704","steam_id":85568392924742824,"keywords":["cp","nocrits","nodmgspread","uncletopia"],"game_id":440,"stv_port":27036,"stv_name":"Uncletopia | San Francisco | 3 | Stopwatch Beta | STV","players":null},{"server_id":20,"name":"Uncletopia | San Francisco | 4 | Community","name_short":"sfo-4","host":"sfo-1.us.uncletopia.com","port":27045,"enabled":true,"region":"us-west","cc":"us","latitude":37.77397,"longitude":-122.4313,"reserved":0,"last_update":"0001-01-01T00:00:00Z","name_a2s":"Uncletopia | San Francisco | 4 | Community","protocol":17,"map":"koth_cascade","folder":"tf","game":"Team Fortress","app_id":440,"player_count":0,"max_players":24,"Bots":0,"server_type":"Dedicated","server_os":"Linux","password":true,"vac":true,"version":"7723704","steam_id":85568392924742826,"keywords":["cp","nocrits","nodmgspread","uncletopia"],"game_id":440,"stv_port":27046,"stv_name":"Uncletopia | San Francisco | 4 | Community | STV","players":null},{"server_id":141,"name":"Uncletopia | Sydney | 1 | All Maps","name_short":"syd-1","host":"syd-1.au.uncletopia.com","port":27015,"enabled":true,"region":"au","cc":"au","latitude":-33.865143,"longitude":151.2099,"reserved":0,"last_update":"0001-01-01T00:00:00Z","name_a2s":"Uncletopia | Sydney | 1 | All Maps","protocol":17,"map":"koth_viaduct","folder":"tf","game":"Team Fortress","app_id":440,"player_count":13,"max_players":24,"Bots":0,"server_type":"Dedicated","server_os":"Linux","password":true,"vac":true,"version":"7723704","steam_id":85568392924470001,"keywords":["cp","nocrits","nodmgspread","uncletopia"],"game_id":440,"stv_port":27016,"stv_name":"Uncletopia | Sydney | 1 | All Maps | STV","players":[{"user_id":152,"name":"Men Kisser 798","steam_id":76561198152210509,"connected_time":174000000000,"state":"active","ping":33},{"user_id":153,"name":"Gregory","steam_id":76561199028542666,"connected_time":100000000000,"state":"active","ping":41},{"user_id":11,"name":"LightningBlock","steam_id":76561198289997742,"connected_time":11046000000000,"state":"active","ping":30},{"user_id":150,"name":"voxii","steam_id":76561198099698281,"connected_time":301000000000,"state":"active","ping":65},{"user_id":130,"name":"Wolf","steam_id":76561198067256350,"connected_time":2172000000000,"state":"active","ping":52},{"user_id":18,"name":"Kintaro","steam_id":76561199400481258,"connected_time":10316000000000,"state":"active","ping":48},{"user_id":138,"name":"Comedy Mode","steam_id":76561198293250088,"connected_time":1285000000000,"state":"active","ping":98},{"user_id":142,"name":"monsoonmgrr","steam_id":76561199101015272,"connected_time":850000000000,"state":"active","ping":58},{"user_id":77,"name":"monocrumb","steam_id":76561199126588682,"connected_time":6231000000000,"state":"active","ping":71},{"user_id":139,"name":"Haste","steam_id":76561198173155142,"connected_time":1178000000000,"state":"active","ping":64},{"user_id":148,"name":"icefest","steam_id":76561198039317610,"connected_time":418000000000,"state":"active","ping":55},{"user_id":128,"name":"cade is sleepy","steam_id":76561198126719182,"connected_time":2190000000000,"state":"active","ping":44},{"user_id":134,"name":"twitch.tv/AvoAu","steam_id":76561198179597498,"connected_time":1487000000000,"state":"active","ping":41}]},{"server_id":123,"name":"Uncletopia | Sydney | 2 | All Maps","name_short":"syd-2","host":"syd-1.au.uncletopia.com","port":27025,"enabled":true,"region":"au","cc":"au","latitude":-33.865143,"longitude":151.2099,"reserved":0,"last_update":"0001-01-01T00:00:00Z","name_a2s":"Uncletopia | Sydney | 2 | All Maps","protocol":17,"map":"koth_lakeside_final","folder":"tf","game":"Team Fortress","app_id":440,"player_count":17,"max_players":24,"Bots":0,"server_type":"Dedicated","server_os":"Linux","password":true,"vac":true,"version":"7723704","steam_id":85568392924470002,"keywords":["cp","nocrits","nodmgspread","uncletopia"],"game_id":440,"stv_port":27026,"stv_name":"Uncletopia | Sydney | 2 | All Maps | STV","players":[{"user_id":259,"name":"Johngamer2418","steam_id":76561198377832282,"connected_time":213000000000,"state":"active","ping":90},{"user_id":245,"name":"covenofbats","steam_id":76561198152117315,"connected_time":902000000000,"state":"active","ping":41},{"user_id":210,"name":"The Inked Rabbit","steam_id":76561199158680285,"connected_time":2676000000000,"state":"active","ping":42},{"user_id":249,"name":"Piyo.","steam_id":76561197985114373,"connected_time":764000000000,"state":"active","ping":62},{"user_id":167,"name":"witchita!","steam_id":76561198951178401,"connected_time":5452000000000,"state":"active","ping":69},{"user_id":247,"name":"SWAG DRAGON","steam_id":76561197960279341,"connected_time":874000000000,"state":"active","ping":55},{"user_id":238,"name":"konatacock","steam_id":76561198409390909,"connected_time":1174000000000,"state":"active","ping":79},{"user_id":240,"name":"phu999m","steam_id":76561199028574184,"connected_time":1123000000000,"state":"active","ping":151},{"user_id":250,"name":"Scetaril","steam_id":76561199232961168,"connected_time":732000000000,"state":"active","ping":55},{"user_id":252,"name":"toaster","steam_id":76561198858085224,"connected_time":659000000000,"state":"active","ping":36},{"user_id":256,"name":"ToeJam \u0026 Earl Sweatshirt","steam_id":76561198067883394,"connected_time":397000000000,"state":"active","ping":58},{"user_id":215,"name":"las","steam_id":76561198039162155,"connected_time":2364000000000,"state":"active","ping":45},{"user_id":235,"name":"penis muncher","steam_id":76561198288259746,"connected_time":1285000000000,"state":"active","ping":58},{"user_id":257,"name":"Chowdermonkey","steam_id":76561198990121068,"connected_time":380000000000,"state":"active","ping":69},{"user_id":237,"name":"Prosperous Sloth","steam_id":76561198070150864,"connected_time":1204000000000,"state":"active","ping":108},{"user_id":242,"name":"Lancer","steam_id":76561198122813810,"connected_time":1015000000000,"state":"active","ping":64},{"user_id":243,"name":"hive","steam_id":76561199099744527,"connected_time":1007000000000,"state":"active","ping":49}]},{"server_id":395,"name":"Uncletopia | Sydney | 3 | All Maps","name_short":"syd-3","host":"syd-1.au.uncletopia.com","port":27035,"enabled":true,"region":"au","cc":"au","latitude":-33.865143,"longitude":151.2099,"reserved":0,"last_update":"0001-01-01T00:00:00Z","name_a2s":"Uncletopia | Sydney | 3 | All Maps","protocol":17,"map":"cp_altitude","folder":"tf","game":"Team Fortress","app_id":440,"player_count":0,"max_players":24,"Bots":0,"server_type":"Dedicated","server_os":"Linux","password":true,"vac":true,"version":"7723704","steam_id":85568392925194467,"keywords":["cp","nocrits","nodmgspread","uncletopia"],"game_id":440,"stv_port":27036,"stv_name":"Uncletopia | Sydney | 3 | All Maps | STV","players":null},{"server_id":396,"name":"Uncletopia | Sydney | 4 | All Maps","name_short":"syd-4","host":"syd-1.au.uncletopia.com","port":27045,"enabled":true,"region":"au","cc":"au","latitude":-33.865143,"longitude":151.2099,"reserved":0,"last_update":"0001-01-01T00:00:00Z","name_a2s":"Uncletopia | Sydney | 4 | All Maps","protocol":17,"map":"pl_barnblitz","folder":"tf","game":"Team Fortress","app_id":440,"player_count":0,"max_players":24,"Bots":0,"server_type":"Dedicated","server_os":"Linux","password":true,"vac":true,"version":"7723704","steam_id":85568392925397958,"keywords":["nocrits","nodmgspread","payload","uncletopia"],"game_id":440,"stv_port":27046,"stv_name":"Uncletopia | Sydney | 4 | All Maps | STV","players":null},{"server_id":58,"name":"Uncletopia | Sydney | 5 | Stopwatch Beta","name_short":"syd-5","host":"syd-1.au.uncletopia.com","port":27055,"enabled":true,"region":"au","cc":"au","latitude":-33.865143,"longitude":151.2099,"reserved":0,"last_update":"0001-01-01T00:00:00Z","name_a2s":"Uncletopia | Sydney | 5 | Stopwatch Beta","protocol":17,"map":"cp_altitude","folder":"tf","game":"Team Fortress","app_id":440,"player_count":0,"max_players":24,"Bots":0,"server_type":"Dedicated","server_os":"Linux","password":true,"vac":true,"version":"7723704","steam_id":85568392925397959,"keywords":["cp","nocrits","nodmgspread","uncletopia"],"game_id":440,"stv_port":27056,"stv_name":"Uncletopia | Sydney | 5 | Stopwatch Beta | STV","players":null},{"server_id":59,"name":"Uncletopia | Sydney | 6 | Community","name_short":"syd-6","host":"syd-1.au.uncletopia.com","port":27065,"enabled":true,"region":"au","cc":"au","latitude":-33.865143,"longitude":151.2099,"reserved":0,"last_update":"0001-01-01T00:00:00Z","name_a2s":"Uncletopia | Sydney | 6 | Community","protocol":17,"map":"pl_frontier_final","folder":"tf","game":"Team Fortress","app_id":440,"player_count":0,"max_players":24,"Bots":0,"server_type":"Dedicated","server_os":"Linux","password":true,"vac":true,"version":"7723704","steam_id":85568392925397960,"keywords":["nocrits","nodmgspread","payload","uncletopia"],"game_id":440,"stv_port":27066,"stv_name":"Uncletopia | Sydney | 6 | Community | STV","players":null},{"server_id":49,"name":"Uncletopia | Warsaw | 1 | All Maps","name_short":"waw-1","host":"waw-1.pl.uncletopia.com","port":27015,"enabled":true,"region":"eu","cc":"pl","latitude":52.2297,"longitude":21.017532,"reserved":0,"last_update":"0001-01-01T00:00:00Z","name_a2s":"Uncletopia | Warsaw | 1 | All Maps","protocol":17,"map":"cp_sunshine","folder":"tf","game":"Team Fortress","app_id":440,"player_count":0,"max_players":24,"Bots":0,"server_type":"Dedicated","server_os":"Linux","password":true,"vac":true,"version":"7723704","steam_id":85568392925397850,"keywords":["cp","nocrits","nodmgspread","uncletopia"],"game_id":440,"stv_port":27016,"stv_name":"Uncletopia | Warsaw | 1 | All Maps | STV","players":null},{"server_id":50,"name":"Uncletopia | Warsaw | 2 | All Maps","name_short":"waw-2","host":"waw-1.pl.uncletopia.com","port":27025,"enabled":true,"region":"eu","cc":"pl","latitude":52.2297,"longitude":21.017532,"reserved":0,"last_update":"0001-01-01T00:00:00Z","name_a2s":"Uncletopia | Warsaw | 2 | All Maps","protocol":17,"map":"pl_barnblitz","folder":"tf","game":"Team Fortress","app_id":440,"player_count":0,"max_players":24,"Bots":0,"server_type":"Dedicated","server_os":"Linux","password":true,"vac":true,"version":"7723704","steam_id":85568392925397851,"keywords":["nocrits","nodmgspread","payload","uncletopia"],"game_id":440,"stv_port":27026,"stv_name":"Uncletopia | Warsaw | 2 | All Maps | STV","players":null},{"server_id":51,"name":"Uncletopia | Warsaw | 3 | All Maps","name_short":"waw-3","host":"waw-1.pl.uncletopia.com","port":27035,"enabled":true,"region":"eu","cc":"pl","latitude":52.2297,"longitude":21.017532,"reserved":0,"last_update":"0001-01-01T00:00:00Z","name_a2s":"Uncletopia | Warsaw | 3 | All Maps","protocol":17,"map":"pl_barnblitz","folder":"tf","game":"Team Fortress","app_id":440,"player_count":0,"max_players":24,"Bots":0,"server_type":"Dedicated","server_os":"Linux","password":true,"vac":true,"version":"7723704","steam_id":85568392925397852,"keywords":["nocrits","nodmgspread","payload","uncletopia"],"game_id":440,"stv_port":27036,"stv_name":"Uncletopia | Warsaw | 3 | All Maps | STV","players":null},{"server_id":52,"name":"Uncletopia | Warsaw | 4 | All Maps","name_short":"waw-4","host":"waw-1.pl.uncletopia.com","port":27045,"enabled":true,"region":"eu","cc":"pl","latitude":52.2297,"longitude":21.017532,"reserved":0,"last_update":"0001-01-01T00:00:00Z","name_a2s":"Uncletopia | Warsaw | 4 | All Maps","protocol":17,"map":"koth_viaduct","folder":"tf","game":"Team Fortress","app_id":440,"player_count":0,"max_players":24,"Bots":0,"server_type":"Dedicated","server_os":"Linux","password":true,"vac":true,"version":"7723704","steam_id":85568392925397853,"keywords":["cp","nocrits","nodmgspread","uncletopia"],"game_id":440,"stv_port":27046,"stv_name":"Uncletopia | Warsaw | 4 | All Maps | STV","players":null},{"server_id":53,"name":"Uncletopia | Warsaw | 5 | Stopwatch Beta","name_short":"waw-5","host":"waw-1.pl.uncletopia.com","port":27055,"enabled":true,"region":"eu","cc":"pl","latitude":52.2297,"longitude":21.017532,"reserved":0,"last_update":"0001-01-01T00:00:00Z","name_a2s":"Uncletopia | Warsaw | 5 | Stopwatch Beta","protocol":17,"map":"cp_sunshine","folder":"tf","game":"Team Fortress","app_id":440,"player_count":0,"max_players":24,"Bots":0,"server_type":"Dedicated","server_os":"Linux","password":true,"vac":true,"version":"7723704","steam_id":85568392925397854,"keywords":["cp","nocrits","nodmgspread","uncletopia"],"game_id":440,"stv_port":27056,"stv_name":"Uncletopia | Warsaw | 5 | Stopwatch Beta | STV","players":null},{"server_id":54,"name":"Uncletopia | Warsaw | 6 | Community","name_short":"waw-6","host":"waw-1.pl.uncletopia.com","port":27065,"enabled":true,"region":"eu","cc":"pl","latitude":52.2297,"longitude":21.017532,"reserved":0,"last_update":"0001-01-01T00:00:00Z","name_a2s":"Uncletopia | Warsaw | 6 | Community","protocol":17,"map":"pl_snowycoast","folder":"tf","game":"Team Fortress","app_id":440,"player_count":0,"max_players":24,"Bots":0,"server_type":"Dedicated","server_os":"Linux","password":true,"vac":true,"version":"7723704","steam_id":85568392925397856,"keywords":["nocrits","nodmgspread","payload","uncletopia"],"game_id":440,"stv_port":27066,"stv_name":"Uncletopia | Warsaw | 6 | Community | STV","players":null}]}