{"status":true,"message":"","result":[{"server_id":9,"name":"Uncletopia | Atlanta | 1 | All Maps","name_short":"atl-1","host":"atl-1.us.uncletopia.com","port":27015,"enabled":true,"region":"us-east","cc":"us","latitude":33.753746,"longitude":-84.38633,"reserved":0,"last_update":"0001-01-01T00:00:00Z","name_a2s":"Uncletopia | Atlanta | 1 | All Maps","protocol":17,"map":"pl_thundermountain","folder":"tf","game":"Team Fortress","app_id":440,"player_count":24,"max_players":24,"Bots":0,"server_type":"Dedicated","server_os":"Linux","password":true,"vac":true,"version":"7961495","steam_id":85568392924469982,"keywords":["nocrits","nodmgspread","payload","uncletopia"],"game_id":440,"stv_port":27016,"stv_name":"Uncletopia | Atlanta | 1 | All Maps | STV","players":null},{"server_id":104,"name":"Uncletopia | Atlanta | 2 | All Maps","name_short":"atl-2","host":"atl-1.us.uncletopia.com","port":27025,"enabled":true,"region":"us-east","cc":"us","latitude":33.753746,"longitude":-84.38633,"reserved":0,"last_update":"0001-01-01T00:00:00Z","name_a2s":"Uncletopia | Atlanta | 2 | All Maps","protocol":17,"map":"pl_pier","folder":"tf","game":"Team Fortress","app_id":440,"player_count":24,"max_players":24,"Bots":0,"server_type":"Dedicated","server_os":"Linux","password":true,"vac":true,"version":"7961495","steam_id":85568392924469983,"keywords":["nocrits","nodmgspread","payload","uncletopia"],"game_id":440,"stv_port":27026,"stv_name":"Uncletopia | Atlanta | 2 | All Maps | STV","players":null},{"server_id":400,"name":"Uncletopia | Atlanta | 3 | Stopwatch","name_short":"atl-3","host":"atl-1.us.uncletopia.com","port":27035,"enabled":true,"region":"us-east","cc":"us","latitude":33.753746,"longitude":-84.38633,"reserved":0,"last_update":"0001-01-01T00:00:00Z","name_a2s":"Uncletopia | Atlanta | 3 | Stopwatch","protocol":17,"map":"koth_clearcut_b15","folder":"tf","game":"Team Fortress","app_id":440,"player_count":0,"max_players":24,"Bots":0,"server_type":"Dedicated","server_os":"Linux","password":true,"vac":true,"version":"7961495","steam_id":85568392924515187,"keywords":["cp","nocrits","nodmgspread","uncletopia"],"game_id":440,"stv_port":27036,"stv_name":"Uncletopia | Atlanta | 3 | Stopwatch | STV","players":null},{"server_id":401,"name":"Uncletopia | Atlanta | 4 | Community","name_short":"atl-4","host":"atl-1.us.uncletopia.com","port":27045,"enabled":true,"region":"us-east","cc":"us","latitude":33.753746,"longitude":-84.38633,"reserved":0,"last_update":"0001-01-01T00:00:00Z","name_a2s":"Uncletopia | Atlanta | 4 | Community","protocol":17,"map":"koth_bagel_rc6","folder":"tf","game":"Team Fortress","app_id":440,"player_count":2,"max_players":24,"Bots":0,"server_type":"Dedicated","server_os":"Linux","password":true,"vac":true,"version":"7961495","steam_id":85568392924515188,"keywords":["cp","nocrits","nodmgspread","uncletopia"],"game_id":440,"stv_port":27046,"stv_name":"Uncletopia | Atlanta | 4 | Community | STV","players":null},{"server_id":2,"name":"Uncletopia | Chicago | 1 | All Maps","name_short":"chi-1","host":"chi-1.us.uncletopia.com","port":27015,"enabled":true,"region":"us-central","cc":"us","latitude":41.881832,"longitude":-87.62318,"reserved":0,"last_update":"0001-01-01T00:00:00Z","name_a2s":"Uncletopia | Chicago | 1 | All Maps","protocol":17,"map":"cp_dustbowl","folder":"tf","game":"Team Fortress","app_id":440,"player_count":25,"max_players":24,"Bots":0,"server_type":"Dedicated","server_os":"Linux","password":true,"vac":true,"version":"7961495","steam_id":85568392924469984,"keywords":["cp","nocrits","nodmgspread","uncletopia"],"game_id":440,"stv_port":27016,"stv_name":"Uncletopia | Chicago | 1 | All Maps | STV","players":[{"user_id":275,"name":"TheOneZoot","steam_id":76561198121944243,"connected_time":885000000000,"state":"active","ping":51},{"user_id":271,"name":"SiltyStar85","steam_id":76561198309175923,"connected_time":1388000000000,"state":"active","ping":94},{"user_id":265,"name":"Nicolas Cage Kisses Mace Windu","steam_id":76561198046127710,"connected_time":1973000000000,"state":"active","ping":55},{"user_id":267,"name":"Word To Your Mothership","steam_id":76561198034329138,"connected_time":1702000000000,"state":"active","ping":103},{"user_id":259,"name":"Hexadecatrack","steam_id":76561198044480181,"connected_time":2647000000000,"state":"active","ping":50},{"user_id":293,"name":"Quiet Lia","steam_id":76561198151569597,"connected_time":138000000000,"state":"active","ping":146},{"user_id":207,"name":"flamingcookies","steam_id":76561198280864779,"connected_time":6388000000000,"state":"active","ping":63},{"user_id":162,"name":"hej","steam_id":76561197996366940,"connected_time":13268000000000,"state":"active","ping":60},{"user_id":256,"name":"Der Krieger105","steam_id":76561197978384609,"connected_time":2694000000000,"state":"active","ping":89},{"user_id":253,"name":"c64guy","steam_id":76561198023022744,"connected_time":2855000000000,"state":"active","ping":60},{"user_id":242,"name":".JIFF","steam_id":76561198045181760,"connected_time":3876000000000,"state":"active","ping":59},{"user_id":272,"name":"Your Local Queer Librarian","steam_id":76561198013077080,"connected_time":1191000000000,"state":"active","ping":60},{"user_id":255,"name":"Space","steam_id":76561198350489754,"connected_time":2715000000000,"state":"active","ping":44},{"user_id":274,"name":"slep.py","steam_id":76561197988287144,"connected_time":1153000000000,"state":"active","ping":55},{"user_id":264,"name":"Ottopod","steam_id":76561198401385968,"connected_time":2115000000000,"state":"active","ping":63},{"user_id":249,"name":"Typh","steam_id":76561198315344079,"connected_time":3223000000000,"state":"active","ping":77},{"user_id":190,"name":"i suffer from ligma","steam_id":76561199158496518,"connected_time":8832000000000,"state":"active","ping":113},{"user_id":266,"name":"thecal","steam_id":76561198307893384,"connected_time":1837000000000,"state":"active","ping":58},{"user_id":277,"name":"crustacean","steam_id":76561198190417719,"connected_time":883000000000,"state":"active","ping":39},{"user_id":285,"name":"Praise_to_the_Flashlight!","steam_id":76561199001728789,"connected_time":289000000000,"state":"active","ping":65},{"user_id":280,"name":"Hylic","steam_id":76561199051314589,"connected_time":733000000000,"state":"active","ping":61},{"user_id":292,"name":"Ras","steam_id":76561198123546775,"connected_time":194000000000,"state":"active","ping":68},{"user_id":250,"name":"Epha","steam_id":76561198079379951,"connected_time":3196000000000,"state":"active","ping":60},{"user_id":132,"name":"MedRed™ #IATAH","steam_id":76561198002962970,"connected_time":15648000000000,"state":"active","ping":104},{"user_id":284,"name":"plutonium isotope","steam_id":76561198319442494,"connected_time":308000000000,"state":"active","ping":109}]},{"server_id":106,"name":"Uncletopia | Chicago | 2 | All Maps","name_short":"chi-2","host":"chi-1.us.uncletopia.com","port":27025,"enabled":true,"region":"us-central","cc":"us","latitude":41.881832,"longitude":-87.62318,"reserved":0,"last_update":"0001-01-01T00:00:00Z","name_a2s":"Uncletopia | Chicago | 2 | All Maps","protocol":17,"map":"cp_dustbowl","folder":"tf","game":"Team Fortress","app_id":440,"player_count":24,"max_players":24,"Bots":0,"server_type":"Dedicated","server_os":"Linux","password":true,"vac":true,"version":"7961495","steam_id":85568392924469985,"keywords":["cp","nocrits","nodmgspread","uncletopia"],"game_id":440,"stv_port":27026,"stv_name":"Uncletopia | Chicago | 2 | All Maps | STV","players":[{"user_id":570,"name":"Seskova","steam_id":76561198090207032,"connected_time":1147000000000,"state":"active","ping":104},{"user_id":585,"name":"Mr. Tickle","steam_id":76561198126684647,"connected_time":58000000000,"state":"active","ping":55},{"user_id":558,"name":"Ace Chromatica","steam_id":76561198042211131,"connected_time":2082000000000,"state":"active","ping":55},{"user_id":484,"name":"really hot pocket","steam_id":76561198239297686,"connected_time":5311000000000,"state":"active","ping":63},{"user_id":562,"name":"frost atronach","steam_id":76561198804901722,"connected_time":1901000000000,"state":"active","ping":64},{"user_id":566,"name":"cwdox15","steam_id":76561199228948249,"connected_time":1209000000000,"state":"active","ping":74},{"user_id":577,"name":"Hud","steam_id":76561198146122110,"connected_time":543000000000,"state":"active","ping":50},{"user_id":584,"name":"Pandora Nyx","steam_id":76561198093475054,"connected_time":62000000000,"state":"active","ping":61},{"user_id":588,"name":"Krustytoepaste","steam_id":76561198320265524,"connected_time":48000000000,"state":"active","ping":103},{"user_id":590,"name":"Bobby Dazzler 魔鐘","steam_id":76561198007405067,"connected_time":36000000000,"state":"active","ping":45},{"user_id":555,"name":"DivineBanana","steam_id":76561198026529731,"connected_time":2521000000000,"state":"active","ping":86},{"user_id":591,"name":"Huntpk","steam_id":76561198340591674,"connected_time":19000000000,"state":"spawning","ping":29},{"user_id":571,"name":"The Overmind","steam_id":76561199170229428,"connected_time":1128000000000,"state":"active","ping":71},{"user_id":592,"name":"Ligmus Sigmus","steam_id":76561198168946002,"connected_time":16000000000,"state":"spawning","ping":49},{"user_id":582,"name":"Luis wid a mic","steam_id":76561198349570006,"connected_time":73000000000,"state":"active","ping":56},{"user_id":593,"name":"A Beer and Wing Combo","steam_id":76561198108400585,"connected_time":15000000000,"state":"spawning","ping":59},{"user_id":579,"name":"Nigel","steam_id":76561198115574712,"connected_time":357000000000,"state":"active","ping":47},{"user_id":539,"name":"DerpyNate","steam_id":76561198100249037,"connected_time":3234000000000,"state":"active","ping":33},{"user_id":543,"name":"Orange","steam_id":76561198128077361,"connected_time":3043000000000,"state":"active","ping":64},{"user_id":569,"name":"MR SKELTAL","steam_id":76561198031089598,"connected_time":1175000000000,"state":"active","ping":66},{"user_id":541,"name":"Dr. Dick","steam_id":76561198138011922,"connected_time":3156000000000,"state":"active","ping":72},{"user_id":523,"name":"Trashgaming","steam_id":76561199184268442,"connected_time":3554000000000,"state":"active","ping":123},{"user_id":578,"name":"C/Spoons","steam_id":76561198019227661,"connected_time":466000000000,"state":"active","ping":59},{"user_id":587,"name":"Homvel","steam_id":76561198000848413,"connected_time":56000000000,"state":"active","ping":47}]},{"server_id":402,"name":"Uncletopia | Chicago | 3 | All Maps","name_short":"chi-3","host":"chi-1.us.uncletopia.com","port":27035,"enabled":true,"region":"us-central","cc":"us","latitude":41.881832,"longitude":-87.62318,"reserved":0,"last_update":"0001-01-01T00:00:00Z","name_a2s":"Uncletopia | Chicago | 3 | All Maps","protocol":17,"map":"pl_frontier_final","folder":"tf","game":"Team Fortress","app_id":440,"player_count":24,"max_players":24,"Bots":0,"server_type":"Dedicated","server_os":"Linux","password":true,"vac":true,"version":"7961495","steam_id":85568392924515191,"keywords":["nocrits","nodmgspread","payload","uncletopia"],"game_id":440,"stv_port":27036,"stv_name":"Uncletopia | Chicago | 3 | All Maps | STV","players":[{"user_id":435,"name":"Minidonk","steam_id":76561197983644117,"connected_time":3425000000000,"state":"active","ping":127},{"user_id":470,"name":"Leonardo DiCaprio","steam_id":76561198121886765,"connected_time":1624000000000,"state":"active","ping":59},{"user_id":441,"name":"hatsune.miku.2004","steam_id":76561198360184510,"connected_time":3254000000000,"state":"active","ping":60},{"user_id":434,"name":"Perfume Department","steam_id":76561198128299594,"connected_time":3547000000000,"state":"active","ping":175},{"user_id":471,"name":"Asanez3","steam_id":76561198037381436,"connected_time":1592000000000,"state":"active","ping":81},{"user_id":440,"name":"Moshi Man","steam_id":76561198038249762,"connected_time":3298000000000,"state":"active","ping":46},{"user_id":457,"name":"RagunCagun","steam_id":76561198132848008,"connected_time":3052000000000,"state":"active","ping":45},{"user_id":475,"name":"Rukks","steam_id":76561197993918954,"connected_time":174000000000,"state":"active","ping":88},{"user_id":468,"name":"Nefy","steam_id":76561198030017316,"connected_time":1965000000000,"state":"active","ping":76},{"user_id":444,"name":"smetc","steam_id":76561198240696986,"connected_time":3195000000000,"state":"active","ping":69},{"user_id":476,"name":"guy","steam_id":76561198079925551,"connected_time":169000000000,"state":"active","ping":62},{"user_id":473,"name":"aphexjh","steam_id":76561197985854658,"connected_time":323000000000,"state":"active","ping":66},{"user_id":463,"name":"GooniOoni","steam_id":76561198102154561,"connected_time":2409000000000,"state":"active","ping":46},{"user_id":472,"name":"blobb","steam_id":76561198950448488,"connected_time":1551000000000,"state":"active","ping":51},{"user_id":474,"name":"Dick Grimes","steam_id":76561198157414556,"connected_time":176000000000,"state":"active","ping":86},{"user_id":449,"name":"chunk","steam_id":76561198134775401,"connected_time":3131000000000,"state":"active","ping":57},{"user_id":403,"name":"RexCreeper456","steam_id":76561199319578396,"connected_time":6114000000000,"state":"active","ping":65},{"user_id":450,"name":"The Jar","steam_id":76561198146013385,"connected_time":3123000000000,"state":"active","ping":77},{"user_id":383,"name":"Kamin","steam_id":76561198255299559,"connected_time":7759000000000,"state":"active","ping":93},{"user_id":451,"name":"y0","steam_id":76561198143894333,"connected_time":3122000000000,"state":"active","ping":55},{"user_id":462,"name":"my name jeff","steam_id":76561198179816898,"connected_time":2593000000000,"state":"active","ping":76},{"user_id":461,"name":"Grop Noise","steam_id":76561198145445403,"connected_time":2761000000000,"state":"active","ping":55},{"user_id":466,"name":"Shoeshocker","steam_id":76561198174302467,"connected_time":2079000000000,"state":"active","ping":72},{"user_id":454,"name":"Queen of Latex","steam_id":76561198037779673,"connected_time":3106000000000,"state":"active","ping":71}]},{"server_id":403,"name":"Uncletopia | Chicago | 4 | All Maps","name_short":"chi-4","host":"chi-1.us.uncletopia.com","port":27045,"enabled":true,"region":"us-central","cc":"us","latitude":41.881832,"longitude":-87.62318,"reserved":0,"last_update":"0001-01-01T00:00:00Z","name_a2s":"Uncletopia | Chicago | 4 | All Maps","protocol":17,"map":"pl_badwater","folder":"tf","game":"Team Fortress","app_id":440,"player_count":24,"max_players":24,"Bots":0,"server_type":"Dedicated","server_os":"Linux","password":true,"vac":true,"version":"7961495","steam_id":85568392924515193,"keywords":["nocrits","nodmgspread","payload","uncletopia"],"game_id":440,"stv_port":27046,"stv_name":"Uncletopia | Chicago | 4 | All Maps | STV","players":[{"user_id":327,"name":"dark108","steam_id":76561198030052475,"connected_time":3505000000000,"state":"active","ping":77},{"user_id":344,"name":"AnnieM","steam_id":76561199435467297,"connected_time":1190000000000,"state":"active","ping":75},{"user_id":234,"name":"Nessie is my Waifu","steam_id":76561198076021620,"connected_time":8848000000000,"state":"active","ping":68},{"user_id":324,"name":"Arildis","steam_id":76561198123516977,"connected_time":3728000000000,"state":"active","ping":63},{"user_id":310,"name":"eish","steam_id":76561198089463603,"connected_time":4120000000000,"state":"active","ping":134},{"user_id":354,"name":"The Professor","steam_id":76561198113760863,"connected_time":165000000000,"state":"active","ping":60},{"user_id":311,"name":"scrambledeggs3","steam_id":76561198066112579,"connected_time":4113000000000,"state":"active","ping":59},{"user_id":330,"name":"ipodmini","steam_id":76561198060525089,"connected_time":3437000000000,"state":"active","ping":59},{"user_id":352,"name":"Harpua","steam_id":76561197988020228,"connected_time":244000000000,"state":"active","ping":62},{"user_id":275,"name":"Epicmullen","steam_id":76561198259850795,"connected_time":6115000000000,"state":"active","ping":77},{"user_id":353,"name":"Kimba","steam_id":76561199092078325,"connected_time":202000000000,"state":"active","ping":75},{"user_id":312,"name":"Cherry Coke","steam_id":76561198178233006,"connected_time":4105000000000,"state":"active","ping":60},{"user_id":350,"name":"henryissoreal","steam_id":76561198128074539,"connected_time":518000000000,"state":"active","ping":86},{"user_id":346,"name":"fart shitson","steam_id":76561198986534519,"connected_time":1129000000000,"state":"active","ping":90},{"user_id":349,"name":"hashmap","steam_id":76561198043794014,"connected_time":754000000000,"state":"active","ping":52},{"user_id":326,"name":"Black Chan","steam_id":76561198053355299,"connected_time":3528000000000,"state":"active","ping":83},{"user_id":348,"name":"The Notorious P.U.E.R.","steam_id":76561198046715542,"connected_time":911000000000,"state":"active","ping":74},{"user_id":347,"name":"Balerion the Black Dread","steam_id":76561198003728369,"connected_time":1119000000000,"state":"active","ping":62},{"user_id":343,"name":"Jimmy McGill","steam_id":76561198135137213,"connected_time":1204000000000,"state":"active","ping":55},{"user_id":297,"name":"I3lasteroid","steam_id":76561197985463901,"connected_time":4910000000000,"state":"active","ping":82},{"user_id":323,"name":"Captain Canuck","steam_id":76561198069910409,"connected_time":3917000000000,"state":"active","ping":66},{"user_id":337,"name":"chesterwnimitz","steam_id":76561198062664377,"connected_time":1591000000000,"state":"active","ping":79},{"user_id":325,"name":"rollypollyolie","steam_id":76561198039539380,"connected_time":3618000000000,"state":"active","ping":90},{"user_id":340,"name":"OddSlaush","steam_id":76561198043898488,"connected_time":1215000000000,"state":"active","ping":103}]},{"server_id":36,"name":"Uncletopia | Chicago | 5 | All Maps","name_short":"chi-5","host":"chi-2.us.uncletopia.com","port":27015,"enabled":true,"region":"us-central","cc":"us","latitude":41.881832,"longitude":-87.62318,"reserved":0,"last_update":"0001-01-01T00:00:00Z","name_a2s":"Uncletopia | Chicago | 5 | All Maps","protocol":17,"map":"koth_highpass","folder":"tf","game":"Team Fortress","app_id":440,"player_count":24,"max_players":24,"Bots":0,"server_type":"Dedicated","server_os":"Linux","password":true,"vac":true,"version":"7961495","steam_id":85568392924866362,"keywords":["cp","nocrits","nodmgspread","uncletopia"],"game_id":440,"stv_port":27016,"stv_name":"Uncletopia | Chicago | 5 | All Maps | STV","players":[{"user_id":180,"name":"Shrimpcess Supreme","steam_id":76561198276385778,"connected_time":6174000000000,"state":"active","ping":92},{"user_id":247,"name":"JustLooking","steam_id":76561198207877387,"connected_time":1524000000000,"state":"active","ping":60},{"user_id":264,"name":"Mega_Man23","steam_id":76561198138341391,"connected_time":295000000000,"state":"active","ping":61},{"user_id":248,"name":"milo","steam_id":76561198000167160,"connected_time":1303000000000,"state":"active","ping":148},{"user_id":265,"name":"Zawg","steam_id":76561198346423306,"connected_time":265000000000,"state":"active","ping":81},{"user_id":269,"name":"ThiccNicc","steam_id":76561198236828842,"connected_time":26000000000,"state":"active","ping":89},{"user_id":250,"name":"smooth brain","steam_id":76561198049253541,"connected_time":1167000000000,"state":"active","ping":61},{"user_id":260,"name":"jaytheking05","steam_id":76561198856419769,"connected_time":396000000000,"state":"active","ping":68},{"user_id":209,"name":"Enemy Infant Tree","steam_id":76561198027175418,"connected_time":4288000000000,"state":"active","ping":71},{"user_id":193,"name":"Kentucky Fried Lullaby","steam_id":76561198047845399,"connected_time":5264000000000,"state":"active","ping":90},{"user_id":221,"name":"chiswola","steam_id":76561198046920142,"connected_time":3450000000000,"state":"active","ping":71},{"user_id":253,"name":"Up yours, woke moralists!","steam_id":76561198326083509,"connected_time":703000000000,"state":"active","ping":88},{"user_id":220,"name":"RandomRainbow","steam_id":76561199107573588,"connected_time":3525000000000,"state":"active","ping":50},{"user_id":159,"name":"roast pig with apple in mouth","steam_id":76561198051353647,"connected_time":7423000000000,"state":"active","ping":63},{"user_id":256,"name":"KarmaKid","steam_id":76561198079580094,"connected_time":575000000000,"state":"active","ping":96},{"user_id":257,"name":"corned beef","steam_id":76561199366782761,"connected_time":557000000000,"state":"active","ping":152},{"user_id":235,"name":"ISlamHooker","steam_id":76561198050136796,"connected_time":2814000000000,"state":"active","ping":86},{"user_id":222,"name":"miriam","steam_id":76561198069679357,"connected_time":3442000000000,"state":"active","ping":65},{"user_id":182,"name":"Princess Stinkypants","steam_id":76561198096221632,"connected_time":6158000000000,"state":"active","ping":60},{"user_id":246,"name":"Spike Bones","steam_id":76561198234926120,"connected_time":1949000000000,"state":"active","ping":95},{"user_id":268,"name":"Innercord","steam_id":76561198122486639,"connected_time":170000000000,"state":"active","ping":86},{"user_id":231,"name":"Azul \u003c3","steam_id":76561198068042772,"connected_time":2979000000000,"state":"active","ping":93},{"user_id":233,"name":"Rhutebeer","steam_id":76561198018302761,"connected_time":2829000000000,"state":"active","ping":103},{"user_id":252,"name":"g00bur","steam_id":76561197993622520,"connected_time":805000000000,"state":"active","ping":68}]},{"server_id":37,"name":"Uncletopia | Chicago | 6 | All Maps","name_short":"chi-6","host":"chi-2.us.uncletopia.com","port":27025,"enabled":true,"region":"us-central","cc":"us","latitude":41.881832,"longitude":-87.62318,"reserved":0,"last_update":"0001-01-01T00:00:00Z","name_a2s":"Uncletopia | Chicago | 6 | All Maps","protocol":17,"map":"cp_sunshine","folder":"tf","game":"Team Fortress","app_id":440,"player_count":24,"max_players":24,"Bots":0,"server_type":"Dedicated","server_os":"Linux","password":true,"vac":true,"version":"7961495","steam_id":85568392924866363,"keywords":["cp","nocrits","nodmgspread","uncletopia"],"game_id":440,"stv_port":27026,"stv_name":"Uncletopia | Chicago | 6 | All Maps | STV","players":[{"user_id":855,"name":"leaving lunar orbit","steam_id":76561199085974120,"connected_time":157000000000,"state":"active","ping":72},{"user_id":816,"name":"gooch_masta","steam_id":76561198151578423,"connected_time":1686000000000,"state":"active","ping":98},{"user_id":833,"name":"PK","steam_id":76561198368722500,"connected_time":1152000000000,"state":"active","ping":79},{"user_id":856,"name":"SPIRE_FAN","steam_id":76561198001486573,"connected_time":40000000000,"state":"active","ping":67},{"user_id":792,"name":"Anyar","steam_id":76561198160174097,"connected_time":2743000000000,"state":"active","ping":62},{"user_id":831,"name":"Marble Eating Contest","steam_id":76561198037072888,"connected_time":1216000000000,"state":"active","ping":45},{"user_id":806,"name":"Poser01","steam_id":76561197999257332,"connected_time":2368000000000,"state":"active","ping":110},{"user_id":854,"name":"TheWhoman","steam_id":76561198103921750,"connected_time":235000000000,"state":"active","ping":101},{"user_id":823,"name":"jumpingjacks","steam_id":76561197964839440,"connected_time":1621000000000,"state":"active","ping":59},{"user_id":796,"name":"dog.","steam_id":76561198170332855,"connected_time":2704000000000,"state":"active","ping":78},{"user_id":836,"name":"Rock Kickass","steam_id":76561198450510841,"connected_time":1116000000000,"state":"active","ping":117},{"user_id":847,"name":"PIPUPINE","steam_id":76561198805194554,"connected_time":739000000000,"state":"active","ping":80},{"user_id":799,"name":"Orakcaj","steam_id":76561198080563935,"connected_time":2600000000000,"state":"active","ping":45},{"user_id":824,"name":"Spicey","steam_id":76561198039548756,"connected_time":1607000000000,"state":"active","ping":75},{"user_id":802,"name":"BreadNoose","steam_id":76561198104027367,"connected_time":2565000000000,"state":"active","ping":60},{"user_id":771,"name":"gorf?","steam_id":76561198142286417,"connected_time":3753000000000,"state":"active","ping":73},{"user_id":845,"name":"fifteen22","steam_id":76561198138781868,"connected_time":845000000000,"state":"active","ping":71},{"user_id":843,"name":"22moo","steam_id":76561199075331630,"connected_time":938000000000,"state":"active","ping":78},{"user_id":820,"name":"Tyranitar9999","steam_id":76561198071637331,"connected_time":1664000000000,"state":"active","ping":74},{"user_id":841,"name":"wunkem","steam_id":76561198055948497,"connected_time":1022000000000,"state":"active","ping":128},{"user_id":848,"name":"dansal","steam_id":76561197997042510,"connected_time":484000000000,"state":"active","ping":86},{"user_id":838,"name":"YWCHLAN.IO","steam_id":76561198041438503,"connected_time":1072000000000,"state":"active","ping":82},{"user_id":852,"name":"Rotten Egg","steam_id":76561198028157625,"connected_time":330000000000,"state":"active","ping":86},{"user_id":853,"name":"oyster221","steam_id":76561198057571414,"connected_time":277000000000,"state":"active","ping":75}]},{"server_id":38,"name":"Uncletopia | Chicago | 7 | Stopwatch","name_short":"chi-7","host":"chi-2.us.uncletopia.com","port":27035,"enabled":true,"region":"us-central","cc":"us","latitude":41.881832,"longitude":-87.62318,"reserved":0,"last_update":"0001-01-01T00:00:00Z","name_a2s":"Uncletopia | Chicago | 7 | Stopwatch","protocol":17,"map":"pl_swiftwater_final1","folder":"tf","game":"Team Fortress","app_id":440,"player_count":1,"max_players":24,"Bots":0,"server_type":"Dedicated","server_os":"Linux","password":true,"vac":true,"version":"7961495","steam_id":85568392924866364,"keywords":["nocrits","nodmgspread","payload","uncletopia"],"game_id":440,"stv_port":27036,"stv_name":"Uncletopia | Chicago | 7 | Stopwatch | STV","players":[{"user_id":32,"name":"gCaclulator","steam_id":76561198838344187,"connected_time":108000000000,"state":"active","ping":45}]},{"server_id":39,"name":"Uncletopia | Chicago | 8 | Community","name_short":"chi-8","host":"chi-2.us.uncletopia.com","port":27045,"enabled":true,"region":"us-central","cc":"us","latitude":41.881832,"longitude":-87.62318,"reserved":0,"last_update":"0001-01-01T00:00:00Z","name_a2s":"Uncletopia | Chicago | 8 | Community","protocol":17,"map":"workshop/pl_vigil_rc10.ugc1266210012","folder":"tf","game":"Team Fortress","app_id":440,"player_count":24,"max_players":24,"Bots":0,"server_type":"Dedicated","server_os":"Linux","password":true,"vac":true,"version":"7961495","steam_id":85568392924866365,"keywords":["nocrits","nodmgspread","payload","uncletopia"],"game_id":440,"stv_port":27046,"stv_name":"Uncletopia | Chicago | 8 | Community | STV","players":[{"user_id":75,"name":"ĐïɐȐɹɦɆa","steam_id":76561198981411945,"connected_time":4588000000000,"state":"active","ping":111},{"user_id":130,"name":"Brock Obama","steam_id":76561198094643755,"connected_time":913000000000,"state":"active","ping":56},{"user_id":127,"name":"Mythic","steam_id":76561198028616665,"connected_time":984000000000,"state":"active","ping":57},{"user_id":125,"name":"Borked","steam_id":76561197984964095,"connected_time":1291000000000,"state":"active","ping":106},{"user_id":129,"name":"NUt","steam_id":76561198031007966,"connected_time":961000000000,"state":"active","ping":65},{"user_id":105,"name":"y our #1 bigest fan!1","steam_id":76561198425503395,"connected_time":2989000000000,"state":"active","ping":71},{"user_id":114,"name":"DELTRON ZERO","steam_id":76561198081123470,"connected_time":2103000000000,"state":"active","ping":61},{"user_id":131,"name":"Some_Arse","steam_id":76561198039095394,"connected_time":843000000000,"state":"active","ping":63},{"user_id":120,"name":"Frisbee","steam_id":76561197962808987,"connected_time":1774000000000,"state":"active","ping":65},{"user_id":132,"name":"hypersomniac robot femme","steam_id":76561198808682850,"connected_time":826000000000,"state":"active","ping":86},{"user_id":133,"name":"gundself","steam_id":76561198799241927,"connected_time":821000000000,"state":"active","ping":143},{"user_id":141,"name":"Jean Deere","steam_id":76561198105101309,"connected_time":146000000000,"state":"active","ping":82},{"user_id":142,"name":"skel bone","steam_id":76561199125269172,"connected_time":106000000000,"state":"active","ping":97},{"user_id":122,"name":"eepy kitty :3","steam_id":76561198106313563,"connected_time":1360000000000,"state":"active","ping":59},{"user_id":134,"name":"Nola","steam_id":76561198969082311,"connected_time":799000000000,"state":"active","ping":107},{"user_id":135,"name":"A Very Confused Gentleman","steam_id":76561198051686391,"connected_time":748000000000,"state":"active","ping":60},{"user_id":140,"name":"Rin \"Hindwing\" Redtail","steam_id":76561199074865638,"connected_time":657000000000,"state":"active","ping":75},{"user_id":112,"name":"Eviscerator","steam_id":76561197980073637,"connected_time":2333000000000,"state":"active","ping":80},{"user_id":143,"name":"potpurrycatcurry","steam_id":76561198349409715,"connected_time":101000000000,"state":"active","ping":75},{"user_id":100,"name":"the pest","steam_id":76561198826298849,"connected_time":3561000000000,"state":"active","ping":87},{"user_id":145,"name":"Tokey","steam_id":76561198825943127,"connected_time":4000000000,"state":"spawning","ping":95},{"user_id":144,"name":"fishy","steam_id":76561198018622305,"connected_time":100000000000,"state":"active","ping":77},{"user_id":139,"name":"whatheman28","steam_id":76561199043263229,"connected_time":697000000000,"state":"active","ping":116},{"user_id":53,"name":"cheddar baked ruffles","steam_id":76561198799404824,"connected_time":5438000000000,"state":"active","ping":71}]},{"server_id":8,"name":"Uncletopia | Dallas | 1 | All Maps","name_short":"dal-1","host":"dal-1.us.uncletopia.com","port":27015,"enabled":true,"region":"us-central","cc":"us","latitude":32.779167,"longitude":-96.80889,"reserved":0,"last_update":"0001-01-01T00:00:00Z","name_a2s":"Uncletopia | Dallas | 1 | All Maps","protocol":17,"map":"pl_snowycoast","folder":"tf","game":"Team Fortress","app_id":440,"player_count":24,"max_players":24,"Bots":0,"server_type":"Dedicated","server_os":"Linux","password":true,"vac":true,"version":"7961495","steam_id":85568392924469986,"keywords":["nocrits","nodmgspread","payload","uncletopia"],"game_id":440,"stv_port":27016,"stv_name":"Uncletopia | Dallas | 1 | All Maps | STV","players":[{"user_id":359,"name":"Jango","steam_id":76561198084589742,"connected_time":1163000000000,"state":"active","ping":74},{"user_id":360,"name":"Sweet Tooth","steam_id":76561198830158092,"connected_time":1156000000000,"state":"active","ping":79},{"user_id":289,"name":"Crack Addict","steam_id":76561198166681494,"connected_time":6167000000000,"state":"active","ping":42},{"user_id":311,"name":"errant","steam_id":76561197961758410,"connected_time":3520000000000,"state":"active","ping":51},{"user_id":364,"name":"Nine-Tails Delsin","steam_id":76561198149825187,"connected_time":1067000000000,"state":"active","ping":158},{"user_id":354,"name":"Dauntless Dreams","steam_id":76561198439474195,"connected_time":1583000000000,"state":"active","ping":63},{"user_id":337,"name":"tj3002rocks","steam_id":76561199017921546,"connected_time":2125000000000,"state":"active","ping":55},{"user_id":347,"name":"mbell1199","steam_id":76561198827517736,"connected_time":1757000000000,"state":"active","ping":62},{"user_id":313,"name":"monkaHeal","steam_id":76561198127039453,"connected_time":3509000000000,"state":"active","ping":76},{"user_id":367,"name":"Remy the rat","steam_id":76561198080519558,"connected_time":411000000000,"state":"active","ping":59},{"user_id":338,"name":"Jerome *_*","steam_id":76561198054796296,"connected_time":1966000000000,"state":"active","ping":83},{"user_id":348,"name":"saturn eating his own ass","steam_id":76561198016826181,"connected_time":1752000000000,"state":"active","ping":86},{"user_id":306,"name":"Imrgrim","steam_id":76561198135866481,"connected_time":3958000000000,"state":"active","ping":64},{"user_id":365,"name":"Wade","steam_id":76561199092175631,"connected_time":883000000000,"state":"active","ping":68},{"user_id":324,"name":"leesh","steam_id":76561198079603938,"connected_time":3362000000000,"state":"active","ping":74},{"user_id":371,"name":"sebjzy ♥","steam_id":76561198009959034,"connected_time":5000000000,"state":"spawning","ping":59},{"user_id":299,"name":"barker bill","steam_id":76561198018451994,"connected_time":4965000000000,"state":"active","ping":60},{"user_id":369,"name":"iluvtoust","steam_id":76561198869269207,"connected_time":15000000000,"state":"active","ping":56},{"user_id":370,"name":"Wine, Good sir?","steam_id":76561198413806134,"connected_time":15000000000,"state":"spawning","ping":57},{"user_id":351,"name":"Crustacean Daddy","steam_id":76561198993807061,"connected_time":1745000000000,"state":"active","ping":79},{"user_id":356,"name":"Rafl","steam_id":76561198055222756,"connected_time":1486000000000,"state":"active","ping":45},{"user_id":353,"name":"P.C. Baby","steam_id":76561198067011379,"connected_time":1734000000000,"state":"active","ping":81},{"user_id":358,"name":"Withered Bonnie (Real)","steam_id":76561198423310113,"connected_time":1338000000000,"state":"active","ping":55},{"user_id":336,"name":"Borgir","steam_id":76561198325390265,"connected_time":2344000000000,"state":"active","ping":62}]},{"server_id":108,"name":"Uncletopia | Dallas | 2 | All Maps","name_short":"dal-2","host":"dal-1.us.uncletopia.com","port":27025,"enabled":true,"region":"us-central","cc":"us","latitude":32.779167,"longitude":-96.80889,"reserved":0,"last_update":"0001-01-01T00:00:00Z","name_a2s":"Uncletopia | Dallas | 2 | All Maps","protocol":17,"map":"pl_frontier_final","folder":"tf","game":"Team Fortress","app_id":440,"player_count":24,"max_players":24,"Bots":0,"server_type":"Dedicated","server_os":"Linux","password":true,"vac":true,"version":"7961495","steam_id":85568392924469988,"keywords":["nocrits","nodmgspread","payload","uncletopia"],"game_id":440,"stv_port":27026,"stv_name":"Uncletopia | Dallas | 2 | All Maps | STV","players":[{"user_id":535,"name":"BurnN8or101","steam_id":76561198132668224,"connected_time":923000000000,"state":"active","ping":68},{"user_id":540,"name":"Smiley_R5 ringme","steam_id":76561198113083770,"connected_time":294000000000,"state":"active","ping":88},{"user_id":548,"name":"Heartgold","steam_id":76561199062592062,"connected_time":131000000000,"state":"active","ping":92},{"user_id":497,"name":"Horse","steam_id":76561198004583631,"connected_time":3567000000000,"state":"active","ping":100},{"user_id":542,"name":"DeckofDragons","steam_id":76561198057398213,"connected_time":281000000000,"state":"active","ping":68},{"user_id":512,"name":"| L O S T |","steam_id":76561198062620333,"connected_time":2118000000000,"state":"active","ping":102},{"user_id":480,"name":"Nato #ClashGG","steam_id":76561198161062837,"connected_time":4030000000000,"state":"active","ping":84},{"user_id":524,"name":"SoCal Kaizer","steam_id":76561198334361081,"connected_time":1477000000000,"state":"active","ping":104},{"user_id":543,"name":"Portaldude626","steam_id":76561198954610452,"connected_time":277000000000,"state":"active","ping":71},{"user_id":492,"name":"Tuvok Shakur","steam_id":76561198018875334,"connected_time":3823000000000,"state":"active","ping":80},{"user_id":533,"name":"Gary Busey","steam_id":76561197970096950,"connected_time":1084000000000,"state":"active","ping":43},{"user_id":546,"name":"twitch.tv/madvillainwill","steam_id":76561197961102957,"connected_time":267000000000,"state":"active","ping":68},{"user_id":537,"name":"Lumpy the Illegally Blind","steam_id":76561198053125768,"connected_time":726000000000,"state":"active","ping":96},{"user_id":483,"name":"Phos","steam_id":76561198122339506,"connected_time":3899000000000,"state":"active","ping":73},{"user_id":534,"name":"Kzjytsugn","steam_id":76561198130241974,"connected_time":1013000000000,"state":"active","ping":107},{"user_id":484,"name":"MemoxJota (F2P)","steam_id":76561198862661338,"connected_time":3897000000000,"state":"active","ping":131},{"user_id":536,"name":"Master Oogway","steam_id":76561198051869638,"connected_time":904000000000,"state":"active","ping":78},{"user_id":513,"name":"Kobicha","steam_id":76561198144970720,"connected_time":2053000000000,"state":"active","ping":72},{"user_id":530,"name":"firulais","steam_id":76561198860460013,"connected_time":1306000000000,"state":"active","ping":76},{"user_id":549,"name":"MeepTheFrog","steam_id":76561198447438847,"connected_time":80000000000,"state":"active","ping":68},{"user_id":545,"name":"upward........ pumpkin","steam_id":76561198443401216,"connected_time":275000000000,"state":"active","ping":65},{"user_id":515,"name":"LordOfTheNoobs","steam_id":76561197962697523,"connected_time":1970000000000,"state":"active","ping":95},{"user_id":531,"name":"rf","steam_id":76561198195359229,"connected_time":1305000000000,"state":"active","ping":105},{"user_id":521,"name":"Coke","steam_id":76561199083035892,"connected_time":1628000000000,"state":"active","ping":64}]},{"server_id":404,"name":"Uncletopia | Dallas | 3 | All Maps","name_short":"dal-3","host":"dal-1.us.uncletopia.com","port":27035,"enabled":true,"region":"us-central","cc":"us","latitude":32.779167,"longitude":-96.80889,"reserved":0,"last_update":"0001-01-01T00:00:00Z","name_a2s":"Uncletopia | Dallas | 3 | All Maps","protocol":17,"map":"pl_badwater","folder":"tf","game":"Team Fortress","app_id":440,"player_count":24,"max_players":24,"Bots":0,"server_type":"Dedicated","server_os":"Linux","password":true,"vac":true,"version":"7961495","steam_id":85568392924515219,"keywords":["nocrits","nodmgspread","payload","uncletopia"],"game_id":440,"stv_port":27036,"stv_name":"Uncletopia | Dallas | 3 | All Maps | STV","players":[{"user_id":139,"name":"DMM","steam_id":76561198065426171,"connected_time":3502000000000,"state":"active","ping":59},{"user_id":113,"name":"Shrimp Fried Rice","steam_id":76561198247688228,"connected_time":5273000000000,"state":"active","ping":163},{"user_id":156,"name":"The Bruce the Ship","steam_id":76561198271907916,"connected_time":2309000000000,"state":"active","ping":75},{"user_id":171,"name":"Fyr","steam_id":76561198048507556,"connected_time":760000000000,"state":"active","ping":46},{"user_id":169,"name":"BrightOrangeMango","steam_id":76561198023144607,"connected_time":1064000000000,"state":"active","ping":83},{"user_id":166,"name":"Penguinodle","steam_id":76561199082347306,"connected_time":1185000000000,"state":"active","ping":45},{"user_id":167,"name":"Drilly22","steam_id":76561198068838338,"connected_time":1175000000000,"state":"active","ping":65},{"user_id":142,"name":"Midnight™","steam_id":76561198000076524,"connected_time":2987000000000,"state":"active","ping":61},{"user_id":119,"name":"Lethal Wizard Gaming","steam_id":76561199230005387,"connected_time":4992000000000,"state":"active","ping":54},{"user_id":143,"name":"Primalset3909","steam_id":76561198038071550,"connected_time":2945000000000,"state":"active","ping":70},{"user_id":154,"name":"Bacon","steam_id":76561199078407152,"connected_time":2525000000000,"state":"active","ping":78},{"user_id":173,"name":"veen","steam_id":76561198084334538,"connected_time":719000000000,"state":"active","ping":90},{"user_id":168,"name":"Call me the sleeps","steam_id":76561198121245586,"connected_time":1172000000000,"state":"active","ping":103},{"user_id":145,"name":"O(n)","steam_id":76561198104675984,"connected_time":2906000000000,"state":"active","ping":97},{"user_id":123,"name":"TheBrocklobster","steam_id":76561198039682984,"connected_time":4945000000000,"state":"active","ping":88},{"user_id":146,"name":"tail slap +36 (4d12+18)","steam_id":76561198040425096,"connected_time":2899000000000,"state":"active","ping":73},{"user_id":153,"name":"❤ Ashley ❤","steam_id":76561198056428303,"connected_time":2753000000000,"state":"active","ping":75},{"user_id":136,"name":"RAWRWAIFU","steam_id":76561198032118386,"connected_time":4216000000000,"state":"active","ping":73},{"user_id":170,"name":"DiscoTraveler","steam_id":76561199240168088,"connected_time":966000000000,"state":"active","ping":90},{"user_id":161,"name":"Coach McFish","steam_id":76561198210456405,"connected_time":1857000000000,"state":"active","ping":95},{"user_id":172,"name":"GreenApples","steam_id":76561198120559543,"connected_time":727000000000,"state":"active","ping":93},{"user_id":149,"name":"Eden","steam_id":76561198081284664,"connected_time":2866000000000,"state":"active","ping":79},{"user_id":163,"name":"Novu","steam_id":76561198886997024,"connected_time":1637000000000,"state":"active","ping":105},{"user_id":174,"name":"Six","steam_id":76561198035688070,"connected_time":697000000000,"state":"active","ping":99}]},{"server_id":405,"name":"Uncletopia | Dallas | 4 | Community","name_short":"dal-4","host":"dal-1.us.uncletopia.com","port":27045,"enabled":true,"region":"us-central","cc":"us","latitude":32.779167,"longitude":-96.80889,"reserved":0,"last_update":"0001-01-01T00:00:00Z","name_a2s":"Uncletopia | Dallas | 4 | Community","protocol":17,"map":"workshop/pl_emerge_rc2.ugc888027758","folder":"tf","game":"Team Fortress","app_id":440,"player_count":0,"max_players":24,"Bots":0,"server_type":"Dedicated","server_os":"Linux","password":true,"vac":true,"version":"7961495","steam_id":85568392924515220,"keywords":["nocrits","nodmgspread","payload","uncletopia"],"game_id":440,"stv_port":27046,"stv_name":"Uncletopia | Dallas | 4 | Community | STV","players":null},{"server_id":5,"name":"Uncletopia | Frankfurt | 1 | All Maps","name_short":"frk-1","host":"frk-1.de.uncletopia.com","port":27015,"enabled":true,"region":"eu","cc":"de","latitude":50.110924,"longitude":8.682127,"reserved":0,"last_update":"0001-01-01T00:00:00Z","name_a2s":"Uncletopia | Frankfurt | 1 | All Maps","protocol":17,"map":"koth_viaduct","folder":"tf","game":"Team Fortress","app_id":440,"player_count":0,"max_players":24,"Bots":0,"server_type":"Dedicated","server_os":"Linux","password":true,"vac":true,"version":"7961495","steam_id":85568392924469989,"keywords":["cp","nocrits","nodmgspread","uncletopia"],"game_id":440,"stv_port":27016,"stv_name":"Uncletopia | Frankfurt | 1 | All Maps | STV","players":null},{"server_id":110,"name":"Uncletopia | Frankfurt | 2 | All Maps","name_short":"frk-2","host":"frk-1.de.uncletopia.com","port":27025,"enabled":true,"region":"eu","cc":"de","latitude":50.110924,"longitude":8.682127,"reserved":0,"last_update":"0001-01-01T00:00:00Z","name_a2s":"Uncletopia | Frankfurt | 2 | All Maps","protocol":17,"map":"pl_pier","folder":"tf","game":"Team Fortress","app_id":440,"player_count":22,"max_players":24,"Bots":0,"server_type":"Dedicated","server_os":"Linux","password":true,"vac":true,"version":"7961495","steam_id":85568392924469990,"keywords":["nocrits","nodmgspread","payload","uncletopia"],"game_id":440,"stv_port":27026,"stv_name":"Uncletopia | Frankfurt | 2 | All Maps | STV","players":[{"user_id":604,"name":"lili's boy","steam_id":76561198162873354,"connected_time":2548000000000,"state":"active","ping":94},{"user_id":612,"name":"snowycoast","steam_id":76561198346638308,"connected_time":1542000000000,"state":"active","ping":60},{"user_id":618,"name":"Toasted Toby","steam_id":76561198002139581,"connected_time":1212000000000,"state":"active","ping":63},{"user_id":613,"name":"boombox","steam_id":76561198083122882,"connected_time":1463000000000,"state":"active","ping":45},{"user_id":629,"name":"Taha","steam_id":76561199259524970,"connected_time":606000000000,"state":"active","ping":86},{"user_id":634,"name":"Apple Cider","steam_id":76561198232345516,"connected_time":54000000000,"state":"active","ping":194},{"user_id":605,"name":"MuchoBroke","steam_id":76561199389474207,"connected_time":2536000000000,"state":"active","ping":62},{"user_id":603,"name":"noseb","steam_id":76561199480942903,"connected_time":2765000000000,"state":"active","ping":65},{"user_id":632,"name":"Abska","steam_id":76561198118323803,"connected_time":422000000000,"state":"active","ping":143},{"user_id":584,"name":"dirty rascal","steam_id":76561198000871038,"connected_time":4771000000000,"state":"active","ping":59},{"user_id":607,"name":"SuperBob103","steam_id":76561199175360012,"connected_time":2420000000000,"state":"active","ping":72},{"user_id":577,"name":"sad monkey","steam_id":76561198116530769,"connected_time":5822000000000,"state":"active","ping":83},{"user_id":633,"name":"The Final Terminus","steam_id":76561197964985183,"connected_time":298000000000,"state":"active","ping":125},{"user_id":616,"name":"FredBoat♪♪ ᴮᴼᵀ","steam_id":76561198444947648,"connected_time":1376000000000,"state":"active","ping":137},{"user_id":586,"name":"derwin","steam_id":76561198062075870,"connected_time":4578000000000,"state":"active","ping":60},{"user_id":597,"name":"Zor","steam_id":76561198009851383,"connected_time":2786000000000,"state":"active","ping":66},{"user_id":588,"name":"Skidge","steam_id":76561198089624697,"connected_time":4293000000000,"state":"active","ping":77},{"user_id":627,"name":"Zartas","steam_id":76561198008861994,"connected_time":765000000000,"state":"active","ping":181},{"user_id":595,"name":"Bobirulez","steam_id":76561198009125458,"connected_time":3202000000000,"state":"active","ping":68},{"user_id":536,"name":"Leo","steam_id":76561198023609460,"connected_time":8928000000000,"state":"active","ping":92},{"user_id":628,"name":"Prometheus (Zim)","steam_id":76561198045552121,"connected_time":741000000000,"state":"active","ping":164},{"user_id":576,"name":"syms","steam_id":76561198066679812,"connected_time":5846000000000,"state":"active","ping":66}]},{"server_id":308,"name":"Uncletopia | Frankfurt | 3 | All Maps","name_short":"frk-3","host":"frk-1.de.uncletopia.com","port":27035,"enabled":true,"region":"eu","cc":"de","latitude":50.110924,"longitude":8.682127,"reserved":0,"last_update":"0001-01-01T00:00:00Z","name_a2s":"Uncletopia | Frankfurt | 3 | All Maps","protocol":17,"map":"cp_dustbowl","folder":"tf","game":"Team Fortress","app_id":440,"player_count":0,"max_players":24,"Bots":0,"server_type":"Dedicated","server_os":"Linux","password":true,"vac":true,"version":"7961495","steam_id":85568392924504274,"keywords":["cp","nocrits","nodmgspread","uncletopia"],"game_id":440,"stv_port":27036,"stv_name":"Uncletopia | Frankfurt | 3 | All Maps | STV","players":null},{"server_id":309,"name":"Uncletopia | Frankfurt | 4 | All Maps","name_short":"frk-4","host":"frk-1.de.uncletopia.com","port":27045,"enabled":true,"region":"eu","cc":"de","latitude":50.110924,"longitude":8.682127,"reserved":0,"last_update":"0001-01-01T00:00:00Z","name_a2s":"Uncletopia | Frankfurt | 4 | All Maps","protocol":17,"map":"pl_badwater","folder":"tf","game":"Team Fortress","app_id":440,"player_count":0,"max_players":24,"Bots":0,"server_type":"Dedicated","server_os":"Linux","password":true,"vac":true,"version":"7961495","steam_id":85568392924504275,"keywords":["nocrits","nodmgspread","payload","uncletopia"],"game_id":440,"stv_port":27046,"stv_name":"Uncletopia | Frankfurt | 4 | All Maps | STV","players":null},{"server_id":310,"name":"Uncletopia | Frankfurt | 5 | All Maps","name_short":"frk-5","host":"frk-1.de.uncletopia.com","port":27055,"enabled":true,"region":"eu","cc":"de","latitude":50.110924,"longitude":8.682127,"reserved":0,"last_update":"0001-01-01T00:00:00Z","name_a2s":"Uncletopia | Frankfurt | 5 | All Maps","protocol":17,"map":"cp_dustbowl","folder":"tf","game":"Team Fortress","app_id":440,"player_count":0,"max_players":24,"Bots":0,"server_type":"Dedicated","server_os":"Linux","password":true,"vac":true,"version":"7961495","steam_id":85568392924504277,"keywords":["cp","nocrits","nodmgspread","uncletopia"],"game_id":440,"stv_port":27056,"stv_name":"Uncletopia | Frankfurt | 5 | All Maps | STV","players":null},{"server_id":311,"name":"Uncletopia | Frankfurt | 6 | All Maps","name_short":"frk-6","host":"frk-1.de.uncletopia.com","port":27065,"enabled":true,"region":"eu","cc":"de","latitude":50.110924,"longitude":8.682127,"reserved":0,"last_update":"0001-01-01T00:00:00Z","name_a2s":"Uncletopia | Frankfurt | 6 | All Maps","protocol":17,"map":"cp_altitude","folder":"tf","game":"Team Fortress","app_id":440,"player_count":0,"max_players":24,"Bots":0,"server_type":"Dedicated","server_os":"Linux","password":true,"vac":true,"version":"7961495","steam_id":85568392924504278,"keywords":["cp","nocrits","nodmgspread","uncletopia"],"game_id":440,"stv_port":27066,"stv_name":"Uncletopia | Frankfurt | 6 | All Maps | STV","players":null},{"server_id":23,"name":"Uncletopia | Frankfurt | 7 | Stopwatch","name_short":"frk-7","host":"frk-1.de.uncletopia.com","port":27075,"enabled":true,"region":"eu","cc":"de","latitude":50.110924,"longitude":8.682127,"reserved":0,"last_update":"0001-01-01T00:00:00Z","name_a2s":"Uncletopia | Frankfurt | 7 | Stopwatch","protocol":17,"map":"workshop/koth_clearcut_b15.ugc2107050255","folder":"tf","game":"Team Fortress","app_id":440,"player_count":0,"max_players":24,"Bots":0,"server_type":"Dedicated","server_os":"Linux","password":true,"vac":true,"version":"7961495","steam_id":85568392924742827,"keywords":["cp","nocrits","nodmgspread","uncletopia"],"game_id":440,"stv_port":27076,"stv_name":"Uncletopia | Frankfurt | 7 | Stopwatch | STV","players":null},{"server_id":24,"name":"Uncletopia | Frankfurt | 8 | Community","name_short":"frk-8","host":"frk-1.de.uncletopia.com","port":27085,"enabled":true,"region":"eu","cc":"de","latitude":50.110924,"longitude":8.682127,"reserved":0,"last_update":"0001-01-01T00:00:00Z","name_a2s":"Uncletopia | Frankfurt | 8 | Community","protocol":17,"map":"workshop/koth_bagel_rc6.ugc2514036946","folder":"tf","game":"Team Fortress","app_id":440,"player_count":0,"max_players":24,"Bots":0,"server_type":"Dedicated","server_os":"Linux","password":true,"vac":true,"version":"7961495","steam_id":85568392924742828,"keywords":["cp","nocrits","nodmgspread","uncletopia"],"game_id":440,"stv_port":27086,"stv_name":"Uncletopia | Frankfurt | 8 | Community | STV","players":null},{"server_id":202,"name":"Uncletopia | Hong Kong | 1 | All Maps","name_short":"hgk-1","host":"hgk-1.hk.uncletopia.com","port":27015,"enabled":true,"region":"asia","cc":"hk","latitude":22.302711,"longitude":114.177216,"reserved":0,"last_update":"0001-01-01T00:00:00Z","name_a2s":"Uncletopia | Hong Kong | 1 | All Maps","protocol":17,"map":"pl_frontier_final","folder":"tf","game":"Team Fortress","app_id":440,"player_count":0,"max_players":24,"Bots":0,"server_type":"Dedicated","server_os":"Linux","password":true,"vac":true,"version":"7961495","steam_id":85568392924494504,"keywords":["nocrits","nodmgspread","payload","uncletopia"],"game_id":440,"stv_port":27016,"stv_name":"Uncletopia | Hong Kong | 1 | All Maps | STV","players":null},{"server_id":1,"name":"Uncletopia | Los Angeles | 1 | All Maps","name_short":"lax-1","host":"lax-1.us.uncletopia.com","port":27015,"enabled":true,"region":"us-west","cc":"us","latitude":33.94279,"longitude":-118.41004,"reserved":0,"last_update":"0001-01-01T00:00:00Z","name_a2s":"Uncletopia | Los Angeles | 1 | All Maps","protocol":17,"map":"koth_lakeside_final","folder":"tf","game":"Team Fortress","app_id":440,"player_count":0,"max_players":24,"Bots":0,"server_type":"Dedicated","server_os":"Linux","password":true,"vac":true,"version":"7961495","steam_id":85568392924469991,"keywords":["cp","nocrits","nodmgspread","uncletopia"],"game_id":440,"stv_port":27016,"stv_name":"Uncletopia | Los Angeles | 1 | All Maps | STV","players":null},{"server_id":112,"name":"Uncletopia | Los Angeles | 2 | All Maps","name_short":"lax-2","host":"lax-1.us.uncletopia.com","port":27025,"enabled":true,"region":"us-west","cc":"us","latitude":33.94279,"longitude":-118.41004,"reserved":0,"last_update":"0001-01-01T00:00:00Z","name_a2s":"Uncletopia | Los Angeles | 2 | All Maps","protocol":17,"map":"pl_pier","folder":"tf","game":"Team Fortress","app_id":440,"player_count":25,"max_players":24,"Bots":0,"server_type":"Dedicated","server_os":"Linux","password":true,"vac":true,"version":"7961495","steam_id":85568392924469992,"keywords":["nocrits","nodmgspread","payload","uncletopia"],"game_id":440,"stv_port":27026,"stv_name":"Uncletopia | Los Angeles | 2 | All Maps | STV","players":[{"user_id":48,"name":"Octafish","steam_id":76561198866038505,"connected_time":1939000000000,"state":"active","ping":105},{"user_id":64,"name":"King Glouton","steam_id":76561197998979392,"connected_time":974000000000,"state":"active","ping":126},{"user_id":17,"name":"S O U N D W A V E","steam_id":76561198093417449,"connected_time":3566000000000,"state":"active","ping":44},{"user_id":61,"name":"wugmup","steam_id":76561199096287734,"connected_time":1563000000000,"state":"active","ping":69},{"user_id":19,"name":"cielael","steam_id":76561198043971956,"connected_time":3484000000000,"state":"active","ping":47},{"user_id":65,"name":"Flyinglab","steam_id":76561198042161408,"connected_time":879000000000,"state":"active","ping":107},{"user_id":21,"name":"Gerbias","steam_id":76561198001002427,"connected_time":3098000000000,"state":"active","ping":63},{"user_id":22,"name":"medium Mike","steam_id":76561198111645213,"connected_time":3097000000000,"state":"active","ping":45},{"user_id":49,"name":"MantisToboggan","steam_id":76561197969447887,"connected_time":1937000000000,"state":"active","ping":96},{"user_id":59,"name":"SAVECASEY","steam_id":76561198857896847,"connected_time":1748000000000,"state":"active","ping":41},{"user_id":41,"name":"rmbl (fork eater)","steam_id":76561198150137369,"connected_time":2107000000000,"state":"active","ping":45},{"user_id":66,"name":"phfez","steam_id":76561198046150386,"connected_time":870000000000,"state":"active","ping":105},{"user_id":44,"name":"YoteDab McFapDab.jpg","steam_id":76561197984870380,"connected_time":2027000000000,"state":"active","ping":121},{"user_id":72,"name":"Daz","steam_id":76561198041431938,"connected_time":227000000000,"state":"active","ping":74},{"user_id":39,"name":"caRat","steam_id":76561198859267372,"connected_time":2246000000000,"state":"active","ping":103},{"user_id":67,"name":"SuperSX","steam_id":76561199230865085,"connected_time":869000000000,"state":"active","ping":81},{"user_id":58,"name":"NubNub21","steam_id":76561197995743317,"connected_time":1786000000000,"state":"active","ping":101},{"user_id":60,"name":"SpeedEagle","steam_id":76561198092623489,"connected_time":1605000000000,"state":"active","ping":53},{"user_id":51,"name":"mrhaloguy12","steam_id":76561199487190703,"connected_time":1929000000000,"state":"active","ping":116},{"user_id":68,"name":"MioAnarchy","steam_id":76561198237106136,"connected_time":757000000000,"state":"active","ping":128},{"user_id":54,"name":"Glanderson booper","steam_id":76561198021223747,"connected_time":1878000000000,"state":"active","ping":85},{"user_id":70,"name":"coolbust carti","steam_id":76561198065384345,"connected_time":312000000000,"state":"active","ping":75},{"user_id":69,"name":"『A Sentient Durian』","steam_id":76561198131212243,"connected_time":320000000000,"state":"active","ping":66},{"user_id":78,"name":"Specter the Unchained","steam_id":76561198348354629,"connected_time":6000000000,"state":"spawning","ping":645},{"user_id":57,"name":"Jpxfred","steam_id":76561199414783749,"connected_time":1835000000000,"state":"active","ping":76}]},{"server_id":324,"name":"Uncletopia | Los Angeles | 3 | All Maps","name_short":"lax-3","host":"lax-1.us.uncletopia.com","port":27035,"enabled":true,"region":"us-west","cc":"us","latitude":33.94279,"longitude":-118.41004,"reserved":0,"last_update":"0001-01-01T00:00:00Z","name_a2s":"Uncletopia | Los Angeles | 3 | All Maps","protocol":17,"map":"pl_pier","folder":"tf","game":"Team Fortress","app_id":440,"player_count":0,"max_players":24,"Bots":0,"server_type":"Dedicated","server_os":"Linux","password":true,"vac":true,"version":"7961495","steam_id":85568392924510198,"keywords":["nocrits","nodmgspread","payload","uncletopia"],"game_id":440,"stv_port":27036,"stv_name":"Uncletopia | Los Angeles | 3 | All Maps | STV","players":null},{"server_id":25,"name":"Uncletopia | Los Angeles | 4 | Stopwatch","name_short":"lax-4","host":"lax-1.us.uncletopia.com","port":27045,"enabled":true,"region":"us-west","cc":"us","latitude":33.94279,"longitude":-118.41004,"reserved":0,"last_update":"0001-01-01T00:00:00Z","name_a2s":"Uncletopia | Los Angeles | 4 | Stopwatch","protocol":17,"map":"cp_process_final","folder":"tf","game":"Team Fortress","app_id":440,"player_count":0,"max_players":24,"Bots":0,"server_type":"Dedicated","server_os":"Linux","password":true,"vac":true,"version":"7961495","steam_id":85568392924510199,"keywords":["cp","nocrits","nodmgspread","uncletopia"],"game_id":440,"stv_port":27046,"stv_name":"Uncletopia | Los Angeles | 4 | Stopwatch | STV","players":null},{"server_id":11,"name":"Uncletopia | London | 1 | All Maps","name_short":"lon-1","host":"lon-1.uk.uncletopia.com","port":27015,"enabled":true,"region":"eu","cc":"gb","latitude":51.509865,"longitude":-0.118092,"reserved":0,"last_update":"0001-01-01T00:00:00Z","name_a2s":"Uncletopia | London | 1 | All Maps","protocol":17,"map":"koth_harvest_final","folder":"tf","game":"Team Fortress","app_id":440,"player_count":6,"max_players":24,"Bots":0,"server_type":"Dedicated","server_os":"Linux","password":true,"vac":true,"version":"7961495","steam_id":85568392924367362,"keywords":["cp","nocrits","nodmgspread","uncletopia"],"game_id":440,"stv_port":27016,"stv_name":"Uncletopia | London | 1 | All Maps | STV","players":[{"user_id":726,"name":"Gerardagh","steam_id":76561198410424126,"connected_time":3828000000000,"state":"active","ping":130},{"user_id":731,"name":"jonbob","steam_id":76561197963506620,"connected_time":2919000000000,"state":"active","ping":48},{"user_id":730,"name":"Lukullu","steam_id":76561198269414258,"connected_time":3205000000000,"state":"active","ping":69},{"user_id":722,"name":"BassDrop","steam_id":76561198339567534,"connected_time":3972000000000,"state":"active","ping":100},{"user_id":737,"name":"CCPodz","steam_id":76561199143506502,"connected_time":1718000000000,"state":"active","ping":148},{"user_id":739,"name":"vert2spooky / / 月読命","steam_id":76561198914976373,"connected_time":1314000000000,"state":"active","ping":31}]},{"server_id":114,"name":"Uncletopia | London | 2 | All Maps","name_short":"lon-2","host":"lon-1.uk.uncletopia.com","port":27025,"enabled":true,"region":"eu","cc":"gb","latitude":51.509865,"longitude":-0.118092,"reserved":0,"last_update":"0001-01-01T00:00:00Z","name_a2s":"Uncletopia | London | 2 | All Maps","protocol":17,"map":"cp_granary","folder":"tf","game":"Team Fortress","app_id":440,"player_count":23,"max_players":24,"Bots":0,"server_type":"Dedicated","server_os":"Linux","password":true,"vac":true,"version":"7961495","steam_id":85568392924470941,"keywords":["cp","nocrits","nodmgspread","uncletopia"],"game_id":440,"stv_port":27026,"stv_name":"Uncletopia | London | 2 | All Maps | STV","players":[{"user_id":628,"name":"Zerfesh","steam_id":76561198117534358,"connected_time":7049000000000,"state":"active","ping":97},{"user_id":650,"name":"David","steam_id":76561198017852330,"connected_time":4560000000000,"state":"active","ping":84},{"user_id":669,"name":"Perpetual Pub Push","steam_id":76561198256714846,"connected_time":3677000000000,"state":"active","ping":32},{"user_id":677,"name":"thekoolest88","steam_id":76561199022415672,"connected_time":2368000000000,"state":"active","ping":159},{"user_id":688,"name":"a chimp with a keyboard","steam_id":76561198060270322,"connected_time":1333000000000,"state":"active","ping":84},{"user_id":659,"name":"vivid","steam_id":76561198346546144,"connected_time":4491000000000,"state":"active","ping":43},{"user_id":698,"name":"راين","steam_id":76561199167206295,"connected_time":167000000000,"state":"active","ping":75},{"user_id":694,"name":"JuanPonchoGringo™","steam_id":76561198038046899,"connected_time":794000000000,"state":"active","ping":127},{"user_id":679,"name":"CreepyYellowDuck","steam_id":76561198000479387,"connected_time":2353000000000,"state":"active","ping":36},{"user_id":685,"name":"amjugan","steam_id":76561198018488216,"connected_time":1852000000000,"state":"active","ping":126},{"user_id":680,"name":"xX_DogWater-Gaming69_Xx","steam_id":76561198335486000,"connected_time":2291000000000,"state":"active","ping":68},{"user_id":684,"name":"Smuggs","steam_id":76561197999456003,"connected_time":2042000000000,"state":"active","ping":40},{"user_id":699,"name":"PyroMorphik","steam_id":76561198157628007,"connected_time":99000000000,"state":"active","ping":163},{"user_id":700,"name":"Terra","steam_id":76561199105430663,"connected_time":60000000000,"state":"active","ping":93},{"user_id":701,"name":"Visphiric","steam_id":76561198071938027,"connected_time":20000000000,"state":"spawning","ping":43},{"user_id":695,"name":"LemonAids","steam_id":76561198151605171,"connected_time":210000000000,"state":"active","ping":116},{"user_id":689,"name":"gamerweed5","steam_id":76561198087651151,"connected_time":1300000000000,"state":"active","ping":37},{"user_id":683,"name":"Tattletails","steam_id":76561198055690341,"connected_time":2051000000000,"state":"active","ping":61},{"user_id":674,"name":"Crocodile=funny","steam_id":76561198194841303,"connected_time":3102000000000,"state":"active","ping":144},{"user_id":660,"name":"\u003e\u003c\u003e","steam_id":76561198152392309,"connected_time":4470000000000,"state":"active","ping":49},{"user_id":692,"name":"baballe","steam_id":76561198302448192,"connected_time":1071000000000,"state":"active","ping":33},{"user_id":658,"name":"The Duke","steam_id":76561198063644325,"connected_time":4505000000000,"state":"active","ping":56},{"user_id":665,"name":"jjkun786","steam_id":76561199438517484,"connected_time":4259000000000,"state":"active","ping":76}]},{"server_id":320,"name":"Uncletopia | London | 3 | All Maps","name_short":"lon-3","host":"lon-1.uk.uncletopia.com","port":27035,"enabled":true,"region":"eu","cc":"gb","latitude":51.509865,"longitude":-0.118092,"reserved":0,"last_update":"0001-01-01T00:00:00Z","name_a2s":"Uncletopia | London | 3 | All Maps","protocol":17,"map":"pl_upward","folder":"tf","game":"Team Fortress","app_id":440,"player_count":0,"max_players":24,"Bots":0,"server_type":"Dedicated","server_os":"Linux","password":true,"vac":true,"version":"7961495","steam_id":85568392924510192,"keywords":["nocrits","nodmgspread","payload","uncletopia"],"game_id":440,"stv_port":27036,"stv_name":"Uncletopia | London | 3 | All Maps | STV","players":null},{"server_id":321,"name":"Uncletopia | London | 4 | All Maps","name_short":"lon-4","host":"lon-1.uk.uncletopia.com","port":27045,"enabled":true,"region":"eu","cc":"gb","latitude":51.509865,"longitude":-0.118092,"reserved":0,"last_update":"0001-01-01T00:00:00Z","name_a2s":"Uncletopia | London | 4 | All Maps","protocol":17,"map":"koth_highpass","folder":"tf","game":"Team Fortress","app_id":440,"player_count":0,"max_players":24,"Bots":0,"server_type":"Dedicated","server_os":"Linux","password":true,"vac":true,"version":"7961495","steam_id":85568392924510193,"keywords":["cp","nocrits","nodmgspread","uncletopia"],"game_id":440,"stv_port":27046,"stv_name":"Uncletopia | London | 4 | All Maps | STV","players":null},{"server_id":21,"name":"Uncletopia | London | 5 | All Maps","name_short":"lon-5","host":"lon-1.uk.uncletopia.com","port":27055,"enabled":true,"region":"eu","cc":"gb","latitude":51.509865,"longitude":-0.118092,"reserved":0,"last_update":"0001-01-01T00:00:00Z","name_a2s":"Uncletopia | London | 5 | All Maps","protocol":17,"map":"koth_viaduct","folder":"tf","game":"Team Fortress","app_id":440,"player_count":0,"max_players":24,"Bots":0,"server_type":"Dedicated","server_os":"Linux","password":true,"vac":true,"version":"7961495","steam_id":85568392924742829,"keywords":["cp","nocrits","nodmgspread","uncletopia"],"game_id":440,"stv_port":27056,"stv_name":"Uncletopia | London | 5 | All Maps | STV","players":null},{"server_id":22,"name":"Uncletopia | London | 6 | All Maps","name_short":"lon-6","host":"lon-1.uk.uncletopia.com","port":27065,"enabled":true,"region":"eu","cc":"gb","latitude":51.509865,"longitude":-0.118092,"reserved":0,"last_update":"0001-01-01T00:00:00Z","name_a2s":"Uncletopia | London | 6 | All Maps","protocol":17,"map":"cp_process_final","folder":"tf","game":"Team Fortress","app_id":440,"player_count":0,"max_players":24,"Bots":0,"server_type":"Dedicated","server_os":"Linux","password":true,"vac":true,"version":"7961495","steam_id":85568392924742830,"keywords":["cp","nocrits","nodmgspread","uncletopia"],"game_id":440,"stv_port":27066,"stv_name":"Uncletopia | London | 6 | All Maps | STV","players":null},{"server_id":40,"name":"Uncletopia | London | 7 | Stopwatch","name_short":"lon-7","host":"lon-1.uk.uncletopia.com","port":27075,"enabled":true,"region":"eu","cc":"gb","latitude":51.509865,"longitude":-0.118092,"reserved":0,"last_update":"0001-01-01T00:00:00Z","name_a2s":"Uncletopia | London | 7 | Stopwatch","protocol":17,"map":"pl_upward","folder":"tf","game":"Team Fortress","app_id":440,"player_count":0,"max_players":24,"Bots":0,"server_type":"Dedicated","server_os":"Linux","password":true,"vac":true,"version":"7961495","steam_id":85568392924964314,"keywords":["nocrits","nodmgspread","payload","uncletopia"],"game_id":440,"stv_port":27076,"stv_name":"Uncletopia | London | 7 | Stopwatch | STV","players":null},{"server_id":41,"name":"Uncletopia | London | 8 | Community","name_short":"lon-8","host":"lon-1.uk.uncletopia.com","port":27085,"enabled":true,"region":"eu","cc":"gb","latitude":51.509865,"longitude":-0.118092,"reserved":0,"last_update":"0001-01-01T00:00:00Z","name_a2s":"Uncletopia | London | 8 | Community","protocol":17,"map":"workshop/koth_bagel_rc6.ugc2514036946","folder":"tf","game":"Team Fortress","app_id":440,"player_count":0,"max_players":24,"Bots":0,"server_type":"Dedicated","server_os":"Linux","password":true,"vac":true,"version":"7961495","steam_id":85568392924964315,"keywords":["cp","nocrits","nodmgspread","uncletopia"],"game_id":440,"stv_port":27086,"stv_name":"Uncletopia | London | 8 | Community | STV","players":null},{"server_id":300,"name":"Uncletopia | Montréal | 1 | One Thousand Uncles","name_short":"mtl-1","host":"mtl-1.ca.uncletopia.com","port":27015,"enabled":true,"region":"us-east","cc":"ca","latitude":45.50889,"longitude":-73.56167,"reserved":0,"last_update":"0001-01-01T00:00:00Z","name_a2s":"","protocol":0,"map":"","folder":"","game":"","app_id":0,"player_count":12,"max_players":0,"Bots":0,"server_type":"","server_os":"","password":false,"vac":false,"version":"","steam_id":0,"keywords":null,"game_id":0,"stv_port":0,"stv_name":"","players":[{"user_id":463,"name":"Krabby","steam_id":76561198038002264,"connected_time":7628000000000,"state":"active","ping":76},{"user_id":546,"name":"Im Groot","steam_id":76561198294943420,"connected_time":2847000000000,"state":"active","ping":77},{"user_id":547,"name":"manbearswineflu","steam_id":76561198083945137,"connected_time":2772000000000,"state":"active","ping":55},{"user_id":571,"name":"Phillip Jeffries","steam_id":76561198064052174,"connected_time":1448000000000,"state":"active","ping":74},{"user_id":549,"name":"[chef] iron","steam_id":76561197970888616,"connected_time":1950000000000,"state":"active","ping":54},{"user_id":573,"name":"A Future US Army Soldier","steam_id":76561198008263869,"connected_time":684000000000,"state":"active","ping":58},{"user_id":542,"name":"smugleafthesmug","steam_id":76561198844190634,"connected_time":4259000000000,"state":"active","ping":59},{"user_id":578,"name":"Mr. Gruntie","steam_id":76561197998119713,"connected_time":168000000000,"state":"active","ping":100},{"user_id":576,"name":"warpig","steam_id":76561199226313309,"connected_time":434000000000,"state":"active","ping":38},{"user_id":335,"name":"Star_Mann_Jr.","steam_id":76561198071148924,"connected_time":13012000000000,"state":"active","ping":108},{"user_id":579,"name":"R33se","steam_id":76561198296531992,"connected_time":87000000000,"state":"active","ping":90},{"user_id":582,"name":"steady","steam_id":76561198210433363,"connected_time":24000000000,"state":"spawning","ping":63}]},{"server_id":301,"name":"Uncletopia | Montréal | 2 | One Thousand Uncles","name_short":"mtl-2","host":"mtl-1.ca.uncletopia.com","port":27025,"enabled":true,"region":"us-east","cc":"ca","latitude":45.50889,"longitude":-73.56167,"reserved":0,"last_update":"0001-01-01T00:00:00Z","name_a2s":"","protocol":0,"map":"","folder":"","game":"","app_id":0,"player_count":0,"max_players":0,"Bots":0,"server_type":"","server_os":"","password":false,"vac":false,"version":"","steam_id":0,"keywords":null,"game_id":0,"stv_port":0,"stv_name":"","players":null},{"server_id":302,"name":"Uncletopia | Montréal | 3 | One Thousand Uncles","name_short":"mtl-3","host":"mtl-1.ca.uncletopia.com","port":27035,"enabled":true,"region":"us-east","cc":"ca","latitude":45.50889,"longitude":-73.56167,"reserved":0,"last_update":"0001-01-01T00:00:00Z","name_a2s":"","protocol":0,"map":"","folder":"","game":"","app_id":0,"player_count":8,"max_players":0,"Bots":0,"server_type":"","server_os":"","password":false,"vac":false,"version":"","steam_id":0,"keywords":null,"game_id":0,"stv_port":0,"stv_name":"","players":[{"user_id":281,"name":"Captian Wobbs","steam_id":76561198142884936,"connected_time":3601000000000,"state":"active","ping":89},{"user_id":313,"name":"pipebombrater","steam_id":76561199029030831,"connected_time":730000000000,"state":"active","ping":72},{"user_id":282,"name":"concrete_car","steam_id":76561198388207363,"connected_time":3502000000000,"state":"active","ping":60},{"user_id":312,"name":"St. Michael","steam_id":76561198037611052,"connected_time":931000000000,"state":"active","ping":77},{"user_id":305,"name":"Dennis Reynolds","steam_id":76561197960371259,"connected_time":2021000000000,"state":"active","ping":81},{"user_id":308,"name":"+==[:::::::::::::::::::::::\u003e","steam_id":76561199051212534,"connected_time":1411000000000,"state":"active","ping":52},{"user_id":307,"name":"BIG LION","steam_id":76561198091880358,"connected_time":1510000000000,"state":"active","ping":59},{"user_id":311,"name":"Lots0","steam_id":76561198043143145,"connected_time":1111000000000,"state":"active","ping":99}]},{"server_id":13,"name":"Uncletopia | New York City | 1 | All Maps","name_short":"nyc-1","host":"nyc-1.us.uncletopia.com","port":27015,"enabled":true,"region":"us-east","cc":"us","latitude":40.73061,"longitude":-73.93524,"reserved":0,"last_update":"0001-01-01T00:00:00Z","name_a2s":"Uncletopia | New York City | 1 | All Maps","protocol":17,"map":"pl_snowycoast","folder":"tf","game":"Team Fortress","app_id":440,"player_count":24,"max_players":24,"Bots":0,"server_type":"Dedicated","server_os":"Linux","password":true,"vac":true,"version":"7961495","steam_id":85568392924469993,"keywords":["nocrits","nodmgspread","payload","uncletopia"],"game_id":440,"stv_port":27016,"stv_name":"Uncletopia | New York City | 1 | All Maps | STV","players":[{"user_id":419,"name":"World's Cutest Medic","steam_id":76561198348965524,"connected_time":2617000000000,"state":"active","ping":60},{"user_id":447,"name":"housy","steam_id":76561198080008210,"connected_time":39000000000,"state":"active","ping":134},{"user_id":441,"name":"new york subway rat","steam_id":76561198026223621,"connected_time":754000000000,"state":"active","ping":67},{"user_id":417,"name":"Bert.","steam_id":76561198140666346,"connected_time":2643000000000,"state":"active","ping":57},{"user_id":418,"name":"Yuzu","steam_id":76561198417913035,"connected_time":2628000000000,"state":"active","ping":74},{"user_id":428,"name":"Lin","steam_id":76561198143746480,"connected_time":1711000000000,"state":"active","ping":128},{"user_id":446,"name":"JustJo1352","steam_id":76561199493077204,"connected_time":43000000000,"state":"active","ping":76},{"user_id":445,"name":"Level 1 Crook","steam_id":76561198441098132,"connected_time":63000000000,"state":"active","ping":60},{"user_id":438,"name":"cyberas","steam_id":76561198257092290,"connected_time":1193000000000,"state":"active","ping":59},{"user_id":421,"name":"TheGrassMan (He/Him)","steam_id":76561198118984048,"connected_time":2550000000000,"state":"active","ping":69},{"user_id":410,"name":"Gott Metzger","steam_id":76561198005945943,"connected_time":2977000000000,"state":"active","ping":71},{"user_id":432,"name":"Voracious Puma","steam_id":76561197963621649,"connected_time":1336000000000,"state":"active","ping":85},{"user_id":411,"name":"Bidnat","steam_id":76561197995078186,"connected_time":2977000000000,"state":"active","ping":85},{"user_id":443,"name":"Timothy Grunclebottoms","steam_id":76561198871450477,"connected_time":98000000000,"state":"active","ping":64},{"user_id":448,"name":"Erce","steam_id":76561198183481573,"connected_time":7000000000,"state":"spawning","ping":50},{"user_id":440,"name":"SouerLuigi","steam_id":76561198261896480,"connected_time":928000000000,"state":"active","ping":80},{"user_id":449,"name":"bazooka_steve","steam_id":76561198040731651,"connected_time":4000000000,"state":"spawning","ping":40},{"user_id":427,"name":"Brawns","steam_id":76561198045190199,"connected_time":2226000000000,"state":"active","ping":58},{"user_id":435,"name":"NovaSc6ut","steam_id":76561198277163301,"connected_time":1224000000000,"state":"active","ping":78},{"user_id":429,"name":"space man","steam_id":76561198066333670,"connected_time":1577000000000,"state":"active","ping":69},{"user_id":405,"name":"The Big","steam_id":76561198078572184,"connected_time":3092000000000,"state":"active","ping":77},{"user_id":442,"name":"Rummy the Blargh-gineer","steam_id":76561197997192800,"connected_time":739000000000,"state":"active","ping":62},{"user_id":439,"name":"Fredrick","steam_id":76561197981419964,"connected_time":1161000000000,"state":"active","ping":44},{"user_id":425,"name":"Tristen0808","steam_id":76561198154235444,"connected_time":2329000000000,"state":"active","ping":69}]},{"server_id":14,"name":"Uncletopia | New York City | 2 | All Maps","name_short":"nyc-2","host":"nyc-1.us.uncletopia.com","port":27025,"enabled":true,"region":"us-east","cc":"us","latitude":40.73061,"longitude":-73.93524,"reserved":0,"last_update":"0001-01-01T00:00:00Z","name_a2s":"Uncletopia | New York City | 2 | All Maps","protocol":17,"map":"pl_barnblitz","folder":"tf","game":"Team Fortress","app_id":440,"player_count":24,"max_players":24,"Bots":0,"server_type":"Dedicated","server_os":"Linux","password":true,"vac":true,"version":"7961495","steam_id":85568392924469994,"keywords":["nocrits","nodmgspread","payload","uncletopia"],"game_id":440,"stv_port":27026,"stv_name":"Uncletopia | New York City | 2 | All Maps | STV","players":[{"user_id":308,"name":"roman","steam_id":76561198170066797,"connected_time":4201000000000,"state":"active","ping":88},{"user_id":269,"name":"Domswish","steam_id":76561198331444240,"connected_time":7247000000000,"state":"active","ping":53},{"user_id":331,"name":"YesMargaret","steam_id":76561198127971751,"connected_time":2551000000000,"state":"active","ping":74},{"user_id":357,"name":"batheman63","steam_id":76561198881818552,"connected_time":924000000000,"state":"active","ping":69},{"user_id":276,"name":"SpongedSocks","steam_id":76561198374009086,"connected_time":6587000000000,"state":"active","ping":47},{"user_id":315,"name":"OKAY","steam_id":76561198091980659,"connected_time":3992000000000,"state":"active","ping":57},{"user_id":358,"name":"blademiss","steam_id":76561198062083019,"connected_time":903000000000,"state":"active","ping":114},{"user_id":363,"name":"Agent C","steam_id":76561198332723633,"connected_time":625000000000,"state":"active","ping":81},{"user_id":360,"name":"smocc","steam_id":76561197993726746,"connected_time":898000000000,"state":"active","ping":59},{"user_id":340,"name":"kmochi","steam_id":76561198023391988,"connected_time":2106000000000,"state":"active","ping":70},{"user_id":314,"name":"wolfgrey139","steam_id":76561199206554751,"connected_time":4143000000000,"state":"active","ping":55},{"user_id":325,"name":"Haveltherock27","steam_id":76561199219844391,"connected_time":2869000000000,"state":"active","ping":68},{"user_id":348,"name":"The Wave","steam_id":76561198268225109,"connected_time":1701000000000,"state":"active","ping":74},{"user_id":254,"name":"the 04","steam_id":76561198164502862,"connected_time":7679000000000,"state":"active","ping":92},{"user_id":339,"name":"Peppi","steam_id":76561199122292065,"connected_time":2193000000000,"state":"active","ping":59},{"user_id":361,"name":"gIBBY","steam_id":76561198080099598,"connected_time":796000000000,"state":"active","ping":44},{"user_id":345,"name":"Flowers","steam_id":76561198031669899,"connected_time":1992000000000,"state":"active","ping":69},{"user_id":353,"name":"❤Womp❤(Road To 2 Mil Heals)","steam_id":76561198167488304,"connected_time":1102000000000,"state":"active","ping":64},{"user_id":350,"name":"brayayin","steam_id":76561199257286346,"connected_time":1404000000000,"state":"active","ping":148},{"user_id":346,"name":"Pokon","steam_id":76561198053113088,"connected_time":1866000000000,"state":"active","ping":63},{"user_id":347,"name":"CCTV CAMERA","steam_id":76561198079973828,"connected_time":1750000000000,"state":"active","ping":97},{"user_id":320,"name":"Mr.Bady","steam_id":76561199094651706,"connected_time":3657000000000,"state":"active","ping":65},{"user_id":349,"name":"AJTarcza","steam_id":76561198070800190,"connected_time":1485000000000,"state":"active","ping":69},{"user_id":356,"name":".realt1me","steam_id":76561198055449744,"connected_time":935000000000,"state":"active","ping":73}]},{"server_id":15,"name":"Uncletopia | New York City | 3 | Stopwatch","name_short":"nyc-3","host":"nyc-1.us.uncletopia.com","port":27035,"enabled":true,"region":"us-east","cc":"us","latitude":40.73061,"longitude":-73.93524,"reserved":0,"last_update":"0001-01-01T00:00:00Z","name_a2s":"Uncletopia | New York City | 3 | Stopwatch","protocol":17,"map":"workshop/koth_product_final.ugc454272353","folder":"tf","game":"Team Fortress","app_id":440,"player_count":24,"max_players":24,"Bots":0,"server_type":"Dedicated","server_os":"Linux","password":true,"vac":true,"version":"7961495","steam_id":85568392924742820,"keywords":["cp","nocrits","nodmgspread","uncletopia"],"game_id":440,"stv_port":27036,"stv_name":"Uncletopia | New York City | 3 | Stopwatch | STV","players":[{"user_id":44,"name":"litroolay","steam_id":76561197995226856,"connected_time":1189000000000,"state":"active","ping":107},{"user_id":29,"name":"㋛ countblanc","steam_id":76561197993171771,"connected_time":1653000000000,"state":"active","ping":65},{"user_id":51,"name":"Not_Douglas","steam_id":76561199024184136,"connected_time":319000000000,"state":"active","ping":72},{"user_id":9,"name":"UNIT 220","steam_id":76561198042243497,"connected_time":2809000000000,"state":"active","ping":67},{"user_id":10,"name":"Importality","steam_id":76561198049943127,"connected_time":2774000000000,"state":"active","ping":85},{"user_id":11,"name":"SoWhich","steam_id":76561198237125842,"connected_time":2670000000000,"state":"active","ping":66},{"user_id":12,"name":"jairo","steam_id":76561199006124613,"connected_time":2532000000000,"state":"active","ping":106},{"user_id":15,"name":"Zonic3259","steam_id":76561199244811831,"connected_time":1997000000000,"state":"active","ping":158},{"user_id":36,"name":"gayforgod","steam_id":76561198364882421,"connected_time":1498000000000,"state":"active","ping":128},{"user_id":38,"name":"MEEPking","steam_id":76561198277668880,"connected_time":1478000000000,"state":"active","ping":124},{"user_id":17,"name":"Mr. Videogame","steam_id":76561198007087691,"connected_time":1924000000000,"state":"active","ping":57},{"user_id":39,"name":"Lee-Ch","steam_id":76561198164980622,"connected_time":1453000000000,"state":"active","ping":75},{"user_id":48,"name":"freyja","steam_id":76561198249206656,"connected_time":1041000000000,"state":"active","ping":75},{"user_id":20,"name":"catgirl queef :3","steam_id":76561199015827567,"connected_time":1853000000000,"state":"active","ping":71},{"user_id":21,"name":"creeeeeee","steam_id":76561198392539722,"connected_time":1834000000000,"state":"active","ping":77},{"user_id":40,"name":"oshawa_guy","steam_id":76561198121105098,"connected_time":1453000000000,"state":"active","ping":89},{"user_id":23,"name":"RealNewDeal","steam_id":76561198107094711,"connected_time":1769000000000,"state":"active","ping":121},{"user_id":50,"name":"Smell My Finger","steam_id":76561198004908457,"connected_time":636000000000,"state":"active","ping":60},{"user_id":25,"name":"goblin?","steam_id":76561198007192438,"connected_time":1710000000000,"state":"active","ping":58},{"user_id":26,"name":"Yongle","steam_id":76561198068591156,"connected_time":1708000000000,"state":"active","ping":72},{"user_id":27,"name":"Propaniac Gaming ☑","steam_id":76561198133963270,"connected_time":1708000000000,"state":"active","ping":60},{"user_id":52,"name":"Bee_Pirate","steam_id":76561199000599111,"connected_time":127000000000,"state":"active","ping":69},{"user_id":49,"name":"123Domino","steam_id":76561199162776745,"connected_time":748000000000,"state":"active","ping":56},{"user_id":43,"name":"shrine","steam_id":76561199001771988,"connected_time":1395000000000,"state":"active","ping":73}]},{"server_id":16,"name":"Uncletopia | New York City | 4 | Community","name_short":"nyc-4","host":"nyc-1.us.uncletopia.com","port":27045,"enabled":true,"region":"us-east","cc":"us","latitude":40.73061,"longitude":-73.93524,"reserved":0,"last_update":"0001-01-01T00:00:00Z","name_a2s":"Uncletopia | New York City | 4 | Community","protocol":17,"map":"workshop/koth_trenchfoot_b1a.ugc731436616","folder":"tf","game":"Team Fortress","app_id":440,"player_count":0,"max_players":24,"Bots":0,"server_type":"Dedicated","server_os":"Linux","password":true,"vac":true,"version":"7961495","steam_id":85568392924742821,"keywords":["cp","nocrits","nodmgspread","uncletopia"],"game_id":440,"stv_port":27046,"stv_name":"Uncletopia | New York City | 4 | Community | STV","players":null},{"server_id":142,"name":"Uncletopia | São Paulo | 1 | All Maps","name_short":"sao-1","host":"sao-1.br.uncletopia.com","port":27015,"enabled":true,"region":"sa","cc":"br","latitude":-23.533773,"longitude":-46.62529,"reserved":0,"last_update":"0001-01-01T00:00:00Z","name_a2s":"Uncletopia | São Paulo | 1 | All Maps","protocol":17,"map":"cp_dustbowl","folder":"tf","game":"Team Fortress","app_id":440,"player_count":0,"max_players":24,"Bots":0,"server_type":"Dedicated","server_os":"Linux","password":true,"vac":true,"version":"7961495","steam_id":85568392924469996,"keywords":["cp","nocrits","nodmgspread","uncletopia"],"game_id":440,"stv_port":27016,"stv_name":"Uncletopia | São Paulo | 1 | All Maps | STV","players":null},{"server_id":143,"name":"Uncletopia | São Paulo | 2 | Community","name_short":"sao-2","host":"sao-2.br.uncletopia.com","port":27015,"enabled":true,"region":"sa","cc":"br","latitude":-23.533773,"longitude":-46.62529,"reserved":0,"last_update":"0001-01-01T00:00:00Z","name_a2s":"Uncletopia | São Paulo | 2 | Community","protocol":17,"map":"workshop/koth_ramjam_rc1.ugc459778887","folder":"tf","game":"Team Fortress","app_id":440,"player_count":0,"max_players":24,"Bots":0,"server_type":"Dedicated","server_os":"Linux","password":true,"vac":true,"version":"7961495","steam_id":85568392924485349,"keywords":["cp","nocrits","nodmgspread","uncletopia"],"game_id":440,"stv_port":27016,"stv_name":"Uncletopia | São Paulo | 2 | Community | STV","players":null},{"server_id":7,"name":"Uncletopia | Seattle | 1 | All Maps","name_short":"sea-1","host":"sea-1.us.uncletopia.com","port":27015,"enabled":true,"region":"us-west","cc":"us","latitude":47.608013,"longitude":-122.33517,"reserved":0,"last_update":"0001-01-01T00:00:00Z","name_a2s":"Uncletopia | Seattle | 1 | All Maps","protocol":17,"map":"koth_lakeside_final","folder":"tf","game":"Team Fortress","app_id":440,"player_count":24,"max_players":24,"Bots":0,"server_type":"Dedicated","server_os":"Linux","password":true,"vac":true,"version":"7961495","steam_id":85568392924469997,"keywords":["cp","nocrits","nodmgspread","uncletopia"],"game_id":440,"stv_port":27016,"stv_name":"Uncletopia | Seattle | 1 | All Maps | STV","players":[{"user_id":660,"name":"Be Gay, Do Crimes, Smoke Weed!","steam_id":76561198092419868,"connected_time":1437000000000,"state":"active","ping":102},{"user_id":669,"name":"Ayayayayayahuasca","steam_id":76561199002906056,"connected_time":785000000000,"state":"active","ping":48},{"user_id":676,"name":"a familiar cat","steam_id":76561198080046542,"connected_time":100000000000,"state":"active","ping":47},{"user_id":629,"name":"Username","steam_id":76561199033122306,"connected_time":3210000000000,"state":"active","ping":154},{"user_id":673,"name":"PepperPotPete","steam_id":76561198251267326,"connected_time":325000000000,"state":"active","ping":46},{"user_id":663,"name":"Xain35","steam_id":76561198121834307,"connected_time":1246000000000,"state":"active","ping":48},{"user_id":636,"name":"The Assistant Regional Manager","steam_id":76561199221484936,"connected_time":2427000000000,"state":"active","ping":90},{"user_id":615,"name":"SkobeBeef","steam_id":76561198078638948,"connected_time":4580000000000,"state":"active","ping":60},{"user_id":646,"name":"Eraser cat","steam_id":76561199045570463,"connected_time":2187000000000,"state":"active","ping":44},{"user_id":665,"name":"microwavedmoldyminkmilk","steam_id":76561197972601902,"connected_time":1219000000000,"state":"active","ping":82},{"user_id":641,"name":"Hindmost","steam_id":76561199081837220,"connected_time":2324000000000,"state":"active","ping":97},{"user_id":642,"name":"gmele1","steam_id":76561199219013004,"connected_time":2320000000000,"state":"active","ping":124},{"user_id":664,"name":"Skeleop","steam_id":76561198981106464,"connected_time":1229000000000,"state":"active","ping":73},{"user_id":666,"name":"[BBC] myr","steam_id":76561198200786939,"connected_time":1211000000000,"state":"active","ping":45},{"user_id":672,"name":"The King of Piss World","steam_id":76561198082806956,"connected_time":480000000000,"state":"active","ping":142},{"user_id":654,"name":"CashGordon","steam_id":76561197975594096,"connected_time":2067000000000,"state":"active","ping":44},{"user_id":650,"name":"StrayGuitarist","steam_id":76561198091315714,"connected_time":2138000000000,"state":"active","ping":63},{"user_id":674,"name":"Quaalude","steam_id":76561198100177449,"connected_time":233000000000,"state":"active","ping":90},{"user_id":675,"name":"Jovo","steam_id":76561197993265970,"connected_time":128000000000,"state":"active","ping":44},{"user_id":655,"name":"Pikemen","steam_id":76561198141338432,"connected_time":1998000000000,"state":"active","ping":44},{"user_id":671,"name":"trackpad gaming | f2p","steam_id":76561198840414371,"connected_time":501000000000,"state":"active","ping":53},{"user_id":653,"name":"Žinâlyga","steam_id":76561198067803679,"connected_time":2092000000000,"state":"active","ping":62},{"user_id":607,"name":"Spectre","steam_id":76561198037535169,"connected_time":5985000000000,"state":"active","ping":70},{"user_id":602,"name":"UserLeft","steam_id":76561197998297379,"connected_time":6241000000000,"state":"active","ping":64}]},{"server_id":119,"name":"Uncletopia | Seattle | 2 | All Maps","name_short":"sea-2","host":"sea-1.us.uncletopia.com","port":27025,"enabled":true,"region":"us-west","cc":"us","latitude":47.608013,"longitude":-122.33517,"reserved":0,"last_update":"0001-01-01T00:00:00Z","name_a2s":"Uncletopia | Seattle | 2 | All Maps","protocol":17,"map":"pl_snowycoast","folder":"tf","game":"Team Fortress","app_id":440,"player_count":24,"max_players":24,"Bots":0,"server_type":"Dedicated","server_os":"Linux","password":true,"vac":true,"version":"7961495","steam_id":85568392924469998,"keywords":["nocrits","nodmgspread","payload","uncletopia"],"game_id":440,"stv_port":27026,"stv_name":"Uncletopia | Seattle | 2 | All Maps | STV","players":[{"user_id":265,"name":"Greskrendtregk","steam_id":76561197969553142,"connected_time":2319000000000,"state":"active","ping":50},{"user_id":266,"name":"Kinetic Warlord","steam_id":76561198007900244,"connected_time":2314000000000,"state":"active","ping":103},{"user_id":269,"name":"weed lesbian","steam_id":76561198042263805,"connected_time":2274000000000,"state":"active","ping":50},{"user_id":274,"name":"wdylm","steam_id":76561198206523304,"connected_time":1894000000000,"state":"active","ping":45},{"user_id":242,"name":"Havi","steam_id":76561198197832829,"connected_time":4544000000000,"state":"active","ping":45},{"user_id":204,"name":"Lilith","steam_id":76561198120362654,"connected_time":6387000000000,"state":"active","ping":49},{"user_id":238,"name":"Lili","steam_id":76561199488457138,"connected_time":4936000000000,"state":"active","ping":58},{"user_id":286,"name":"Morse","steam_id":76561198039944542,"connected_time":315000000000,"state":"active","ping":47},{"user_id":273,"name":"Mii Guest C, From Wii Sports","steam_id":76561198197964803,"connected_time":1909000000000,"state":"active","ping":57},{"user_id":285,"name":"Dreamzapp","steam_id":76561199084936632,"connected_time":568000000000,"state":"active","ping":83},{"user_id":275,"name":"Jose THE MAN (the man)","steam_id":76561199133395169,"connected_time":1811000000000,"state":"active","ping":124},{"user_id":224,"name":"OxOoxen841","steam_id":76561198297981993,"connected_time":5746000000000,"state":"active","ping":86},{"user_id":272,"name":"elephant thumb","steam_id":76561198118859752,"connected_time":2012000000000,"state":"active","ping":76},{"user_id":250,"name":"Sly Marbo","steam_id":76561198135271741,"connected_time":3502000000000,"state":"active","ping":57},{"user_id":254,"name":"JTuu","steam_id":76561198030606396,"connected_time":3338000000000,"state":"active","ping":46},{"user_id":255,"name":"TüCold","steam_id":76561198111278197,"connected_time":3299000000000,"state":"active","ping":44},{"user_id":283,"name":"Mr.Thirteen","steam_id":76561198047468836,"connected_time":719000000000,"state":"active","ping":68},{"user_id":235,"name":":(){ :|:\u0026 };:","steam_id":76561198115242460,"connected_time":4954000000000,"state":"active","ping":46},{"user_id":278,"name":"Motto tsuyoku, Ani-san","steam_id":76561198851421641,"connected_time":1170000000000,"state":"active","ping":46},{"user_id":281,"name":"«[Amorphous Blob]»","steam_id":76561198009656935,"connected_time":1087000000000,"state":"active","ping":66},{"user_id":259,"name":"ilun","steam_id":76561198042913843,"connected_time":2761000000000,"state":"active","ping":57},{"user_id":282,"name":"A Shiny Meat Bicycle","steam_id":76561198358757709,"connected_time":1043000000000,"state":"active","ping":136},{"user_id":50,"name":"Nom Skirrett","steam_id":76561198014600788,"connected_time":16953000000000,"state":"active","ping":74},{"user_id":249,"name":"chunkysquare","steam_id":76561199076468383,"connected_time":3686000000000,"state":"active","ping":65}]},{"server_id":406,"name":"Uncletopia | Seattle | 3 | Stopwatch","name_short":"sea-3","host":"sea-1.us.uncletopia.com","port":27035,"enabled":true,"region":"us-west","cc":"us","latitude":47.608013,"longitude":-122.33517,"reserved":0,"last_update":"0001-01-01T00:00:00Z","name_a2s":"Uncletopia | Seattle | 3 | Stopwatch","protocol":17,"map":"workshop/koth_clearcut_b15.ugc2107050255","folder":"tf","game":"Team Fortress","app_id":440,"player_count":0,"max_players":24,"Bots":0,"server_type":"Dedicated","server_os":"Linux","password":true,"vac":true,"version":"7961495","steam_id":85568392924515217,"keywords":["cp","nocrits","nodmgspread","uncletopia"],"game_id":440,"stv_port":27036,"stv_name":"Uncletopia | Seattle | 3 | Stopwatch | STV","players":null},{"server_id":17,"name":"Uncletopia | San Francisco | 1 | All Maps","name_short":"sfo-1","host":"sfo-1.us.uncletopia.com","port":27015,"enabled":true,"region":"us-west","cc":"us","latitude":37.77397,"longitude":-122.4313,"reserved":0,"last_update":"0001-01-01T00:00:00Z","name_a2s":"Uncletopia | San Francisco | 1 | All Maps","protocol":17,"map":"pl_pier","folder":"tf","game":"Team Fortress","app_id":440,"player_count":24,"max_players":24,"Bots":0,"server_type":"Dedicated","server_os":"Linux","password":true,"vac":true,"version":"7961495","steam_id":85568392924469999,"keywords":["nocrits","nodmgspread","payload","uncletopia"],"game_id":440,"stv_port":27016,"stv_name":"Uncletopia | San Francisco | 1 | All Maps | STV","players":[{"user_id":199,"name":"Zombee","steam_id":76561198105367546,"connected_time":1312000000000,"state":"active","ping":78},{"user_id":185,"name":"FaZe hyazZzZaZa","steam_id":76561199100342013,"connected_time":2239000000000,"state":"active","ping":52},{"user_id":209,"name":"Who","steam_id":76561198013049671,"connected_time":700000000000,"state":"active","ping":61},{"user_id":206,"name":"\u003cM\u003e","steam_id":76561198028068603,"connected_time":824000000000,"state":"active","ping":48},{"user_id":147,"name":"SolarusD","steam_id":76561198029279861,"connected_time":3478000000000,"state":"active","ping":48},{"user_id":198,"name":"Psycho Raptor","steam_id":76561198325853767,"connected_time":1314000000000,"state":"active","ping":65},{"user_id":172,"name":"Untermensch","steam_id":76561198149634242,"connected_time":2639000000000,"state":"active","ping":84},{"user_id":207,"name":"stickg","steam_id":76561199193020423,"connected_time":807000000000,"state":"active","ping":58},{"user_id":204,"name":"tr3nd1ng t0p1c","steam_id":76561198305201458,"connected_time":855000000000,"state":"active","ping":82},{"user_id":187,"name":"Gangster Heimler's History","steam_id":76561198401205345,"connected_time":2177000000000,"state":"active","ping":70},{"user_id":210,"name":"FI LO","steam_id":76561198976530881,"connected_time":658000000000,"state":"active","ping":44},{"user_id":201,"name":"PizzaMuncher89","steam_id":76561199121856753,"connected_time":1113000000000,"state":"active","ping":80},{"user_id":211,"name":"SomeRandomBetaFish","steam_id":76561198827731399,"connected_time":629000000000,"state":"active","ping":133},{"user_id":212,"name":"StayFrosty","steam_id":76561198343553078,"connected_time":624000000000,"state":"active","ping":105},{"user_id":219,"name":"el wiwi","steam_id":76561198857304367,"connected_time":458000000000,"state":"active","ping":126},{"user_id":213,"name":"bladee","steam_id":76561198162688146,"connected_time":612000000000,"state":"active","ping":63},{"user_id":214,"name":"Ciaphas Cain","steam_id":76561198185598330,"connected_time":606000000000,"state":"active","ping":141},{"user_id":215,"name":"diamondskyir","steam_id":76561199223952268,"connected_time":603000000000,"state":"active","ping":66},{"user_id":196,"name":"BLANK3T [They/He femboy on THC]","steam_id":76561198028875624,"connected_time":1419000000000,"state":"active","ping":66},{"user_id":222,"name":"Ok then","steam_id":76561198891914787,"connected_time":405000000000,"state":"active","ping":68},{"user_id":37,"name":"❀Rami❀","steam_id":76561198993652475,"connected_time":11373000000000,"state":"active","ping":82},{"user_id":137,"name":"Refreshments, anyone?","steam_id":76561198011675372,"connected_time":4056000000000,"state":"active","ping":82},{"user_id":220,"name":"transbian disaster","steam_id":76561198407600762,"connected_time":442000000000,"state":"active","ping":77},{"user_id":223,"name":"uzr","steam_id":76561198799343084,"connected_time":342000000000,"state":"active","ping":65}]},{"server_id":18,"name":"Uncletopia | San Francisco | 2 | All Maps","name_short":"sfo-2","host":"sfo-1.us.uncletopia.com","port":27025,"enabled":true,"region":"us-west","cc":"us","latitude":37.77397,"longitude":-122.4313,"reserved":0,"last_update":"0001-01-01T00:00:00Z","name_a2s":"Uncletopia | San Francisco | 2 | All Maps","protocol":17,"map":"pl_badwater","folder":"tf","game":"Team Fortress","app_id":440,"player_count":24,"max_players":24,"Bots":0,"server_type":"Dedicated","server_os":"Linux","password":true,"vac":true,"version":"7961495","steam_id":85568392924470000,"keywords":["nocrits","nodmgspread","payload","uncletopia"],"game_id":440,"stv_port":27026,"stv_name":"Uncletopia | San Francisco | 2 | All Maps | STV","players":[{"user_id":122,"name":"Big Yoshi","steam_id":76561199160576376,"connected_time":165000000000,"state":"active","ping":68},{"user_id":65,"name":"Mercantile Pig","steam_id":76561198416391778,"connected_time":2027000000000,"state":"active","ping":53},{"user_id":132,"name":"Hazeyboi","steam_id":76561198130687838,"connected_time":2000000000,"state":"spawning","ping":82},{"user_id":98,"name":"you ain't slick","steam_id":76561199229786558,"connected_time":569000000000,"state":"active","ping":80},{"user_id":86,"name":"abolish the federal reserve","steam_id":76561198047796437,"connected_time":904000000000,"state":"active","ping":76},{"user_id":87,"name":"Zizen","steam_id":76561199011832069,"connected_time":858000000000,"state":"active","ping":62},{"user_id":88,"name":"H.","steam_id":76561198074951179,"connected_time":853000000000,"state":"active","ping":62},{"user_id":89,"name":"Luna_Blossom","steam_id":76561198816384987,"connected_time":846000000000,"state":"active","ping":121},{"user_id":70,"name":"Yoyo-Wo","steam_id":76561198880520205,"connected_time":1697000000000,"state":"active","ping":85},{"user_id":117,"name":"fallingtree123","steam_id":76561198937414442,"connected_time":236000000000,"state":"active","ping":97},{"user_id":100,"name":"Magik","steam_id":76561198099726660,"connected_time":562000000000,"state":"active","ping":72},{"user_id":109,"name":"oh god i'm gonna CHUM","steam_id":76561198019210187,"connected_time":319000000000,"state":"active","ping":90},{"user_id":72,"name":"Gnarly Bones Real","steam_id":76561198175628151,"connected_time":1684000000000,"state":"active","ping":81},{"user_id":73,"name":"JustAnotherHuman","steam_id":76561199018122924,"connected_time":1661000000000,"state":"active","ping":86},{"user_id":92,"name":"Nine Inch Иipples","steam_id":76561198149413947,"connected_time":733000000000,"state":"active","ping":64},{"user_id":101,"name":"Cypress [ +/- ] ✔","steam_id":76561198067164431,"connected_time":558000000000,"state":"active","ping":57},{"user_id":93,"name":"Jeffery","steam_id":76561198352805460,"connected_time":718000000000,"state":"active","ping":91},{"user_id":84,"name":"Magician","steam_id":76561198011734385,"connected_time":1085000000000,"state":"active","ping":67},{"user_id":76,"name":"Vexion","steam_id":76561198355319335,"connected_time":1620000000000,"state":"active","ping":137},{"user_id":107,"name":"RaixaR","steam_id":76561198025289430,"connected_time":347000000000,"state":"active","ping":94},{"user_id":94,"name":"seeyouauntie","steam_id":76561198045852999,"connected_time":666000000000,"state":"active","ping":113},{"user_id":80,"name":"CatThulhu","steam_id":76561198211620004,"connected_time":1485000000000,"state":"active","ping":95},{"user_id":96,"name":"blue duck the 2nd","steam_id":76561198263142765,"connected_time":647000000000,"state":"active","ping":115},{"user_id":129,"name":"West","steam_id":76561199156365366,"connected_time":54000000000,"state":"active","ping":65}]},{"server_id":19,"name":"Uncletopia | San Francisco | 3 | Stopwatch","name_short":"sfo-3","host":"sfo-1.us.uncletopia.com","port":27035,"enabled":true,"region":"us-west","cc":"us","latitude":37.77397,"longitude":-122.4313,"reserved":0,"last_update":"0001-01-01T00:00:00Z","name_a2s":"Uncletopia | San Francisco | 3 | Stopwatch","protocol":17,"map":"pl_pier","folder":"tf","game":"Team Fortress","app_id":440,"player_count":0,"max_players":24,"Bots":0,"server_type":"Dedicated","server_os":"Linux","password":true,"vac":true,"version":"7961495","steam_id":85568392924742824,"keywords":["nocrits","nodmgspread","payload","uncletopia"],"game_id":440,"stv_port":27036,"stv_name":"Uncletopia | San Francisco | 3 | Stopwatch | STV","players":null},{"server_id":20,"name":"Uncletopia | San Francisco | 4 | Community","name_short":"sfo-4","host":"sfo-1.us.uncletopia.com","port":27045,"enabled":true,"region":"us-west","cc":"us","latitude":37.77397,"longitude":-122.4313,"reserved":0,"last_update":"0001-01-01T00:00:00Z","name_a2s":"Uncletopia | San Francisco | 4 | Community","protocol":17,"map":"workshop/koth_product_final.ugc454272353","folder":"tf","game":"Team Fortress","app_id":440,"player_count":0,"max_players":24,"Bots":0,"server_type":"Dedicated","server_os":"Linux","password":true,"vac":true,"version":"7961495","steam_id":85568392924742826,"keywords":["cp","nocrits","nodmgspread","uncletopia"],"game_id":440,"stv_port":27046,"stv_name":"Uncletopia | San Francisco | 4 | Community | STV","players":null},{"server_id":141,"name":"Uncletopia | Sydney | 1 | All Maps","name_short":"syd-1","host":"syd-1.au.uncletopia.com","port":27015,"enabled":true,"region":"au","cc":"au","latitude":-33.865143,"longitude":151.2099,"reserved":0,"last_update":"0001-01-01T00:00:00Z","name_a2s":"Uncletopia | Sydney | 1 | All Maps","protocol":17,"map":"koth_viaduct","folder":"tf","game":"Team Fortress","app_id":440,"player_count":0,"max_players":24,"Bots":0,"server_type":"Dedicated","server_os":"Linux","password":true,"vac":true,"version":"7961495","steam_id":85568392924470001,"keywords":["cp","nocrits","nodmgspread","uncletopia"],"game_id":440,"stv_port":27016,"stv_name":"Uncletopia | Sydney | 1 | All Maps | STV","players":null},{"server_id":123,"name":"Uncletopia | Sydney | 2 | All Maps","name_short":"syd-2","host":"syd-1.au.uncletopia.com","port":27025,"enabled":true,"region":"au","cc":"au","latitude":-33.865143,"longitude":151.2099,"reserved":0,"last_update":"0001-01-01T00:00:00Z","name_a2s":"Uncletopia | Sydney | 2 | All Maps","protocol":17,"map":"koth_lakeside_final","folder":"tf","game":"Team Fortress","app_id":440,"player_count":0,"max_players":24,"Bots":0,"server_type":"Dedicated","server_os":"Linux","password":true,"vac":true,"version":"7961495","steam_id":85568392924470002,"keywords":["cp","nocrits","nodmgspread","uncletopia"],"game_id":440,"stv_port":27026,"stv_name":"Uncletopia | Sydney | 2 | All Maps | STV","players":null},{"server_id":395,"name":"Uncletopia | Sydney | 3 | All Maps","name_short":"syd-3","host":"syd-1.au.uncletopia.com","port":27035,"enabled":true,"region":"au","cc":"au","latitude":-33.865143,"longitude":151.2099,"reserved":0,"last_update":"0001-01-01T00:00:00Z","name_a2s":"Uncletopia | Sydney | 3 | All Maps","protocol":17,"map":"pl_frontier_final","folder":"tf","game":"Team Fortress","app_id":440,"player_count":0,"max_players":24,"Bots":0,"server_type":"Dedicated","server_os":"Linux","password":true,"vac":true,"version":"7961495","steam_id":85568392925194467,"keywords":["nocrits","nodmgspread","payload","uncletopia"],"game_id":440,"stv_port":27036,"stv_name":"Uncletopia | Sydney | 3 | All Maps | STV","players":null},{"server_id":396,"name":"Uncletopia | Sydney | 4 | All Maps","name_short":"syd-4","host":"syd-1.au.uncletopia.com","port":27045,"enabled":true,"region":"au","cc":"au","latitude":-33.865143,"longitude":151.2099,"reserved":0,"last_update":"0001-01-01T00:00:00Z","name_a2s":"Uncletopia | Sydney | 4 | All Maps","protocol":17,"map":"cp_process_final","folder":"tf","game":"Team Fortress","app_id":440,"player_count":0,"max_players":24,"Bots":0,"server_type":"Dedicated","server_os":"Linux","password":true,"vac":true,"version":"7961495","steam_id":85568392925397958,"keywords":["cp","nocrits","nodmgspread","uncletopia"],"game_id":440,"stv_port":27046,"stv_name":"Uncletopia | Sydney | 4 | All Maps | STV","players":null},{"server_id":58,"name":"Uncletopia | Sydney | 5 | Stopwatch","name_short":"syd-5","host":"syd-1.au.uncletopia.com","port":27055,"enabled":true,"region":"au","cc":"au","latitude":-33.865143,"longitude":151.2099,"reserved":0,"last_update":"0001-01-01T00:00:00Z","name_a2s":"Uncletopia | Sydney | 5 | Stopwatch","protocol":17,"map":"pl_frontier_final","folder":"tf","game":"Team Fortress","app_id":440,"player_count":0,"max_players":24,"Bots":0,"server_type":"Dedicated","server_os":"Linux","password":true,"vac":true,"version":"7961495","steam_id":85568392925397959,"keywords":["nocrits","nodmgspread","payload","uncletopia"],"game_id":440,"stv_port":27056,"stv_name":"Uncletopia | Sydney | 5 | Stopwatch | STV","players":null},{"server_id":59,"name":"Uncletopia | Sydney | 6 | Community","name_short":"syd-6","host":"syd-1.au.uncletopia.com","port":27065,"enabled":true,"region":"au","cc":"au","latitude":-33.865143,"longitude":151.2099,"reserved":0,"last_update":"0001-01-01T00:00:00Z","name_a2s":"Uncletopia | Sydney | 6 | Community","protocol":17,"map":"workshop/cp_sulfur_rc2.ugc619869471","folder":"tf","game":"Team Fortress","app_id":440,"player_count":0,"max_players":24,"Bots":0,"server_type":"Dedicated","server_os":"Linux","password":true,"vac":true,"version":"7961495","steam_id":85568392925397960,"keywords":["cp","nocrits","nodmgspread","uncletopia"],"game_id":440,"stv_port":27066,"stv_name":"Uncletopia | Sydney | 6 | Community | STV","players":null},{"server_id":49,"name":"Uncletopia | Warsaw | 1 | One Thousand Uncles","name_short":"waw-1","host":"waw-1.pl.uncletopia.com","port":27015,"enabled":true,"region":"eu","cc":"pl","latitude":52.2297,"longitude":21.017532,"reserved":0,"last_update":"0001-01-01T00:00:00Z","name_a2s":"Uncletopia | Warsaw | 1 | One Thousand Uncles","protocol":17,"map":"pl_badwater","folder":"tf","game":"Team Fortress","app_id":440,"player_count":18,"max_players":32,"Bots":16,"server_type":"Dedicated","server_os":"Linux","password":true,"vac":true,"version":"7961495","steam_id":85568392925397850,"keywords":["alltalk","bots","danepve","increased_maxplayers","nocrits","norespawntime","payload","uncletopia"],"game_id":440,"stv_port":0,"stv_name":"","players":[{"user_id":303,"name":"WolfyGamer21","steam_id":76561199148811704,"connected_time":580000000000,"state":"active","ping":150},{"user_id":300,"name":"Streesil","steam_id":76561198008931880,"connected_time":1909000000000,"state":"active","ping":134}]},{"server_id":50,"name":"Uncletopia | Warsaw | 2 | One Thousand Uncles","name_short":"waw-2","host":"waw-1.pl.uncletopia.com","port":27025,"enabled":true,"region":"eu","cc":"pl","latitude":52.2297,"longitude":21.017532,"reserved":0,"last_update":"0001-01-01T00:00:00Z","name_a2s":"Uncletopia | Warsaw | 2 | One Thousand Uncles","protocol":17,"map":"pl_badwater","folder":"tf","game":"Team Fortress","app_id":440,"player_count":0,"max_players":32,"Bots":0,"server_type":"Dedicated","server_os":"Linux","password":true,"vac":true,"version":"7961495","steam_id":85568392925397851,"keywords":["alltalk","danepve","increased_maxplayers","nocrits","norespawntime","payload","uncletopia"],"game_id":440,"stv_port":0,"stv_name":"","players":null},{"server_id":51,"name":"Uncletopia | Warsaw | 3 | All Maps","name_short":"waw-3","host":"waw-1.pl.uncletopia.com","port":27035,"enabled":true,"region":"eu","cc":"pl","latitude":52.2297,"longitude":21.017532,"reserved":0,"last_update":"0001-01-01T00:00:00Z","name_a2s":"Uncletopia | Warsaw | 3 | All Maps","protocol":17,"map":"koth_viaduct","folder":"tf","game":"Team Fortress","app_id":440,"player_count":0,"max_players":24,"Bots":0,"server_type":"Dedicated","server_os":"Linux","password":true,"vac":true,"version":"7961495","steam_id":85568392925397852,"keywords":["cp","nocrits","nodmgspread","uncletopia"],"game_id":440,"stv_port":27036,"stv_name":"Uncletopia | Warsaw | 3 | All Maps | STV","players":null},{"server_id":52,"name":"Uncletopia | Warsaw | 4 | All Maps","name_short":"waw-4","host":"waw-1.pl.uncletopia.com","port":27045,"enabled":true,"region":"eu","cc":"pl","latitude":52.2297,"longitude":21.017532,"reserved":0,"last_update":"0001-01-01T00:00:00Z","name_a2s":"Uncletopia | Warsaw | 4 | All Maps","protocol":17,"map":"koth_highpass","folder":"tf","game":"Team Fortress","app_id":440,"player_count":0,"max_players":24,"Bots":0,"server_type":"Dedicated","server_os":"Linux","password":true,"vac":true,"version":"7961495","steam_id":85568392925397853,"keywords":["cp","nocrits","nodmgspread","uncletopia"],"game_id":440,"stv_port":27046,"stv_name":"Uncletopia | Warsaw | 4 | All Maps | STV","players":null},{"server_id":53,"name":"Uncletopia | Warsaw | 5 | Stopwatch","name_short":"waw-5","host":"waw-1.pl.uncletopia.com","port":27055,"enabled":true,"region":"eu","cc":"pl","latitude":52.2297,"longitude":21.017532,"reserved":0,"last_update":"0001-01-01T00:00:00Z","name_a2s":"Uncletopia | Warsaw | 5 | Stopwatch","protocol":17,"map":"koth_highpass","folder":"tf","game":"Team Fortress","app_id":440,"player_count":0,"max_players":24,"Bots":0,"server_type":"Dedicated","server_os":"Linux","password":true,"vac":true,"version":"7961495","steam_id":85568392925397854,"keywords":["cp","nocrits","nodmgspread","uncletopia"],"game_id":440,"stv_port":27056,"stv_name":"Uncletopia | Warsaw | 5 | Stopwatch | STV","players":null},{"server_id":54,"name":"Uncletopia | Warsaw | 6 | Community","name_short":"waw-6","host":"waw-1.pl.uncletopia.com","port":27065,"enabled":true,"region":"eu","cc":"pl","latitude":52.2297,"longitude":21.017532,"reserved":0,"last_update":"0001-01-01T00:00:00Z","name_a2s":"Uncletopia | Warsaw | 6 | Community","protocol":17,"map":"workshop/koth_synthetic_rc6a.ugc1549817316","folder":"tf","game":"Team Fortress","app_id":440,"player_count":0,"max_players":24,"Bots":0,"server_type":"Dedicated","server_os":"Linux","password":true,"vac":true,"version":"7961495","steam_id":85568392925397856,"keywords":["cp","nocrits","nodmgspread","uncletopia"],"game_id":440,"stv_port":27066,"stv_name":"Uncletopia | Warsaw | 6 | Community | STV","players":null}]}