{"status":true,"message":"","result":[{"server_id":9,"name":"Uncletopia | Atlanta | 1 | All Maps","name_short":"atl-1","host":"atl-1.us.uncletopia.com","port":27015,"enabled":true,"region":"us-east","cc":"us","latitude":33.753746,"longitude":-84.38633,"reserved":0,"last_update":"0001-01-01T00:00:00Z","name_a2s":"Uncletopia | Atlanta | 1 | All Maps","protocol":17,"map":"cp_snakewater_final1","folder":"tf","game":"Team Fortress","app_id":440,"player_count":4,"max_players":24,"Bots":0,"server_type":"Dedicated","server_os":"Linux","password":true,"vac":true,"version":"7757534","steam_id":85568392924469982,"keywords":["cp","nocrits","nodmgspread","uncletopia"],"game_id":440,"stv_port":27016,"stv_name":"Uncletopia | Atlanta | 1 | All Maps | STV","players":[{"user_id":19,"name":"minly","steam_id":76561199078991134,"connected_time":507000000000,"state":"active","ping":60},{"user_id":6,"name":"Drygongames","steam_id":76561198250418424,"connected_time":2001000000000,"state":"active","ping":79},{"user_id":8,"name":"orange_not_red","steam_id":76561199151435338,"connected_time":1887000000000,"state":"active","ping":66},{"user_id":20,"name":".jpegged","steam_id":76561198120078454,"connected_time":126000000000,"state":"active","ping":57}]},{"server_id":104,"name":"Uncletopia | Atlanta | 2 | All Maps","name_short":"atl-2","host":"atl-1.us.uncletopia.com","port":27025,"enabled":true,"region":"us-east","cc":"us","latitude":33.753746,"longitude":-84.38633,"reserved":0,"last_update":"0001-01-01T00:00:00Z","name_a2s":"Uncletopia | Atlanta | 2 | All Maps","protocol":17,"map":"cp_dustbowl","folder":"tf","game":"Team Fortress","app_id":440,"player_count":0,"max_players":24,"Bots":0,"server_type":"Dedicated","server_os":"Linux","password":true,"vac":true,"version":"7757534","steam_id":85568392924469983,"keywords":["cp","nocrits","nodmgspread","uncletopia"],"game_id":440,"stv_port":27026,"stv_name":"Uncletopia | Atlanta | 2 | All Maps | STV","players":null},{"server_id":400,"name":"Uncletopia | Atlanta | 3 | Community","name_short":"atl-3","host":"atl-1.us.uncletopia.com","port":27035,"enabled":true,"region":"us-east","cc":"us","latitude":33.753746,"longitude":-84.38633,"reserved":0,"last_update":"0001-01-01T00:00:00Z","name_a2s":"Uncletopia | Atlanta | 3 | Community","protocol":17,"map":"cp_snakewater_final1","folder":"tf","game":"Team Fortress","app_id":440,"player_count":0,"max_players":24,"Bots":0,"server_type":"Dedicated","server_os":"Linux","password":true,"vac":true,"version":"7757534","steam_id":85568392924515187,"keywords":["cp","nocrits","nodmgspread","uncletopia"],"game_id":440,"stv_port":27036,"stv_name":"Uncletopia | Atlanta | 3 | Community | STV","players":null},{"server_id":401,"name":"Uncletopia | Atlanta | 4 | No Payload","name_short":"atl-4","host":"atl-1.us.uncletopia.com","port":27045,"enabled":true,"region":"us-east","cc":"us","latitude":33.753746,"longitude":-84.38633,"reserved":0,"last_update":"0001-01-01T00:00:00Z","name_a2s":"","protocol":0,"map":"","folder":"","game":"","app_id":0,"player_count":0,"max_players":0,"Bots":0,"server_type":"","server_os":"","password":false,"vac":false,"version":"","steam_id":0,"keywords":null,"game_id":0,"stv_port":0,"stv_name":"","players":null},{"server_id":2,"name":"Uncletopia | Chicago | 1 | All Maps","name_short":"chi-1","host":"chi-1.us.uncletopia.com","port":27015,"enabled":true,"region":"us-central","cc":"us","latitude":41.881832,"longitude":-87.62318,"reserved":0,"last_update":"0001-01-01T00:00:00Z","name_a2s":"Uncletopia | Chicago | 1 | All Maps","protocol":17,"map":"cp_process_final","folder":"tf","game":"Team Fortress","app_id":440,"player_count":24,"max_players":24,"Bots":0,"server_type":"Dedicated","server_os":"Linux","password":true,"vac":true,"version":"7757534","steam_id":85568392924469984,"keywords":["cp","nocrits","nodmgspread","uncletopia"],"game_id":440,"stv_port":27016,"stv_name":"Uncletopia | Chicago | 1 | All Maps | STV","players":[{"user_id":90,"name":":^|","steam_id":76561198119826352,"connected_time":1100000000000,"state":"active","ping":63},{"user_id":73,"name":"BiggFoot","steam_id":76561197998605599,"connected_time":2487000000000,"state":"active","ping":74},{"user_id":96,"name":"KentYardAssociate","steam_id":76561198290499758,"connected_time":424000000000,"state":"active","ping":70},{"user_id":48,"name":"Meh but good","steam_id":76561199005772246,"connected_time":4348000000000,"state":"active","ping":71},{"user_id":67,"name":"Im High","steam_id":76561198049954886,"connected_time":2882000000000,"state":"active","ping":70},{"user_id":99,"name":"Lion of Judah","steam_id":76561198078674411,"connected_time":159000000000,"state":"active","ping":80},{"user_id":89,"name":"IceRunner","steam_id":76561198999311013,"connected_time":1115000000000,"state":"active","ping":61},{"user_id":83,"name":"bee","steam_id":76561198025553902,"connected_time":1891000000000,"state":"active","ping":45},{"user_id":98,"name":"Dabicus Vile","steam_id":76561198272413758,"connected_time":367000000000,"state":"active","ping":47},{"user_id":92,"name":"Zanartan","steam_id":76561198050528902,"connected_time":789000000000,"state":"active","ping":176},{"user_id":88,"name":"catface","steam_id":76561198096347625,"connected_time":1685000000000,"state":"active","ping":75},{"user_id":58,"name":"Professionally Braindead „ÉÑ","steam_id":76561198276714220,"connected_time":3451000000000,"state":"active","ping":60},{"user_id":84,"name":"Chaotic Rushu","steam_id":76561198170054407,"connected_time":1848000000000,"state":"active","ping":81},{"user_id":59,"name":"ground control","steam_id":76561198044265737,"connected_time":3428000000000,"state":"active","ping":46},{"user_id":87,"name":"Ymi","steam_id":76561198070039615,"connected_time":1822000000000,"state":"active","ping":175},{"user_id":53,"name":"Bro Stfu","steam_id":76561199091507835,"connected_time":3743000000000,"state":"active","ping":69},{"user_id":91,"name":"Resistance","steam_id":76561198146782074,"connected_time":1084000000000,"state":"active","ping":50},{"user_id":60,"name":"Wahooka","steam_id":76561197962240925,"connected_time":3425000000000,"state":"active","ping":59},{"user_id":93,"name":"dulg","steam_id":76561198127640309,"connected_time":578000000000,"state":"active","ping":85},{"user_id":74,"name":"yungstarbeam","steam_id":76561198983492424,"connected_time":2434000000000,"state":"active","ping":79},{"user_id":46,"name":"Titus Tyrwitt","steam_id":76561197990779673,"connected_time":4390000000000,"state":"active","ping":75},{"user_id":38,"name":"King","steam_id":76561198039763676,"connected_time":4721000000000,"state":"active","ping":68},{"user_id":97,"name":"Degenerate","steam_id":76561198079416360,"connected_time":423000000000,"state":"active","ping":67},{"user_id":78,"name":"popfulmail","steam_id":76561198865971290,"connected_time":2103000000000,"state":"active","ping":97}]},{"server_id":106,"name":"Uncletopia | Chicago | 2 | All Maps","name_short":"chi-2","host":"chi-1.us.uncletopia.com","port":27025,"enabled":true,"region":"us-central","cc":"us","latitude":41.881832,"longitude":-87.62318,"reserved":0,"last_update":"0001-01-01T00:00:00Z","name_a2s":"Uncletopia | Chicago | 2 | All Maps","protocol":17,"map":"pl_badwater","folder":"tf","game":"Team Fortress","app_id":440,"player_count":24,"max_players":24,"Bots":0,"server_type":"Dedicated","server_os":"Linux","password":true,"vac":true,"version":"7757534","steam_id":85568392924469985,"keywords":["nocrits","nodmgspread","payload","uncletopia"],"game_id":440,"stv_port":27026,"stv_name":"Uncletopia | Chicago | 2 | All Maps | STV","players":[{"user_id":103,"name":"(‚óî) Neville","steam_id":76561198025637970,"connected_time":2469000000000,"state":"active","ping":72},{"user_id":125,"name":"gl1tchr","steam_id":76561198302661983,"connected_time":1099000000000,"state":"active","ping":75},{"user_id":102,"name":"NV.3e00","steam_id":76561198089671934,"connected_time":2476000000000,"state":"active","ping":67},{"user_id":113,"name":"Fatass","steam_id":76561199209403512,"connected_time":1711000000000,"state":"active","ping":57},{"user_id":124,"name":"ÁßÅ„ÅØ‰∏çÊ≠£Ë°åÁÇ∫„Çí„Åó„Å¶„ÅÑ","steam_id":76561199465653959,"connected_time":1209000000000,"state":"active","ping":122},{"user_id":142,"name":"Uncle Garrow","steam_id":76561198044092599,"connected_time":114000000000,"state":"active","ping":55},{"user_id":115,"name":"Mecha","steam_id":76561198014927379,"connected_time":1668000000000,"state":"active","ping":84},{"user_id":100,"name":"sagekiss","steam_id":76561198038831240,"connected_time":2496000000000,"state":"active","ping":99},{"user_id":116,"name":"deadass1215","steam_id":76561199052886723,"connected_time":1659000000000,"state":"active","ping":139},{"user_id":117,"name":"O o g","steam_id":76561199267535506,"connected_time":1626000000000,"state":"active","ping":65},{"user_id":118,"name":"ü§®","steam_id":76561199365672047,"connected_time":1618000000000,"state":"active","ping":75},{"user_id":134,"name":"rive","steam_id":76561198216487540,"connected_time":488000000000,"state":"active","ping":94},{"user_id":112,"name":"the doo doo man","steam_id":76561198057076267,"connected_time":1743000000000,"state":"active","ping":75},{"user_id":138,"name":"The Donkis","steam_id":76561199084638366,"connected_time":240000000000,"state":"active","ping":112},{"user_id":97,"name":"deb","steam_id":76561198414336279,"connected_time":3224000000000,"state":"active","ping":76},{"user_id":65,"name":"Cringe Guillotine User","steam_id":76561198997067030,"connected_time":6155000000000,"state":"active","ping":87},{"user_id":141,"name":"Missing Minus","steam_id":76561198120822928,"connected_time":134000000000,"state":"active","ping":60},{"user_id":136,"name":"Eviscerator","steam_id":76561197980073637,"connected_time":468000000000,"state":"active","ping":75},{"user_id":137,"name":"Cooksandcleans‚Ñ¢","steam_id":76561198049696128,"connected_time":426000000000,"state":"active","ping":71},{"user_id":94,"name":"Noob","steam_id":76561198157087098,"connected_time":3899000000000,"state":"active","ping":53},{"user_id":139,"name":"vic vinegar","steam_id":76561198071775268,"connected_time":233000000000,"state":"active","ping":135},{"user_id":123,"name":"careuwuy","steam_id":76561198077321435,"connected_time":1222000000000,"state":"active","ping":76},{"user_id":140,"name":"mrselfdestruct13","steam_id":76561197992054553,"connected_time":173000000000,"state":"active","ping":71},{"user_id":69,"name":"SuperFresh","steam_id":76561198200723198,"connected_time":5975000000000,"state":"active","ping":44}]},{"server_id":402,"name":"Uncletopia | Chicago | 3 | All Maps","name_short":"chi-3","host":"chi-1.us.uncletopia.com","port":27035,"enabled":true,"region":"us-central","cc":"us","latitude":41.881832,"longitude":-87.62318,"reserved":0,"last_update":"0001-01-01T00:00:00Z","name_a2s":"Uncletopia | Chicago | 3 | All Maps","protocol":17,"map":"cp_altitude","folder":"tf","game":"Team Fortress","app_id":440,"player_count":0,"max_players":24,"Bots":0,"server_type":"Dedicated","server_os":"Linux","password":true,"vac":true,"version":"7757534","steam_id":85568392924515191,"keywords":["cp","nocrits","nodmgspread","uncletopia"],"game_id":440,"stv_port":27036,"stv_name":"Uncletopia | Chicago | 3 | All Maps | STV","players":null},{"server_id":403,"name":"Uncletopia | Chicago | 4 | All Maps","name_short":"chi-4","host":"chi-1.us.uncletopia.com","port":27045,"enabled":true,"region":"us-central","cc":"us","latitude":41.881832,"longitude":-87.62318,"reserved":0,"last_update":"0001-01-01T00:00:00Z","name_a2s":"Uncletopia | Chicago | 4 | All Maps","protocol":17,"map":"cp_mountainlab","folder":"tf","game":"Team Fortress","app_id":440,"player_count":3,"max_players":24,"Bots":0,"server_type":"Dedicated","server_os":"Linux","password":true,"vac":true,"version":"7757534","steam_id":85568392924515193,"keywords":["cp","nocrits","nodmgspread","uncletopia"],"game_id":440,"stv_port":27046,"stv_name":"Uncletopia | Chicago | 4 | All Maps | STV","players":[{"user_id":21,"name":"Cruisin'","steam_id":76561199245457119,"connected_time":895000000000,"state":"active","ping":75},{"user_id":22,"name":"LloydMann","steam_id":76561198025392778,"connected_time":786000000000,"state":"active","ping":50},{"user_id":23,"name":"RavenEmpress","steam_id":76561198954259711,"connected_time":415000000000,"state":"active","ping":106}]},{"server_id":36,"name":"Uncletopia | Chicago | 5 | All Maps","name_short":"chi-5","host":"chi-2.us.uncletopia.com","port":27015,"enabled":true,"region":"us-central","cc":"us","latitude":41.881832,"longitude":-87.62318,"reserved":0,"last_update":"0001-01-01T00:00:00Z","name_a2s":"Uncletopia | Chicago | 5 | All Maps","protocol":17,"map":"koth_cascade","folder":"tf","game":"Team Fortress","app_id":440,"player_count":0,"max_players":24,"Bots":0,"server_type":"Dedicated","server_os":"Linux","password":true,"vac":true,"version":"7757534","steam_id":85568392924866362,"keywords":["cp","nocrits","nodmgspread","uncletopia"],"game_id":440,"stv_port":27016,"stv_name":"Uncletopia | Chicago | 5 | All Maps | STV","players":null},{"server_id":37,"name":"Uncletopia | Chicago | 6 | All Maps","name_short":"chi-6","host":"chi-2.us.uncletopia.com","port":27025,"enabled":true,"region":"us-central","cc":"us","latitude":41.881832,"longitude":-87.62318,"reserved":0,"last_update":"0001-01-01T00:00:00Z","name_a2s":"Uncletopia | Chicago | 6 | All Maps","protocol":17,"map":"pl_borneo","folder":"tf","game":"Team Fortress","app_id":440,"player_count":0,"max_players":24,"Bots":0,"server_type":"Dedicated","server_os":"Linux","password":true,"vac":true,"version":"7757534","steam_id":85568392924866363,"keywords":["nocrits","nodmgspread","payload","uncletopia"],"game_id":440,"stv_port":27026,"stv_name":"Uncletopia | Chicago | 6 | All Maps | STV","players":null},{"server_id":38,"name":"Uncletopia | Chicago | 7 | Stopwatch Beta","name_short":"chi-7","host":"chi-2.us.uncletopia.com","port":27035,"enabled":true,"region":"us-central","cc":"us","latitude":41.881832,"longitude":-87.62318,"reserved":0,"last_update":"0001-01-01T00:00:00Z","name_a2s":"Uncletopia | Chicago | 7 | Stopwatch Beta","protocol":17,"map":"pl_barnblitz","folder":"tf","game":"Team Fortress","app_id":440,"player_count":0,"max_players":24,"Bots":0,"server_type":"Dedicated","server_os":"Linux","password":true,"vac":true,"version":"7757534","steam_id":85568392924866364,"keywords":["nocrits","nodmgspread","payload","uncletopia"],"game_id":440,"stv_port":27036,"stv_name":"Uncletopia | Chicago | 7 | Stopwatch Beta | STV","players":null},{"server_id":39,"name":"Uncletopia | Chicago | 8 | Community","name_short":"chi-8","host":"chi-2.us.uncletopia.com","port":27045,"enabled":true,"region":"us-central","cc":"us","latitude":41.881832,"longitude":-87.62318,"reserved":0,"last_update":"0001-01-01T00:00:00Z","name_a2s":"Uncletopia | Chicago | 8 | Community","protocol":17,"map":"koth_cascade","folder":"tf","game":"Team Fortress","app_id":440,"player_count":0,"max_players":24,"Bots":0,"server_type":"Dedicated","server_os":"Linux","password":true,"vac":true,"version":"7757534","steam_id":85568392924866365,"keywords":["cp","nocrits","nodmgspread","uncletopia"],"game_id":440,"stv_port":27046,"stv_name":"Uncletopia | Chicago | 8 | Community | STV","players":null},{"server_id":8,"name":"Uncletopia | Dallas | 1 | All Maps","name_short":"dal-1","host":"dal-1.us.uncletopia.com","port":27015,"enabled":true,"region":"us-central","cc":"us","latitude":32.779167,"longitude":-96.80889,"reserved":0,"last_update":"0001-01-01T00:00:00Z","name_a2s":"Uncletopia | Dallas | 1 | All Maps","protocol":17,"map":"koth_cascade","folder":"tf","game":"Team Fortress","app_id":440,"player_count":0,"max_players":24,"Bots":0,"server_type":"Dedicated","server_os":"Linux","password":true,"vac":true,"version":"7757534","steam_id":85568392924469986,"keywords":["cp","nocrits","nodmgspread","uncletopia"],"game_id":440,"stv_port":27016,"stv_name":"Uncletopia | Dallas | 1 | All Maps | STV","players":null},{"server_id":108,"name":"Uncletopia | Dallas | 2 | All Maps","name_short":"dal-2","host":"dal-1.us.uncletopia.com","port":27025,"enabled":true,"region":"us-central","cc":"us","latitude":32.779167,"longitude":-96.80889,"reserved":0,"last_update":"0001-01-01T00:00:00Z","name_a2s":"Uncletopia | Dallas | 2 | All Maps","protocol":17,"map":"pl_borneo","folder":"tf","game":"Team Fortress","app_id":440,"player_count":0,"max_players":24,"Bots":0,"server_type":"Dedicated","server_os":"Linux","password":true,"vac":true,"version":"7757534","steam_id":85568392924469988,"keywords":["nocrits","nodmgspread","payload","uncletopia"],"game_id":440,"stv_port":27026,"stv_name":"Uncletopia | Dallas | 2 | All Maps | STV","players":null},{"server_id":5,"name":"Uncletopia | Frankfurt | 1 | All Maps","name_short":"frk-1","host":"frk-1.de.uncletopia.com","port":27015,"enabled":true,"region":"eu","cc":"de","latitude":50.110924,"longitude":8.682127,"reserved":0,"last_update":"0001-01-01T00:00:00Z","name_a2s":"Uncletopia | Frankfurt | 1 | All Maps","protocol":17,"map":"cp_mountainlab","folder":"tf","game":"Team Fortress","app_id":440,"player_count":2,"max_players":24,"Bots":0,"server_type":"Dedicated","server_os":"Linux","password":true,"vac":true,"version":"7757534","steam_id":85568392924469989,"keywords":["cp","nocrits","nodmgspread","uncletopia"],"game_id":440,"stv_port":27016,"stv_name":"Uncletopia | Frankfurt | 1 | All Maps | STV","players":[{"user_id":18,"name":"WUFI jr","steam_id":76561199186793315,"connected_time":819000000000,"state":"active","ping":80},{"user_id":20,"name":"Northdoo","steam_id":76561198797887251,"connected_time":74000000000,"state":"active","ping":226}]},{"server_id":110,"name":"Uncletopia | Frankfurt | 2 | All Maps","name_short":"frk-2","host":"frk-1.de.uncletopia.com","port":27025,"enabled":true,"region":"eu","cc":"de","latitude":50.110924,"longitude":8.682127,"reserved":0,"last_update":"0001-01-01T00:00:00Z","name_a2s":"Uncletopia | Frankfurt | 2 | All Maps","protocol":17,"map":"cp_dustbowl","folder":"tf","game":"Team Fortress","app_id":440,"player_count":24,"max_players":24,"Bots":0,"server_type":"Dedicated","server_os":"Linux","password":true,"vac":true,"version":"7757534","steam_id":85568392924469990,"keywords":["cp","nocrits","nodmgspread","uncletopia"],"game_id":440,"stv_port":27026,"stv_name":"Uncletopia | Frankfurt | 2 | All Maps | STV","players":[{"user_id":133,"name":"errisauroh","steam_id":76561198112701938,"connected_time":4453000000000,"state":"active","ping":57},{"user_id":178,"name":"tallen","steam_id":76561198061708595,"connected_time":848000000000,"state":"active","ping":82},{"user_id":182,"name":"VanillaWoof","steam_id":76561198158343951,"connected_time":743000000000,"state":"active","ping":49},{"user_id":160,"name":"S2||S0","steam_id":76561198131577749,"connected_time":2507000000000,"state":"active","ping":78},{"user_id":138,"name":"[waffles]","steam_id":76561198951206047,"connected_time":3861000000000,"state":"active","ping":76},{"user_id":151,"name":"Vectillion","steam_id":76561198074292454,"connected_time":3080000000000,"state":"active","ping":72},{"user_id":180,"name":"Tre3","steam_id":76561198054795379,"connected_time":824000000000,"state":"active","ping":59},{"user_id":161,"name":"Igames","steam_id":76561198414062544,"connected_time":2477000000000,"state":"active","ping":70},{"user_id":183,"name":"Goordne","steam_id":76561198393516654,"connected_time":714000000000,"state":"active","ping":76},{"user_id":156,"name":"Tec","steam_id":76561199096762480,"connected_time":2689000000000,"state":"active","ping":74},{"user_id":176,"name":"Pyexorp","steam_id":76561199109194825,"connected_time":1283000000000,"state":"active","ping":74},{"user_id":186,"name":"Darko","steam_id":76561198318825528,"connected_time":614000000000,"state":"active","ping":60},{"user_id":167,"name":"SaltyCupcakes","steam_id":76561198256386417,"connected_time":2318000000000,"state":"active","ping":58},{"user_id":177,"name":"i look at gay people","steam_id":76561198078032019,"connected_time":1033000000000,"state":"active","ping":75},{"user_id":187,"name":"marco / s /","steam_id":76561198300120382,"connected_time":596000000000,"state":"active","ping":61},{"user_id":173,"name":"Magirby","steam_id":76561198818777390,"connected_time":1505000000000,"state":"active","ping":108},{"user_id":179,"name":"Pestdoktor","steam_id":76561198058159271,"connected_time":848000000000,"state":"active","ping":69},{"user_id":130,"name":"Huuvi","steam_id":76561198265451304,"connected_time":4706000000000,"state":"active","ping":80},{"user_id":185,"name":"heiiis.","steam_id":76561199149006242,"connected_time":688000000000,"state":"active","ping":93},{"user_id":134,"name":"Jeremy265","steam_id":76561199004316549,"connected_time":4392000000000,"state":"active","ping":129},{"user_id":188,"name":"Dambo","steam_id":76561198227320008,"connected_time":584000000000,"state":"active","ping":119},{"user_id":189,"name":"Doctor Mobius","steam_id":76561197971281806,"connected_time":574000000000,"state":"active","ping":65},{"user_id":155,"name":"KAZAM | Tervez","steam_id":76561198045459068,"connected_time":2755000000000,"state":"active","ping":78},{"user_id":190,"name":"Hairy Pu$$y","steam_id":76561198893827069,"connected_time":529000000000,"state":"active","ping":70}]},{"server_id":308,"name":"Uncletopia | Frankfurt | 3 | All Maps","name_short":"frk-3","host":"frk-1.de.uncletopia.com","port":27035,"enabled":true,"region":"eu","cc":"de","latitude":50.110924,"longitude":8.682127,"reserved":0,"last_update":"0001-01-01T00:00:00Z","name_a2s":"Uncletopia | Frankfurt | 3 | All Maps","protocol":17,"map":"pl_upward","folder":"tf","game":"Team Fortress","app_id":440,"player_count":20,"max_players":24,"Bots":0,"server_type":"Dedicated","server_os":"Linux","password":true,"vac":true,"version":"7757534","steam_id":85568392924504274,"keywords":["nocrits","nodmgspread","payload","uncletopia"],"game_id":440,"stv_port":27036,"stv_name":"Uncletopia | Frankfurt | 3 | All Maps | STV","players":[{"user_id":38,"name":"leverposteifantomet","steam_id":76561198057225852,"connected_time":1715000000000,"state":"active","ping":69},{"user_id":67,"name":"m.morhac123","steam_id":76561199202883261,"connected_time":577000000000,"state":"active","ping":61},{"user_id":11,"name":"tralalaOuiOui","steam_id":76561197963471507,"connected_time":4406000000000,"state":"active","ping":47},{"user_id":77,"name":"a straight white male","steam_id":76561198381120660,"connected_time":66000000000,"state":"active","ping":79},{"user_id":18,"name":"Kanksteli","steam_id":76561198035919109,"connected_time":3744000000000,"state":"active","ping":73},{"user_id":69,"name":"Gorogaz","steam_id":76561198207157679,"connected_time":572000000000,"state":"active","ping":57},{"user_id":70,"name":"unnamed","steam_id":76561198870764276,"connected_time":555000000000,"state":"active","ping":72},{"user_id":71,"name":"Seron-Lowell","steam_id":76561198070291347,"connected_time":538000000000,"state":"active","ping":52},{"user_id":72,"name":"Setter Ball Gaul","steam_id":76561198130427881,"connected_time":493000000000,"state":"active","ping":163},{"user_id":64,"name":"Better Call Medic","steam_id":76561198939711234,"connected_time":895000000000,"state":"active","ping":113},{"user_id":62,"name":"Dr. Wendigo","steam_id":76561199148582149,"connected_time":1074000000000,"state":"active","ping":92},{"user_id":63,"name":"asasaBaboon","steam_id":76561198001144642,"connected_time":955000000000,"state":"active","ping":57},{"user_id":74,"name":"dafydd","steam_id":76561198052200325,"connected_time":397000000000,"state":"active","ping":75},{"user_id":48,"name":"LemonLeCitron","steam_id":76561198215545267,"connected_time":1301000000000,"state":"active","ping":73},{"user_id":49,"name":"VolcanicArts","steam_id":76561198063453246,"connected_time":1292000000000,"state":"active","ping":60},{"user_id":50,"name":"adam","steam_id":76561199024816404,"connected_time":1286000000000,"state":"active","ping":75},{"user_id":73,"name":"Shadow Jesus","steam_id":76561198272980963,"connected_time":444000000000,"state":"active","ping":59},{"user_id":54,"name":"Chill Spirit","steam_id":76561198845001725,"connected_time":1212000000000,"state":"active","ping":47},{"user_id":76,"name":"kallerannar","steam_id":76561199095701143,"connected_time":329000000000,"state":"active","ping":78},{"user_id":56,"name":"Vorge","steam_id":76561198411852459,"connected_time":1207000000000,"state":"active","ping":137}]},{"server_id":309,"name":"Uncletopia | Frankfurt | 4 | All Maps","name_short":"frk-4","host":"frk-1.de.uncletopia.com","port":27045,"enabled":true,"region":"eu","cc":"de","latitude":50.110924,"longitude":8.682127,"reserved":0,"last_update":"0001-01-01T00:00:00Z","name_a2s":"Uncletopia | Frankfurt | 4 | All Maps","protocol":17,"map":"pl_upward","folder":"tf","game":"Team Fortress","app_id":440,"player_count":4,"max_players":24,"Bots":0,"server_type":"Dedicated","server_os":"Linux","password":true,"vac":true,"version":"7757534","steam_id":85568392924504275,"keywords":["nocrits","nodmgspread","payload","uncletopia"],"game_id":440,"stv_port":27046,"stv_name":"Uncletopia | Frankfurt | 4 | All Maps | STV","players":[{"user_id":526,"name":"ran is running","steam_id":76561199443185667,"connected_time":1207000000000,"state":"active","ping":170},{"user_id":530,"name":"Winters Fall","steam_id":76561198303707290,"connected_time":963000000000,"state":"active","ping":62},{"user_id":532,"name":"meow (they/them)","steam_id":76561198416657815,"connected_time":60000000000,"state":"active","ping":658},{"user_id":529,"name":"piss man (real)","steam_id":76561198839843428,"connected_time":1063000000000,"state":"active","ping":149}]},{"server_id":310,"name":"Uncletopia | Frankfurt | 5 | All Maps","name_short":"frk-5","host":"frk-1.de.uncletopia.com","port":27055,"enabled":true,"region":"eu","cc":"de","latitude":50.110924,"longitude":8.682127,"reserved":0,"last_update":"0001-01-01T00:00:00Z","name_a2s":"Uncletopia | Frankfurt | 5 | All Maps","protocol":17,"map":"cp_sunshine","folder":"tf","game":"Team Fortress","app_id":440,"player_count":0,"max_players":24,"Bots":0,"server_type":"Dedicated","server_os":"Linux","password":true,"vac":true,"version":"7757534","steam_id":85568392924504277,"keywords":["cp","nocrits","nodmgspread","uncletopia"],"game_id":440,"stv_port":27056,"stv_name":"Uncletopia | Frankfurt | 5 | All Maps | STV","players":null},{"server_id":311,"name":"Uncletopia | Frankfurt | 6 | All Maps","name_short":"frk-6","host":"frk-1.de.uncletopia.com","port":27065,"enabled":true,"region":"eu","cc":"de","latitude":50.110924,"longitude":8.682127,"reserved":0,"last_update":"0001-01-01T00:00:00Z","name_a2s":"Uncletopia | Frankfurt | 6 | All Maps","protocol":17,"map":"pl_badwater","folder":"tf","game":"Team Fortress","app_id":440,"player_count":24,"max_players":24,"Bots":0,"server_type":"Dedicated","server_os":"Linux","password":true,"vac":true,"version":"7757534","steam_id":85568392924504278,"keywords":["nocrits","nodmgspread","payload","uncletopia"],"game_id":440,"stv_port":27066,"stv_name":"Uncletopia | Frankfurt | 6 | All Maps | STV","players":[{"user_id":87,"name":"bird","steam_id":76561198060018760,"connected_time":1638000000000,"state":"active","ping":60},{"user_id":85,"name":"clouds","steam_id":76561198111134021,"connected_time":1917000000000,"state":"active","ping":76},{"user_id":107,"name":"lol","steam_id":76561198104438656,"connected_time":34000000000,"state":"active","ping":60},{"user_id":91,"name":"kotamine","steam_id":76561198068907991,"connected_time":1507000000000,"state":"active","ping":69},{"user_id":102,"name":"Virigos","steam_id":76561198322441994,"connected_time":438000000000,"state":"active","ping":53},{"user_id":104,"name":"acuifex","steam_id":76561198106266513,"connected_time":419000000000,"state":"active","ping":75},{"user_id":106,"name":"DeanAdamFry","steam_id":76561198054153160,"connected_time":292000000000,"state":"active","ping":58},{"user_id":105,"name":"weed fairy","steam_id":76561197998843096,"connected_time":333000000000,"state":"active","ping":73},{"user_id":95,"name":"iconic","steam_id":76561198258487465,"connected_time":1355000000000,"state":"active","ping":98},{"user_id":100,"name":"bob","steam_id":76561198424363858,"connected_time":764000000000,"state":"active","ping":85},{"user_id":53,"name":"holykyckling","steam_id":76561198040661615,"connected_time":4129000000000,"state":"active","ping":75},{"user_id":67,"name":"Rezkey","steam_id":76561198206079048,"connected_time":3143000000000,"state":"active","ping":60},{"user_id":89,"name":"Homosapien","steam_id":76561197972035953,"connected_time":1551000000000,"state":"active","ping":45},{"user_id":68,"name":"The Death I Deservioli","steam_id":76561198320506848,"connected_time":3128000000000,"state":"active","ping":54},{"user_id":103,"name":"Yuzu","steam_id":76561198121694613,"connected_time":436000000000,"state":"active","ping":52},{"user_id":69,"name":"Cosmonaut","steam_id":76561198239514504,"connected_time":3091000000000,"state":"active","ping":58},{"user_id":34,"name":"howabe","steam_id":76561197996486818,"connected_time":6216000000000,"state":"active","ping":56},{"user_id":96,"name":"PashaVerti","steam_id":76561199013963024,"connected_time":1355000000000,"state":"active","ping":71},{"user_id":98,"name":"Barack OBidoof","steam_id":76561198035142993,"connected_time":1208000000000,"state":"active","ping":150},{"user_id":92,"name":"wicked","steam_id":76561198164376035,"connected_time":1481000000000,"state":"active","ping":64},{"user_id":97,"name":"julio.gonzales2014","steam_id":76561198045278688,"connected_time":1293000000000,"state":"active","ping":58},{"user_id":72,"name":"After8","steam_id":76561198090750865,"connected_time":3003000000000,"state":"active","ping":67},{"user_id":80,"name":"NOM","steam_id":76561199059006203,"connected_time":2121000000000,"state":"active","ping":171},{"user_id":81,"name":"Yaz","steam_id":76561198110613175,"connected_time":2106000000000,"state":"active","ping":103}]},{"server_id":23,"name":"Uncletopia | Frankfurt | 7 | Stopwatch Beta","name_short":"frk-7","host":"frk-1.de.uncletopia.com","port":27075,"enabled":true,"region":"eu","cc":"de","latitude":50.110924,"longitude":8.682127,"reserved":0,"last_update":"0001-01-01T00:00:00Z","name_a2s":"Uncletopia | Frankfurt | 7 | Stopwatch Beta","protocol":17,"map":"cp_sunshine","folder":"tf","game":"Team Fortress","app_id":440,"player_count":0,"max_players":24,"Bots":0,"server_type":"Dedicated","server_os":"Linux","password":true,"vac":true,"version":"7757534","steam_id":85568392924742827,"keywords":["cp","nocrits","nodmgspread","uncletopia"],"game_id":440,"stv_port":27076,"stv_name":"Uncletopia | Frankfurt | 7 | Stopwatch Beta | STV","players":null},{"server_id":24,"name":"Uncletopia | Frankfurt | 8 | Community","name_short":"frk-8","host":"frk-1.de.uncletopia.com","port":27085,"enabled":true,"region":"eu","cc":"de","latitude":50.110924,"longitude":8.682127,"reserved":0,"last_update":"0001-01-01T00:00:00Z","name_a2s":"Uncletopia | Frankfurt | 8 | Community","protocol":17,"map":"koth_lakeside_final","folder":"tf","game":"Team Fortress","app_id":440,"player_count":1,"max_players":24,"Bots":0,"server_type":"Dedicated","server_os":"Linux","password":true,"vac":true,"version":"7757534","steam_id":85568392924742828,"keywords":["cp","nocrits","nodmgspread","uncletopia"],"game_id":440,"stv_port":27086,"stv_name":"Uncletopia | Frankfurt | 8 | Community | STV","players":[{"user_id":3,"name":"Truegr","steam_id":76561198811912339,"connected_time":21000000000,"state":"active","ping":86}]},{"server_id":202,"name":"Uncletopia | Hong Kong | 1 | All Maps","name_short":"hgk-1","host":"hgk-1.hk.uncletopia.com","port":27015,"enabled":true,"region":"asia","cc":"hk","latitude":22.302711,"longitude":114.177216,"reserved":0,"last_update":"0001-01-01T00:00:00Z","name_a2s":"Uncletopia | Hong Kong | 1 | All Maps","protocol":17,"map":"pl_snowycoast","folder":"tf","game":"Team Fortress","app_id":440,"player_count":19,"max_players":24,"Bots":0,"server_type":"Dedicated","server_os":"Linux","password":true,"vac":true,"version":"7757534","steam_id":85568392924494504,"keywords":["nocrits","nodmgspread","payload","uncletopia"],"game_id":440,"stv_port":27016,"stv_name":"Uncletopia | Hong Kong | 1 | All Maps | STV","players":[{"user_id":32,"name":"ArcticDolphin","steam_id":76561198203626319,"connected_time":21337000000000,"state":"active","ping":121},{"user_id":243,"name":"dax.","steam_id":76561198321885643,"connected_time":4708000000000,"state":"active","ping":39},{"user_id":209,"name":"Ïø†ÌÇ§","steam_id":76561197997220367,"connected_time":7401000000000,"state":"active","ping":55},{"user_id":259,"name":"IDontLaunder","steam_id":76561199103223706,"connected_time":2791000000000,"state":"active","ping":178},{"user_id":261,"name":"shenko","steam_id":76561198082921407,"connected_time":2751000000000,"state":"active","ping":121},{"user_id":292,"name":"ÎßàÎ¶¨Ïò§ Îç∏ Î™®ÎÇòÏΩî","steam_id":76561198066203445,"connected_time":116000000000,"state":"active","ping":90},{"user_id":290,"name":"Pain","steam_id":76561199156341643,"connected_time":184000000000,"state":"active","ping":69},{"user_id":265,"name":"NOPE","steam_id":76561199244543572,"connected_time":2717000000000,"state":"active","ping":61},{"user_id":286,"name":"Skyler White yo","steam_id":76561198895193247,"connected_time":399000000000,"state":"active","ping":163},{"user_id":195,"name":"Tyxant","steam_id":76561198091066056,"connected_time":9375000000000,"state":"active","ping":94},{"user_id":287,"name":"quake","steam_id":76561199000482422,"connected_time":320000000000,"state":"active","ping":66},{"user_id":289,"name":"TheRobot_140","steam_id":76561199107847802,"connected_time":220000000000,"state":"active","ping":124},{"user_id":255,"name":"Giyu","steam_id":76561198299150410,"connected_time":3376000000000,"state":"active","ping":145},{"user_id":280,"name":"\"SKS\"","steam_id":76561198187995386,"connected_time":1027000000000,"state":"active","ping":88},{"user_id":240,"name":"ÊØç„ÅÆËÇâÂõ£Â≠ê@hao123.com","steam_id":76561198069561896,"connected_time":4944000000000,"state":"active","ping":36},{"user_id":245,"name":"Stupid B","steam_id":76561198131423270,"connected_time":4334000000000,"state":"active","ping":90},{"user_id":277,"name":"monkeyman536","steam_id":76561197997717737,"connected_time":1178000000000,"state":"active","ping":130},{"user_id":283,"name":"pineappleonpizzasuck5123","steam_id":76561199457260036,"connected_time":978000000000,"state":"active","ping":128},{"user_id":171,"name":"P is gay","steam_id":76561198092969425,"connected_time":11391000000000,"state":"active","ping":109}]},{"server_id":1,"name":"Uncletopia | Los Angeles | 1 | All Maps","name_short":"lax-1","host":"lax-1.us.uncletopia.com","port":27015,"enabled":true,"region":"us-west","cc":"us","latitude":33.94279,"longitude":-118.41004,"reserved":0,"last_update":"0001-01-01T00:00:00Z","name_a2s":"Uncletopia | Los Angeles | 1 | All Maps","protocol":17,"map":"koth_lakeside_final","folder":"tf","game":"Team Fortress","app_id":440,"player_count":0,"max_players":24,"Bots":0,"server_type":"Dedicated","server_os":"Linux","password":true,"vac":true,"version":"7757534","steam_id":85568392924469991,"keywords":["cp","nocrits","nodmgspread","uncletopia"],"game_id":440,"stv_port":27016,"stv_name":"Uncletopia | Los Angeles | 1 | All Maps | STV","players":null},{"server_id":112,"name":"Uncletopia | Los Angeles | 2 | All Maps","name_short":"lax-2","host":"lax-1.us.uncletopia.com","port":27025,"enabled":true,"region":"us-west","cc":"us","latitude":33.94279,"longitude":-118.41004,"reserved":0,"last_update":"0001-01-01T00:00:00Z","name_a2s":"Uncletopia | Los Angeles | 2 | All Maps","protocol":17,"map":"pl_frontier_final","folder":"tf","game":"Team Fortress","app_id":440,"player_count":0,"max_players":24,"Bots":0,"server_type":"Dedicated","server_os":"Linux","password":true,"vac":true,"version":"7757534","steam_id":85568392924469992,"keywords":["nocrits","nodmgspread","payload","uncletopia"],"game_id":440,"stv_port":27026,"stv_name":"Uncletopia | Los Angeles | 2 | All Maps | STV","players":null},{"server_id":324,"name":"Uncletopia | Los Angeles | 3 | All Maps","name_short":"lax-3","host":"lax-1.us.uncletopia.com","port":27035,"enabled":true,"region":"us-west","cc":"us","latitude":33.94279,"longitude":-118.41004,"reserved":0,"last_update":"0001-01-01T00:00:00Z","name_a2s":"Uncletopia | Los Angeles | 3 | All Maps","protocol":17,"map":"pl_barnblitz","folder":"tf","game":"Team Fortress","app_id":440,"player_count":0,"max_players":24,"Bots":0,"server_type":"Dedicated","server_os":"Linux","password":true,"vac":true,"version":"7757534","steam_id":85568392924510198,"keywords":["nocrits","nodmgspread","payload","uncletopia"],"game_id":440,"stv_port":27036,"stv_name":"Uncletopia | Los Angeles | 3 | All Maps | STV","players":null},{"server_id":25,"name":"Uncletopia | Los Angeles | 4 | Stopwatch Beta","name_short":"lax-4","host":"lax-1.us.uncletopia.com","port":27045,"enabled":true,"region":"us-west","cc":"us","latitude":33.94279,"longitude":-118.41004,"reserved":0,"last_update":"0001-01-01T00:00:00Z","name_a2s":"Uncletopia | Los Angeles | 4 | Stopwatch Beta","protocol":17,"map":"pl_swiftwater_final1","folder":"tf","game":"Team Fortress","app_id":440,"player_count":0,"max_players":24,"Bots":0,"server_type":"Dedicated","server_os":"Linux","password":true,"vac":true,"version":"7757534","steam_id":85568392924510199,"keywords":["nocrits","nodmgspread","payload","uncletopia"],"game_id":440,"stv_port":27046,"stv_name":"Uncletopia | Los Angeles | 4 | Stopwatch Beta | STV","players":null},{"server_id":11,"name":"Uncletopia | London | 1 | All Maps","name_short":"lon-1","host":"lon-1.uk.uncletopia.com","port":27015,"enabled":true,"region":"eu","cc":"gb","latitude":51.509865,"longitude":-0.118092,"reserved":0,"last_update":"0001-01-01T00:00:00Z","name_a2s":"Uncletopia | London | 1 | All Maps","protocol":17,"map":"cp_dustbowl","folder":"tf","game":"Team Fortress","app_id":440,"player_count":24,"max_players":24,"Bots":0,"server_type":"Dedicated","server_os":"Linux","password":true,"vac":true,"version":"7757534","steam_id":85568392924367362,"keywords":["cp","nocrits","nodmgspread","uncletopia"],"game_id":440,"stv_port":27016,"stv_name":"Uncletopia | London | 1 | All Maps | STV","players":[{"user_id":242,"name":"Ocelot","steam_id":76561198263386006,"connected_time":10295000000000,"state":"active","ping":105},{"user_id":282,"name":"bird (trans rights)","steam_id":76561198393596975,"connected_time":7348000000000,"state":"active","ping":48},{"user_id":360,"name":"Lag","steam_id":76561198159360376,"connected_time":259000000000,"state":"active","ping":43},{"user_id":331,"name":"Een schaap zonder slaap","steam_id":76561198084808410,"connected_time":2738000000000,"state":"active","ping":60},{"user_id":318,"name":"betonomeshalka","steam_id":76561198304548337,"connected_time":3705000000000,"state":"active","ping":112},{"user_id":347,"name":"Infantile Pillock","steam_id":76561198283851362,"connected_time":1107000000000,"state":"active","ping":66},{"user_id":321,"name":"help","steam_id":76561199056338917,"connected_time":3627000000000,"state":"active","ping":160},{"user_id":122,"name":"Dastardly","steam_id":76561198028351509,"connected_time":19101000000000,"state":"active","ping":66},{"user_id":346,"name":"Scab Collector","steam_id":76561198346425545,"connected_time":1494000000000,"state":"active","ping":147},{"user_id":342,"name":"buttfiend","steam_id":76561198136239861,"connected_time":1889000000000,"state":"active","ping":47},{"user_id":333,"name":"AnonTron","steam_id":76561199031895493,"connected_time":2316000000000,"state":"active","ping":158},{"user_id":348,"name":"Elix","steam_id":76561199072306920,"connected_time":889000000000,"state":"active","ping":95},{"user_id":277,"name":"Skoualala","steam_id":76561198121754445,"connected_time":7711000000000,"state":"active","ping":59},{"user_id":292,"name":"Chongo","steam_id":76561198133400491,"connected_time":6323000000000,"state":"active","ping":77},{"user_id":350,"name":"-gunripp0r^be / Obelix^","steam_id":76561197999306879,"connected_time":843000000000,"state":"active","ping":84},{"user_id":301,"name":"FluffMuffin OwO","steam_id":76561198275120259,"connected_time":5780000000000,"state":"active","ping":46},{"user_id":357,"name":"Jinx my beloved","steam_id":76561198819986745,"connected_time":328000000000,"state":"active","ping":97},{"user_id":355,"name":"Fat Engi","steam_id":76561199243208497,"connected_time":485000000000,"state":"active","ping":90},{"user_id":358,"name":"I Cant Aim","steam_id":76561199241354828,"connected_time":324000000000,"state":"active","ping":128},{"user_id":276,"name":"kojitori","steam_id":76561198838072150,"connected_time":7784000000000,"state":"active","ping":45},{"user_id":351,"name":"the indomitable human spirit","steam_id":76561198718760200,"connected_time":784000000000,"state":"active","ping":45},{"user_id":359,"name":"ThatTFguy","steam_id":76561198056794321,"connected_time":313000000000,"state":"active","ping":60},{"user_id":356,"name":"Flare","steam_id":76561198039098320,"connected_time":445000000000,"state":"active","ping":51},{"user_id":330,"name":"Princess Peach","steam_id":76561198260272240,"connected_time":2769000000000,"state":"active","ping":45}]},{"server_id":114,"name":"Uncletopia | London | 2 | All Maps","name_short":"lon-2","host":"lon-1.uk.uncletopia.com","port":27025,"enabled":true,"region":"eu","cc":"gb","latitude":51.509865,"longitude":-0.118092,"reserved":0,"last_update":"0001-01-01T00:00:00Z","name_a2s":"Uncletopia | London | 2 | All Maps","protocol":17,"map":"pl_upward","folder":"tf","game":"Team Fortress","app_id":440,"player_count":23,"max_players":24,"Bots":0,"server_type":"Dedicated","server_os":"Linux","password":true,"vac":true,"version":"7757534","steam_id":85568392924470941,"keywords":["nocrits","nodmgspread","payload","uncletopia"],"game_id":440,"stv_port":27026,"stv_name":"Uncletopia | London | 2 | All Maps | STV","players":[{"user_id":11,"name":"Cat Lad","steam_id":76561198315009320,"connected_time":2733000000000,"state":"active","ping":59},{"user_id":22,"name":"Egor Pomidor","steam_id":76561199175688390,"connected_time":1014000000000,"state":"active","ping":89},{"user_id":56,"name":"puckimari","steam_id":76561198121260981,"connected_time":81000000000,"state":"active","ping":41},{"user_id":40,"name":"the indomitable human spirit","steam_id":76561199444971686,"connected_time":750000000000,"state":"active","ping":41},{"user_id":16,"name":"Major","steam_id":76561198086483282,"connected_time":1274000000000,"state":"active","ping":47},{"user_id":20,"name":"pyromaniac","steam_id":76561198292781255,"connected_time":1109000000000,"state":"active","ping":78},{"user_id":41,"name":"i AM the medic gf","steam_id":76561198247284680,"connected_time":741000000000,"state":"active","ping":75},{"user_id":19,"name":"tabbthefox","steam_id":76561199388027290,"connected_time":1178000000000,"state":"active","ping":58},{"user_id":23,"name":"quickfast","steam_id":76561199438900919,"connected_time":972000000000,"state":"active","ping":44},{"user_id":42,"name":"goblin (real)","steam_id":76561198868286775,"connected_time":732000000000,"state":"active","ping":90},{"user_id":25,"name":"Virgil","steam_id":76561198248786778,"connected_time":939000000000,"state":"active","ping":112},{"user_id":26,"name":"Economic crisis","steam_id":76561198063562843,"connected_time":912000000000,"state":"active","ping":61},{"user_id":28,"name":"Nassu","steam_id":76561198147367577,"connected_time":891000000000,"state":"active","ping":159},{"user_id":54,"name":"lawn","steam_id":76561198001243486,"connected_time":273000000000,"state":"active","ping":45},{"user_id":30,"name":"Blobbaz","steam_id":76561198031076278,"connected_time":846000000000,"state":"active","ping":54},{"user_id":38,"name":"avewszystkim","steam_id":76561199382492530,"connected_time":759000000000,"state":"active","ping":75},{"user_id":32,"name":"Vander","steam_id":76561198213669807,"connected_time":821000000000,"state":"active","ping":74},{"user_id":33,"name":"Neon","steam_id":76561198012373755,"connected_time":802000000000,"state":"active","ping":56},{"user_id":43,"name":"juckport","steam_id":76561198211967715,"connected_time":727000000000,"state":"active","ping":101},{"user_id":35,"name":"r1ghty","steam_id":76561198022349611,"connected_time":790000000000,"state":"active","ping":112},{"user_id":45,"name":"CptHavvock","steam_id":76561199189740651,"connected_time":661000000000,"state":"active","ping":77},{"user_id":55,"name":"[T]aKer","steam_id":76561198001778013,"connected_time":268000000000,"state":"active","ping":45},{"user_id":52,"name":"Maybe_Next_Day","steam_id":76561198117091534,"connected_time":424000000000,"state":"active","ping":118}]},{"server_id":320,"name":"Uncletopia | London | 3 | All Maps","name_short":"lon-3","host":"lon-1.uk.uncletopia.com","port":27035,"enabled":true,"region":"eu","cc":"gb","latitude":51.509865,"longitude":-0.118092,"reserved":0,"last_update":"0001-01-01T00:00:00Z","name_a2s":"Uncletopia | London | 3 | All Maps","protocol":17,"map":"pl_badwater","folder":"tf","game":"Team Fortress","app_id":440,"player_count":24,"max_players":24,"Bots":0,"server_type":"Dedicated","server_os":"Linux","password":true,"vac":true,"version":"7757534","steam_id":85568392924510192,"keywords":["nocrits","nodmgspread","payload","uncletopia"],"game_id":440,"stv_port":27036,"stv_name":"Uncletopia | London | 3 | All Maps | STV","players":[{"user_id":253,"name":"Izzy","steam_id":76561198406200478,"connected_time":4972000000000,"state":"active","ping":96},{"user_id":307,"name":"Greenmaker","steam_id":76561198060466591,"connected_time":898000000000,"state":"active","ping":89},{"user_id":323,"name":"TheGHGCraft","steam_id":76561199211317521,"connected_time":208000000000,"state":"active","ping":67},{"user_id":250,"name":"Very bad dont rely on me","steam_id":76561198362116755,"connected_time":5110000000000,"state":"active","ping":162},{"user_id":313,"name":"mt","steam_id":76561197961319303,"connected_time":836000000000,"state":"active","ping":60},{"user_id":314,"name":"Lessoz","steam_id":76561199211572036,"connected_time":795000000000,"state":"active","ping":89},{"user_id":317,"name":"Zenssei","steam_id":76561198209895623,"connected_time":408000000000,"state":"active","ping":104},{"user_id":294,"name":"Faxter","steam_id":76561198011771605,"connected_time":2026000000000,"state":"active","ping":75},{"user_id":302,"name":"Nukizo_giska #SkinsMonkey","steam_id":76561198107008213,"connected_time":1271000000000,"state":"active","ping":85},{"user_id":319,"name":"Whizzo","steam_id":76561198058762428,"connected_time":396000000000,"state":"active","ping":57},{"user_id":300,"name":"MEDiUM","steam_id":76561198112328561,"connected_time":1632000000000,"state":"active","ping":81},{"user_id":320,"name":"STONER08","steam_id":76561199478378377,"connected_time":320000000000,"state":"active","ping":57},{"user_id":268,"name":"Dr. Mike Litoris","steam_id":76561197991205793,"connected_time":4110000000000,"state":"active","ping":87},{"user_id":279,"name":"john fortress","steam_id":76561198013237629,"connected_time":3237000000000,"state":"active","ping":85},{"user_id":305,"name":"M4 SOPMOD II Enjoyer","steam_id":76561198155176802,"connected_time":1122000000000,"state":"active","ping":129},{"user_id":309,"name":"Sambist","steam_id":76561198258401816,"connected_time":881000000000,"state":"active","ping":87},{"user_id":269,"name":"Ardaaaaaaaaaaaaaaaaaaaaaaaaaaa","steam_id":76561199004214779,"connected_time":4107000000000,"state":"active","ping":104},{"user_id":298,"name":"Milfshake","steam_id":76561198208740557,"connected_time":1780000000000,"state":"active","ping":61},{"user_id":310,"name":"Erates","steam_id":76561197968707211,"connected_time":857000000000,"state":"active","ping":56},{"user_id":311,"name":"Chicanery","steam_id":76561198155872356,"connected_time":853000000000,"state":"active","ping":114},{"user_id":304,"name":"Mean Green Peen","steam_id":76561198228455736,"connected_time":1171000000000,"state":"active","ping":48},{"user_id":322,"name":"TarekInnit","steam_id":76561198298618127,"connected_time":218000000000,"state":"active","ping":59},{"user_id":180,"name":"sape (huntsman enjoyer)","steam_id":76561198089322416,"connected_time":9242000000000,"state":"active","ping":98},{"user_id":312,"name":"wake me up before you go-go","steam_id":76561198179324075,"connected_time":846000000000,"state":"active","ping":62}]},{"server_id":321,"name":"Uncletopia | London | 4 | All Maps","name_short":"lon-4","host":"lon-1.uk.uncletopia.com","port":27045,"enabled":true,"region":"eu","cc":"gb","latitude":51.509865,"longitude":-0.118092,"reserved":0,"last_update":"0001-01-01T00:00:00Z","name_a2s":"Uncletopia | London | 4 | All Maps","protocol":17,"map":"cp_dustbowl","folder":"tf","game":"Team Fortress","app_id":440,"player_count":2,"max_players":24,"Bots":0,"server_type":"Dedicated","server_os":"Linux","password":true,"vac":true,"version":"7757534","steam_id":85568392924510193,"keywords":["cp","nocrits","nodmgspread","uncletopia"],"game_id":440,"stv_port":27046,"stv_name":"Uncletopia | London | 4 | All Maps | STV","players":[{"user_id":5,"name":"DaDemoBottleBoy","steam_id":76561199052375561,"connected_time":456000000000,"state":"active","ping":58},{"user_id":6,"name":"sirussounds","steam_id":76561198269342277,"connected_time":349000000000,"state":"active","ping":54}]},{"server_id":21,"name":"Uncletopia | London | 5 | All Maps","name_short":"lon-5","host":"lon-1.uk.uncletopia.com","port":27055,"enabled":true,"region":"eu","cc":"gb","latitude":51.509865,"longitude":-0.118092,"reserved":0,"last_update":"0001-01-01T00:00:00Z","name_a2s":"Uncletopia | London | 5 | All Maps","protocol":17,"map":"koth_cascade","folder":"tf","game":"Team Fortress","app_id":440,"player_count":0,"max_players":24,"Bots":0,"server_type":"Dedicated","server_os":"Linux","password":true,"vac":true,"version":"7757534","steam_id":85568392924742829,"keywords":["cp","nocrits","nodmgspread","uncletopia"],"game_id":440,"stv_port":27056,"stv_name":"Uncletopia | London | 5 | All Maps | STV","players":null},{"server_id":22,"name":"Uncletopia | London | 6 | All Maps","name_short":"lon-6","host":"lon-1.uk.uncletopia.com","port":27065,"enabled":true,"region":"eu","cc":"gb","latitude":51.509865,"longitude":-0.118092,"reserved":0,"last_update":"0001-01-01T00:00:00Z","name_a2s":"Uncletopia | London | 6 | All Maps","protocol":17,"map":"koth_viaduct","folder":"tf","game":"Team Fortress","app_id":440,"player_count":0,"max_players":24,"Bots":0,"server_type":"Dedicated","server_os":"Linux","password":true,"vac":true,"version":"7757534","steam_id":85568392924742830,"keywords":["cp","nocrits","nodmgspread","uncletopia"],"game_id":440,"stv_port":27066,"stv_name":"Uncletopia | London | 6 | All Maps | STV","players":null},{"server_id":40,"name":"Uncletopia | London | 7 | No Payload","name_short":"lon-7","host":"lon-1.uk.uncletopia.com","port":27075,"enabled":true,"region":"eu","cc":"gb","latitude":51.509865,"longitude":-0.118092,"reserved":0,"last_update":"0001-01-01T00:00:00Z","name_a2s":"Uncletopia | London | 7 | No Payload","protocol":17,"map":"pl_badwater","folder":"tf","game":"Team Fortress","app_id":440,"player_count":0,"max_players":24,"Bots":0,"server_type":"Dedicated","server_os":"Linux","password":true,"vac":true,"version":"7757534","steam_id":85568392924964314,"keywords":["nocrits","nodmgspread","payload","uncletopia"],"game_id":440,"stv_port":27076,"stv_name":"Uncletopia | London | 7 | No Payload | STV","players":null},{"server_id":41,"name":"Uncletopia | London | 8 | Community","name_short":"lon-8","host":"lon-1.uk.uncletopia.com","port":27085,"enabled":true,"region":"eu","cc":"gb","latitude":51.509865,"longitude":-0.118092,"reserved":0,"last_update":"0001-01-01T00:00:00Z","name_a2s":"Uncletopia | London | 8 | Community","protocol":17,"map":"pl_barnblitz","folder":"tf","game":"Team Fortress","app_id":440,"player_count":0,"max_players":24,"Bots":0,"server_type":"Dedicated","server_os":"Linux","password":true,"vac":true,"version":"7757534","steam_id":85568392924964315,"keywords":["nocrits","nodmgspread","payload","uncletopia"],"game_id":440,"stv_port":27086,"stv_name":"Uncletopia | London | 8 | Community | STV","players":null},{"server_id":300,"name":"Uncletopia | Montr√©al | 1 | All Maps","name_short":"mtl-1","host":"mtl-1.ca.uncletopia.com","port":27015,"enabled":true,"region":"us-east","cc":"ca","latitude":45.50889,"longitude":-73.56167,"reserved":0,"last_update":"0001-01-01T00:00:00Z","name_a2s":"Uncletopia | Montr√©al | 1 | All Maps","protocol":17,"map":"pl_upward","folder":"tf","game":"Team Fortress","app_id":440,"player_count":0,"max_players":24,"Bots":0,"server_type":"Dedicated","server_os":"Linux","password":true,"vac":true,"version":"7757534","steam_id":85568392924500087,"keywords":["nocrits","nodmgspread","payload","uncletopia"],"game_id":440,"stv_port":27016,"stv_name":"Uncletopia | Montr√©al | 1 | All Maps | STV","players":null},{"server_id":301,"name":"Uncletopia | Montr√©al | 2 | All Maps","name_short":"mtl-2","host":"mtl-1.ca.uncletopia.com","port":27025,"enabled":true,"region":"us-east","cc":"ca","latitude":45.50889,"longitude":-73.56167,"reserved":0,"last_update":"0001-01-01T00:00:00Z","name_a2s":"Uncletopia | Montr√©al | 2 | All Maps","protocol":17,"map":"pl_snowycoast","folder":"tf","game":"Team Fortress","app_id":440,"player_count":0,"max_players":24,"Bots":0,"server_type":"Dedicated","server_os":"Linux","password":true,"vac":true,"version":"7757534","steam_id":85568392924500088,"keywords":["nocrits","nodmgspread","payload","uncletopia"],"game_id":440,"stv_port":27026,"stv_name":"Uncletopia | Montr√©al | 2 | All Maps | STV","players":null},{"server_id":302,"name":"Uncletopia | Montr√©al | 3 | All Maps","name_short":"mtl-3","host":"mtl-1.ca.uncletopia.com","port":27035,"enabled":true,"region":"us-east","cc":"ca","latitude":45.50889,"longitude":-73.56167,"reserved":0,"last_update":"0001-01-01T00:00:00Z","name_a2s":"Uncletopia | Montr√©al | 3 | All Maps","protocol":17,"map":"pl_swiftwater_final1","folder":"tf","game":"Team Fortress","app_id":440,"player_count":0,"max_players":24,"Bots":0,"server_type":"Dedicated","server_os":"Linux","password":true,"vac":true,"version":"7757534","steam_id":85568392924500089,"keywords":["nocrits","nodmgspread","payload","uncletopia"],"game_id":440,"stv_port":27036,"stv_name":"Uncletopia | Montr√©al | 3 | All Maps | STV","players":null},{"server_id":303,"name":"Uncletopia | Montr√©al | 4 | No Payload","name_short":"mtl-4","host":"mtl-1.ca.uncletopia.com","port":27045,"enabled":true,"region":"us-east","cc":"ca","latitude":45.50889,"longitude":-73.56167,"reserved":0,"last_update":"0001-01-01T00:00:00Z","name_a2s":"Uncletopia | Montr√©al | 4 | No Payload","protocol":17,"map":"pl_pier","folder":"tf","game":"Team Fortress","app_id":440,"player_count":0,"max_players":24,"Bots":0,"server_type":"Dedicated","server_os":"Linux","password":true,"vac":true,"version":"7757534","steam_id":85568392924500090,"keywords":["nocrits","nodmgspread","payload","uncletopia"],"game_id":440,"stv_port":27046,"stv_name":"Uncletopia | Montr√©al | 4 | No Payload | STV","players":null},{"server_id":13,"name":"Uncletopia | New York City | 1 | All Maps","name_short":"nyc-1","host":"nyc-1.us.uncletopia.com","port":27015,"enabled":true,"region":"us-east","cc":"us","latitude":40.73061,"longitude":-73.93524,"reserved":0,"last_update":"0001-01-01T00:00:00Z","name_a2s":"Uncletopia | New York City | 1 | All Maps","protocol":17,"map":"pl_badwater","folder":"tf","game":"Team Fortress","app_id":440,"player_count":22,"max_players":24,"Bots":0,"server_type":"Dedicated","server_os":"Linux","password":true,"vac":true,"version":"7757534","steam_id":85568392924469993,"keywords":["nocrits","nodmgspread","payload","uncletopia"],"game_id":440,"stv_port":27016,"stv_name":"Uncletopia | New York City | 1 | All Maps | STV","players":[{"user_id":13,"name":"The Crungo","steam_id":76561199141492981,"connected_time":974000000000,"state":"active","ping":41},{"user_id":5,"name":"WarMace","steam_id":76561198395937853,"connected_time":2160000000000,"state":"active","ping":91},{"user_id":6,"name":"Nansral26","steam_id":76561198886650496,"connected_time":1844000000000,"state":"active","ping":57},{"user_id":14,"name":"ror!","steam_id":76561198021227843,"connected_time":914000000000,"state":"active","ping":74},{"user_id":8,"name":"BasicPeaches","steam_id":76561198190890150,"connected_time":1209000000000,"state":"active","ping":61},{"user_id":10,"name":"Zenabie","steam_id":76561198088372680,"connected_time":1151000000000,"state":"active","ping":72},{"user_id":11,"name":"„ÄåÍú±·¥õ…™…¥·¥ã è„Äç","steam_id":76561198190323610,"connected_time":1145000000000,"state":"active","ping":76},{"user_id":18,"name":"Iman...?","steam_id":76561198063677510,"connected_time":787000000000,"state":"active","ping":54},{"user_id":19,"name":"wizorb","steam_id":76561198002172674,"connected_time":750000000000,"state":"active","ping":90},{"user_id":20,"name":"viaodeegsm","steam_id":76561198025295263,"connected_time":631000000000,"state":"active","ping":88},{"user_id":32,"name":"Inigo Montoya","steam_id":76561198010603881,"connected_time":256000000000,"state":"active","ping":79},{"user_id":22,"name":"Festive Roadside Attraction","steam_id":76561198054689784,"connected_time":573000000000,"state":"active","ping":63},{"user_id":23,"name":"hisoka","steam_id":76561198293252496,"connected_time":567000000000,"state":"active","ping":70},{"user_id":36,"name":"Evil Table Corner","steam_id":76561198045499333,"connected_time":97000000000,"state":"active","ping":77},{"user_id":25,"name":"Squid1562","steam_id":76561198090861689,"connected_time":551000000000,"state":"active","ping":74},{"user_id":38,"name":"Winter the Witchie","steam_id":76561198151971178,"connected_time":58000000000,"state":"active","ping":104},{"user_id":33,"name":"Demoman With One Joke","steam_id":76561197993467034,"connected_time":247000000000,"state":"active","ping":68},{"user_id":39,"name":"Rythmiki","steam_id":76561198398952454,"connected_time":45000000000,"state":"spawning","ping":215},{"user_id":40,"name":"corpach","steam_id":76561198150418268,"connected_time":44000000000,"state":"spawning","ping":76},{"user_id":34,"name":"Hobity","steam_id":76561198135386781,"connected_time":173000000000,"state":"active","ping":43},{"user_id":35,"name":"Katzenwerfer","steam_id":76561198345464748,"connected_time":158000000000,"state":"active","ping":106},{"user_id":41,"name":"Bony","steam_id":76561199001748822,"connected_time":36000000000,"state":"active","ping":105}]},{"server_id":14,"name":"Uncletopia | New York City | 2 | All Maps","name_short":"nyc-2","host":"nyc-1.us.uncletopia.com","port":27025,"enabled":true,"region":"us-east","cc":"us","latitude":40.73061,"longitude":-73.93524,"reserved":0,"last_update":"0001-01-01T00:00:00Z","name_a2s":"Uncletopia | New York City | 2 | All Maps","protocol":17,"map":"cp_snakewater_final1","folder":"tf","game":"Team Fortress","app_id":440,"player_count":0,"max_players":24,"Bots":0,"server_type":"Dedicated","server_os":"Linux","password":true,"vac":true,"version":"7757534","steam_id":85568392924469994,"keywords":["cp","nocrits","nodmgspread","uncletopia"],"game_id":440,"stv_port":27026,"stv_name":"Uncletopia | New York City | 2 | All Maps | STV","players":null},{"server_id":15,"name":"Uncletopia | New York City | 3 | Stopwatch Beta","name_short":"nyc-3","host":"nyc-1.us.uncletopia.com","port":27035,"enabled":true,"region":"us-east","cc":"us","latitude":40.73061,"longitude":-73.93524,"reserved":0,"last_update":"0001-01-01T00:00:00Z","name_a2s":"Uncletopia | New York City | 3 | Stopwatch Beta","protocol":17,"map":"pl_upward","folder":"tf","game":"Team Fortress","app_id":440,"player_count":0,"max_players":24,"Bots":0,"server_type":"Dedicated","server_os":"Linux","password":true,"vac":true,"version":"7757534","steam_id":85568392924742820,"keywords":["nocrits","nodmgspread","payload","uncletopia"],"game_id":440,"stv_port":27036,"stv_name":"Uncletopia | New York City | 3 | Stopwatch Beta | STV","players":null},{"server_id":16,"name":"Uncletopia | New York City | 4 | Community","name_short":"nyc-4","host":"nyc-1.us.uncletopia.com","port":27045,"enabled":true,"region":"us-east","cc":"us","latitude":40.73061,"longitude":-73.93524,"reserved":0,"last_update":"0001-01-01T00:00:00Z","name_a2s":"Uncletopia | New York City | 4 | Community","protocol":17,"map":"pl_swiftwater_final1","folder":"tf","game":"Team Fortress","app_id":440,"player_count":0,"max_players":24,"Bots":0,"server_type":"Dedicated","server_os":"Linux","password":true,"vac":true,"version":"7757534","steam_id":85568392924742821,"keywords":["nocrits","nodmgspread","payload","uncletopia"],"game_id":440,"stv_port":27046,"stv_name":"Uncletopia | New York City | 4 | Community | STV","players":null},{"server_id":142,"name":"Uncletopia | S√£o Paulo | 1 | All Maps","name_short":"sao-1","host":"sao-1.br.uncletopia.com","port":27015,"enabled":true,"region":"sa","cc":"br","latitude":-23.533773,"longitude":-46.62529,"reserved":0,"last_update":"0001-01-01T00:00:00Z","name_a2s":"Uncletopia | S√£o Paulo | 1 | All Maps","protocol":17,"map":"koth_lakeside_final","folder":"tf","game":"Team Fortress","app_id":440,"player_count":0,"max_players":24,"Bots":0,"server_type":"Dedicated","server_os":"Linux","password":true,"vac":true,"version":"7757534","steam_id":85568392924469996,"keywords":["cp","nocrits","nodmgspread","uncletopia"],"game_id":440,"stv_port":27016,"stv_name":"Uncletopia | S√£o Paulo | 1 | All Maps | STV","players":null},{"server_id":143,"name":"Uncletopia | S√£o Paulo | 2 | All Maps","name_short":"sao-2","host":"sao-2.br.uncletopia.com","port":27015,"enabled":true,"region":"sa","cc":"br","latitude":-23.533773,"longitude":-46.62529,"reserved":0,"last_update":"0001-01-01T00:00:00Z","name_a2s":"Uncletopia | S√£o Paulo | 2 | All Maps","protocol":17,"map":"koth_cascade","folder":"tf","game":"Team Fortress","app_id":440,"player_count":0,"max_players":24,"Bots":0,"server_type":"Dedicated","server_os":"Linux","password":true,"vac":true,"version":"7757534","steam_id":85568392924485349,"keywords":["cp","nocrits","nodmgspread","uncletopia"],"game_id":440,"stv_port":27016,"stv_name":"Uncletopia | S√£o Paulo | 2 | All Maps | STV","players":null},{"server_id":7,"name":"Uncletopia | Seattle | 1 | All Maps","name_short":"sea-1","host":"sea-1.us.uncletopia.com","port":27015,"enabled":true,"region":"us-west","cc":"us","latitude":47.608013,"longitude":-122.33517,"reserved":0,"last_update":"0001-01-01T00:00:00Z","name_a2s":"Uncletopia | Seattle | 1 | All Maps","protocol":17,"map":"cp_process_final","folder":"tf","game":"Team Fortress","app_id":440,"player_count":24,"max_players":24,"Bots":0,"server_type":"Dedicated","server_os":"Linux","password":true,"vac":true,"version":"7757534","steam_id":85568392924469997,"keywords":["cp","nocrits","nodmgspread","uncletopia"],"game_id":440,"stv_port":27016,"stv_name":"Uncletopia | Seattle | 1 | All Maps | STV","players":[{"user_id":3,"name":"Lord Theodore XIII","steam_id":76561198085842797,"connected_time":5679000000000,"state":"active","ping":101},{"user_id":53,"name":"Tyler\u0026Fingers","steam_id":76561198085154485,"connected_time":3076000000000,"state":"active","ping":135},{"user_id":5,"name":"[TrC] Dackstrus","steam_id":76561197973518509,"connected_time":5670000000000,"state":"active","ping":54},{"user_id":62,"name":"Neo Kojiro","steam_id":76561198000967076,"connected_time":2231000000000,"state":"active","ping":128},{"user_id":60,"name":"SolarusD","steam_id":76561198029279861,"connected_time":2626000000000,"state":"active","ping":62},{"user_id":65,"name":"Sir Galahad","steam_id":76561198195999859,"connected_time":1339000000000,"state":"active","ping":55},{"user_id":46,"name":"Highground","steam_id":76561199197544789,"connected_time":3605000000000,"state":"active","ping":156},{"user_id":10,"name":"SgtMaj Soggy Titties","steam_id":76561198067732216,"connected_time":5658000000000,"state":"active","ping":81},{"user_id":64,"name":"scamper","steam_id":76561199093768105,"connected_time":1946000000000,"state":"active","ping":85},{"user_id":12,"name":"lox","steam_id":76561198288531493,"connected_time":5656000000000,"state":"active","ping":50},{"user_id":55,"name":"Bobington","steam_id":76561198069752119,"connected_time":3052000000000,"state":"active","ping":115},{"user_id":15,"name":"FATMAN....HOOVY","steam_id":76561198125277447,"connected_time":5631000000000,"state":"active","ping":104},{"user_id":66,"name":"eredyn lft","steam_id":76561198868116439,"connected_time":1280000000000,"state":"active","ping":85},{"user_id":61,"name":"Tom","steam_id":76561198070630154,"connected_time":2458000000000,"state":"active","ping":76},{"user_id":39,"name":"lucky","steam_id":76561198323426623,"connected_time":3903000000000,"state":"active","ping":145},{"user_id":20,"name":"Banjo","steam_id":76561198004652853,"connected_time":5522000000000,"state":"active","ping":45},{"user_id":71,"name":"Kaluka","steam_id":76561198036861445,"connected_time":358000000000,"state":"active","ping":118},{"user_id":22,"name":"Unicorn","steam_id":76561198119261280,"connected_time":5467000000000,"state":"active","ping":117},{"user_id":69,"name":"Culo Gordo Gamer","steam_id":76561198421203977,"connected_time":473000000000,"state":"active","ping":151},{"user_id":49,"name":"AudioMedic","steam_id":76561198333939032,"connected_time":3538000000000,"state":"active","ping":109},{"user_id":67,"name":"Cosmic Torgue","steam_id":76561198828724945,"connected_time":780000000000,"state":"active","ping":118},{"user_id":57,"name":"ƒ†1 ‚ô¶ Synth","steam_id":76561198058660228,"connected_time":3000000000000,"state":"active","ping":116},{"user_id":72,"name":"ClosetBotany","steam_id":76561198088324821,"connected_time":270000000000,"state":"active","ping":45},{"user_id":28,"name":"FRANKY!!!","steam_id":76561199211305343,"connected_time":5309000000000,"state":"active","ping":70}]},{"server_id":119,"name":"Uncletopia | Seattle | 2 | All Maps","name_short":"sea-2","host":"sea-1.us.uncletopia.com","port":27025,"enabled":true,"region":"us-west","cc":"us","latitude":47.608013,"longitude":-122.33517,"reserved":0,"last_update":"0001-01-01T00:00:00Z","name_a2s":"Uncletopia | Seattle | 2 | All Maps","protocol":17,"map":"pl_badwater","folder":"tf","game":"Team Fortress","app_id":440,"player_count":5,"max_players":24,"Bots":0,"server_type":"Dedicated","server_os":"Linux","password":true,"vac":true,"version":"7757534","steam_id":85568392924469998,"keywords":["nocrits","nodmgspread","payload","uncletopia"],"game_id":440,"stv_port":27026,"stv_name":"Uncletopia | Seattle | 2 | All Maps | STV","players":[{"user_id":3,"name":"Astroa","steam_id":76561199190565830,"connected_time":1732000000000,"state":"active","ping":106},{"user_id":4,"name":"Xaleist","steam_id":76561199090274838,"connected_time":1732000000000,"state":"active","ping":109},{"user_id":7,"name":"GibbusGod","steam_id":76561199232436690,"connected_time":1052000000000,"state":"active","ping":115},{"user_id":8,"name":"Destroyer1004","steam_id":76561199367685913,"connected_time":769000000000,"state":"active","ping":55},{"user_id":10,"name":"YahYeeterson","steam_id":76561198120480906,"connected_time":98000000000,"state":"active","ping":64}]},{"server_id":406,"name":"Uncletopia | Seattle | 3 | Stopwatch Beta","name_short":"sea-3","host":"sea-1.us.uncletopia.com","port":27035,"enabled":true,"region":"us-west","cc":"us","latitude":47.608013,"longitude":-122.33517,"reserved":0,"last_update":"0001-01-01T00:00:00Z","name_a2s":"Uncletopia | Seattle | 3 | Stopwatch Beta","protocol":17,"map":"cp_dustbowl","folder":"tf","game":"Team Fortress","app_id":440,"player_count":0,"max_players":24,"Bots":0,"server_type":"Dedicated","server_os":"Linux","password":true,"vac":true,"version":"7757534","steam_id":85568392924515217,"keywords":["cp","nocrits","nodmgspread","uncletopia"],"game_id":440,"stv_port":27036,"stv_name":"Uncletopia | Seattle | 3 | Stopwatch Beta | STV","players":null},{"server_id":17,"name":"Uncletopia | San Francisco | 1 | All Maps","name_short":"sfo-1","host":"sfo-1.us.uncletopia.com","port":27015,"enabled":true,"region":"us-west","cc":"us","latitude":37.77397,"longitude":-122.4313,"reserved":0,"last_update":"0001-01-01T00:00:00Z","name_a2s":"Uncletopia | San Francisco | 1 | All Maps","protocol":17,"map":"cp_process_final","folder":"tf","game":"Team Fortress","app_id":440,"player_count":0,"max_players":24,"Bots":0,"server_type":"Dedicated","server_os":"Linux","password":true,"vac":true,"version":"7757534","steam_id":85568392924469999,"keywords":["cp","nocrits","nodmgspread","uncletopia"],"game_id":440,"stv_port":27016,"stv_name":"Uncletopia | San Francisco | 1 | All Maps | STV","players":null},{"server_id":18,"name":"Uncletopia | San Francisco | 2 | All Maps","name_short":"sfo-2","host":"sfo-1.us.uncletopia.com","port":27025,"enabled":true,"region":"us-west","cc":"us","latitude":37.77397,"longitude":-122.4313,"reserved":0,"last_update":"0001-01-01T00:00:00Z","name_a2s":"Uncletopia | San Francisco | 2 | All Maps","protocol":17,"map":"koth_highpass","folder":"tf","game":"Team Fortress","app_id":440,"player_count":0,"max_players":24,"Bots":0,"server_type":"Dedicated","server_os":"Linux","password":true,"vac":true,"version":"7757534","steam_id":85568392924470000,"keywords":["cp","nocrits","nodmgspread","uncletopia"],"game_id":440,"stv_port":27026,"stv_name":"Uncletopia | San Francisco | 2 | All Maps | STV","players":null},{"server_id":19,"name":"Uncletopia | San Francisco | 3 | Stopwatch Beta","name_short":"sfo-3","host":"sfo-1.us.uncletopia.com","port":27035,"enabled":true,"region":"us-west","cc":"us","latitude":37.77397,"longitude":-122.4313,"reserved":0,"last_update":"0001-01-01T00:00:00Z","name_a2s":"Uncletopia | San Francisco | 3 | Stopwatch Beta","protocol":17,"map":"koth_lakeside_final","folder":"tf","game":"Team Fortress","app_id":440,"player_count":0,"max_players":24,"Bots":0,"server_type":"Dedicated","server_os":"Linux","password":true,"vac":true,"version":"7757534","steam_id":85568392924742824,"keywords":["cp","nocrits","nodmgspread","uncletopia"],"game_id":440,"stv_port":27036,"stv_name":"Uncletopia | San Francisco | 3 | Stopwatch Beta | STV","players":null},{"server_id":20,"name":"Uncletopia | San Francisco | 4 | Community","name_short":"sfo-4","host":"sfo-1.us.uncletopia.com","port":27045,"enabled":true,"region":"us-west","cc":"us","latitude":37.77397,"longitude":-122.4313,"reserved":0,"last_update":"0001-01-01T00:00:00Z","name_a2s":"Uncletopia | San Francisco | 4 | Community","protocol":17,"map":"cp_altitude","folder":"tf","game":"Team Fortress","app_id":440,"player_count":0,"max_players":24,"Bots":0,"server_type":"Dedicated","server_os":"Linux","password":true,"vac":true,"version":"7757534","steam_id":85568392924742826,"keywords":["cp","nocrits","nodmgspread","uncletopia"],"game_id":440,"stv_port":27046,"stv_name":"Uncletopia | San Francisco | 4 | Community | STV","players":null},{"server_id":141,"name":"Uncletopia | Sydney | 1 | All Maps","name_short":"syd-1","host":"syd-1.au.uncletopia.com","port":27015,"enabled":true,"region":"au","cc":"au","latitude":-33.865143,"longitude":151.2099,"reserved":0,"last_update":"0001-01-01T00:00:00Z","name_a2s":"Uncletopia | Sydney | 1 | All Maps","protocol":17,"map":"pl_upward","folder":"tf","game":"Team Fortress","app_id":440,"player_count":0,"max_players":24,"Bots":0,"server_type":"Dedicated","server_os":"Linux","password":true,"vac":true,"version":"7757534","steam_id":85568392924470001,"keywords":["nocrits","nodmgspread","payload","uncletopia"],"game_id":440,"stv_port":27016,"stv_name":"Uncletopia | Sydney | 1 | All Maps | STV","players":null},{"server_id":123,"name":"Uncletopia | Sydney | 2 | All Maps","name_short":"syd-2","host":"syd-1.au.uncletopia.com","port":27025,"enabled":true,"region":"au","cc":"au","latitude":-33.865143,"longitude":151.2099,"reserved":0,"last_update":"0001-01-01T00:00:00Z","name_a2s":"Uncletopia | Sydney | 2 | All Maps","protocol":17,"map":"cp_process_final","folder":"tf","game":"Team Fortress","app_id":440,"player_count":0,"max_players":24,"Bots":0,"server_type":"Dedicated","server_os":"Linux","password":true,"vac":true,"version":"7757534","steam_id":85568392924470002,"keywords":["cp","nocrits","nodmgspread","uncletopia"],"game_id":440,"stv_port":27026,"stv_name":"Uncletopia | Sydney | 2 | All Maps | STV","players":null},{"server_id":395,"name":"Uncletopia | Sydney | 3 | All Maps","name_short":"syd-3","host":"syd-1.au.uncletopia.com","port":27035,"enabled":true,"region":"au","cc":"au","latitude":-33.865143,"longitude":151.2099,"reserved":0,"last_update":"0001-01-01T00:00:00Z","name_a2s":"Uncletopia | Sydney | 3 | All Maps","protocol":17,"map":"koth_viaduct","folder":"tf","game":"Team Fortress","app_id":440,"player_count":0,"max_players":24,"Bots":0,"server_type":"Dedicated","server_os":"Linux","password":true,"vac":true,"version":"7757534","steam_id":85568392925194467,"keywords":["cp","nocrits","nodmgspread","uncletopia"],"game_id":440,"stv_port":27036,"stv_name":"Uncletopia | Sydney | 3 | All Maps | STV","players":null},{"server_id":396,"name":"Uncletopia | Sydney | 4 | All Maps","name_short":"syd-4","host":"syd-1.au.uncletopia.com","port":27045,"enabled":true,"region":"au","cc":"au","latitude":-33.865143,"longitude":151.2099,"reserved":0,"last_update":"0001-01-01T00:00:00Z","name_a2s":"Uncletopia | Sydney | 4 | All Maps","protocol":17,"map":"koth_highpass","folder":"tf","game":"Team Fortress","app_id":440,"player_count":0,"max_players":24,"Bots":0,"server_type":"Dedicated","server_os":"Linux","password":true,"vac":true,"version":"7757534","steam_id":85568392925397958,"keywords":["cp","nocrits","nodmgspread","uncletopia"],"game_id":440,"stv_port":27046,"stv_name":"Uncletopia | Sydney | 4 | All Maps | STV","players":null},{"server_id":58,"name":"Uncletopia | Sydney | 5 | Stopwatch Beta","name_short":"syd-5","host":"syd-1.au.uncletopia.com","port":27055,"enabled":true,"region":"au","cc":"au","latitude":-33.865143,"longitude":151.2099,"reserved":0,"last_update":"0001-01-01T00:00:00Z","name_a2s":"Uncletopia | Sydney | 5 | Stopwatch Beta","protocol":17,"map":"workshop/cp_reckoner_rc6.ugc674719999","folder":"tf","game":"Team Fortress","app_id":440,"player_count":0,"max_players":24,"Bots":0,"server_type":"Dedicated","server_os":"Linux","password":true,"vac":true,"version":"7757534","steam_id":85568392925397959,"keywords":["cp","nocrits","nodmgspread","uncletopia"],"game_id":440,"stv_port":27056,"stv_name":"Uncletopia | Sydney | 5 | Stopwatch Beta | STV","players":null},{"server_id":59,"name":"Uncletopia | Sydney | 6 | Community","name_short":"syd-6","host":"syd-1.au.uncletopia.com","port":27065,"enabled":true,"region":"au","cc":"au","latitude":-33.865143,"longitude":151.2099,"reserved":0,"last_update":"0001-01-01T00:00:00Z","name_a2s":"Uncletopia | Sydney | 6 | Community","protocol":17,"map":"workshop/pl_vigil_rc9.ugc1266210012","folder":"tf","game":"Team Fortress","app_id":440,"player_count":0,"max_players":24,"Bots":0,"server_type":"Dedicated","server_os":"Linux","password":true,"vac":true,"version":"7757534","steam_id":85568392925397960,"keywords":["nocrits","nodmgspread","payload","uncletopia"],"game_id":440,"stv_port":27066,"stv_name":"Uncletopia | Sydney | 6 | Community | STV","players":null},{"server_id":49,"name":"Uncletopia | Warsaw | 1 | All Maps","name_short":"waw-1","host":"waw-1.pl.uncletopia.com","port":27015,"enabled":true,"region":"eu","cc":"pl","latitude":52.2297,"longitude":21.017532,"reserved":0,"last_update":"0001-01-01T00:00:00Z","name_a2s":"","protocol":0,"map":"","folder":"","game":"","app_id":0,"player_count":0,"max_players":0,"Bots":0,"server_type":"","server_os":"","password":false,"vac":false,"version":"","steam_id":0,"keywords":null,"game_id":0,"stv_port":0,"stv_name":"","players":null},{"server_id":50,"name":"Uncletopia | Warsaw | 2 | All Maps","name_short":"waw-2","host":"waw-1.pl.uncletopia.com","port":27025,"enabled":true,"region":"eu","cc":"pl","latitude":52.2297,"longitude":21.017532,"reserved":0,"last_update":"0001-01-01T00:00:00Z","name_a2s":"Uncletopia | Warsaw | 2 | All Maps","protocol":17,"map":"koth_viaduct","folder":"tf","game":"Team Fortress","app_id":440,"player_count":0,"max_players":24,"Bots":0,"server_type":"Dedicated","server_os":"Linux","password":true,"vac":true,"version":"7757534","steam_id":85568392925397851,"keywords":["cp","nocrits","nodmgspread","uncletopia"],"game_id":440,"stv_port":27026,"stv_name":"Uncletopia | Warsaw | 2 | All Maps | STV","players":null},{"server_id":51,"name":"Uncletopia | Warsaw | 3 | All Maps","name_short":"waw-3","host":"waw-1.pl.uncletopia.com","port":27035,"enabled":true,"region":"eu","cc":"pl","latitude":52.2297,"longitude":21.017532,"reserved":0,"last_update":"0001-01-01T00:00:00Z","name_a2s":"Uncletopia | Warsaw | 3 | All Maps","protocol":17,"map":"pl_badwater","folder":"tf","game":"Team Fortress","app_id":440,"player_count":0,"max_players":24,"Bots":0,"server_type":"Dedicated","server_os":"Linux","password":true,"vac":true,"version":"7757534","steam_id":85568392925397852,"keywords":["nocrits","nodmgspread","payload","uncletopia"],"game_id":440,"stv_port":27036,"stv_name":"Uncletopia | Warsaw | 3 | All Maps | STV","players":null},{"server_id":52,"name":"Uncletopia | Warsaw | 4 | All Maps","name_short":"waw-4","host":"waw-1.pl.uncletopia.com","port":27045,"enabled":true,"region":"eu","cc":"pl","latitude":52.2297,"longitude":21.017532,"reserved":0,"last_update":"0001-01-01T00:00:00Z","name_a2s":"Uncletopia | Warsaw | 4 | All Maps","protocol":17,"map":"koth_lakeside_final","folder":"tf","game":"Team Fortress","app_id":440,"player_count":0,"max_players":24,"Bots":0,"server_type":"Dedicated","server_os":"Linux","password":true,"vac":true,"version":"7757534","steam_id":85568392925397853,"keywords":["cp","nocrits","nodmgspread","uncletopia"],"game_id":440,"stv_port":27046,"stv_name":"Uncletopia | Warsaw | 4 | All Maps | STV","players":null},{"server_id":53,"name":"Uncletopia | Warsaw | 5 | Stopwatch Beta","name_short":"waw-5","host":"waw-1.pl.uncletopia.com","port":27055,"enabled":true,"region":"eu","cc":"pl","latitude":52.2297,"longitude":21.017532,"reserved":0,"last_update":"0001-01-01T00:00:00Z","name_a2s":"Uncletopia | Warsaw | 5 | Stopwatch Beta","protocol":17,"map":"pl_borneo","folder":"tf","game":"Team Fortress","app_id":440,"player_count":0,"max_players":24,"Bots":0,"server_type":"Dedicated","server_os":"Linux","password":true,"vac":true,"version":"7757534","steam_id":85568392925397854,"keywords":["nocrits","nodmgspread","payload","uncletopia"],"game_id":440,"stv_port":27056,"stv_name":"Uncletopia | Warsaw | 5 | Stopwatch Beta | STV","players":null},{"server_id":54,"name":"Uncletopia | Warsaw | 6 | Community","name_short":"waw-6","host":"waw-1.pl.uncletopia.com","port":27065,"enabled":true,"region":"eu","cc":"pl","latitude":52.2297,"longitude":21.017532,"reserved":0,"last_update":"0001-01-01T00:00:00Z","name_a2s":"Uncletopia | Warsaw | 6 | Community","protocol":17,"map":"koth_lakeside_final","folder":"tf","game":"Team Fortress","app_id":440,"player_count":0,"max_players":24,"Bots":0,"server_type":"Dedicated","server_os":"Linux","password":true,"vac":true,"version":"7757534","steam_id":85568392925397856,"keywords":["cp","nocrits","nodmgspread","uncletopia"],"game_id":440,"stv_port":27066,"stv_name":"Uncletopia | Warsaw | 6 | Community | STV","players":null}]}