{"status":true,"message":"","result":[{"server_id":9,"name":"Uncletopia | Atlanta | 1 | All Maps","name_short":"atl-1","host":"atl-1.us.uncletopia.com","port":27015,"enabled":true,"region":"us-east","cc":"us","latitude":33.753746,"longitude":-84.38633,"reserved":0,"last_update":"0001-01-01T00:00:00Z","name_a2s":"Uncletopia | Atlanta | 1 | All Maps","protocol":17,"map":"pl_badwater","folder":"tf","game":"Team Fortress","app_id":440,"player_count":22,"max_players":24,"Bots":0,"server_type":"Dedicated","server_os":"Linux","password":true,"vac":true,"version":"7757534","steam_id":85568392924469982,"keywords":["nocrits","nodmgspread","payload","uncletopia"],"game_id":440,"stv_port":27016,"stv_name":"Uncletopia | Atlanta | 1 | All Maps | STV","players":[{"user_id":64,"name":"DualiTea","steam_id":76561198081733870,"connected_time":1074000000000,"state":"active","ping":64},{"user_id":59,"name":"Drapph","steam_id":76561199384213314,"connected_time":1428000000000,"state":"active","ping":84},{"user_id":66,"name":"uberslak","steam_id":76561198064715241,"connected_time":878000000000,"state":"active","ping":118},{"user_id":70,"name":"bikerkid207","steam_id":76561198390782783,"connected_time":744000000000,"state":"active","ping":64},{"user_id":72,"name":"Icaras","steam_id":76561198416724843,"connected_time":306000000000,"state":"active","ping":126},{"user_id":22,"name":"organic kale","steam_id":76561198101506575,"connected_time":3178000000000,"state":"active","ping":78},{"user_id":56,"name":"ringer","steam_id":76561198073103529,"connected_time":1920000000000,"state":"active","ping":55},{"user_id":62,"name":"Mediarch","steam_id":76561198050765729,"connected_time":1279000000000,"state":"active","ping":105},{"user_id":35,"name":"Crime Minister","steam_id":76561198106055104,"connected_time":2674000000000,"state":"active","ping":54},{"user_id":32,"name":"LerN","steam_id":76561198083463877,"connected_time":2795000000000,"state":"active","ping":68},{"user_id":63,"name":"Kristofferson","steam_id":76561199180160219,"connected_time":1102000000000,"state":"active","ping":86},{"user_id":58,"name":"Im High","steam_id":76561198049954886,"connected_time":1565000000000,"state":"active","ping":68},{"user_id":60,"name":"AMU","steam_id":76561198092346231,"connected_time":1401000000000,"state":"active","ping":86},{"user_id":67,"name":"Orko (Third Degree Enjoyer)","steam_id":76561198162232131,"connected_time":873000000000,"state":"active","ping":84},{"user_id":71,"name":"FROYO WTF","steam_id":76561198170381402,"connected_time":716000000000,"state":"active","ping":50},{"user_id":43,"name":"Breadn","steam_id":76561199478078821,"connected_time":2488000000000,"state":"active","ping":69},{"user_id":45,"name":"Gremlin","steam_id":76561198435061144,"connected_time":2421000000000,"state":"active","ping":74},{"user_id":46,"name":"Ninty","steam_id":76561199364725776,"connected_time":2402000000000,"state":"active","ping":66},{"user_id":47,"name":"Reaper â™¡","steam_id":76561198064059275,"connected_time":2383000000000,"state":"active","ping":131},{"user_id":49,"name":"shawty say i smell","steam_id":76561198059560324,"connected_time":2372000000000,"state":"active","ping":68},{"user_id":51,"name":"Carl","steam_id":76561198285931413,"connected_time":2346000000000,"state":"active","ping":61},{"user_id":52,"name":"mago","steam_id":76561198057704493,"connected_time":2346000000000,"state":"active","ping":67}]},{"server_id":104,"name":"Uncletopia | Atlanta | 2 | All Maps","name_short":"atl-2","host":"atl-1.us.uncletopia.com","port":27025,"enabled":true,"region":"us-east","cc":"us","latitude":33.753746,"longitude":-84.38633,"reserved":0,"last_update":"0001-01-01T00:00:00Z","name_a2s":"Uncletopia | Atlanta | 2 | All Maps","protocol":17,"map":"cp_dustbowl","folder":"tf","game":"Team Fortress","app_id":440,"player_count":0,"max_players":24,"Bots":0,"server_type":"Dedicated","server_os":"Linux","password":true,"vac":true,"version":"7757534","steam_id":85568392924469983,"keywords":["cp","nocrits","nodmgspread","uncletopia"],"game_id":440,"stv_port":27026,"stv_name":"Uncletopia | Atlanta | 2 | All Maps | STV","players":null},{"server_id":400,"name":"Uncletopia | Atlanta | 3 | Community","name_short":"atl-3","host":"atl-1.us.uncletopia.com","port":27035,"enabled":true,"region":"us-east","cc":"us","latitude":33.753746,"longitude":-84.38633,"reserved":0,"last_update":"0001-01-01T00:00:00Z","name_a2s":"Uncletopia | Atlanta | 3 | Community","protocol":17,"map":"cp_snakewater_final1","folder":"tf","game":"Team Fortress","app_id":440,"player_count":0,"max_players":24,"Bots":0,"server_type":"Dedicated","server_os":"Linux","password":true,"vac":true,"version":"7757534","steam_id":85568392924515187,"keywords":["cp","nocrits","nodmgspread","uncletopia"],"game_id":440,"stv_port":27036,"stv_name":"Uncletopia | Atlanta | 3 | Community | STV","players":null},{"server_id":401,"name":"Uncletopia | Atlanta | 4 | No Payload","name_short":"atl-4","host":"atl-1.us.uncletopia.com","port":27045,"enabled":true,"region":"us-east","cc":"us","latitude":33.753746,"longitude":-84.38633,"reserved":0,"last_update":"0001-01-01T00:00:00Z","name_a2s":"","protocol":0,"map":"","folder":"","game":"","app_id":0,"player_count":0,"max_players":0,"Bots":0,"server_type":"","server_os":"","password":false,"vac":false,"version":"","steam_id":0,"keywords":null,"game_id":0,"stv_port":0,"stv_name":"","players":null},{"server_id":2,"name":"Uncletopia | Chicago | 1 | All Maps","name_short":"chi-1","host":"chi-1.us.uncletopia.com","port":27015,"enabled":true,"region":"us-central","cc":"us","latitude":41.881832,"longitude":-87.62318,"reserved":0,"last_update":"0001-01-01T00:00:00Z","name_a2s":"Uncletopia | Chicago | 1 | All Maps","protocol":17,"map":"pl_swiftwater_final1","folder":"tf","game":"Team Fortress","app_id":440,"player_count":24,"max_players":24,"Bots":0,"server_type":"Dedicated","server_os":"Linux","password":true,"vac":true,"version":"7757534","steam_id":85568392924469984,"keywords":["nocrits","nodmgspread","payload","uncletopia"],"game_id":440,"stv_port":27016,"stv_name":"Uncletopia | Chicago | 1 | All Maps | STV","players":[{"user_id":31,"name":"HellaCopter","steam_id":76561198062313698,"connected_time":1334000000000,"state":"active","ping":93},{"user_id":51,"name":"NotThatGuyPal","steam_id":76561199127607812,"connected_time":528000000000,"state":"active","ping":140},{"user_id":16,"name":"Walkiing","steam_id":76561198074473413,"connected_time":2024000000000,"state":"active","ping":41},{"user_id":17,"name":"Robin","steam_id":76561198121165149,"connected_time":2014000000000,"state":"active","ping":39},{"user_id":20,"name":"Cuttle's Fish","steam_id":76561198280483257,"connected_time":1826000000000,"state":"active","ping":53},{"user_id":23,"name":"Shattered Glass","steam_id":76561198116835391,"connected_time":1579000000000,"state":"active","ping":88},{"user_id":34,"name":"xXScrub_LordXx","steam_id":76561198101325632,"connected_time":1261000000000,"state":"active","ping":50},{"user_id":53,"name":"Whatever404","steam_id":76561198300273120,"connected_time":489000000000,"state":"active","ping":100},{"user_id":55,"name":"Psychosis","steam_id":76561198078659070,"connected_time":175000000000,"state":"active","ping":74},{"user_id":26,"name":"WatchWill","steam_id":76561198157237945,"connected_time":1493000000000,"state":"active","ping":72},{"user_id":27,"name":"FrogInShorts","steam_id":76561198081903213,"connected_time":1443000000000,"state":"active","ping":84},{"user_id":52,"name":"Snowbolt","steam_id":76561197974085095,"connected_time":515000000000,"state":"active","ping":56},{"user_id":29,"name":"Mecha","steam_id":76561198014927379,"connected_time":1417000000000,"state":"active","ping":85},{"user_id":30,"name":"m","steam_id":76561198069456508,"connected_time":1362000000000,"state":"active","ping":54},{"user_id":41,"name":"DistantJragon","steam_id":76561198117563641,"connected_time":1027000000000,"state":"active","ping":55},{"user_id":44,"name":"APOTATO","steam_id":76561198118199858,"connected_time":940000000000,"state":"active","ping":90},{"user_id":37,"name":"unlucky killer","steam_id":76561199039152146,"connected_time":1191000000000,"state":"active","ping":80},{"user_id":38,"name":"josh","steam_id":76561198430689111,"connected_time":1179000000000,"state":"active","ping":75},{"user_id":39,"name":"creeeeeee","steam_id":76561198392539722,"connected_time":1151000000000,"state":"active","ping":86},{"user_id":42,"name":"john","steam_id":76561198850447852,"connected_time":1022000000000,"state":"active","ping":78},{"user_id":43,"name":"CashBin","steam_id":76561199382865598,"connected_time":986000000000,"state":"active","ping":70},{"user_id":45,"name":"Hyperbagel67","steam_id":76561198092122156,"connected_time":932000000000,"state":"active","ping":58},{"user_id":46,"name":"Gnarly Shark Bite","steam_id":76561198004058342,"connected_time":910000000000,"state":"active","ping":75},{"user_id":49,"name":"buzz #TF2Center","steam_id":76561198107899101,"connected_time":721000000000,"state":"active","ping":70}]},{"server_id":106,"name":"Uncletopia | Chicago | 2 | All Maps","name_short":"chi-2","host":"chi-1.us.uncletopia.com","port":27025,"enabled":true,"region":"us-central","cc":"us","latitude":41.881832,"longitude":-87.62318,"reserved":0,"last_update":"0001-01-01T00:00:00Z","name_a2s":"Uncletopia | Chicago | 2 | All Maps","protocol":17,"map":"ctf_well","folder":"tf","game":"Team Fortress","app_id":440,"player_count":24,"max_players":24,"Bots":0,"server_type":"Dedicated","server_os":"Linux","password":true,"vac":true,"version":"7757534","steam_id":85568392924469985,"keywords":["ctf","nocrits","nodmgspread","uncletopia"],"game_id":440,"stv_port":27026,"stv_name":"Uncletopia | Chicago | 2 | All Maps | STV","players":[{"user_id":90,"name":"Drachma","steam_id":76561198007310514,"connected_time":4758000000000,"state":"active","ping":57},{"user_id":107,"name":"Katy","steam_id":76561198079395814,"connected_time":1831000000000,"state":"active","ping":63},{"user_id":130,"name":"mritea","steam_id":76561198872799796,"connected_time":473000000000,"state":"active","ping":99},{"user_id":119,"name":"CJDGuy","steam_id":76561198213009545,"connected_time":1147000000000,"state":"active","ping":53},{"user_id":128,"name":"metal pipe","steam_id":76561198849461209,"connected_time":607000000000,"state":"active","ping":69},{"user_id":125,"name":"Pumpkin Spice","steam_id":76561198058356815,"connected_time":682000000000,"state":"active","ping":69},{"user_id":126,"name":"lifted tater","steam_id":76561198404564240,"connected_time":642000000000,"state":"active","ping":62},{"user_id":103,"name":"Static","steam_id":76561198271342168,"connected_time":2904000000000,"state":"active","ping":73},{"user_id":87,"name":"Gentoo Linux Gaming","steam_id":76561197999657118,"connected_time":5210000000000,"state":"active","ping":96},{"user_id":62,"name":"Obelisk","steam_id":76561198049416866,"connected_time":7940000000000,"state":"active","ping":80},{"user_id":106,"name":"|3lack","steam_id":76561198082632923,"connected_time":1967000000000,"state":"active","ping":59},{"user_id":127,"name":"Maid 'n' China","steam_id":76561198423392976,"connected_time":624000000000,"state":"active","ping":91},{"user_id":129,"name":"ðŸ¥œDoober McSchmuckiesðŸ¥œ","steam_id":76561198064629474,"connected_time":561000000000,"state":"active","ping":47},{"user_id":122,"name":"McLister (Cute)","steam_id":76561198042760817,"connected_time":970000000000,"state":"active","ping":70},{"user_id":116,"name":"câ‚„","steam_id":76561198084639079,"connected_time":1598000000000,"state":"active","ping":102},{"user_id":134,"name":"gummygeek","steam_id":76561198244543486,"connected_time":51000000000,"state":"active","ping":113},{"user_id":113,"name":"Krome","steam_id":76561198087317232,"connected_time":1717000000000,"state":"active","ping":76},{"user_id":109,"name":"VioletSpecs","steam_id":76561198089366466,"connected_time":1825000000000,"state":"active","ping":72},{"user_id":69,"name":"Succubus_Lilith (She/They)","steam_id":76561198240578890,"connected_time":7579000000000,"state":"active","ping":72},{"user_id":74,"name":"Ruben","steam_id":76561198048508642,"connected_time":6854000000000,"state":"active","ping":92},{"user_id":120,"name":"Herr Doktor","steam_id":76561198025473302,"connected_time":1139000000000,"state":"active","ping":87},{"user_id":133,"name":"Firedrakecheerful","steam_id":76561198141166902,"connected_time":304000000000,"state":"active","ping":47},{"user_id":132,"name":"F_L thundahh","steam_id":76561199159928133,"connected_time":461000000000,"state":"active","ping":68},{"user_id":83,"name":"BuncusBeffer","steam_id":76561198285936616,"connected_time":5794000000000,"state":"active","ping":102}]},{"server_id":402,"name":"Uncletopia | Chicago | 3 | All Maps","name_short":"chi-3","host":"chi-1.us.uncletopia.com","port":27035,"enabled":true,"region":"us-central","cc":"us","latitude":41.881832,"longitude":-87.62318,"reserved":0,"last_update":"0001-01-01T00:00:00Z","name_a2s":"Uncletopia | Chicago | 3 | All Maps","protocol":17,"map":"pl_borneo","folder":"tf","game":"Team Fortress","app_id":440,"player_count":2,"max_players":24,"Bots":0,"server_type":"Dedicated","server_os":"Linux","password":true,"vac":true,"version":"7757534","steam_id":85568392924515191,"keywords":["nocrits","nodmgspread","payload","uncletopia"],"game_id":440,"stv_port":27036,"stv_name":"Uncletopia | Chicago | 3 | All Maps | STV","players":[{"user_id":4,"name":"Milk","steam_id":76561198824992220,"connected_time":391000000000,"state":"active","ping":166},{"user_id":6,"name":"TheAceDefiant","steam_id":76561198133264734,"connected_time":11000000000,"state":"active","ping":233}]},{"server_id":403,"name":"Uncletopia | Chicago | 4 | All Maps","name_short":"chi-4","host":"chi-1.us.uncletopia.com","port":27045,"enabled":true,"region":"us-central","cc":"us","latitude":41.881832,"longitude":-87.62318,"reserved":0,"last_update":"0001-01-01T00:00:00Z","name_a2s":"Uncletopia | Chicago | 4 | All Maps","protocol":17,"map":"koth_lakeside_final","folder":"tf","game":"Team Fortress","app_id":440,"player_count":0,"max_players":24,"Bots":0,"server_type":"Dedicated","server_os":"Linux","password":true,"vac":true,"version":"7757534","steam_id":85568392924515193,"keywords":["cp","nocrits","nodmgspread","uncletopia"],"game_id":440,"stv_port":27046,"stv_name":"Uncletopia | Chicago | 4 | All Maps | STV","players":null},{"server_id":36,"name":"Uncletopia | Chicago | 5 | All Maps","name_short":"chi-5","host":"chi-2.us.uncletopia.com","port":27015,"enabled":true,"region":"us-central","cc":"us","latitude":41.881832,"longitude":-87.62318,"reserved":0,"last_update":"0001-01-01T00:00:00Z","name_a2s":"Uncletopia | Chicago | 5 | All Maps","protocol":17,"map":"koth_cascade","folder":"tf","game":"Team Fortress","app_id":440,"player_count":0,"max_players":24,"Bots":0,"server_type":"Dedicated","server_os":"Linux","password":true,"vac":true,"version":"7757534","steam_id":85568392924866362,"keywords":["cp","nocrits","nodmgspread","uncletopia"],"game_id":440,"stv_port":27016,"stv_name":"Uncletopia | Chicago | 5 | All Maps | STV","players":null},{"server_id":37,"name":"Uncletopia | Chicago | 6 | All Maps","name_short":"chi-6","host":"chi-2.us.uncletopia.com","port":27025,"enabled":true,"region":"us-central","cc":"us","latitude":41.881832,"longitude":-87.62318,"reserved":0,"last_update":"0001-01-01T00:00:00Z","name_a2s":"Uncletopia | Chicago | 6 | All Maps","protocol":17,"map":"koth_highpass","folder":"tf","game":"Team Fortress","app_id":440,"player_count":0,"max_players":24,"Bots":0,"server_type":"Dedicated","server_os":"Linux","password":true,"vac":true,"version":"7757534","steam_id":85568392924866363,"keywords":["cp","nocrits","nodmgspread","uncletopia"],"game_id":440,"stv_port":27026,"stv_name":"Uncletopia | Chicago | 6 | All Maps | STV","players":null},{"server_id":38,"name":"Uncletopia | Chicago | 7 | Stopwatch Beta","name_short":"chi-7","host":"chi-2.us.uncletopia.com","port":27035,"enabled":true,"region":"us-central","cc":"us","latitude":41.881832,"longitude":-87.62318,"reserved":0,"last_update":"0001-01-01T00:00:00Z","name_a2s":"Uncletopia | Chicago | 7 | Stopwatch Beta","protocol":17,"map":"workshop/koth_product_final.ugc454272353","folder":"tf","game":"Team Fortress","app_id":440,"player_count":0,"max_players":24,"Bots":0,"server_type":"Dedicated","server_os":"Linux","password":true,"vac":true,"version":"7757534","steam_id":85568392924866364,"keywords":["cp","nocrits","nodmgspread","uncletopia"],"game_id":440,"stv_port":27036,"stv_name":"Uncletopia | Chicago | 7 | Stopwatch Beta | STV","players":null},{"server_id":39,"name":"Uncletopia | Chicago | 8 | Community","name_short":"chi-8","host":"chi-2.us.uncletopia.com","port":27045,"enabled":true,"region":"us-central","cc":"us","latitude":41.881832,"longitude":-87.62318,"reserved":0,"last_update":"0001-01-01T00:00:00Z","name_a2s":"Uncletopia | Chicago | 8 | Community","protocol":17,"map":"koth_cascade","folder":"tf","game":"Team Fortress","app_id":440,"player_count":0,"max_players":24,"Bots":0,"server_type":"Dedicated","server_os":"Linux","password":true,"vac":true,"version":"7757534","steam_id":85568392924866365,"keywords":["cp","nocrits","nodmgspread","uncletopia"],"game_id":440,"stv_port":27046,"stv_name":"Uncletopia | Chicago | 8 | Community | STV","players":null},{"server_id":8,"name":"Uncletopia | Dallas | 1 | All Maps","name_short":"dal-1","host":"dal-1.us.uncletopia.com","port":27015,"enabled":true,"region":"us-central","cc":"us","latitude":32.779167,"longitude":-96.80889,"reserved":0,"last_update":"0001-01-01T00:00:00Z","name_a2s":"Uncletopia | Dallas | 1 | All Maps","protocol":17,"map":"koth_cascade","folder":"tf","game":"Team Fortress","app_id":440,"player_count":0,"max_players":24,"Bots":0,"server_type":"Dedicated","server_os":"Linux","password":true,"vac":true,"version":"7757534","steam_id":85568392924469986,"keywords":["cp","nocrits","nodmgspread","uncletopia"],"game_id":440,"stv_port":27016,"stv_name":"Uncletopia | Dallas | 1 | All Maps | STV","players":null},{"server_id":108,"name":"Uncletopia | Dallas | 2 | All Maps","name_short":"dal-2","host":"dal-1.us.uncletopia.com","port":27025,"enabled":true,"region":"us-central","cc":"us","latitude":32.779167,"longitude":-96.80889,"reserved":0,"last_update":"0001-01-01T00:00:00Z","name_a2s":"Uncletopia | Dallas | 2 | All Maps","protocol":17,"map":"cp_mountainlab","folder":"tf","game":"Team Fortress","app_id":440,"player_count":24,"max_players":24,"Bots":0,"server_type":"Dedicated","server_os":"Linux","password":true,"vac":true,"version":"7757534","steam_id":85568392924469988,"keywords":["cp","nocrits","nodmgspread","uncletopia"],"game_id":440,"stv_port":27026,"stv_name":"Uncletopia | Dallas | 2 | All Maps | STV","players":[{"user_id":159,"name":"Super Ghostbusters (Full Album)","steam_id":76561198057415490,"connected_time":9768000000000,"state":"active","ping":61},{"user_id":322,"name":"SunkerMacgunker","steam_id":76561199081868742,"connected_time":833000000000,"state":"active","ping":86},{"user_id":323,"name":"Congcrab","steam_id":76561198078687685,"connected_time":765000000000,"state":"active","ping":102},{"user_id":324,"name":"The Great Eagle Scourge of 1822","steam_id":76561198325086209,"connected_time":589000000000,"state":"active","ping":86},{"user_id":340,"name":"blythe","steam_id":76561198254999149,"connected_time":92000000000,"state":"active","ping":87},{"user_id":325,"name":"Rusty_Cheech","steam_id":76561198808236778,"connected_time":554000000000,"state":"active","ping":110},{"user_id":306,"name":"Arrluk","steam_id":76561198396679452,"connected_time":3130000000000,"state":"active","ping":67},{"user_id":326,"name":"bought this cart for 15 dollars","steam_id":76561198253731826,"connected_time":544000000000,"state":"active","ping":78},{"user_id":327,"name":"TheWolverine","steam_id":76561199140021759,"connected_time":537000000000,"state":"active","ping":107},{"user_id":310,"name":"PerliousFalcon","steam_id":76561198124801907,"connected_time":2457000000000,"state":"active","ping":95},{"user_id":328,"name":"gandalf zaza","steam_id":76561198059787688,"connected_time":482000000000,"state":"active","ping":80},{"user_id":260,"name":"SeaBass","steam_id":76561197982949108,"connected_time":4545000000000,"state":"active","ping":69},{"user_id":329,"name":"Jacket","steam_id":76561198125415247,"connected_time":427000000000,"state":"active","ping":62},{"user_id":330,"name":"Rustyorion","steam_id":76561198439186347,"connected_time":401000000000,"state":"active","ping":134},{"user_id":341,"name":"NoobPwner","steam_id":76561199122289629,"connected_time":74000000000,"state":"active","ping":119},{"user_id":331,"name":"Rabblerouser","steam_id":76561198127930963,"connected_time":397000000000,"state":"active","ping":114},{"user_id":317,"name":"Sandwich Sam","steam_id":76561198170089546,"connected_time":1319000000000,"state":"active","ping":70},{"user_id":332,"name":"Matthew","steam_id":76561199084649882,"connected_time":365000000000,"state":"active","ping":101},{"user_id":339,"name":"Cosmic Torgue","steam_id":76561198828724945,"connected_time":170000000000,"state":"active","ping":102},{"user_id":334,"name":"Doctor Bear Ê• â€¢á´¥â€¢Ê”","steam_id":76561197968103161,"connected_time":355000000000,"state":"active","ping":79},{"user_id":335,"name":"Yosh","steam_id":76561198027078899,"connected_time":355000000000,"state":"active","ping":74},{"user_id":336,"name":"faxxy","steam_id":76561198079621240,"connected_time":334000000000,"state":"active","ping":101},{"user_id":244,"name":"King of the Fishies","steam_id":76561198223901168,"connected_time":5137000000000,"state":"active","ping":79},{"user_id":337,"name":"crumblejon","steam_id":76561198111273302,"connected_time":317000000000,"state":"active","ping":71}]},{"server_id":5,"name":"Uncletopia | Frankfurt | 1 | All Maps","name_short":"frk-1","host":"frk-1.de.uncletopia.com","port":27015,"enabled":true,"region":"eu","cc":"de","latitude":50.110924,"longitude":8.682127,"reserved":0,"last_update":"0001-01-01T00:00:00Z","name_a2s":"Uncletopia | Frankfurt | 1 | All Maps","protocol":17,"map":"koth_viaduct","folder":"tf","game":"Team Fortress","app_id":440,"player_count":19,"max_players":24,"Bots":0,"server_type":"Dedicated","server_os":"Linux","password":true,"vac":true,"version":"7757534","steam_id":85568392924469989,"keywords":["cp","nocrits","nodmgspread","uncletopia"],"game_id":440,"stv_port":27016,"stv_name":"Uncletopia | Frankfurt | 1 | All Maps | STV","players":[{"user_id":149,"name":"avewszystkim","steam_id":76561199382492530,"connected_time":670000000000,"state":"active","ping":57},{"user_id":164,"name":"Nibbenji2077","steam_id":76561199219663655,"connected_time":63000000000,"state":"active","ping":125},{"user_id":153,"name":"Marko Rutto","steam_id":76561198124226614,"connected_time":412000000000,"state":"active","ping":45},{"user_id":152,"name":"Average meme enjoyer","steam_id":76561199087566663,"connected_time":448000000000,"state":"active","ping":81},{"user_id":92,"name":"Drosan ãƒ„","steam_id":76561197960389216,"connected_time":4243000000000,"state":"active","ping":43},{"user_id":154,"name":"Driver's drunkest God","steam_id":76561198969373800,"connected_time":344000000000,"state":"active","ping":70},{"user_id":148,"name":"hazardore","steam_id":76561198062928472,"connected_time":718000000000,"state":"active","ping":123},{"user_id":157,"name":"Artha","steam_id":76561198198453253,"connected_time":197000000000,"state":"active","ping":72},{"user_id":151,"name":"VORTEX(COMMS OPEN)","steam_id":76561199074746528,"connected_time":561000000000,"state":"active","ping":66},{"user_id":134,"name":"Der Herr Doktor","steam_id":76561198119476089,"connected_time":1776000000000,"state":"active","ping":54},{"user_id":155,"name":"Dergi","steam_id":76561198040843250,"connected_time":243000000000,"state":"active","ping":60},{"user_id":156,"name":"123","steam_id":76561198839084456,"connected_time":212000000000,"state":"active","ping":82},{"user_id":158,"name":"Terhen","steam_id":76561198218299273,"connected_time":156000000000,"state":"active","ping":96},{"user_id":159,"name":"Toukkis","steam_id":76561198140232191,"connected_time":149000000000,"state":"active","ping":104},{"user_id":161,"name":"Blaukraut","steam_id":76561198160202319,"connected_time":88000000000,"state":"active","ping":80},{"user_id":165,"name":"Cheshireycat","steam_id":76561198067204908,"connected_time":59000000000,"state":"active","ping":60},{"user_id":163,"name":"SKÃšTER","steam_id":76561199262157623,"connected_time":79000000000,"state":"active","ping":68},{"user_id":166,"name":"Baskin","steam_id":76561198275982976,"connected_time":16000000000,"state":"spawning","ping":81},{"user_id":129,"name":"Femboypawnguy","steam_id":76561198274894771,"connected_time":2045000000000,"state":"active","ping":51}]},{"server_id":110,"name":"Uncletopia | Frankfurt | 2 | All Maps","name_short":"frk-2","host":"frk-1.de.uncletopia.com","port":27025,"enabled":true,"region":"eu","cc":"de","latitude":50.110924,"longitude":8.682127,"reserved":0,"last_update":"0001-01-01T00:00:00Z","name_a2s":"Uncletopia | Frankfurt | 2 | All Maps","protocol":17,"map":"cp_sunshine","folder":"tf","game":"Team Fortress","app_id":440,"player_count":20,"max_players":24,"Bots":0,"server_type":"Dedicated","server_os":"Linux","password":true,"vac":true,"version":"7757534","steam_id":85568392924469990,"keywords":["cp","nocrits","nodmgspread","uncletopia"],"game_id":440,"stv_port":27026,"stv_name":"Uncletopia | Frankfurt | 2 | All Maps | STV","players":[{"user_id":344,"name":"twitch.tv/rahmed","steam_id":76561198136056704,"connected_time":5904000000000,"state":"active","ping":61},{"user_id":393,"name":"Hikaru Nakamura","steam_id":76561198980644010,"connected_time":3011000000000,"state":"active","ping":89},{"user_id":427,"name":"Raymus","steam_id":76561198021330407,"connected_time":1224000000000,"state":"active","ping":45},{"user_id":400,"name":"ToxicÃ²","steam_id":76561199031920676,"connected_time":2761000000000,"state":"active","ping":78},{"user_id":358,"name":"Sir Kiops","steam_id":76561198022769275,"connected_time":4881000000000,"state":"active","ping":104},{"user_id":418,"name":"onlyfans/linux forskolin(real)","steam_id":76561198160150031,"connected_time":1697000000000,"state":"active","ping":60},{"user_id":445,"name":"Fat Pigeon","steam_id":76561198817940142,"connected_time":189000000000,"state":"active","ping":60},{"user_id":405,"name":"goofy goober","steam_id":76561198153343387,"connected_time":2329000000000,"state":"active","ping":75},{"user_id":422,"name":"regen","steam_id":76561198038665095,"connected_time":1436000000000,"state":"active","ping":68},{"user_id":384,"name":"lyudmilakh","steam_id":76561198362779878,"connected_time":3310000000000,"state":"active","ping":91},{"user_id":443,"name":"SPONGE","steam_id":76561198040933472,"connected_time":275000000000,"state":"active","ping":56},{"user_id":426,"name":"elio","steam_id":76561198142662131,"connected_time":1311000000000,"state":"active","ping":72},{"user_id":439,"name":"Udinese Dion","steam_id":76561198067931573,"connected_time":546000000000,"state":"active","ping":48},{"user_id":413,"name":"Chad Slav","steam_id":76561198160103841,"connected_time":2088000000000,"state":"active","ping":70},{"user_id":435,"name":"Exe_Red","steam_id":76561198154952759,"connected_time":681000000000,"state":"active","ping":82},{"user_id":430,"name":"F.Fazbear","steam_id":76561198406606196,"connected_time":1130000000000,"state":"active","ping":80},{"user_id":414,"name":"GentleBot","steam_id":76561198310527981,"connected_time":2046000000000,"state":"active","ping":151},{"user_id":446,"name":"Tre3","steam_id":76561198054795379,"connected_time":124000000000,"state":"active","ping":59},{"user_id":440,"name":"Stuid","steam_id":76561199427506542,"connected_time":529000000000,"state":"active","ping":73},{"user_id":442,"name":"BlinkedUp","steam_id":76561198249985618,"connected_time":296000000000,"state":"active","ping":48}]},{"server_id":308,"name":"Uncletopia | Frankfurt | 3 | All Maps","name_short":"frk-3","host":"frk-1.de.uncletopia.com","port":27035,"enabled":true,"region":"eu","cc":"de","latitude":50.110924,"longitude":8.682127,"reserved":0,"last_update":"0001-01-01T00:00:00Z","name_a2s":"Uncletopia | Frankfurt | 3 | All Maps","protocol":17,"map":"cp_gorge","folder":"tf","game":"Team Fortress","app_id":440,"player_count":0,"max_players":24,"Bots":0,"server_type":"Dedicated","server_os":"Linux","password":true,"vac":true,"version":"7757534","steam_id":85568392924504274,"keywords":["cp","nocrits","nodmgspread","uncletopia"],"game_id":440,"stv_port":27036,"stv_name":"Uncletopia | Frankfurt | 3 | All Maps | STV","players":null},{"server_id":309,"name":"Uncletopia | Frankfurt | 4 | All Maps","name_short":"frk-4","host":"frk-1.de.uncletopia.com","port":27045,"enabled":true,"region":"eu","cc":"de","latitude":50.110924,"longitude":8.682127,"reserved":0,"last_update":"0001-01-01T00:00:00Z","name_a2s":"Uncletopia | Frankfurt | 4 | All Maps","protocol":17,"map":"pl_badwater","folder":"tf","game":"Team Fortress","app_id":440,"player_count":24,"max_players":24,"Bots":0,"server_type":"Dedicated","server_os":"Linux","password":true,"vac":true,"version":"7757534","steam_id":85568392924504275,"keywords":["nocrits","nodmgspread","payload","uncletopia"],"game_id":440,"stv_port":27046,"stv_name":"Uncletopia | Frankfurt | 4 | All Maps | STV","players":[{"user_id":104,"name":"Zizman","steam_id":76561198446562910,"connected_time":706000000000,"state":"active","ping":149},{"user_id":101,"name":"MILKY","steam_id":76561199261620682,"connected_time":1199000000000,"state":"active","ping":87},{"user_id":106,"name":"Pyrolander","steam_id":76561198050785450,"connected_time":639000000000,"state":"active","ping":55},{"user_id":108,"name":"lore","steam_id":76561198120984188,"connected_time":398000000000,"state":"active","ping":51},{"user_id":37,"name":"Nickel","steam_id":76561199037745941,"connected_time":5411000000000,"state":"active","ping":132},{"user_id":38,"name":"Razorback from Team Fortress 2","steam_id":76561199214163032,"connected_time":5297000000000,"state":"active","ping":85},{"user_id":93,"name":"RiX","steam_id":76561197969053733,"connected_time":2077000000000,"state":"active","ping":61},{"user_id":54,"name":"kunikuzushi","steam_id":76561198275957195,"connected_time":4343000000000,"state":"active","ping":76},{"user_id":66,"name":"Reimu Hakurei","steam_id":76561198038078831,"connected_time":3689000000000,"state":"active","ping":71},{"user_id":102,"name":"El Gato Volador","steam_id":76561198021296882,"connected_time":1117000000000,"state":"active","ping":75},{"user_id":109,"name":"Xriasp","steam_id":76561198104721321,"connected_time":324000000000,"state":"active","ping":71},{"user_id":82,"name":"john fortress","steam_id":76561198013237629,"connected_time":2598000000000,"state":"active","ping":99},{"user_id":94,"name":"zigiâ˜‚","steam_id":76561198113209142,"connected_time":1959000000000,"state":"active","ping":73},{"user_id":90,"name":"Cheers Mate!","steam_id":76561198265192382,"connected_time":2189000000000,"state":"active","ping":56},{"user_id":95,"name":"JohnTraveltime","steam_id":76561199244281754,"connected_time":1949000000000,"state":"active","ping":68},{"user_id":103,"name":"WojStaGra","steam_id":76561198157277370,"connected_time":890000000000,"state":"active","ping":96},{"user_id":96,"name":"B.batt","steam_id":76561198998684199,"connected_time":1942000000000,"state":"active","ping":116},{"user_id":77,"name":"ash","steam_id":76561198004728744,"connected_time":3307000000000,"state":"active","ping":47},{"user_id":50,"name":"...","steam_id":76561198969234594,"connected_time":4623000000000,"state":"active","ping":76},{"user_id":78,"name":"TheBlaze","steam_id":76561198124071140,"connected_time":3216000000000,"state":"active","ping":59},{"user_id":100,"name":"Usame bin Muhammed","steam_id":76561199198844185,"connected_time":1484000000000,"state":"active","ping":76},{"user_id":98,"name":"hbi*venomcrosshairs","steam_id":76561197996468677,"connected_time":1734000000000,"state":"active","ping":60},{"user_id":74,"name":"Bumblebee","steam_id":76561198033551105,"connected_time":3535000000000,"state":"active","ping":68},{"user_id":85,"name":"CerealKiller154","steam_id":76561198831177630,"connected_time":2393000000000,"state":"active","ping":89}]},{"server_id":310,"name":"Uncletopia | Frankfurt | 5 | All Maps","name_short":"frk-5","host":"frk-1.de.uncletopia.com","port":27055,"enabled":true,"region":"eu","cc":"de","latitude":50.110924,"longitude":8.682127,"reserved":0,"last_update":"0001-01-01T00:00:00Z","name_a2s":"Uncletopia | Frankfurt | 5 | All Maps","protocol":17,"map":"pl_swiftwater_final1","folder":"tf","game":"Team Fortress","app_id":440,"player_count":24,"max_players":24,"Bots":0,"server_type":"Dedicated","server_os":"Linux","password":true,"vac":true,"version":"7757534","steam_id":85568392924504277,"keywords":["nocrits","nodmgspread","payload","uncletopia"],"game_id":440,"stv_port":27056,"stv_name":"Uncletopia | Frankfurt | 5 | All Maps | STV","players":[{"user_id":151,"name":"Red Dynamite","steam_id":76561199073167935,"connected_time":1090000000000,"state":"active","ping":185},{"user_id":155,"name":"Tank","steam_id":76561199059174576,"connected_time":776000000000,"state":"active","ping":166},{"user_id":121,"name":"knees","steam_id":76561198005924647,"connected_time":3465000000000,"state":"active","ping":72},{"user_id":145,"name":"radek","steam_id":76561197998883721,"connected_time":1329000000000,"state":"active","ping":83},{"user_id":156,"name":"Hazisher","steam_id":76561199244861836,"connected_time":769000000000,"state":"active","ping":109},{"user_id":158,"name":"78","steam_id":76561198208328357,"connected_time":746000000000,"state":"active","ping":83},{"user_id":133,"name":"WHUSSKEY","steam_id":76561198137827441,"connected_time":1849000000000,"state":"active","ping":71},{"user_id":152,"name":"Mr. Frog","steam_id":76561198016568920,"connected_time":898000000000,"state":"active","ping":62},{"user_id":170,"name":"jones","steam_id":76561198044434971,"connected_time":160000000000,"state":"active","ping":63},{"user_id":149,"name":"zebulon","steam_id":76561198384683504,"connected_time":1191000000000,"state":"active","ping":61},{"user_id":172,"name":"System","steam_id":76561199442503973,"connected_time":2000000000,"state":"spawning","ping":51},{"user_id":49,"name":"cazador","steam_id":76561198123096922,"connected_time":7885000000000,"state":"active","ping":121},{"user_id":167,"name":"mike erhmentraut","steam_id":76561199025378498,"connected_time":528000000000,"state":"active","ping":52},{"user_id":108,"name":"Pylori","steam_id":76561197993858197,"connected_time":3975000000000,"state":"active","ping":60},{"user_id":102,"name":"Plop_","steam_id":76561198112567921,"connected_time":4458000000000,"state":"active","ping":47},{"user_id":95,"name":"Tails8521","steam_id":76561198051747164,"connected_time":4780000000000,"state":"active","ping":62},{"user_id":64,"name":"HurrpNana","steam_id":76561199102156562,"connected_time":7275000000000,"state":"active","ping":83},{"user_id":142,"name":"Groose","steam_id":76561198261094295,"connected_time":1521000000000,"state":"active","ping":60},{"user_id":171,"name":"ThatTFguy","steam_id":76561198056794321,"connected_time":97000000000,"state":"active","ping":75},{"user_id":81,"name":"Cars","steam_id":76561198173329977,"connected_time":5922000000000,"state":"active","ping":67},{"user_id":150,"name":"Monkey Friend","steam_id":76561198144403074,"connected_time":1138000000000,"state":"active","ping":45},{"user_id":128,"name":"howabe","steam_id":76561197996486818,"connected_time":2855000000000,"state":"active","ping":55},{"user_id":160,"name":"poorchel","steam_id":76561198056905953,"connected_time":735000000000,"state":"active","ping":124},{"user_id":161,"name":"aRtaRt","steam_id":76561199051316171,"connected_time":705000000000,"state":"active","ping":78}]},{"server_id":311,"name":"Uncletopia | Frankfurt | 6 | All Maps","name_short":"frk-6","host":"frk-1.de.uncletopia.com","port":27065,"enabled":true,"region":"eu","cc":"de","latitude":50.110924,"longitude":8.682127,"reserved":0,"last_update":"0001-01-01T00:00:00Z","name_a2s":"Uncletopia | Frankfurt | 6 | All Maps","protocol":17,"map":"pl_barnblitz","folder":"tf","game":"Team Fortress","app_id":440,"player_count":15,"max_players":24,"Bots":0,"server_type":"Dedicated","server_os":"Linux","password":true,"vac":true,"version":"7757534","steam_id":85568392924504278,"keywords":["nocrits","nodmgspread","payload","uncletopia"],"game_id":440,"stv_port":27066,"stv_name":"Uncletopia | Frankfurt | 6 | All Maps | STV","players":[{"user_id":282,"name":"DaviK","steam_id":76561198246990590,"connected_time":1381000000000,"state":"active","ping":49},{"user_id":284,"name":"zoinks!","steam_id":76561198068645362,"connected_time":1169000000000,"state":"active","ping":51},{"user_id":255,"name":"mmmmmmmmm","steam_id":76561198283192660,"connected_time":2822000000000,"state":"active","ping":69},{"user_id":292,"name":"lugi","steam_id":76561198121971994,"connected_time":167000000000,"state":"active","ping":76},{"user_id":234,"name":"Skuld","steam_id":76561198064734905,"connected_time":4076000000000,"state":"active","ping":94},{"user_id":286,"name":"XL54M15Y","steam_id":76561198048250715,"connected_time":1101000000000,"state":"active","ping":45},{"user_id":293,"name":"frbuz","steam_id":76561198327135462,"connected_time":119000000000,"state":"active","ping":183},{"user_id":271,"name":"JeanCorben","steam_id":76561197965133561,"connected_time":1752000000000,"state":"active","ping":46},{"user_id":267,"name":"hedon/","steam_id":76561198249832770,"connected_time":2182000000000,"state":"active","ping":54},{"user_id":291,"name":"engineer drip","steam_id":76561198991032570,"connected_time":511000000000,"state":"active","ping":92},{"user_id":249,"name":"Sirzen","steam_id":76561198170155434,"connected_time":3039000000000,"state":"active","ping":59},{"user_id":250,"name":"jShroom","steam_id":76561198833885769,"connected_time":3032000000000,"state":"active","ping":67},{"user_id":278,"name":"ZagreusNoMoney","steam_id":76561198996162089,"connected_time":1571000000000,"state":"active","ping":73},{"user_id":287,"name":"LeifrðŸ¦Œ","steam_id":76561198076271106,"connected_time":1090000000000,"state":"active","ping":70},{"user_id":289,"name":"big poo","steam_id":76561198129157178,"connected_time":1071000000000,"state":"active","ping":89}]},{"server_id":23,"name":"Uncletopia | Frankfurt | 7 | Stopwatch Beta","name_short":"frk-7","host":"frk-1.de.uncletopia.com","port":27075,"enabled":true,"region":"eu","cc":"de","latitude":50.110924,"longitude":8.682127,"reserved":0,"last_update":"0001-01-01T00:00:00Z","name_a2s":"Uncletopia | Frankfurt | 7 | Stopwatch Beta","protocol":17,"map":"cp_sunshine","folder":"tf","game":"Team Fortress","app_id":440,"player_count":0,"max_players":24,"Bots":0,"server_type":"Dedicated","server_os":"Linux","password":true,"vac":true,"version":"7757534","steam_id":85568392924742827,"keywords":["cp","nocrits","nodmgspread","uncletopia"],"game_id":440,"stv_port":27076,"stv_name":"Uncletopia | Frankfurt | 7 | Stopwatch Beta | STV","players":null},{"server_id":24,"name":"Uncletopia | Frankfurt | 8 | Community","name_short":"frk-8","host":"frk-1.de.uncletopia.com","port":27085,"enabled":true,"region":"eu","cc":"de","latitude":50.110924,"longitude":8.682127,"reserved":0,"last_update":"0001-01-01T00:00:00Z","name_a2s":"Uncletopia | Frankfurt | 8 | Community","protocol":17,"map":"koth_lakeside_final","folder":"tf","game":"Team Fortress","app_id":440,"player_count":0,"max_players":24,"Bots":0,"server_type":"Dedicated","server_os":"Linux","password":true,"vac":true,"version":"7757534","steam_id":85568392924742828,"keywords":["cp","nocrits","nodmgspread","uncletopia"],"game_id":440,"stv_port":27086,"stv_name":"Uncletopia | Frankfurt | 8 | Community | STV","players":null},{"server_id":202,"name":"Uncletopia | Hong Kong | 1 | All Maps","name_short":"hgk-1","host":"hgk-1.hk.uncletopia.com","port":27015,"enabled":true,"region":"asia","cc":"hk","latitude":22.302711,"longitude":114.177216,"reserved":0,"last_update":"0001-01-01T00:00:00Z","name_a2s":"Uncletopia | Hong Kong | 1 | All Maps","protocol":17,"map":"koth_cascade","folder":"tf","game":"Team Fortress","app_id":440,"player_count":0,"max_players":24,"Bots":0,"server_type":"Dedicated","server_os":"Linux","password":true,"vac":true,"version":"7757534","steam_id":85568392924494504,"keywords":["cp","nocrits","nodmgspread","uncletopia"],"game_id":440,"stv_port":27016,"stv_name":"Uncletopia | Hong Kong | 1 | All Maps | STV","players":null},{"server_id":1,"name":"Uncletopia | Los Angeles | 1 | All Maps","name_short":"lax-1","host":"lax-1.us.uncletopia.com","port":27015,"enabled":true,"region":"us-west","cc":"us","latitude":33.94279,"longitude":-118.41004,"reserved":0,"last_update":"0001-01-01T00:00:00Z","name_a2s":"Uncletopia | Los Angeles | 1 | All Maps","protocol":17,"map":"pl_snowycoast","folder":"tf","game":"Team Fortress","app_id":440,"player_count":0,"max_players":24,"Bots":0,"server_type":"Dedicated","server_os":"Linux","password":true,"vac":true,"version":"7757534","steam_id":85568392924469991,"keywords":["nocrits","nodmgspread","payload","uncletopia"],"game_id":440,"stv_port":27016,"stv_name":"Uncletopia | Los Angeles | 1 | All Maps | STV","players":null},{"server_id":112,"name":"Uncletopia | Los Angeles | 2 | All Maps","name_short":"lax-2","host":"lax-1.us.uncletopia.com","port":27025,"enabled":true,"region":"us-west","cc":"us","latitude":33.94279,"longitude":-118.41004,"reserved":0,"last_update":"0001-01-01T00:00:00Z","name_a2s":"Uncletopia | Los Angeles | 2 | All Maps","protocol":17,"map":"cp_snakewater_final1","folder":"tf","game":"Team Fortress","app_id":440,"player_count":0,"max_players":24,"Bots":0,"server_type":"Dedicated","server_os":"Linux","password":true,"vac":true,"version":"7757534","steam_id":85568392924469992,"keywords":["cp","nocrits","nodmgspread","uncletopia"],"game_id":440,"stv_port":27026,"stv_name":"Uncletopia | Los Angeles | 2 | All Maps | STV","players":null},{"server_id":324,"name":"Uncletopia | Los Angeles | 3 | All Maps","name_short":"lax-3","host":"lax-1.us.uncletopia.com","port":27035,"enabled":true,"region":"us-west","cc":"us","latitude":33.94279,"longitude":-118.41004,"reserved":0,"last_update":"0001-01-01T00:00:00Z","name_a2s":"Uncletopia | Los Angeles | 3 | All Maps","protocol":17,"map":"cp_process_final","folder":"tf","game":"Team Fortress","app_id":440,"player_count":0,"max_players":24,"Bots":0,"server_type":"Dedicated","server_os":"Linux","password":true,"vac":true,"version":"7757534","steam_id":85568392924510198,"keywords":["cp","nocrits","nodmgspread","uncletopia"],"game_id":440,"stv_port":27036,"stv_name":"Uncletopia | Los Angeles | 3 | All Maps | STV","players":null},{"server_id":25,"name":"Uncletopia | Los Angeles | 4 | Stopwatch Beta","name_short":"lax-4","host":"lax-1.us.uncletopia.com","port":27045,"enabled":true,"region":"us-west","cc":"us","latitude":33.94279,"longitude":-118.41004,"reserved":0,"last_update":"0001-01-01T00:00:00Z","name_a2s":"Uncletopia | Los Angeles | 4 | Stopwatch Beta","protocol":17,"map":"pl_swiftwater_final1","folder":"tf","game":"Team Fortress","app_id":440,"player_count":0,"max_players":24,"Bots":0,"server_type":"Dedicated","server_os":"Linux","password":true,"vac":true,"version":"7757534","steam_id":85568392924510199,"keywords":["nocrits","nodmgspread","payload","uncletopia"],"game_id":440,"stv_port":27046,"stv_name":"Uncletopia | Los Angeles | 4 | Stopwatch Beta | STV","players":null},{"server_id":11,"name":"Uncletopia | London | 1 | All Maps","name_short":"lon-1","host":"lon-1.uk.uncletopia.com","port":27015,"enabled":true,"region":"eu","cc":"gb","latitude":51.509865,"longitude":-0.118092,"reserved":0,"last_update":"0001-01-01T00:00:00Z","name_a2s":"Uncletopia | London | 1 | All Maps","protocol":17,"map":"pl_pier","folder":"tf","game":"Team Fortress","app_id":440,"player_count":24,"max_players":24,"Bots":0,"server_type":"Dedicated","server_os":"Linux","password":true,"vac":true,"version":"7757534","steam_id":85568392924367362,"keywords":["nocrits","nodmgspread","payload","uncletopia"],"game_id":440,"stv_port":27016,"stv_name":"Uncletopia | London | 1 | All Maps | STV","players":[{"user_id":512,"name":"jaakkima","steam_id":76561198229205512,"connected_time":854000000000,"state":"active","ping":72},{"user_id":531,"name":"\u003c  \u003e #savetf2","steam_id":76561199213338939,"connected_time":297000000000,"state":"active","ping":128},{"user_id":535,"name":"Oki (Bon)","steam_id":76561199047748534,"connected_time":155000000000,"state":"active","ping":53},{"user_id":510,"name":"Corpus Christi","steam_id":76561198417999443,"connected_time":1435000000000,"state":"active","ping":114},{"user_id":522,"name":"After8","steam_id":76561198090750865,"connected_time":765000000000,"state":"active","ping":64},{"user_id":533,"name":"AidenJacks","steam_id":76561198263228457,"connected_time":197000000000,"state":"active","ping":88},{"user_id":518,"name":"kita ikuYOOOOOOOOOOOOOOOOOOOOOO","steam_id":76561198148074472,"connected_time":786000000000,"state":"active","ping":46},{"user_id":529,"name":"Alexandre","steam_id":76561198121784446,"connected_time":516000000000,"state":"active","ping":41},{"user_id":538,"name":"AlesKee tf2easy.com","steam_id":76561198167104693,"connected_time":123000000000,"state":"active","ping":50},{"user_id":514,"name":"TheDragoniar","steam_id":76561198347102664,"connected_time":832000000000,"state":"active","ping":68},{"user_id":508,"name":"DoctorPacman(Real)","steam_id":76561198228084504,"connected_time":1730000000000,"state":"active","ping":48},{"user_id":515,"name":"SoundKitKiller","steam_id":76561198053535873,"connected_time":831000000000,"state":"active","ping":144},{"user_id":519,"name":"Ita","steam_id":76561198147277460,"connected_time":779000000000,"state":"active","ping":60},{"user_id":520,"name":"Bambi","steam_id":76561198166972711,"connected_time":775000000000,"state":"active","ping":60},{"user_id":511,"name":"Lazer","steam_id":76561198150041285,"connected_time":1233000000000,"state":"active","ping":64},{"user_id":521,"name":"lpdinobd","steam_id":76561198926251812,"connected_time":773000000000,"state":"active","ping":169},{"user_id":501,"name":"twitch.tv/vision515","steam_id":76561198065293729,"connected_time":2611000000000,"state":"active","ping":163},{"user_id":507,"name":"butts","steam_id":76561198060105180,"connected_time":1999000000000,"state":"active","ping":64},{"user_id":537,"name":"Cirilla.gif","steam_id":76561198090586031,"connected_time":127000000000,"state":"active","ping":127},{"user_id":523,"name":"S2||S0","steam_id":76561198131577749,"connected_time":762000000000,"state":"active","ping":88},{"user_id":456,"name":"Dzieciol","steam_id":76561198160237556,"connected_time":5012000000000,"state":"active","ping":75},{"user_id":479,"name":"your ex","steam_id":76561198210179771,"connected_time":3875000000000,"state":"active","ping":75},{"user_id":539,"name":"Prismoo","steam_id":76561198320524819,"connected_time":54000000000,"state":"active","ping":67},{"user_id":530,"name":"Winter","steam_id":76561198134805479,"connected_time":452000000000,"state":"active","ping":43}]},{"server_id":114,"name":"Uncletopia | London | 2 | All Maps","name_short":"lon-2","host":"lon-1.uk.uncletopia.com","port":27025,"enabled":true,"region":"eu","cc":"gb","latitude":51.509865,"longitude":-0.118092,"reserved":0,"last_update":"0001-01-01T00:00:00Z","name_a2s":"Uncletopia | London | 2 | All Maps","protocol":17,"map":"pl_snowycoast","folder":"tf","game":"Team Fortress","app_id":440,"player_count":24,"max_players":24,"Bots":0,"server_type":"Dedicated","server_os":"Linux","password":true,"vac":true,"version":"7757534","steam_id":85568392924470941,"keywords":["nocrits","nodmgspread","payload","uncletopia"],"game_id":440,"stv_port":27026,"stv_name":"Uncletopia | London | 2 | All Maps | STV","players":[{"user_id":491,"name":"Sabertooth","steam_id":76561198136734852,"connected_time":728000000000,"state":"active","ping":159},{"user_id":458,"name":"GMsU | Rebikas","steam_id":76561198077053764,"connected_time":2255000000000,"state":"active","ping":54},{"user_id":500,"name":"Samuel L. Jackson","steam_id":76561198130427881,"connected_time":523000000000,"state":"active","ping":166},{"user_id":493,"name":"Sarinya","steam_id":76561198079919172,"connected_time":647000000000,"state":"active","ping":66},{"user_id":494,"name":"Nosureth","steam_id":76561198085826892,"connected_time":627000000000,"state":"active","ping":85},{"user_id":469,"name":"OriginalPond1","steam_id":76561198125537846,"connected_time":1736000000000,"state":"active","ping":54},{"user_id":495,"name":"King Sunshine","steam_id":76561198802723642,"connected_time":618000000000,"state":"active","ping":62},{"user_id":496,"name":"Cosmetic brain","steam_id":76561198055936410,"connected_time":585000000000,"state":"active","ping":88},{"user_id":484,"name":"ayadam","steam_id":76561198161515769,"connected_time":1160000000000,"state":"active","ping":112},{"user_id":442,"name":"Ketich","steam_id":76561198021772703,"connected_time":2993000000000,"state":"active","ping":75},{"user_id":513,"name":"WolfmanCZ","steam_id":76561199157141414,"connected_time":151000000000,"state":"active","ping":76},{"user_id":468,"name":"the silly","steam_id":76561198289285025,"connected_time":1796000000000,"state":"active","ping":56},{"user_id":489,"name":"A local penguin","steam_id":76561198822076030,"connected_time":914000000000,"state":"active","ping":63},{"user_id":501,"name":"o","steam_id":76561198066799770,"connected_time":494000000000,"state":"active","ping":72},{"user_id":497,"name":"Ablativus","steam_id":76561198025698470,"connected_time":551000000000,"state":"active","ping":76},{"user_id":487,"name":"It's a me Malario","steam_id":76561198176546013,"connected_time":994000000000,"state":"active","ping":50},{"user_id":450,"name":"scarfweather","steam_id":76561198121331836,"connected_time":2660000000000,"state":"active","ping":56},{"user_id":457,"name":"Shimass","steam_id":76561198867546842,"connected_time":2296000000000,"state":"active","ping":75},{"user_id":474,"name":"Redkiller","steam_id":76561199453655288,"connected_time":1510000000000,"state":"active","ping":145},{"user_id":461,"name":"Elora","steam_id":76561198040510572,"connected_time":2109000000000,"state":"active","ping":54},{"user_id":498,"name":"Haha?","steam_id":76561198056882245,"connected_time":550000000000,"state":"active","ping":41},{"user_id":463,"name":"OneManEnsemble","steam_id":76561198200890163,"connected_time":2098000000000,"state":"active","ping":132},{"user_id":490,"name":"Shadow Jesus","steam_id":76561198272980963,"connected_time":879000000000,"state":"active","ping":61},{"user_id":503,"name":"strideÎ”","steam_id":76561199007826093,"connected_time":410000000000,"state":"active","ping":129}]},{"server_id":320,"name":"Uncletopia | London | 3 | All Maps","name_short":"lon-3","host":"lon-1.uk.uncletopia.com","port":27035,"enabled":true,"region":"eu","cc":"gb","latitude":51.509865,"longitude":-0.118092,"reserved":0,"last_update":"0001-01-01T00:00:00Z","name_a2s":"Uncletopia | London | 3 | All Maps","protocol":17,"map":"koth_cascade","folder":"tf","game":"Team Fortress","app_id":440,"player_count":0,"max_players":24,"Bots":0,"server_type":"Dedicated","server_os":"Linux","password":true,"vac":true,"version":"7757534","steam_id":85568392924510192,"keywords":["cp","nocrits","nodmgspread","uncletopia"],"game_id":440,"stv_port":27036,"stv_name":"Uncletopia | London | 3 | All Maps | STV","players":null},{"server_id":321,"name":"Uncletopia | London | 4 | All Maps","name_short":"lon-4","host":"lon-1.uk.uncletopia.com","port":27045,"enabled":true,"region":"eu","cc":"gb","latitude":51.509865,"longitude":-0.118092,"reserved":0,"last_update":"0001-01-01T00:00:00Z","name_a2s":"Uncletopia | London | 4 | All Maps","protocol":17,"map":"pl_frontier_final","folder":"tf","game":"Team Fortress","app_id":440,"player_count":9,"max_players":24,"Bots":0,"server_type":"Dedicated","server_os":"Linux","password":true,"vac":true,"version":"7757534","steam_id":85568392924510193,"keywords":["nocrits","nodmgspread","payload","uncletopia"],"game_id":440,"stv_port":27046,"stv_name":"Uncletopia | London | 4 | All Maps | STV","players":[{"user_id":25,"name":"Mabert","steam_id":76561198436058407,"connected_time":549000000000,"state":"active","ping":76},{"user_id":17,"name":"Mr.Spy","steam_id":76561199380379223,"connected_time":3070000000000,"state":"active","ping":88},{"user_id":18,"name":"_RAJU (can i have smthg im f2p?","steam_id":76561198870155327,"connected_time":3065000000000,"state":"active","ping":83},{"user_id":24,"name":"xxx_Nik1_xxx","steam_id":76561198970762992,"connected_time":871000000000,"state":"active","ping":87},{"user_id":21,"name":"OKUYA5U","steam_id":76561198815127418,"connected_time":2201000000000,"state":"active","ping":99},{"user_id":26,"name":"John","steam_id":76561198444371121,"connected_time":389000000000,"state":"active","ping":145},{"user_id":27,"name":"Borealis Frost","steam_id":76561199115807272,"connected_time":376000000000,"state":"active","ping":191},{"user_id":28,"name":"Brallerin","steam_id":76561198060026189,"connected_time":225000000000,"state":"active","ping":52},{"user_id":29,"name":"turkeysarefriendsz","steam_id":76561199074521322,"connected_time":218000000000,"state":"active","ping":205}]},{"server_id":21,"name":"Uncletopia | London | 5 | All Maps","name_short":"lon-5","host":"lon-1.uk.uncletopia.com","port":27055,"enabled":true,"region":"eu","cc":"gb","latitude":51.509865,"longitude":-0.118092,"reserved":0,"last_update":"0001-01-01T00:00:00Z","name_a2s":"Uncletopia | London | 5 | All Maps","protocol":17,"map":"pl_snowycoast","folder":"tf","game":"Team Fortress","app_id":440,"player_count":0,"max_players":24,"Bots":0,"server_type":"Dedicated","server_os":"Linux","password":true,"vac":true,"version":"7757534","steam_id":85568392924742829,"keywords":["nocrits","nodmgspread","payload","uncletopia"],"game_id":440,"stv_port":27056,"stv_name":"Uncletopia | London | 5 | All Maps | STV","players":null},{"server_id":22,"name":"Uncletopia | London | 6 | All Maps","name_short":"lon-6","host":"lon-1.uk.uncletopia.com","port":27065,"enabled":true,"region":"eu","cc":"gb","latitude":51.509865,"longitude":-0.118092,"reserved":0,"last_update":"0001-01-01T00:00:00Z","name_a2s":"Uncletopia | London | 6 | All Maps","protocol":17,"map":"pl_frontier_final","folder":"tf","game":"Team Fortress","app_id":440,"player_count":21,"max_players":24,"Bots":0,"server_type":"Dedicated","server_os":"Linux","password":true,"vac":true,"version":"7757534","steam_id":85568392924742830,"keywords":["nocrits","nodmgspread","payload","uncletopia"],"game_id":440,"stv_port":27066,"stv_name":"Uncletopia | London | 6 | All Maps | STV","players":[{"user_id":292,"name":"penis gaming","steam_id":76561199198623988,"connected_time":158000000000,"state":"active","ping":56},{"user_id":263,"name":"Dr Sex","steam_id":76561198029044617,"connected_time":1220000000000,"state":"active","ping":45},{"user_id":243,"name":"Dimitri_612","steam_id":76561199223984137,"connected_time":1933000000000,"state":"active","ping":56},{"user_id":294,"name":"Aroo","steam_id":76561198132601368,"connected_time":76000000000,"state":"active","ping":74},{"user_id":244,"name":"Soloman","steam_id":76561199212054667,"connected_time":1880000000000,"state":"active","ping":46},{"user_id":274,"name":"Ankle Dane","steam_id":76561198134378108,"connected_time":565000000000,"state":"active","ping":101},{"user_id":291,"name":"My penis is a scooter","steam_id":76561198173218318,"connected_time":220000000000,"state":"active","ping":46},{"user_id":245,"name":"akakez","steam_id":76561198095432821,"connected_time":1848000000000,"state":"active","ping":110},{"user_id":278,"name":"QUEENSLANDA","steam_id":76561198081390166,"connected_time":481000000000,"state":"active","ping":55},{"user_id":231,"name":"QWERTY_KKL","steam_id":76561199156419203,"connected_time":2837000000000,"state":"active","ping":131},{"user_id":293,"name":"go play rimworld","steam_id":76561199397932924,"connected_time":101000000000,"state":"active","ping":192},{"user_id":277,"name":"Dr. Funkenstein","steam_id":76561197977816210,"connected_time":530000000000,"state":"active","ping":57},{"user_id":295,"name":"Greencoffee","steam_id":76561198842090589,"connected_time":42000000000,"state":"active","ping":100},{"user_id":171,"name":"sareena","steam_id":76561198810194062,"connected_time":6371000000000,"state":"active","ping":74},{"user_id":267,"name":"foursixsixseven","steam_id":76561199123727043,"connected_time":918000000000,"state":"active","ping":53},{"user_id":282,"name":"MakÅ‚owicz","steam_id":76561198281831506,"connected_time":384000000000,"state":"active","ping":98},{"user_id":264,"name":"SirSangoor","steam_id":76561198044462559,"connected_time":1193000000000,"state":"active","ping":105},{"user_id":262,"name":"MuffinMat","steam_id":76561198963850297,"connected_time":1260000000000,"state":"active","ping":78},{"user_id":283,"name":"KingVoker","steam_id":76561198039602539,"connected_time":357000000000,"state":"active","ping":75},{"user_id":290,"name":"TOLIC ENGINEER","steam_id":76561198985562801,"connected_time":295000000000,"state":"active","ping":392}]},{"server_id":40,"name":"Uncletopia | London | 7 | No Payload","name_short":"lon-7","host":"lon-1.uk.uncletopia.com","port":27075,"enabled":true,"region":"eu","cc":"gb","latitude":51.509865,"longitude":-0.118092,"reserved":0,"last_update":"0001-01-01T00:00:00Z","name_a2s":"Uncletopia | London | 7 | No Payload","protocol":17,"map":"koth_cascade","folder":"tf","game":"Team Fortress","app_id":440,"player_count":0,"max_players":24,"Bots":0,"server_type":"Dedicated","server_os":"Linux","password":true,"vac":true,"version":"7757534","steam_id":85568392924964314,"keywords":["cp","nocrits","nodmgspread","uncletopia"],"game_id":440,"stv_port":27076,"stv_name":"Uncletopia | London | 7 | No Payload | STV","players":null},{"server_id":41,"name":"Uncletopia | London | 8 | Community","name_short":"lon-8","host":"lon-1.uk.uncletopia.com","port":27085,"enabled":true,"region":"eu","cc":"gb","latitude":51.509865,"longitude":-0.118092,"reserved":0,"last_update":"0001-01-01T00:00:00Z","name_a2s":"Uncletopia | London | 8 | Community","protocol":17,"map":"pl_barnblitz","folder":"tf","game":"Team Fortress","app_id":440,"player_count":0,"max_players":24,"Bots":0,"server_type":"Dedicated","server_os":"Linux","password":true,"vac":true,"version":"7757534","steam_id":85568392924964315,"keywords":["nocrits","nodmgspread","payload","uncletopia"],"game_id":440,"stv_port":27086,"stv_name":"Uncletopia | London | 8 | Community | STV","players":null},{"server_id":300,"name":"Uncletopia | MontrÃ©al | 1 | All Maps","name_short":"mtl-1","host":"mtl-1.ca.uncletopia.com","port":27015,"enabled":true,"region":"us-east","cc":"ca","latitude":45.50889,"longitude":-73.56167,"reserved":0,"last_update":"0001-01-01T00:00:00Z","name_a2s":"Uncletopia | MontrÃ©al | 1 | All Maps","protocol":17,"map":"pl_frontier_final","folder":"tf","game":"Team Fortress","app_id":440,"player_count":0,"max_players":24,"Bots":0,"server_type":"Dedicated","server_os":"Linux","password":true,"vac":true,"version":"7757534","steam_id":85568392924500087,"keywords":["nocrits","nodmgspread","payload","uncletopia"],"game_id":440,"stv_port":27016,"stv_name":"Uncletopia | MontrÃ©al | 1 | All Maps | STV","players":null},{"server_id":301,"name":"Uncletopia | MontrÃ©al | 2 | All Maps","name_short":"mtl-2","host":"mtl-1.ca.uncletopia.com","port":27025,"enabled":true,"region":"us-east","cc":"ca","latitude":45.50889,"longitude":-73.56167,"reserved":0,"last_update":"0001-01-01T00:00:00Z","name_a2s":"Uncletopia | MontrÃ©al | 2 | All Maps","protocol":17,"map":"pl_snowycoast","folder":"tf","game":"Team Fortress","app_id":440,"player_count":0,"max_players":24,"Bots":0,"server_type":"Dedicated","server_os":"Linux","password":true,"vac":true,"version":"7757534","steam_id":85568392924500088,"keywords":["nocrits","nodmgspread","payload","uncletopia"],"game_id":440,"stv_port":27026,"stv_name":"Uncletopia | MontrÃ©al | 2 | All Maps | STV","players":null},{"server_id":302,"name":"Uncletopia | MontrÃ©al | 3 | All Maps","name_short":"mtl-3","host":"mtl-1.ca.uncletopia.com","port":27035,"enabled":true,"region":"us-east","cc":"ca","latitude":45.50889,"longitude":-73.56167,"reserved":0,"last_update":"0001-01-01T00:00:00Z","name_a2s":"Uncletopia | MontrÃ©al | 3 | All Maps","protocol":17,"map":"pl_swiftwater_final1","folder":"tf","game":"Team Fortress","app_id":440,"player_count":0,"max_players":24,"Bots":0,"server_type":"Dedicated","server_os":"Linux","password":true,"vac":true,"version":"7757534","steam_id":85568392924500089,"keywords":["nocrits","nodmgspread","payload","uncletopia"],"game_id":440,"stv_port":27036,"stv_name":"Uncletopia | MontrÃ©al | 3 | All Maps | STV","players":null},{"server_id":303,"name":"Uncletopia | MontrÃ©al | 4 | No Payload","name_short":"mtl-4","host":"mtl-1.ca.uncletopia.com","port":27045,"enabled":true,"region":"us-east","cc":"ca","latitude":45.50889,"longitude":-73.56167,"reserved":0,"last_update":"0001-01-01T00:00:00Z","name_a2s":"Uncletopia | MontrÃ©al | 4 | No Payload","protocol":17,"map":"ctf_sawmill","folder":"tf","game":"Team Fortress","app_id":440,"player_count":0,"max_players":24,"Bots":0,"server_type":"Dedicated","server_os":"Linux","password":true,"vac":true,"version":"7757534","steam_id":85568392924500090,"keywords":["ctf","nocrits","nodmgspread","uncletopia"],"game_id":440,"stv_port":27046,"stv_name":"Uncletopia | MontrÃ©al | 4 | No Payload | STV","players":null},{"server_id":13,"name":"Uncletopia | New York City | 1 | All Maps","name_short":"nyc-1","host":"nyc-1.us.uncletopia.com","port":27015,"enabled":true,"region":"us-east","cc":"us","latitude":40.73061,"longitude":-73.93524,"reserved":0,"last_update":"0001-01-01T00:00:00Z","name_a2s":"Uncletopia | New York City | 1 | All Maps","protocol":17,"map":"pl_borneo","folder":"tf","game":"Team Fortress","app_id":440,"player_count":24,"max_players":24,"Bots":0,"server_type":"Dedicated","server_os":"Linux","password":true,"vac":true,"version":"7757534","steam_id":85568392924469993,"keywords":["nocrits","nodmgspread","payload","uncletopia"],"game_id":440,"stv_port":27016,"stv_name":"Uncletopia | New York City | 1 | All Maps | STV","players":[{"user_id":159,"name":"floofy","steam_id":76561198389769098,"connected_time":3874000000000,"state":"active","ping":70},{"user_id":170,"name":"6t26j","steam_id":76561198278282836,"connected_time":2557000000000,"state":"active","ping":60},{"user_id":196,"name":"THE SANDVICH","steam_id":76561198079401635,"connected_time":688000000000,"state":"active","ping":57},{"user_id":183,"name":"Monster","steam_id":76561198189429665,"connected_time":1458000000000,"state":"active","ping":75},{"user_id":174,"name":"captain red","steam_id":76561198191587983,"connected_time":2318000000000,"state":"active","ping":95},{"user_id":181,"name":"Whole Wheat Lemon","steam_id":76561199025265182,"connected_time":1579000000000,"state":"active","ping":51},{"user_id":201,"name":"galaxy_bot","steam_id":76561198280918677,"connected_time":260000000000,"state":"active","ping":60},{"user_id":198,"name":"who is gavin?","steam_id":76561198069415057,"connected_time":433000000000,"state":"active","ping":44},{"user_id":187,"name":"sqerkbo","steam_id":76561198080012700,"connected_time":1089000000000,"state":"active","ping":46},{"user_id":199,"name":"Zeebop","steam_id":76561198148332988,"connected_time":374000000000,"state":"active","ping":61},{"user_id":155,"name":"TLG, Certified Gamer Mom","steam_id":76561198076669951,"connected_time":4030000000000,"state":"active","ping":57},{"user_id":144,"name":"Mrs.Frizzle","steam_id":76561198117157085,"connected_time":4902000000000,"state":"active","ping":58},{"user_id":162,"name":"crabapples","steam_id":76561198075818655,"connected_time":3813000000000,"state":"active","ping":71},{"user_id":173,"name":"WarMace","steam_id":76561198395937853,"connected_time":2387000000000,"state":"active","ping":86},{"user_id":127,"name":"Aurro (achievement hunting)","steam_id":76561198315692300,"connected_time":6070000000000,"state":"active","ping":48},{"user_id":128,"name":"Windup Monkey in a Human Suit","steam_id":76561198119501444,"connected_time":5986000000000,"state":"active","ping":89},{"user_id":189,"name":"dare","steam_id":76561197960977496,"connected_time":988000000000,"state":"active","ping":135},{"user_id":191,"name":"kasp","steam_id":76561198263271697,"connected_time":940000000000,"state":"active","ping":58},{"user_id":193,"name":"Dreyma","steam_id":76561198227372596,"connected_time":933000000000,"state":"active","ping":130},{"user_id":200,"name":"Stagred","steam_id":76561198055973266,"connected_time":363000000000,"state":"active","ping":56},{"user_id":180,"name":"Game Alex","steam_id":76561198325069908,"connected_time":1616000000000,"state":"active","ping":172},{"user_id":148,"name":"IceRunner","steam_id":76561198999311013,"connected_time":4868000000000,"state":"active","ping":104},{"user_id":194,"name":"scrapheap","steam_id":76561198202407087,"connected_time":933000000000,"state":"active","ping":84},{"user_id":195,"name":"Minos Prime Enthusiast","steam_id":76561198118929194,"connected_time":932000000000,"state":"active","ping":73}]},{"server_id":14,"name":"Uncletopia | New York City | 2 | All Maps","name_short":"nyc-2","host":"nyc-1.us.uncletopia.com","port":27025,"enabled":true,"region":"us-east","cc":"us","latitude":40.73061,"longitude":-73.93524,"reserved":0,"last_update":"0001-01-01T00:00:00Z","name_a2s":"Uncletopia | New York City | 2 | All Maps","protocol":17,"map":"koth_viaduct","folder":"tf","game":"Team Fortress","app_id":440,"player_count":0,"max_players":24,"Bots":0,"server_type":"Dedicated","server_os":"Linux","password":true,"vac":true,"version":"7757534","steam_id":85568392924469994,"keywords":["cp","nocrits","nodmgspread","uncletopia"],"game_id":440,"stv_port":27026,"stv_name":"Uncletopia | New York City | 2 | All Maps | STV","players":null},{"server_id":15,"name":"Uncletopia | New York City | 3 | Stopwatch Beta","name_short":"nyc-3","host":"nyc-1.us.uncletopia.com","port":27035,"enabled":true,"region":"us-east","cc":"us","latitude":40.73061,"longitude":-73.93524,"reserved":0,"last_update":"0001-01-01T00:00:00Z","name_a2s":"Uncletopia | New York City | 3 | Stopwatch Beta","protocol":17,"map":"pl_upward","folder":"tf","game":"Team Fortress","app_id":440,"player_count":0,"max_players":24,"Bots":0,"server_type":"Dedicated","server_os":"Linux","password":true,"vac":true,"version":"7757534","steam_id":85568392924742820,"keywords":["nocrits","nodmgspread","payload","uncletopia"],"game_id":440,"stv_port":27036,"stv_name":"Uncletopia | New York City | 3 | Stopwatch Beta | STV","players":null},{"server_id":16,"name":"Uncletopia | New York City | 4 | Community","name_short":"nyc-4","host":"nyc-1.us.uncletopia.com","port":27045,"enabled":true,"region":"us-east","cc":"us","latitude":40.73061,"longitude":-73.93524,"reserved":0,"last_update":"0001-01-01T00:00:00Z","name_a2s":"Uncletopia | New York City | 4 | Community","protocol":17,"map":"pl_swiftwater_final1","folder":"tf","game":"Team Fortress","app_id":440,"player_count":0,"max_players":24,"Bots":0,"server_type":"Dedicated","server_os":"Linux","password":true,"vac":true,"version":"7757534","steam_id":85568392924742821,"keywords":["nocrits","nodmgspread","payload","uncletopia"],"game_id":440,"stv_port":27046,"stv_name":"Uncletopia | New York City | 4 | Community | STV","players":null},{"server_id":142,"name":"Uncletopia | SÃ£o Paulo | 1 | All Maps","name_short":"sao-1","host":"sao-1.br.uncletopia.com","port":27015,"enabled":true,"region":"sa","cc":"br","latitude":-23.533773,"longitude":-46.62529,"reserved":0,"last_update":"0001-01-01T00:00:00Z","name_a2s":"Uncletopia | SÃ£o Paulo | 1 | All Maps","protocol":17,"map":"koth_lakeside_final","folder":"tf","game":"Team Fortress","app_id":440,"player_count":0,"max_players":24,"Bots":0,"server_type":"Dedicated","server_os":"Linux","password":true,"vac":true,"version":"7757534","steam_id":85568392924469996,"keywords":["cp","nocrits","nodmgspread","uncletopia"],"game_id":440,"stv_port":27016,"stv_name":"Uncletopia | SÃ£o Paulo | 1 | All Maps | STV","players":null},{"server_id":143,"name":"Uncletopia | SÃ£o Paulo | 2 | All Maps","name_short":"sao-2","host":"sao-2.br.uncletopia.com","port":27015,"enabled":true,"region":"sa","cc":"br","latitude":-23.533773,"longitude":-46.62529,"reserved":0,"last_update":"0001-01-01T00:00:00Z","name_a2s":"Uncletopia | SÃ£o Paulo | 2 | All Maps","protocol":17,"map":"cp_dustbowl","folder":"tf","game":"Team Fortress","app_id":440,"player_count":0,"max_players":24,"Bots":0,"server_type":"Dedicated","server_os":"Linux","password":true,"vac":true,"version":"7757534","steam_id":85568392924485349,"keywords":["cp","nocrits","nodmgspread","uncletopia"],"game_id":440,"stv_port":27016,"stv_name":"Uncletopia | SÃ£o Paulo | 2 | All Maps | STV","players":null},{"server_id":7,"name":"Uncletopia | Seattle | 1 | All Maps","name_short":"sea-1","host":"sea-1.us.uncletopia.com","port":27015,"enabled":true,"region":"us-west","cc":"us","latitude":47.608013,"longitude":-122.33517,"reserved":0,"last_update":"0001-01-01T00:00:00Z","name_a2s":"Uncletopia | Seattle | 1 | All Maps","protocol":17,"map":"pl_borneo","folder":"tf","game":"Team Fortress","app_id":440,"player_count":24,"max_players":24,"Bots":0,"server_type":"Dedicated","server_os":"Linux","password":true,"vac":true,"version":"7757534","steam_id":85568392924469997,"keywords":["nocrits","nodmgspread","payload","uncletopia"],"game_id":440,"stv_port":27016,"stv_name":"Uncletopia | Seattle | 1 | All Maps | STV","players":[{"user_id":212,"name":"Tyler\u0026Fingers","steam_id":76561198085154485,"connected_time":981000000000,"state":"active","ping":134},{"user_id":150,"name":"bobbymcbobington","steam_id":76561199089411172,"connected_time":4356000000000,"state":"active","ping":168},{"user_id":203,"name":"KingKata","steam_id":76561198289610011,"connected_time":1459000000000,"state":"active","ping":66},{"user_id":199,"name":"Rat_king","steam_id":76561199465689129,"connected_time":1557000000000,"state":"active","ping":101},{"user_id":201,"name":"JimJee","steam_id":76561199120656064,"connected_time":1514000000000,"state":"active","ping":122},{"user_id":188,"name":"Zobozo","steam_id":76561198028954297,"connected_time":2233000000000,"state":"active","ping":74},{"user_id":217,"name":"ç²¾æ¶²Blev Blevç²¾æ¶²","steam_id":76561198208972565,"connected_time":317000000000,"state":"active","ping":126},{"user_id":141,"name":"Agent86","steam_id":76561198046794593,"connected_time":4822000000000,"state":"active","ping":114},{"user_id":216,"name":"AmiableNebula","steam_id":76561198094306627,"connected_time":441000000000,"state":"active","ping":84},{"user_id":214,"name":"Laxoloni","steam_id":76561199197045700,"connected_time":755000000000,"state":"active","ping":92},{"user_id":196,"name":"Cave Spider","steam_id":76561198090419068,"connected_time":1643000000000,"state":"active","ping":78},{"user_id":189,"name":"o o o o o o o o o","steam_id":76561197993757506,"connected_time":1974000000000,"state":"active","ping":70},{"user_id":215,"name":"RocketofPanda(It/They)","steam_id":76561198133133187,"connected_time":618000000000,"state":"active","ping":89},{"user_id":207,"name":"Lepa RadiÄ‡","steam_id":76561198014698593,"connected_time":1151000000000,"state":"active","ping":46},{"user_id":218,"name":"Lesbian Futa Mommy","steam_id":76561198130479030,"connected_time":211000000000,"state":"active","ping":57},{"user_id":202,"name":"Ekuseebia","steam_id":76561198037504112,"connected_time":1479000000000,"state":"active","ping":77},{"user_id":204,"name":"Power Jake","steam_id":76561198051510260,"connected_time":1439000000000,"state":"active","ping":61},{"user_id":177,"name":"Zetta","steam_id":76561198045710113,"connected_time":2963000000000,"state":"active","ping":96},{"user_id":206,"name":"Flam","steam_id":76561198390834457,"connected_time":1393000000000,"state":"active","ping":54},{"user_id":181,"name":"oo","steam_id":76561198119626492,"connected_time":2564000000000,"state":"active","ping":67},{"user_id":129,"name":"unsafequeen","steam_id":76561199088126900,"connected_time":5705000000000,"state":"active","ping":127},{"user_id":153,"name":"Eraser cat","steam_id":76561199045570463,"connected_time":4077000000000,"state":"active","ping":46},{"user_id":223,"name":"drooskie","steam_id":76561198036083886,"connected_time":134000000000,"state":"active","ping":117},{"user_id":209,"name":"PachucoWaffle","steam_id":76561198051491032,"connected_time":1129000000000,"state":"active","ping":59}]},{"server_id":119,"name":"Uncletopia | Seattle | 2 | All Maps","name_short":"sea-2","host":"sea-1.us.uncletopia.com","port":27025,"enabled":true,"region":"us-west","cc":"us","latitude":47.608013,"longitude":-122.33517,"reserved":0,"last_update":"0001-01-01T00:00:00Z","name_a2s":"Uncletopia | Seattle | 2 | All Maps","protocol":17,"map":"cp_altitude","folder":"tf","game":"Team Fortress","app_id":440,"player_count":0,"max_players":24,"Bots":0,"server_type":"Dedicated","server_os":"Linux","password":true,"vac":true,"version":"7757534","steam_id":85568392924469998,"keywords":["cp","nocrits","nodmgspread","uncletopia"],"game_id":440,"stv_port":27026,"stv_name":"Uncletopia | Seattle | 2 | All Maps | STV","players":null},{"server_id":406,"name":"Uncletopia | Seattle | 3 | Stopwatch Beta","name_short":"sea-3","host":"sea-1.us.uncletopia.com","port":27035,"enabled":true,"region":"us-west","cc":"us","latitude":47.608013,"longitude":-122.33517,"reserved":0,"last_update":"0001-01-01T00:00:00Z","name_a2s":"Uncletopia | Seattle | 3 | Stopwatch Beta","protocol":17,"map":"cp_dustbowl","folder":"tf","game":"Team Fortress","app_id":440,"player_count":0,"max_players":24,"Bots":0,"server_type":"Dedicated","server_os":"Linux","password":true,"vac":true,"version":"7757534","steam_id":85568392924515217,"keywords":["cp","nocrits","nodmgspread","uncletopia"],"game_id":440,"stv_port":27036,"stv_name":"Uncletopia | Seattle | 3 | Stopwatch Beta | STV","players":null},{"server_id":17,"name":"Uncletopia | San Francisco | 1 | All Maps","name_short":"sfo-1","host":"sfo-1.us.uncletopia.com","port":27015,"enabled":true,"region":"us-west","cc":"us","latitude":37.77397,"longitude":-122.4313,"reserved":0,"last_update":"0001-01-01T00:00:00Z","name_a2s":"Uncletopia | San Francisco | 1 | All Maps","protocol":17,"map":"koth_viaduct","folder":"tf","game":"Team Fortress","app_id":440,"player_count":0,"max_players":24,"Bots":0,"server_type":"Dedicated","server_os":"Linux","password":true,"vac":true,"version":"7757534","steam_id":85568392924469999,"keywords":["cp","nocrits","nodmgspread","uncletopia"],"game_id":440,"stv_port":27016,"stv_name":"Uncletopia | San Francisco | 1 | All Maps | STV","players":null},{"server_id":18,"name":"Uncletopia | San Francisco | 2 | All Maps","name_short":"sfo-2","host":"sfo-1.us.uncletopia.com","port":27025,"enabled":true,"region":"us-west","cc":"us","latitude":37.77397,"longitude":-122.4313,"reserved":0,"last_update":"0001-01-01T00:00:00Z","name_a2s":"Uncletopia | San Francisco | 2 | All Maps","protocol":17,"map":"koth_highpass","folder":"tf","game":"Team Fortress","app_id":440,"player_count":0,"max_players":24,"Bots":0,"server_type":"Dedicated","server_os":"Linux","password":true,"vac":true,"version":"7757534","steam_id":85568392924470000,"keywords":["cp","nocrits","nodmgspread","uncletopia"],"game_id":440,"stv_port":27026,"stv_name":"Uncletopia | San Francisco | 2 | All Maps | STV","players":null},{"server_id":19,"name":"Uncletopia | San Francisco | 3 | Stopwatch Beta","name_short":"sfo-3","host":"sfo-1.us.uncletopia.com","port":27035,"enabled":true,"region":"us-west","cc":"us","latitude":37.77397,"longitude":-122.4313,"reserved":0,"last_update":"0001-01-01T00:00:00Z","name_a2s":"Uncletopia | San Francisco | 3 | Stopwatch Beta","protocol":17,"map":"koth_lakeside_final","folder":"tf","game":"Team Fortress","app_id":440,"player_count":0,"max_players":24,"Bots":0,"server_type":"Dedicated","server_os":"Linux","password":true,"vac":true,"version":"7757534","steam_id":85568392924742824,"keywords":["cp","nocrits","nodmgspread","uncletopia"],"game_id":440,"stv_port":27036,"stv_name":"Uncletopia | San Francisco | 3 | Stopwatch Beta | STV","players":null},{"server_id":20,"name":"Uncletopia | San Francisco | 4 | Community","name_short":"sfo-4","host":"sfo-1.us.uncletopia.com","port":27045,"enabled":true,"region":"us-west","cc":"us","latitude":37.77397,"longitude":-122.4313,"reserved":0,"last_update":"0001-01-01T00:00:00Z","name_a2s":"Uncletopia | San Francisco | 4 | Community","protocol":17,"map":"cp_altitude","folder":"tf","game":"Team Fortress","app_id":440,"player_count":0,"max_players":24,"Bots":0,"server_type":"Dedicated","server_os":"Linux","password":true,"vac":true,"version":"7757534","steam_id":85568392924742826,"keywords":["cp","nocrits","nodmgspread","uncletopia"],"game_id":440,"stv_port":27046,"stv_name":"Uncletopia | San Francisco | 4 | Community | STV","players":null},{"server_id":141,"name":"Uncletopia | Sydney | 1 | All Maps","name_short":"syd-1","host":"syd-1.au.uncletopia.com","port":27015,"enabled":true,"region":"au","cc":"au","latitude":-33.865143,"longitude":151.2099,"reserved":0,"last_update":"0001-01-01T00:00:00Z","name_a2s":"Uncletopia | Sydney | 1 | All Maps","protocol":17,"map":"pl_frontier_final","folder":"tf","game":"Team Fortress","app_id":440,"player_count":0,"max_players":24,"Bots":0,"server_type":"Dedicated","server_os":"Linux","password":true,"vac":true,"version":"7757534","steam_id":85568392924470001,"keywords":["nocrits","nodmgspread","payload","uncletopia"],"game_id":440,"stv_port":27016,"stv_name":"Uncletopia | Sydney | 1 | All Maps | STV","players":null},{"server_id":123,"name":"Uncletopia | Sydney | 2 | All Maps","name_short":"syd-2","host":"syd-1.au.uncletopia.com","port":27025,"enabled":true,"region":"au","cc":"au","latitude":-33.865143,"longitude":151.2099,"reserved":0,"last_update":"0001-01-01T00:00:00Z","name_a2s":"Uncletopia | Sydney | 2 | All Maps","protocol":17,"map":"plr_bananabay","folder":"tf","game":"Team Fortress","app_id":440,"player_count":0,"max_players":24,"Bots":0,"server_type":"Dedicated","server_os":"Linux","password":true,"vac":true,"version":"7757534","steam_id":85568392924470002,"keywords":["nocrits","nodmgspread","payload","uncletopia"],"game_id":440,"stv_port":27026,"stv_name":"Uncletopia | Sydney | 2 | All Maps | STV","players":null},{"server_id":395,"name":"Uncletopia | Sydney | 3 | All Maps","name_short":"syd-3","host":"syd-1.au.uncletopia.com","port":27035,"enabled":true,"region":"au","cc":"au","latitude":-33.865143,"longitude":151.2099,"reserved":0,"last_update":"0001-01-01T00:00:00Z","name_a2s":"Uncletopia | Sydney | 3 | All Maps","protocol":17,"map":"koth_highpass","folder":"tf","game":"Team Fortress","app_id":440,"player_count":0,"max_players":24,"Bots":0,"server_type":"Dedicated","server_os":"Linux","password":true,"vac":true,"version":"7757534","steam_id":85568392925194467,"keywords":["cp","nocrits","nodmgspread","uncletopia"],"game_id":440,"stv_port":27036,"stv_name":"Uncletopia | Sydney | 3 | All Maps | STV","players":null},{"server_id":396,"name":"Uncletopia | Sydney | 4 | All Maps","name_short":"syd-4","host":"syd-1.au.uncletopia.com","port":27045,"enabled":true,"region":"au","cc":"au","latitude":-33.865143,"longitude":151.2099,"reserved":0,"last_update":"0001-01-01T00:00:00Z","name_a2s":"Uncletopia | Sydney | 4 | All Maps","protocol":17,"map":"cp_process_final","folder":"tf","game":"Team Fortress","app_id":440,"player_count":0,"max_players":24,"Bots":0,"server_type":"Dedicated","server_os":"Linux","password":true,"vac":true,"version":"7757534","steam_id":85568392925397958,"keywords":["cp","nocrits","nodmgspread","uncletopia"],"game_id":440,"stv_port":27046,"stv_name":"Uncletopia | Sydney | 4 | All Maps | STV","players":null},{"server_id":58,"name":"Uncletopia | Sydney | 5 | Stopwatch Beta","name_short":"syd-5","host":"syd-1.au.uncletopia.com","port":27055,"enabled":true,"region":"au","cc":"au","latitude":-33.865143,"longitude":151.2099,"reserved":0,"last_update":"0001-01-01T00:00:00Z","name_a2s":"Uncletopia | Sydney | 5 | Stopwatch Beta","protocol":17,"map":"workshop/koth_clearcut_b15.ugc2107050255","folder":"tf","game":"Team Fortress","app_id":440,"player_count":0,"max_players":24,"Bots":0,"server_type":"Dedicated","server_os":"Linux","password":true,"vac":true,"version":"7757534","steam_id":85568392925397959,"keywords":["cp","nocrits","nodmgspread","uncletopia"],"game_id":440,"stv_port":27056,"stv_name":"Uncletopia | Sydney | 5 | Stopwatch Beta | STV","players":null},{"server_id":59,"name":"Uncletopia | Sydney | 6 | Community","name_short":"syd-6","host":"syd-1.au.uncletopia.com","port":27065,"enabled":true,"region":"au","cc":"au","latitude":-33.865143,"longitude":151.2099,"reserved":0,"last_update":"0001-01-01T00:00:00Z","name_a2s":"Uncletopia | Sydney | 6 | Community","protocol":17,"map":"cp_snakewater_final1","folder":"tf","game":"Team Fortress","app_id":440,"player_count":0,"max_players":24,"Bots":0,"server_type":"Dedicated","server_os":"Linux","password":true,"vac":true,"version":"7757534","steam_id":85568392925397960,"keywords":["cp","nocrits","nodmgspread","uncletopia"],"game_id":440,"stv_port":27066,"stv_name":"Uncletopia | Sydney | 6 | Community | STV","players":null},{"server_id":49,"name":"Uncletopia | Warsaw | 1 | All Maps","name_short":"waw-1","host":"waw-1.pl.uncletopia.com","port":27015,"enabled":true,"region":"eu","cc":"pl","latitude":52.2297,"longitude":21.017532,"reserved":0,"last_update":"0001-01-01T00:00:00Z","name_a2s":"","protocol":0,"map":"","folder":"","game":"","app_id":0,"player_count":0,"max_players":0,"Bots":0,"server_type":"","server_os":"","password":false,"vac":false,"version":"","steam_id":0,"keywords":null,"game_id":0,"stv_port":0,"stv_name":"","players":null},{"server_id":50,"name":"Uncletopia | Warsaw | 2 | All Maps","name_short":"waw-2","host":"waw-1.pl.uncletopia.com","port":27025,"enabled":true,"region":"eu","cc":"pl","latitude":52.2297,"longitude":21.017532,"reserved":0,"last_update":"0001-01-01T00:00:00Z","name_a2s":"Uncletopia | Warsaw | 2 | All Maps","protocol":17,"map":"pl_swiftwater_final1","folder":"tf","game":"Team Fortress","app_id":440,"player_count":0,"max_players":24,"Bots":0,"server_type":"Dedicated","server_os":"Linux","password":true,"vac":true,"version":"7757534","steam_id":85568392925397851,"keywords":["nocrits","nodmgspread","payload","uncletopia"],"game_id":440,"stv_port":27026,"stv_name":"Uncletopia | Warsaw | 2 | All Maps | STV","players":null},{"server_id":51,"name":"Uncletopia | Warsaw | 3 | All Maps","name_short":"waw-3","host":"waw-1.pl.uncletopia.com","port":27035,"enabled":true,"region":"eu","cc":"pl","latitude":52.2297,"longitude":21.017532,"reserved":0,"last_update":"0001-01-01T00:00:00Z","name_a2s":"Uncletopia | Warsaw | 3 | All Maps","protocol":17,"map":"koth_cascade","folder":"tf","game":"Team Fortress","app_id":440,"player_count":0,"max_players":24,"Bots":0,"server_type":"Dedicated","server_os":"Linux","password":true,"vac":true,"version":"7757534","steam_id":85568392925397852,"keywords":["cp","nocrits","nodmgspread","uncletopia"],"game_id":440,"stv_port":27036,"stv_name":"Uncletopia | Warsaw | 3 | All Maps | STV","players":null},{"server_id":52,"name":"Uncletopia | Warsaw | 4 | All Maps","name_short":"waw-4","host":"waw-1.pl.uncletopia.com","port":27045,"enabled":true,"region":"eu","cc":"pl","latitude":52.2297,"longitude":21.017532,"reserved":0,"last_update":"0001-01-01T00:00:00Z","name_a2s":"Uncletopia | Warsaw | 4 | All Maps","protocol":17,"map":"koth_lakeside_final","folder":"tf","game":"Team Fortress","app_id":440,"player_count":0,"max_players":24,"Bots":0,"server_type":"Dedicated","server_os":"Linux","password":true,"vac":true,"version":"7757534","steam_id":85568392925397853,"keywords":["cp","nocrits","nodmgspread","uncletopia"],"game_id":440,"stv_port":27046,"stv_name":"Uncletopia | Warsaw | 4 | All Maps | STV","players":null},{"server_id":53,"name":"Uncletopia | Warsaw | 5 | Stopwatch Beta","name_short":"waw-5","host":"waw-1.pl.uncletopia.com","port":27055,"enabled":true,"region":"eu","cc":"pl","latitude":52.2297,"longitude":21.017532,"reserved":0,"last_update":"0001-01-01T00:00:00Z","name_a2s":"Uncletopia | Warsaw | 5 | Stopwatch Beta","protocol":17,"map":"pl_borneo","folder":"tf","game":"Team Fortress","app_id":440,"player_count":0,"max_players":24,"Bots":0,"server_type":"Dedicated","server_os":"Linux","password":true,"vac":true,"version":"7757534","steam_id":85568392925397854,"keywords":["nocrits","nodmgspread","payload","uncletopia"],"game_id":440,"stv_port":27056,"stv_name":"Uncletopia | Warsaw | 5 | Stopwatch Beta | STV","players":null},{"server_id":54,"name":"Uncletopia | Warsaw | 6 | Community","name_short":"waw-6","host":"waw-1.pl.uncletopia.com","port":27065,"enabled":true,"region":"eu","cc":"pl","latitude":52.2297,"longitude":21.017532,"reserved":0,"last_update":"0001-01-01T00:00:00Z","name_a2s":"Uncletopia | Warsaw | 6 | Community","protocol":17,"map":"koth_lakeside_final","folder":"tf","game":"Team Fortress","app_id":440,"player_count":0,"max_players":24,"Bots":0,"server_type":"Dedicated","server_os":"Linux","password":true,"vac":true,"version":"7757534","steam_id":85568392925397856,"keywords":["cp","nocrits","nodmgspread","uncletopia"],"game_id":440,"stv_port":27066,"stv_name":"Uncletopia | Warsaw | 6 | Community | STV","players":null}]}