{"status":true,"message":"","result":[{"server_id":9,"name":"Uncletopia | Atlanta | 1 | All Maps","name_short":"atl-1","host":"atl-1.us.uncletopia.com","port":27015,"enabled":true,"region":"us-east","cc":"us","latitude":33.753746,"longitude":-84.38633,"reserved":0,"last_update":"0001-01-01T00:00:00Z","name_a2s":"Uncletopia | Atlanta | 1 | All Maps","protocol":17,"map":"pl_upward","folder":"tf","game":"Team Fortress","app_id":440,"player_count":24,"max_players":24,"Bots":0,"server_type":"Dedicated","server_os":"Linux","password":true,"vac":true,"version":"7742253","steam_id":85568392924469982,"keywords":["nocrits","nodmgspread","payload","uncletopia"],"game_id":440,"stv_port":27016,"stv_name":"Uncletopia | Atlanta | 1 | All Maps | STV","players":[{"user_id":716,"name":"clev","steam_id":76561198062739295,"connected_time":3136000000000,"state":"active","ping":70},{"user_id":730,"name":"ATL1 | to4st","steam_id":76561198981009008,"connected_time":1483000000000,"state":"active","ping":63},{"user_id":676,"name":"new years hooters","steam_id":76561198068022595,"connected_time":6945000000000,"state":"active","ping":61},{"user_id":692,"name":"ATL1 | icyy","steam_id":76561198968001329,"connected_time":5123000000000,"state":"active","ping":47},{"user_id":704,"name":"Epifiny","steam_id":76561198027958086,"connected_time":4180000000000,"state":"active","ping":77},{"user_id":731,"name":"Jin","steam_id":76561198119873148,"connected_time":1324000000000,"state":"active","ping":78},{"user_id":705,"name":"tru_","steam_id":76561198213525809,"connected_time":3996000000000,"state":"active","ping":133},{"user_id":722,"name":"Spoonful","steam_id":76561198927517471,"connected_time":2474000000000,"state":"active","ping":48},{"user_id":691,"name":"Aniz","steam_id":76561199226665024,"connected_time":5224000000000,"state":"active","ping":133},{"user_id":672,"name":"Bunt","steam_id":76561198124477567,"connected_time":7297000000000,"state":"active","ping":44},{"user_id":739,"name":"SomeScuffedKid","steam_id":76561198086113234,"connected_time":475000000000,"state":"active","ping":76},{"user_id":740,"name":"♣okaboma♣","steam_id":76561199071934026,"connected_time":278000000000,"state":"active","ping":136},{"user_id":666,"name":"♡Alyx♡","steam_id":76561198024303978,"connected_time":7375000000000,"state":"active","ping":51},{"user_id":694,"name":"Chef","steam_id":76561198086523798,"connected_time":5000000000000,"state":"active","ping":74},{"user_id":550,"name":"schizophrenic with a gun","steam_id":76561198016121536,"connected_time":20842000000000,"state":"active","ping":78},{"user_id":718,"name":"ash","steam_id":76561198127890645,"connected_time":2501000000000,"state":"active","ping":68},{"user_id":726,"name":"Honeybadger","steam_id":76561198075944319,"connected_time":1720000000000,"state":"active","ping":85},{"user_id":727,"name":"alaska thunderfuck","steam_id":76561198017030029,"connected_time":1642000000000,"state":"active","ping":104},{"user_id":690,"name":"Scrumlet","steam_id":76561198339806643,"connected_time":5498000000000,"state":"active","ping":77},{"user_id":732,"name":"NERDBOBS | Lavie","steam_id":76561198825997674,"connected_time":1322000000000,"state":"active","ping":86},{"user_id":733,"name":"Sk8TR","steam_id":76561199389089862,"connected_time":1307000000000,"state":"active","ping":135},{"user_id":738,"name":"tree of destiny","steam_id":76561198092135570,"connected_time":576000000000,"state":"active","ping":60},{"user_id":735,"name":"Intro Bonito","steam_id":76561198119478838,"connected_time":1246000000000,"state":"active","ping":60},{"user_id":678,"name":"yomokha","steam_id":76561198063175935,"connected_time":6930000000000,"state":"active","ping":56}]},{"server_id":400,"name":"Uncletopia | Atlanta | 3 | Stopwatch Beta","name_short":"atl-3","host":"atl-1.us.uncletopia.com","port":27035,"enabled":true,"region":"us-east","cc":"us","latitude":33.753746,"longitude":-84.38633,"reserved":0,"last_update":"0001-01-01T00:00:00Z","name_a2s":"Uncletopia | Atlanta | 3 | Stopwatch Beta","protocol":17,"map":"pl_pier","folder":"tf","game":"Team Fortress","app_id":440,"player_count":0,"max_players":24,"Bots":0,"server_type":"Dedicated","server_os":"Linux","password":true,"vac":true,"version":"7742253","steam_id":85568392924515187,"keywords":["nocrits","nodmgspread","payload","uncletopia"],"game_id":440,"stv_port":27036,"stv_name":"Uncletopia | Atlanta | 3 | Stopwatch Beta | STV","players":null},{"server_id":401,"name":"Uncletopia | Atlanta | 4 | No Payload","name_short":"atl-4","host":"atl-1.us.uncletopia.com","port":27045,"enabled":true,"region":"us-east","cc":"us","latitude":33.753746,"longitude":-84.38633,"reserved":0,"last_update":"0001-01-01T00:00:00Z","name_a2s":"Uncletopia | Atlanta | 4 | No Payload","protocol":17,"map":"pl_pier","folder":"tf","game":"Team Fortress","app_id":440,"player_count":0,"max_players":24,"Bots":0,"server_type":"Dedicated","server_os":"Linux","password":true,"vac":true,"version":"7723704","steam_id":85568392924515188,"keywords":["nocrits","nodmgspread","payload","uncletopia"],"game_id":440,"stv_port":27046,"stv_name":"Uncletopia | Atlanta | 4 | No Payload | STV","players":null},{"server_id":2,"name":"Uncletopia | Chicago | 1 | All Maps","name_short":"chi-1","host":"chi-1.us.uncletopia.com","port":27015,"enabled":true,"region":"us-central","cc":"us","latitude":41.881832,"longitude":-87.62318,"reserved":0,"last_update":"0001-01-01T00:00:00Z","name_a2s":"Uncletopia | Chicago | 1 | All Maps","protocol":17,"map":"koth_highpass","folder":"tf","game":"Team Fortress","app_id":440,"player_count":0,"max_players":24,"Bots":0,"server_type":"Dedicated","server_os":"Linux","password":true,"vac":true,"version":"7742253","steam_id":85568392924469984,"keywords":["cp","nocrits","nodmgspread","uncletopia"],"game_id":440,"stv_port":27016,"stv_name":"Uncletopia | Chicago | 1 | All Maps | STV","players":null},{"server_id":106,"name":"Uncletopia | Chicago | 2 | All Maps","name_short":"chi-2","host":"chi-1.us.uncletopia.com","port":27025,"enabled":true,"region":"us-central","cc":"us","latitude":41.881832,"longitude":-87.62318,"reserved":0,"last_update":"0001-01-01T00:00:00Z","name_a2s":"Uncletopia | Chicago | 2 | All Maps","protocol":17,"map":"koth_viaduct","folder":"tf","game":"Team Fortress","app_id":440,"player_count":24,"max_players":24,"Bots":0,"server_type":"Dedicated","server_os":"Linux","password":true,"vac":true,"version":"7742253","steam_id":85568392924469985,"keywords":["cp","nocrits","nodmgspread","uncletopia"],"game_id":440,"stv_port":27026,"stv_name":"Uncletopia | Chicago | 2 | All Maps | STV","players":[{"user_id":584,"name":"Western_spy","steam_id":76561198968587046,"connected_time":5207000000000,"state":"active","ping":100},{"user_id":571,"name":"NULLRIDER","steam_id":76561198128363064,"connected_time":5771000000000,"state":"active","ping":57},{"user_id":651,"name":"BILL NYE THE FAMILY GUY","steam_id":76561198380926090,"connected_time":1194000000000,"state":"active","ping":55},{"user_id":635,"name":"Cafe Alpha","steam_id":76561197965022076,"connected_time":1902000000000,"state":"active","ping":59},{"user_id":644,"name":"Rasputia","steam_id":76561198132051047,"connected_time":1489000000000,"state":"active","ping":103},{"user_id":667,"name":"Dzhoshua","steam_id":76561198071915251,"connected_time":468000000000,"state":"active","ping":64},{"user_id":618,"name":"Apple bottom jeans","steam_id":76561198323881731,"connected_time":3282000000000,"state":"active","ping":104},{"user_id":664,"name":"HumFreY","steam_id":76561198076639682,"connected_time":693000000000,"state":"active","ping":72},{"user_id":655,"name":"Leviathan","steam_id":76561197997528907,"connected_time":1104000000000,"state":"active","ping":58},{"user_id":640,"name":"xZackAttack27x","steam_id":76561198035446639,"connected_time":1734000000000,"state":"active","ping":61},{"user_id":669,"name":"skiky","steam_id":76561198797004708,"connected_time":180000000000,"state":"active","ping":70},{"user_id":665,"name":"turveyy","steam_id":76561198283507975,"connected_time":538000000000,"state":"active","ping":74},{"user_id":654,"name":"oyasumi","steam_id":76561198072950262,"connected_time":1175000000000,"state":"active","ping":57},{"user_id":668,"name":"TheRandomMan454","steam_id":76561198819503961,"connected_time":207000000000,"state":"active","ping":48},{"user_id":656,"name":"OrangeGlazer","steam_id":76561198127358240,"connected_time":1080000000000,"state":"active","ping":75},{"user_id":658,"name":"siv","steam_id":76561198322898267,"connected_time":992000000000,"state":"active","ping":55},{"user_id":670,"name":"Skagbait Addict","steam_id":76561198981347749,"connected_time":156000000000,"state":"active","ping":63},{"user_id":666,"name":"4 INT Caesar","steam_id":76561198046650995,"connected_time":516000000000,"state":"active","ping":79},{"user_id":650,"name":"Kuyumiester","steam_id":76561198126835302,"connected_time":1433000000000,"state":"active","ping":64},{"user_id":603,"name":"PILLOW PASTA","steam_id":76561198041017977,"connected_time":4544000000000,"state":"active","ping":72},{"user_id":660,"name":"Jorgul","steam_id":76561198978660706,"connected_time":920000000000,"state":"active","ping":76},{"user_id":661,"name":"womthedom","steam_id":76561198088768287,"connected_time":919000000000,"state":"active","ping":60},{"user_id":625,"name":"riri ᗜᴗᗜ","steam_id":76561198055462404,"connected_time":2691000000000,"state":"active","ping":88},{"user_id":617,"name":"Bloodyknuckle95","steam_id":76561198135625947,"connected_time":3485000000000,"state":"active","ping":72}]},{"server_id":402,"name":"Uncletopia | Chicago | 3 | All Maps","name_short":"chi-3","host":"chi-1.us.uncletopia.com","port":27035,"enabled":true,"region":"us-central","cc":"us","latitude":41.881832,"longitude":-87.62318,"reserved":0,"last_update":"0001-01-01T00:00:00Z","name_a2s":"Uncletopia | Chicago | 3 | All Maps","protocol":17,"map":"pl_barnblitz","folder":"tf","game":"Team Fortress","app_id":440,"player_count":24,"max_players":24,"Bots":0,"server_type":"Dedicated","server_os":"Linux","password":true,"vac":true,"version":"7742253","steam_id":85568392924515191,"keywords":["nocrits","nodmgspread","payload","uncletopia"],"game_id":440,"stv_port":27036,"stv_name":"Uncletopia | Chicago | 3 | All Maps | STV","players":[{"user_id":637,"name":"Patrick Bateman","steam_id":76561198408829424,"connected_time":3042000000000,"state":"active","ping":182},{"user_id":665,"name":"Prince Roniko","steam_id":76561198310764007,"connected_time":1627000000000,"state":"active","ping":92},{"user_id":666,"name":"the owner of a headache","steam_id":76561198862623007,"connected_time":1611000000000,"state":"active","ping":154},{"user_id":638,"name":"ultralisk52","steam_id":76561198051666604,"connected_time":3026000000000,"state":"active","ping":67},{"user_id":655,"name":"SnoGhül","steam_id":76561199210968300,"connected_time":2284000000000,"state":"active","ping":91},{"user_id":649,"name":"Remember","steam_id":76561198039101296,"connected_time":2619000000000,"state":"active","ping":88},{"user_id":673,"name":"Mitxh-","steam_id":76561198361286662,"connected_time":248000000000,"state":"active","ping":77},{"user_id":668,"name":"sincos","steam_id":76561198067015101,"connected_time":1142000000000,"state":"active","ping":78},{"user_id":624,"name":"Your Local NPR Station","steam_id":76561198143830279,"connected_time":3387000000000,"state":"active","ping":60},{"user_id":671,"name":"Randy has Burger","steam_id":76561199160246785,"connected_time":323000000000,"state":"active","ping":72},{"user_id":672,"name":"❤Graphite Muncher❤","steam_id":76561199200969139,"connected_time":293000000000,"state":"active","ping":113},{"user_id":656,"name":"trans they gender she/her/they/","steam_id":76561198212470305,"connected_time":2247000000000,"state":"active","ping":73},{"user_id":674,"name":"dahperson","steam_id":76561198067207467,"connected_time":226000000000,"state":"active","ping":50},{"user_id":659,"name":"Sailor Jupiter","steam_id":76561198125094648,"connected_time":2000000000000,"state":"active","ping":67},{"user_id":631,"name":"Limasio","steam_id":76561198198176191,"connected_time":3182000000000,"state":"active","ping":85},{"user_id":651,"name":"Fantastic","steam_id":76561198079088978,"connected_time":2476000000000,"state":"active","ping":45},{"user_id":635,"name":"Help Me","steam_id":76561198133851467,"connected_time":3098000000000,"state":"active","ping":91},{"user_id":667,"name":"spirit","steam_id":76561198102040731,"connected_time":1395000000000,"state":"active","ping":59},{"user_id":669,"name":"nnobi","steam_id":76561198878729277,"connected_time":1085000000000,"state":"active","ping":79},{"user_id":675,"name":"Zeref","steam_id":76561198418162006,"connected_time":222000000000,"state":"active","ping":59},{"user_id":645,"name":"ihearsomeonebuildingdiaperchang","steam_id":76561198114107570,"connected_time":2908000000000,"state":"active","ping":56},{"user_id":652,"name":"Yeshie the Dragon Layer","steam_id":76561198080214214,"connected_time":2468000000000,"state":"active","ping":41},{"user_id":658,"name":"Vulpes","steam_id":76561198038929334,"connected_time":2039000000000,"state":"active","ping":60},{"user_id":676,"name":"pbat09","steam_id":76561198018558329,"connected_time":213000000000,"state":"active","ping":77}]},{"server_id":403,"name":"Uncletopia | Chicago | 4 | All Maps","name_short":"chi-4","host":"chi-1.us.uncletopia.com","port":27045,"enabled":true,"region":"us-central","cc":"us","latitude":41.881832,"longitude":-87.62318,"reserved":0,"last_update":"0001-01-01T00:00:00Z","name_a2s":"Uncletopia | Chicago | 4 | All Maps","protocol":17,"map":"pl_swiftwater_final1","folder":"tf","game":"Team Fortress","app_id":440,"player_count":0,"max_players":24,"Bots":0,"server_type":"Dedicated","server_os":"Linux","password":true,"vac":true,"version":"7742253","steam_id":85568392924515193,"keywords":["nocrits","nodmgspread","payload","uncletopia"],"game_id":440,"stv_port":27046,"stv_name":"Uncletopia | Chicago | 4 | All Maps | STV","players":null},{"server_id":36,"name":"Uncletopia | Chicago | 5 | All Maps","name_short":"chi-5","host":"chi-2.us.uncletopia.com","port":27015,"enabled":true,"region":"us-central","cc":"us","latitude":41.881832,"longitude":-87.62318,"reserved":0,"last_update":"0001-01-01T00:00:00Z","name_a2s":"Uncletopia | Chicago | 5 | All Maps","protocol":17,"map":"koth_cascade","folder":"tf","game":"Team Fortress","app_id":440,"player_count":0,"max_players":24,"Bots":0,"server_type":"Dedicated","server_os":"Linux","password":true,"vac":true,"version":"7742253","steam_id":85568392924866362,"keywords":["cp","nocrits","nodmgspread","uncletopia"],"game_id":440,"stv_port":27016,"stv_name":"Uncletopia | Chicago | 5 | All Maps | STV","players":null},{"server_id":37,"name":"Uncletopia | Chicago | 6 | All Maps","name_short":"chi-6","host":"chi-2.us.uncletopia.com","port":27025,"enabled":true,"region":"us-central","cc":"us","latitude":41.881832,"longitude":-87.62318,"reserved":0,"last_update":"0001-01-01T00:00:00Z","name_a2s":"Uncletopia | Chicago | 6 | All Maps","protocol":17,"map":"cp_sunshine","folder":"tf","game":"Team Fortress","app_id":440,"player_count":0,"max_players":24,"Bots":0,"server_type":"Dedicated","server_os":"Linux","password":true,"vac":true,"version":"7742253","steam_id":85568392924866363,"keywords":["cp","nocrits","nodmgspread","uncletopia"],"game_id":440,"stv_port":27026,"stv_name":"Uncletopia | Chicago | 6 | All Maps | STV","players":null},{"server_id":38,"name":"Uncletopia | Chicago | 7 | Stopwatch Beta","name_short":"chi-7","host":"chi-2.us.uncletopia.com","port":27035,"enabled":true,"region":"us-central","cc":"us","latitude":41.881832,"longitude":-87.62318,"reserved":0,"last_update":"0001-01-01T00:00:00Z","name_a2s":"Uncletopia | Chicago | 7 | Stopwatch Beta","protocol":17,"map":"workshop/koth_clearcut_b15.ugc2107050255","folder":"tf","game":"Team Fortress","app_id":440,"player_count":0,"max_players":24,"Bots":0,"server_type":"Dedicated","server_os":"Linux","password":true,"vac":true,"version":"7742253","steam_id":85568392924866364,"keywords":["cp","nocrits","nodmgspread","uncletopia"],"game_id":440,"stv_port":27036,"stv_name":"Uncletopia | Chicago | 7 | Stopwatch Beta | STV","players":null},{"server_id":39,"name":"Uncletopia | Chicago | 8 | Community","name_short":"chi-8","host":"chi-2.us.uncletopia.com","port":27045,"enabled":true,"region":"us-central","cc":"us","latitude":41.881832,"longitude":-87.62318,"reserved":0,"last_update":"0001-01-01T00:00:00Z","name_a2s":"Uncletopia | Chicago | 8 | Community","protocol":17,"map":"workshop/koth_bagel_rc5.ugc2514036946","folder":"tf","game":"Team Fortress","app_id":440,"player_count":0,"max_players":24,"Bots":0,"server_type":"Dedicated","server_os":"Linux","password":true,"vac":true,"version":"7742253","steam_id":85568392924866365,"keywords":["cp","nocrits","nodmgspread","uncletopia"],"game_id":440,"stv_port":27046,"stv_name":"Uncletopia | Chicago | 8 | Community | STV","players":null},{"server_id":8,"name":"Uncletopia | Dallas | 1 | All Maps","name_short":"dal-1","host":"dal-1.us.uncletopia.com","port":27015,"enabled":true,"region":"us-central","cc":"us","latitude":32.779167,"longitude":-96.80889,"reserved":0,"last_update":"0001-01-01T00:00:00Z","name_a2s":"Uncletopia | Dallas | 1 | All Maps","protocol":17,"map":"cp_dustbowl","folder":"tf","game":"Team Fortress","app_id":440,"player_count":24,"max_players":24,"Bots":0,"server_type":"Dedicated","server_os":"Linux","password":true,"vac":true,"version":"7742253","steam_id":85568392924469986,"keywords":["cp","nocrits","nodmgspread","uncletopia"],"game_id":440,"stv_port":27016,"stv_name":"Uncletopia | Dallas | 1 | All Maps | STV","players":[{"user_id":599,"name":"HE’S IN THE GODDAMN WALLS","steam_id":76561198363267009,"connected_time":3552000000000,"state":"active","ping":45},{"user_id":626,"name":"karbomb","steam_id":76561198120744480,"connected_time":733000000000,"state":"active","ping":51},{"user_id":615,"name":"PolishBandit","steam_id":76561198190379282,"connected_time":1394000000000,"state":"active","ping":70},{"user_id":585,"name":"plink","steam_id":76561198057829889,"connected_time":4579000000000,"state":"active","ping":107},{"user_id":613,"name":"eis","steam_id":76561198830293087,"connected_time":1445000000000,"state":"active","ping":62},{"user_id":568,"name":"matcha ^_^ \u003c3","steam_id":76561198832230598,"connected_time":5664000000000,"state":"active","ping":86},{"user_id":614,"name":"Sleepyhead","steam_id":76561199009820075,"connected_time":1431000000000,"state":"active","ping":58},{"user_id":533,"name":"Punished Shitster","steam_id":76561198150452857,"connected_time":7401000000000,"state":"active","ping":48},{"user_id":593,"name":"kerno the ass hog","steam_id":76561199195205705,"connected_time":4323000000000,"state":"active","ping":59},{"user_id":607,"name":"THE WALL","steam_id":76561199084320480,"connected_time":1628000000000,"state":"active","ping":83},{"user_id":328,"name":"bo scrungulus","steam_id":76561198038036122,"connected_time":21852000000000,"state":"active","ping":75},{"user_id":617,"name":"Joocebox","steam_id":76561198259997021,"connected_time":1237000000000,"state":"active","ping":76},{"user_id":618,"name":"LuciD","steam_id":76561198242842394,"connected_time":1229000000000,"state":"active","ping":65},{"user_id":619,"name":"deech","steam_id":76561198066429444,"connected_time":1211000000000,"state":"active","ping":87},{"user_id":605,"name":"Biggest Dude In Town 4U","steam_id":76561198070281464,"connected_time":2463000000000,"state":"active","ping":114},{"user_id":606,"name":"rainyalex35","steam_id":76561198085300733,"connected_time":2457000000000,"state":"active","ping":92},{"user_id":620,"name":"flexer_2000","steam_id":76561198084422657,"connected_time":1208000000000,"state":"active","ping":77},{"user_id":567,"name":"yerb *18badies","steam_id":76561198312055294,"connected_time":5670000000000,"state":"active","ping":85},{"user_id":621,"name":"polarize","steam_id":76561198039686606,"connected_time":1202000000000,"state":"active","ping":99},{"user_id":594,"name":"Guy Who Names Square Enix Games","steam_id":76561198202195792,"connected_time":4296000000000,"state":"active","ping":85},{"user_id":608,"name":"armed slobbery. enguzzlement.","steam_id":76561198237292756,"connected_time":1626000000000,"state":"active","ping":94},{"user_id":597,"name":"JazzMuted","steam_id":76561197974184265,"connected_time":3885000000000,"state":"active","ping":74},{"user_id":622,"name":"{King}.Muffin(Tettk)","steam_id":76561198039646364,"connected_time":1191000000000,"state":"active","ping":104},{"user_id":623,"name":"Danny DeVito's foreskln","steam_id":76561198120761087,"connected_time":868000000000,"state":"active","ping":45}]},{"server_id":108,"name":"Uncletopia | Dallas | 2 | All Maps","name_short":"dal-2","host":"dal-1.us.uncletopia.com","port":27025,"enabled":true,"region":"us-central","cc":"us","latitude":32.779167,"longitude":-96.80889,"reserved":0,"last_update":"0001-01-01T00:00:00Z","name_a2s":"Uncletopia | Dallas | 2 | All Maps","protocol":17,"map":"cp_sunshine","folder":"tf","game":"Team Fortress","app_id":440,"player_count":0,"max_players":24,"Bots":0,"server_type":"Dedicated","server_os":"Linux","password":true,"vac":true,"version":"7742253","steam_id":85568392924469988,"keywords":["cp","nocrits","nodmgspread","uncletopia"],"game_id":440,"stv_port":27026,"stv_name":"Uncletopia | Dallas | 2 | All Maps | STV","players":null},{"server_id":5,"name":"Uncletopia | Frankfurt | 1 | All Maps","name_short":"frk-1","host":"frk-1.de.uncletopia.com","port":27015,"enabled":true,"region":"eu","cc":"de","latitude":50.110924,"longitude":8.682127,"reserved":0,"last_update":"0001-01-01T00:00:00Z","name_a2s":"Uncletopia | Frankfurt | 1 | All Maps","protocol":17,"map":"pl_barnblitz","folder":"tf","game":"Team Fortress","app_id":440,"player_count":0,"max_players":24,"Bots":0,"server_type":"Dedicated","server_os":"Linux","password":true,"vac":true,"version":"7742253","steam_id":85568392924469989,"keywords":["nocrits","nodmgspread","payload","uncletopia"],"game_id":440,"stv_port":27016,"stv_name":"Uncletopia | Frankfurt | 1 | All Maps | STV","players":null},{"server_id":110,"name":"Uncletopia | Frankfurt | 2 | All Maps","name_short":"frk-2","host":"frk-1.de.uncletopia.com","port":27025,"enabled":true,"region":"eu","cc":"de","latitude":50.110924,"longitude":8.682127,"reserved":0,"last_update":"0001-01-01T00:00:00Z","name_a2s":"Uncletopia | Frankfurt | 2 | All Maps","protocol":17,"map":"pl_barnblitz","folder":"tf","game":"Team Fortress","app_id":440,"player_count":0,"max_players":24,"Bots":0,"server_type":"Dedicated","server_os":"Linux","password":true,"vac":true,"version":"7742253","steam_id":85568392924469990,"keywords":["nocrits","nodmgspread","payload","uncletopia"],"game_id":440,"stv_port":27026,"stv_name":"Uncletopia | Frankfurt | 2 | All Maps | STV","players":null},{"server_id":308,"name":"Uncletopia | Frankfurt | 3 | All Maps","name_short":"frk-3","host":"frk-1.de.uncletopia.com","port":27035,"enabled":true,"region":"eu","cc":"de","latitude":50.110924,"longitude":8.682127,"reserved":0,"last_update":"0001-01-01T00:00:00Z","name_a2s":"Uncletopia | Frankfurt | 3 | All Maps","protocol":17,"map":"koth_suijin","folder":"tf","game":"Team Fortress","app_id":440,"player_count":24,"max_players":24,"Bots":0,"server_type":"Dedicated","server_os":"Linux","password":true,"vac":true,"version":"7742253","steam_id":85568392924504274,"keywords":["cp","nocrits","nodmgspread","uncletopia"],"game_id":440,"stv_port":27036,"stv_name":"Uncletopia | Frankfurt | 3 | All Maps | STV","players":[{"user_id":135,"name":"Anna-May","steam_id":76561198390241099,"connected_time":274000000000,"state":"active","ping":73},{"user_id":104,"name":"Jedi Knight","steam_id":76561198039030709,"connected_time":1311000000000,"state":"active","ping":45},{"user_id":134,"name":"Leszy","steam_id":76561198372172135,"connected_time":326000000000,"state":"active","ping":61},{"user_id":94,"name":"Peter Griffin Gaming","steam_id":76561198385956922,"connected_time":1959000000000,"state":"active","ping":65},{"user_id":142,"name":"Syll","steam_id":76561198040736202,"connected_time":16000000000,"state":"active","ping":108},{"user_id":95,"name":"ChesseKnight","steam_id":76561198102476339,"connected_time":1947000000000,"state":"active","ping":81},{"user_id":99,"name":"grandpa's post-mortem photo","steam_id":76561198130116078,"connected_time":1839000000000,"state":"active","ping":92},{"user_id":97,"name":"Manekrit","steam_id":76561198269497846,"connected_time":1920000000000,"state":"active","ping":66},{"user_id":98,"name":"SubDragon","steam_id":76561199074530966,"connected_time":1910000000000,"state":"active","ping":114},{"user_id":132,"name":"NoFace","steam_id":76561198042194869,"connected_time":438000000000,"state":"active","ping":64},{"user_id":121,"name":"AviSheepie","steam_id":76561198154361272,"connected_time":762000000000,"state":"active","ping":91},{"user_id":103,"name":"Mallkiri","steam_id":76561198055914926,"connected_time":1341000000000,"state":"active","ping":117},{"user_id":105,"name":"Martoro","steam_id":76561199022278314,"connected_time":1293000000000,"state":"active","ping":48},{"user_id":16,"name":"catboy trickster","steam_id":76561198075665211,"connected_time":10408000000000,"state":"active","ping":36},{"user_id":112,"name":"Pahlberg","steam_id":76561198208547929,"connected_time":1120000000000,"state":"active","ping":81},{"user_id":127,"name":"Brofessor Sex","steam_id":76561198398673967,"connected_time":619000000000,"state":"active","ping":74},{"user_id":138,"name":"fitznchipz","steam_id":76561199405538934,"connected_time":70000000000,"state":"active","ping":258},{"user_id":125,"name":"krapiva1423","steam_id":76561199007309580,"connected_time":725000000000,"state":"active","ping":76},{"user_id":75,"name":"Echo of Abyss","steam_id":76561198981841782,"connected_time":4016000000000,"state":"active","ping":77},{"user_id":139,"name":"Kodutah","steam_id":76561198203405574,"connected_time":46000000000,"state":"active","ping":89},{"user_id":141,"name":"Le Carpe","steam_id":76561198972038742,"connected_time":23000000000,"state":"active","ping":51},{"user_id":25,"name":"stoppen","steam_id":76561197960281482,"connected_time":10374000000000,"state":"active","ping":65},{"user_id":26,"name":"Melon","steam_id":76561198150893860,"connected_time":10368000000000,"state":"active","ping":79},{"user_id":120,"name":"maxharmony","steam_id":76561198233819688,"connected_time":814000000000,"state":"active","ping":88}]},{"server_id":309,"name":"Uncletopia | Frankfurt | 4 | All Maps","name_short":"frk-4","host":"frk-1.de.uncletopia.com","port":27045,"enabled":true,"region":"eu","cc":"de","latitude":50.110924,"longitude":8.682127,"reserved":0,"last_update":"0001-01-01T00:00:00Z","name_a2s":"Uncletopia | Frankfurt | 4 | All Maps","protocol":17,"map":"cp_sunshine","folder":"tf","game":"Team Fortress","app_id":440,"player_count":0,"max_players":24,"Bots":0,"server_type":"Dedicated","server_os":"Linux","password":true,"vac":true,"version":"7742253","steam_id":85568392924504275,"keywords":["cp","nocrits","nodmgspread","uncletopia"],"game_id":440,"stv_port":27046,"stv_name":"Uncletopia | Frankfurt | 4 | All Maps | STV","players":null},{"server_id":310,"name":"Uncletopia | Frankfurt | 5 | All Maps","name_short":"frk-5","host":"frk-1.de.uncletopia.com","port":27055,"enabled":true,"region":"eu","cc":"de","latitude":50.110924,"longitude":8.682127,"reserved":0,"last_update":"0001-01-01T00:00:00Z","name_a2s":"Uncletopia | Frankfurt | 5 | All Maps","protocol":17,"map":"cp_snakewater_final1","folder":"tf","game":"Team Fortress","app_id":440,"player_count":0,"max_players":24,"Bots":0,"server_type":"Dedicated","server_os":"Linux","password":true,"vac":true,"version":"7742253","steam_id":85568392924504277,"keywords":["cp","nocrits","nodmgspread","uncletopia"],"game_id":440,"stv_port":27056,"stv_name":"Uncletopia | Frankfurt | 5 | All Maps | STV","players":null},{"server_id":311,"name":"Uncletopia | Frankfurt | 6 | All Maps","name_short":"frk-6","host":"frk-1.de.uncletopia.com","port":27065,"enabled":true,"region":"eu","cc":"de","latitude":50.110924,"longitude":8.682127,"reserved":0,"last_update":"0001-01-01T00:00:00Z","name_a2s":"Uncletopia | Frankfurt | 6 | All Maps","protocol":17,"map":"koth_lakeside_final","folder":"tf","game":"Team Fortress","app_id":440,"player_count":0,"max_players":24,"Bots":0,"server_type":"Dedicated","server_os":"Linux","password":true,"vac":true,"version":"7742253","steam_id":85568392924504278,"keywords":["cp","nocrits","nodmgspread","uncletopia"],"game_id":440,"stv_port":27066,"stv_name":"Uncletopia | Frankfurt | 6 | All Maps | STV","players":null},{"server_id":23,"name":"Uncletopia | Frankfurt | 7 | Stopwatch Beta","name_short":"frk-7","host":"frk-1.de.uncletopia.com","port":27075,"enabled":true,"region":"eu","cc":"de","latitude":50.110924,"longitude":8.682127,"reserved":0,"last_update":"0001-01-01T00:00:00Z","name_a2s":"Uncletopia | Frankfurt | 7 | Stopwatch Beta","protocol":17,"map":"workshop/koth_clearcut_b15.ugc2107050255","folder":"tf","game":"Team Fortress","app_id":440,"player_count":0,"max_players":24,"Bots":0,"server_type":"Dedicated","server_os":"Linux","password":true,"vac":true,"version":"7742253","steam_id":85568392924742827,"keywords":["cp","nocrits","nodmgspread","uncletopia"],"game_id":440,"stv_port":27076,"stv_name":"Uncletopia | Frankfurt | 7 | Stopwatch Beta | STV","players":null},{"server_id":24,"name":"Uncletopia | Frankfurt | 8 | Community","name_short":"frk-8","host":"frk-1.de.uncletopia.com","port":27085,"enabled":true,"region":"eu","cc":"de","latitude":50.110924,"longitude":8.682127,"reserved":0,"last_update":"0001-01-01T00:00:00Z","name_a2s":"Uncletopia | Frankfurt | 8 | Community","protocol":17,"map":"koth_cascade","folder":"tf","game":"Team Fortress","app_id":440,"player_count":0,"max_players":24,"Bots":0,"server_type":"Dedicated","server_os":"Linux","password":true,"vac":true,"version":"7742253","steam_id":85568392924742828,"keywords":["cp","nocrits","nodmgspread","uncletopia"],"game_id":440,"stv_port":27086,"stv_name":"Uncletopia | Frankfurt | 8 | Community | STV","players":null},{"server_id":202,"name":"Uncletopia | Hong Kong | 1 | All Maps","name_short":"hgk-1","host":"hgk-1.hk.uncletopia.com","port":27015,"enabled":true,"region":"asia","cc":"hk","latitude":22.302711,"longitude":114.177216,"reserved":0,"last_update":"0001-01-01T00:00:00Z","name_a2s":"Uncletopia | Hong Kong | 1 | All Maps","protocol":17,"map":"pl_frontier_final","folder":"tf","game":"Team Fortress","app_id":440,"player_count":24,"max_players":24,"Bots":0,"server_type":"Dedicated","server_os":"Linux","password":true,"vac":true,"version":"7742253","steam_id":85568392924494504,"keywords":["nocrits","nodmgspread","payload","uncletopia"],"game_id":440,"stv_port":27016,"stv_name":"Uncletopia | Hong Kong | 1 | All Maps | STV","players":[{"user_id":91,"name":"irylfaith","steam_id":76561199071455481,"connected_time":3803000000000,"state":"active","ping":97},{"user_id":120,"name":"i cannot do this jump","steam_id":76561198434815618,"connected_time":177000000000,"state":"active","ping":43},{"user_id":99,"name":"john ultrakill","steam_id":76561198442507642,"connected_time":2790000000000,"state":"active","ping":90},{"user_id":102,"name":"kiyoTsuruki","steam_id":76561199022830900,"connected_time":2521000000000,"state":"active","ping":55},{"user_id":103,"name":"bad at everything(f2p)","steam_id":76561199378524169,"connected_time":2469000000000,"state":"active","ping":120},{"user_id":84,"name":"Windmill","steam_id":76561199230997986,"connected_time":5307000000000,"state":"active","ping":72},{"user_id":104,"name":"ConHosh1","steam_id":76561199387718733,"connected_time":2467000000000,"state":"active","ping":68},{"user_id":69,"name":"GalaxyZ","steam_id":76561198250904422,"connected_time":5747000000000,"state":"active","ping":68},{"user_id":113,"name":"Puddin","steam_id":76561198140052918,"connected_time":1297000000000,"state":"active","ping":92},{"user_id":58,"name":"ɔuᗡඞ ɟƨuᒐ","steam_id":76561199031283970,"connected_time":6402000000000,"state":"active","ping":74},{"user_id":94,"name":"Momoxhien","steam_id":76561198414997429,"connected_time":3142000000000,"state":"active","ping":57},{"user_id":60,"name":"UZ","steam_id":76561198179320563,"connected_time":6310000000000,"state":"active","ping":125},{"user_id":97,"name":"qb","steam_id":76561198412329672,"connected_time":2949000000000,"state":"active","ping":98},{"user_id":109,"name":"lolwhat","steam_id":76561199387628765,"connected_time":2243000000000,"state":"active","ping":131},{"user_id":100,"name":"CoatedInFire","steam_id":76561199070760845,"connected_time":2548000000000,"state":"active","ping":118},{"user_id":71,"name":"cellum95","steam_id":76561198172146871,"connected_time":5699000000000,"state":"active","ping":63},{"user_id":67,"name":"dxcls","steam_id":76561198240627872,"connected_time":5865000000000,"state":"active","ping":53},{"user_id":108,"name":"TheGrimZoneExD","steam_id":76561199384486493,"connected_time":2273000000000,"state":"active","ping":119},{"user_id":73,"name":"cjjakeypaul","steam_id":76561199126245431,"connected_time":5660000000000,"state":"active","ping":110},{"user_id":76,"name":"peppermint","steam_id":76561198820630422,"connected_time":5603000000000,"state":"active","ping":90},{"user_id":117,"name":"uptriste","steam_id":76561198158666692,"connected_time":853000000000,"state":"active","ping":39},{"user_id":119,"name":"hasty","steam_id":76561198439382132,"connected_time":430000000000,"state":"active","ping":114},{"user_id":86,"name":"sleepless","steam_id":76561198255521007,"connected_time":4896000000000,"state":"active","ping":41},{"user_id":111,"name":"Vox","steam_id":76561199092455646,"connected_time":2137000000000,"state":"active","ping":72}]},{"server_id":1,"name":"Uncletopia | Los Angeles | 1 | All Maps","name_short":"lax-1","host":"lax-1.us.uncletopia.com","port":27015,"enabled":true,"region":"us-west","cc":"us","latitude":33.94279,"longitude":-118.41004,"reserved":0,"last_update":"0001-01-01T00:00:00Z","name_a2s":"Uncletopia | Los Angeles | 1 | All Maps","protocol":17,"map":"pl_snowycoast","folder":"tf","game":"Team Fortress","app_id":440,"player_count":19,"max_players":24,"Bots":0,"server_type":"Dedicated","server_os":"Linux","password":true,"vac":true,"version":"7742253","steam_id":85568392924469991,"keywords":["nocrits","nodmgspread","payload","uncletopia"],"game_id":440,"stv_port":27016,"stv_name":"Uncletopia | Los Angeles | 1 | All Maps | STV","players":[{"user_id":237,"name":"Wise Mystical Tree","steam_id":76561198377835843,"connected_time":5000000000,"state":"spawning","ping":127},{"user_id":204,"name":"tf2 gamers central","steam_id":76561199109802620,"connected_time":1789000000000,"state":"active","ping":43},{"user_id":205,"name":"shellaa","steam_id":76561198044124102,"connected_time":1731000000000,"state":"active","ping":72},{"user_id":233,"name":"Re-Crix","steam_id":76561198351895601,"connected_time":207000000000,"state":"active","ping":51},{"user_id":206,"name":"Bri","steam_id":76561198089908485,"connected_time":1720000000000,"state":"active","ping":132},{"user_id":227,"name":"DORATHEEXPLORER","steam_id":76561198124773931,"connected_time":435000000000,"state":"active","ping":52},{"user_id":163,"name":"XxChocola20xX","steam_id":76561199108579557,"connected_time":6413000000000,"state":"active","ping":68},{"user_id":207,"name":"Soft Fuzzy Horse","steam_id":76561198005777544,"connected_time":1679000000000,"state":"active","ping":71},{"user_id":142,"name":"Chalupa Jones","steam_id":76561198335855588,"connected_time":7963000000000,"state":"active","ping":46},{"user_id":210,"name":"Spiral","steam_id":76561199186332565,"connected_time":1469000000000,"state":"active","ping":53},{"user_id":199,"name":"7/11 Gaming","steam_id":76561199091007559,"connected_time":2159000000000,"state":"active","ping":49},{"user_id":198,"name":"bimbofication","steam_id":76561198290315229,"connected_time":2225000000000,"state":"active","ping":66},{"user_id":228,"name":"Belmore","steam_id":76561198009355231,"connected_time":396000000000,"state":"active","ping":48},{"user_id":235,"name":"doozy","steam_id":76561198033106776,"connected_time":64000000000,"state":"active","ping":120},{"user_id":188,"name":"Whisper!","steam_id":76561198119609795,"connected_time":3633000000000,"state":"active","ping":48},{"user_id":213,"name":"Pinhead","steam_id":76561198207979440,"connected_time":1361000000000,"state":"active","ping":56},{"user_id":219,"name":"lukamine","steam_id":76561198166827208,"connected_time":1021000000000,"state":"active","ping":75},{"user_id":217,"name":"Feel the bern","steam_id":76561198078824519,"connected_time":1133000000000,"state":"active","ping":48},{"user_id":231,"name":"Hatefulz/Joker","steam_id":76561198964535584,"connected_time":305000000000,"state":"active","ping":59}]},{"server_id":112,"name":"Uncletopia | Los Angeles | 2 | All Maps","name_short":"lax-2","host":"lax-1.us.uncletopia.com","port":27025,"enabled":true,"region":"us-west","cc":"us","latitude":33.94279,"longitude":-118.41004,"reserved":0,"last_update":"0001-01-01T00:00:00Z","name_a2s":"Uncletopia | Los Angeles | 2 | All Maps","protocol":17,"map":"cp_process_final","folder":"tf","game":"Team Fortress","app_id":440,"player_count":0,"max_players":24,"Bots":0,"server_type":"Dedicated","server_os":"Linux","password":true,"vac":true,"version":"7742253","steam_id":85568392924469992,"keywords":["cp","nocrits","nodmgspread","uncletopia"],"game_id":440,"stv_port":27026,"stv_name":"Uncletopia | Los Angeles | 2 | All Maps | STV","players":null},{"server_id":324,"name":"Uncletopia | Los Angeles | 3 | All Maps","name_short":"lax-3","host":"lax-1.us.uncletopia.com","port":27035,"enabled":true,"region":"us-west","cc":"us","latitude":33.94279,"longitude":-118.41004,"reserved":0,"last_update":"0001-01-01T00:00:00Z","name_a2s":"Uncletopia | Los Angeles | 3 | All Maps","protocol":17,"map":"pl_upward","folder":"tf","game":"Team Fortress","app_id":440,"player_count":22,"max_players":24,"Bots":0,"server_type":"Dedicated","server_os":"Linux","password":true,"vac":true,"version":"7742253","steam_id":85568392924510198,"keywords":["nocrits","nodmgspread","payload","uncletopia"],"game_id":440,"stv_port":27036,"stv_name":"Uncletopia | Los Angeles | 3 | All Maps | STV","players":[{"user_id":123,"name":"Nez","steam_id":76561197963109059,"connected_time":12470000000000,"state":"active","ping":57},{"user_id":237,"name":"Drecks","steam_id":76561198044260981,"connected_time":2628000000000,"state":"active","ping":81},{"user_id":252,"name":"Walnut","steam_id":76561198024954863,"connected_time":1060000000000,"state":"active","ping":104},{"user_id":163,"name":"Striker","steam_id":76561198149380317,"connected_time":7829000000000,"state":"active","ping":57},{"user_id":159,"name":"machomelon","steam_id":76561198043683564,"connected_time":9006000000000,"state":"active","ping":66},{"user_id":243,"name":"HOG RIDER","steam_id":76561198298589502,"connected_time":1861000000000,"state":"active","ping":52},{"user_id":256,"name":"Shyland(Nilla)","steam_id":76561198253089092,"connected_time":424000000000,"state":"active","ping":73},{"user_id":240,"name":"sweaterfan","steam_id":76561199389567214,"connected_time":1960000000000,"state":"active","ping":93},{"user_id":44,"name":"DarthJiggles","steam_id":76561198088383875,"connected_time":17650000000000,"state":"active","ping":48},{"user_id":239,"name":"Rac","steam_id":76561198354938093,"connected_time":2563000000000,"state":"active","ping":88},{"user_id":244,"name":"Gamehero637","steam_id":76561198880355236,"connected_time":1853000000000,"state":"active","ping":50},{"user_id":262,"name":"FAT CAT","steam_id":76561198097466517,"connected_time":84000000000,"state":"active","ping":47},{"user_id":219,"name":"SmallErection","steam_id":76561198071770147,"connected_time":4393000000000,"state":"active","ping":86},{"user_id":220,"name":"Seriously Bruh","steam_id":76561198070408485,"connected_time":4391000000000,"state":"active","ping":75},{"user_id":141,"name":"Dragons\u003eEverything","steam_id":76561199140784635,"connected_time":10989000000000,"state":"active","ping":77},{"user_id":255,"name":"poompis","steam_id":76561198160850933,"connected_time":510000000000,"state":"active","ping":51},{"user_id":236,"name":"クールエイドマン","steam_id":76561198111645213,"connected_time":2733000000000,"state":"active","ping":48},{"user_id":258,"name":"Shew","steam_id":76561198054332468,"connected_time":384000000000,"state":"active","ping":57},{"user_id":197,"name":"onetime","steam_id":76561198200480707,"connected_time":5614000000000,"state":"active","ping":103},{"user_id":182,"name":"facecheck","steam_id":76561198115269587,"connected_time":6312000000000,"state":"active","ping":100},{"user_id":157,"name":"CumBob","steam_id":76561198168693975,"connected_time":9491000000000,"state":"active","ping":50},{"user_id":225,"name":"......","steam_id":76561198067612741,"connected_time":4257000000000,"state":"active","ping":74}]},{"server_id":25,"name":"Uncletopia | Los Angeles | 4 | Stopwatch Beta","name_short":"lax-4","host":"lax-1.us.uncletopia.com","port":27045,"enabled":true,"region":"us-west","cc":"us","latitude":33.94279,"longitude":-118.41004,"reserved":0,"last_update":"0001-01-01T00:00:00Z","name_a2s":"Uncletopia | Los Angeles | 4 | Stopwatch Beta","protocol":17,"map":"pl_upward","folder":"tf","game":"Team Fortress","app_id":440,"player_count":0,"max_players":24,"Bots":0,"server_type":"Dedicated","server_os":"Linux","password":true,"vac":true,"version":"7742253","steam_id":85568392924510199,"keywords":["nocrits","nodmgspread","payload","uncletopia"],"game_id":440,"stv_port":27046,"stv_name":"Uncletopia | Los Angeles | 4 | Stopwatch Beta | STV","players":null},{"server_id":11,"name":"Uncletopia | London | 1 | All Maps","name_short":"lon-1","host":"lon-1.uk.uncletopia.com","port":27015,"enabled":true,"region":"eu","cc":"gb","latitude":51.509865,"longitude":-0.118092,"reserved":0,"last_update":"0001-01-01T00:00:00Z","name_a2s":"Uncletopia | London | 1 | All Maps","protocol":17,"map":"cp_altitude","folder":"tf","game":"Team Fortress","app_id":440,"player_count":0,"max_players":24,"Bots":0,"server_type":"Dedicated","server_os":"Linux","password":true,"vac":true,"version":"7742253","steam_id":85568392924367362,"keywords":["cp","nocrits","nodmgspread","uncletopia"],"game_id":440,"stv_port":27016,"stv_name":"Uncletopia | London | 1 | All Maps | STV","players":null},{"server_id":114,"name":"Uncletopia | London | 2 | All Maps","name_short":"lon-2","host":"lon-1.uk.uncletopia.com","port":27025,"enabled":true,"region":"eu","cc":"gb","latitude":51.509865,"longitude":-0.118092,"reserved":0,"last_update":"0001-01-01T00:00:00Z","name_a2s":"Uncletopia | London | 2 | All Maps","protocol":17,"map":"pl_barnblitz","folder":"tf","game":"Team Fortress","app_id":440,"player_count":24,"max_players":24,"Bots":0,"server_type":"Dedicated","server_os":"Linux","password":true,"vac":true,"version":"7742253","steam_id":85568392924470941,"keywords":["nocrits","nodmgspread","payload","uncletopia"],"game_id":440,"stv_port":27026,"stv_name":"Uncletopia | London | 2 | All Maps | STV","players":[{"user_id":71,"name":"twitch.tv/aSpectVEVO","steam_id":76561198237799694,"connected_time":2731000000000,"state":"active","ping":90},{"user_id":101,"name":"Mrs.Frizzle","steam_id":76561198117157085,"connected_time":973000000000,"state":"active","ping":121},{"user_id":94,"name":"Noodle","steam_id":76561197997208006,"connected_time":1589000000000,"state":"active","ping":60},{"user_id":99,"name":"Jess","steam_id":76561198015022965,"connected_time":1084000000000,"state":"active","ping":60},{"user_id":102,"name":".::[SerafeTTiN]::.","steam_id":76561198009471724,"connected_time":941000000000,"state":"active","ping":94},{"user_id":103,"name":"Dormant Flesh","steam_id":76561198132718039,"connected_time":921000000000,"state":"active","ping":79},{"user_id":93,"name":"ivanmixo","steam_id":76561198160213989,"connected_time":1611000000000,"state":"active","ping":70},{"user_id":91,"name":"blue","steam_id":76561198216200092,"connected_time":1721000000000,"state":"active","ping":51},{"user_id":34,"name":"insanitY","steam_id":76561198055666742,"connected_time":5099000000000,"state":"active","ping":91},{"user_id":79,"name":"Criductive","steam_id":76561198980102679,"connected_time":2397000000000,"state":"active","ping":95},{"user_id":82,"name":"HudRud","steam_id":76561198048378956,"connected_time":2285000000000,"state":"active","ping":91},{"user_id":97,"name":"Saken","steam_id":76561198049075295,"connected_time":1350000000000,"state":"active","ping":68},{"user_id":37,"name":"Brass beast heavy","steam_id":76561198274197623,"connected_time":4767000000000,"state":"active","ping":74},{"user_id":76,"name":"grig_83","steam_id":76561198963325441,"connected_time":2430000000000,"state":"active","ping":117},{"user_id":104,"name":"Ben Doverr","steam_id":76561198034264020,"connected_time":899000000000,"state":"active","ping":124},{"user_id":100,"name":"raime","steam_id":76561198024903775,"connected_time":1073000000000,"state":"active","ping":88},{"user_id":80,"name":"Frozen_egg","steam_id":76561198905911361,"connected_time":2392000000000,"state":"active","ping":83},{"user_id":105,"name":"Mowelic","steam_id":76561198873641222,"connected_time":279000000000,"state":"active","ping":81},{"user_id":84,"name":"Icy ❅","steam_id":76561198256787196,"connected_time":2135000000000,"state":"active","ping":70},{"user_id":90,"name":"XFACTOR | {Moshik Roth}","steam_id":76561198352842114,"connected_time":1926000000000,"state":"active","ping":103},{"user_id":38,"name":"Economic crisis","steam_id":76561198063562843,"connected_time":4750000000000,"state":"active","ping":60},{"user_id":92,"name":"Michał","steam_id":76561198320346362,"connected_time":1615000000000,"state":"active","ping":65},{"user_id":87,"name":"bhop.rip raki-","steam_id":76561199105063476,"connected_time":2094000000000,"state":"active","ping":71},{"user_id":89,"name":"CouchPotato","steam_id":76561198849369915,"connected_time":1999000000000,"state":"active","ping":59}]},{"server_id":320,"name":"Uncletopia | London | 3 | All Maps","name_short":"lon-3","host":"lon-1.uk.uncletopia.com","port":27035,"enabled":true,"region":"eu","cc":"gb","latitude":51.509865,"longitude":-0.118092,"reserved":0,"last_update":"0001-01-01T00:00:00Z","name_a2s":"Uncletopia | London | 3 | All Maps","protocol":17,"map":"pl_upward","folder":"tf","game":"Team Fortress","app_id":440,"player_count":0,"max_players":24,"Bots":0,"server_type":"Dedicated","server_os":"Linux","password":true,"vac":true,"version":"7742253","steam_id":85568392924510192,"keywords":["nocrits","nodmgspread","payload","uncletopia"],"game_id":440,"stv_port":27036,"stv_name":"Uncletopia | London | 3 | All Maps | STV","players":null},{"server_id":321,"name":"Uncletopia | London | 4 | All Maps","name_short":"lon-4","host":"lon-1.uk.uncletopia.com","port":27045,"enabled":true,"region":"eu","cc":"gb","latitude":51.509865,"longitude":-0.118092,"reserved":0,"last_update":"0001-01-01T00:00:00Z","name_a2s":"Uncletopia | London | 4 | All Maps","protocol":17,"map":"koth_highpass","folder":"tf","game":"Team Fortress","app_id":440,"player_count":0,"max_players":24,"Bots":0,"server_type":"Dedicated","server_os":"Linux","password":true,"vac":true,"version":"7742253","steam_id":85568392924510193,"keywords":["cp","nocrits","nodmgspread","uncletopia"],"game_id":440,"stv_port":27046,"stv_name":"Uncletopia | London | 4 | All Maps | STV","players":null},{"server_id":21,"name":"Uncletopia | London | 5 | All Maps","name_short":"lon-5","host":"lon-1.uk.uncletopia.com","port":27055,"enabled":true,"region":"eu","cc":"gb","latitude":51.509865,"longitude":-0.118092,"reserved":0,"last_update":"0001-01-01T00:00:00Z","name_a2s":"Uncletopia | London | 5 | All Maps","protocol":17,"map":"pl_frontier_final","folder":"tf","game":"Team Fortress","app_id":440,"player_count":0,"max_players":24,"Bots":0,"server_type":"Dedicated","server_os":"Linux","password":true,"vac":true,"version":"7742253","steam_id":85568392924742829,"keywords":["nocrits","nodmgspread","payload","uncletopia"],"game_id":440,"stv_port":27056,"stv_name":"Uncletopia | London | 5 | All Maps | STV","players":null},{"server_id":22,"name":"Uncletopia | London | 6 | All Maps","name_short":"lon-6","host":"lon-1.uk.uncletopia.com","port":27065,"enabled":true,"region":"eu","cc":"gb","latitude":51.509865,"longitude":-0.118092,"reserved":0,"last_update":"0001-01-01T00:00:00Z","name_a2s":"Uncletopia | London | 6 | All Maps","protocol":17,"map":"pl_borneo","folder":"tf","game":"Team Fortress","app_id":440,"player_count":0,"max_players":24,"Bots":0,"server_type":"Dedicated","server_os":"Linux","password":true,"vac":true,"version":"7742253","steam_id":85568392924742830,"keywords":["nocrits","nodmgspread","payload","uncletopia"],"game_id":440,"stv_port":27066,"stv_name":"Uncletopia | London | 6 | All Maps | STV","players":null},{"server_id":40,"name":"Uncletopia | London | 7 | No Payload","name_short":"lon-7","host":"lon-1.uk.uncletopia.com","port":27075,"enabled":true,"region":"eu","cc":"gb","latitude":51.509865,"longitude":-0.118092,"reserved":0,"last_update":"0001-01-01T00:00:00Z","name_a2s":"Uncletopia | London | 7 | No Payload","protocol":17,"map":"koth_viaduct","folder":"tf","game":"Team Fortress","app_id":440,"player_count":0,"max_players":24,"Bots":0,"server_type":"Dedicated","server_os":"Linux","password":true,"vac":true,"version":"7742253","steam_id":85568392924964314,"keywords":["cp","nocrits","nodmgspread","uncletopia"],"game_id":440,"stv_port":27076,"stv_name":"Uncletopia | London | 7 | No Payload | STV","players":null},{"server_id":41,"name":"Uncletopia | London | 8 | Community","name_short":"lon-8","host":"lon-1.uk.uncletopia.com","port":27085,"enabled":true,"region":"eu","cc":"gb","latitude":51.509865,"longitude":-0.118092,"reserved":0,"last_update":"0001-01-01T00:00:00Z","name_a2s":"Uncletopia | London | 8 | Community","protocol":17,"map":"workshop/pl_barnblitz_pro7.ugc582280235","folder":"tf","game":"Team Fortress","app_id":440,"player_count":0,"max_players":24,"Bots":0,"server_type":"Dedicated","server_os":"Linux","password":true,"vac":true,"version":"7742253","steam_id":85568392924964315,"keywords":["nocrits","nodmgspread","payload","uncletopia"],"game_id":440,"stv_port":27086,"stv_name":"Uncletopia | London | 8 | Community | STV","players":null},{"server_id":300,"name":"Uncletopia | Montréal | 1 | All Maps","name_short":"mtl-1","host":"mtl-1.ca.uncletopia.com","port":27015,"enabled":true,"region":"us-east","cc":"ca","latitude":45.50889,"longitude":-73.56167,"reserved":0,"last_update":"0001-01-01T00:00:00Z","name_a2s":"Uncletopia | Montréal | 1 | All Maps","protocol":17,"map":"pl_snowycoast","folder":"tf","game":"Team Fortress","app_id":440,"player_count":0,"max_players":24,"Bots":0,"server_type":"Dedicated","server_os":"Linux","password":true,"vac":true,"version":"7742253","steam_id":85568392924500087,"keywords":["nocrits","nodmgspread","payload","uncletopia"],"game_id":440,"stv_port":27016,"stv_name":"Uncletopia | Montréal | 1 | All Maps | STV","players":null},{"server_id":301,"name":"Uncletopia | Montréal | 2 | All Maps","name_short":"mtl-2","host":"mtl-1.ca.uncletopia.com","port":27025,"enabled":true,"region":"us-east","cc":"ca","latitude":45.50889,"longitude":-73.56167,"reserved":0,"last_update":"0001-01-01T00:00:00Z","name_a2s":"Uncletopia | Montréal | 2 | All Maps","protocol":17,"map":"cp_altitude","folder":"tf","game":"Team Fortress","app_id":440,"player_count":0,"max_players":24,"Bots":0,"server_type":"Dedicated","server_os":"Linux","password":true,"vac":true,"version":"7742253","steam_id":85568392924500088,"keywords":["cp","nocrits","nodmgspread","uncletopia"],"game_id":440,"stv_port":27026,"stv_name":"Uncletopia | Montréal | 2 | All Maps | STV","players":null},{"server_id":302,"name":"Uncletopia | Montréal | 3 | All Maps","name_short":"mtl-3","host":"mtl-1.ca.uncletopia.com","port":27035,"enabled":true,"region":"us-east","cc":"ca","latitude":45.50889,"longitude":-73.56167,"reserved":0,"last_update":"0001-01-01T00:00:00Z","name_a2s":"Uncletopia | Montréal | 3 | All Maps","protocol":17,"map":"pl_upward","folder":"tf","game":"Team Fortress","app_id":440,"player_count":0,"max_players":24,"Bots":0,"server_type":"Dedicated","server_os":"Linux","password":true,"vac":true,"version":"7742253","steam_id":85568392924500089,"keywords":["nocrits","nodmgspread","payload","uncletopia"],"game_id":440,"stv_port":27036,"stv_name":"Uncletopia | Montréal | 3 | All Maps | STV","players":null},{"server_id":303,"name":"Uncletopia | Montréal | 4 | No Payload","name_short":"mtl-4","host":"mtl-1.ca.uncletopia.com","port":27045,"enabled":true,"region":"us-east","cc":"ca","latitude":45.50889,"longitude":-73.56167,"reserved":0,"last_update":"0001-01-01T00:00:00Z","name_a2s":"Uncletopia | Montréal | 4 | No Payload","protocol":17,"map":"cp_process_final","folder":"tf","game":"Team Fortress","app_id":440,"player_count":0,"max_players":24,"Bots":0,"server_type":"Dedicated","server_os":"Linux","password":true,"vac":true,"version":"7742253","steam_id":85568392924500090,"keywords":["cp","nocrits","nodmgspread","uncletopia"],"game_id":440,"stv_port":27046,"stv_name":"Uncletopia | Montréal | 4 | No Payload | STV","players":null},{"server_id":13,"name":"Uncletopia | New York City | 1 | All Maps","name_short":"nyc-1","host":"nyc-1.us.uncletopia.com","port":27015,"enabled":true,"region":"us-east","cc":"us","latitude":40.73061,"longitude":-73.93524,"reserved":0,"last_update":"0001-01-01T00:00:00Z","name_a2s":"Uncletopia | New York City | 1 | All Maps","protocol":17,"map":"pl_upward","folder":"tf","game":"Team Fortress","app_id":440,"player_count":0,"max_players":24,"Bots":0,"server_type":"Dedicated","server_os":"Linux","password":true,"vac":true,"version":"7742253","steam_id":85568392924469993,"keywords":["nocrits","nodmgspread","payload","uncletopia"],"game_id":440,"stv_port":27016,"stv_name":"Uncletopia | New York City | 1 | All Maps | STV","players":null},{"server_id":14,"name":"Uncletopia | New York City | 2 | All Maps","name_short":"nyc-2","host":"nyc-1.us.uncletopia.com","port":27025,"enabled":true,"region":"us-east","cc":"us","latitude":40.73061,"longitude":-73.93524,"reserved":0,"last_update":"0001-01-01T00:00:00Z","name_a2s":"Uncletopia | New York City | 2 | All Maps","protocol":17,"map":"cp_mountainlab","folder":"tf","game":"Team Fortress","app_id":440,"player_count":0,"max_players":24,"Bots":0,"server_type":"Dedicated","server_os":"Linux","password":true,"vac":true,"version":"7742253","steam_id":85568392924469994,"keywords":["cp","nocrits","nodmgspread","uncletopia"],"game_id":440,"stv_port":27026,"stv_name":"Uncletopia | New York City | 2 | All Maps | STV","players":null},{"server_id":15,"name":"Uncletopia | New York City | 3 | Stopwatch Beta","name_short":"nyc-3","host":"nyc-1.us.uncletopia.com","port":27035,"enabled":true,"region":"us-east","cc":"us","latitude":40.73061,"longitude":-73.93524,"reserved":0,"last_update":"0001-01-01T00:00:00Z","name_a2s":"Uncletopia | New York City | 3 | Stopwatch Beta","protocol":17,"map":"workshop/pl_badwater_pro_v12.ugc2142942074","folder":"tf","game":"Team Fortress","app_id":440,"player_count":0,"max_players":24,"Bots":0,"server_type":"Dedicated","server_os":"Linux","password":true,"vac":true,"version":"7742253","steam_id":85568392924742820,"keywords":["nocrits","nodmgspread","payload","uncletopia"],"game_id":440,"stv_port":27036,"stv_name":"Uncletopia | New York City | 3 | Stopwatch Beta | STV","players":null},{"server_id":16,"name":"Uncletopia | New York City | 4 | Community","name_short":"nyc-4","host":"nyc-1.us.uncletopia.com","port":27045,"enabled":true,"region":"us-east","cc":"us","latitude":40.73061,"longitude":-73.93524,"reserved":0,"last_update":"0001-01-01T00:00:00Z","name_a2s":"Uncletopia | New York City | 4 | Community","protocol":17,"map":"workshop/koth_ramjam_rc1.ugc459778887","folder":"tf","game":"Team Fortress","app_id":440,"player_count":0,"max_players":24,"Bots":0,"server_type":"Dedicated","server_os":"Linux","password":true,"vac":true,"version":"7742253","steam_id":85568392924742821,"keywords":["cp","nocrits","nodmgspread","uncletopia"],"game_id":440,"stv_port":27046,"stv_name":"Uncletopia | New York City | 4 | Community | STV","players":null},{"server_id":142,"name":"Uncletopia | São Paulo | 1 | All Maps","name_short":"sao-1","host":"sao-1.br.uncletopia.com","port":27015,"enabled":true,"region":"sa","cc":"br","latitude":-23.533773,"longitude":-46.62529,"reserved":0,"last_update":"0001-01-01T00:00:00Z","name_a2s":"Uncletopia | São Paulo | 1 | All Maps","protocol":17,"map":"koth_viaduct","folder":"tf","game":"Team Fortress","app_id":440,"player_count":0,"max_players":24,"Bots":0,"server_type":"Dedicated","server_os":"Linux","password":true,"vac":true,"version":"7742253","steam_id":85568392924469996,"keywords":["cp","nocrits","nodmgspread","uncletopia"],"game_id":440,"stv_port":27016,"stv_name":"Uncletopia | São Paulo | 1 | All Maps | STV","players":null},{"server_id":143,"name":"Uncletopia | São Paulo | 2 | All Maps","name_short":"sao-2","host":"sao-2.br.uncletopia.com","port":27015,"enabled":true,"region":"sa","cc":"br","latitude":-23.533773,"longitude":-46.62529,"reserved":0,"last_update":"0001-01-01T00:00:00Z","name_a2s":"Uncletopia | São Paulo | 2 | All Maps","protocol":17,"map":"koth_highpass","folder":"tf","game":"Team Fortress","app_id":440,"player_count":0,"max_players":24,"Bots":0,"server_type":"Dedicated","server_os":"Linux","password":true,"vac":true,"version":"7742253","steam_id":85568392924485349,"keywords":["cp","nocrits","nodmgspread","uncletopia"],"game_id":440,"stv_port":27016,"stv_name":"Uncletopia | São Paulo | 2 | All Maps | STV","players":null},{"server_id":7,"name":"Uncletopia | Seattle | 1 | All Maps","name_short":"sea-1","host":"sea-1.us.uncletopia.com","port":27015,"enabled":true,"region":"us-west","cc":"us","latitude":47.608013,"longitude":-122.33517,"reserved":0,"last_update":"0001-01-01T00:00:00Z","name_a2s":"Uncletopia | Seattle | 1 | All Maps","protocol":17,"map":"pl_borneo","folder":"tf","game":"Team Fortress","app_id":440,"player_count":5,"max_players":24,"Bots":0,"server_type":"Dedicated","server_os":"Linux","password":true,"vac":true,"version":"7742253","steam_id":85568392924469997,"keywords":["nocrits","nodmgspread","payload","uncletopia"],"game_id":440,"stv_port":27016,"stv_name":"Uncletopia | Seattle | 1 | All Maps | STV","players":[{"user_id":836,"name":"cardboardwarrior1","steam_id":76561199145044693,"connected_time":114000000000,"state":"active","ping":259},{"user_id":830,"name":"NOT FRIENDLY","steam_id":76561198041327231,"connected_time":620000000000,"state":"active","ping":44},{"user_id":833,"name":"flaringcomet","steam_id":76561198149217841,"connected_time":406000000000,"state":"active","ping":47},{"user_id":834,"name":"strong and healthy gamer","steam_id":76561198049489349,"connected_time":352000000000,"state":"active","ping":48},{"user_id":791,"name":"blizz","steam_id":76561199139715539,"connected_time":4902000000000,"state":"active","ping":52}]},{"server_id":119,"name":"Uncletopia | Seattle | 2 | All Maps","name_short":"sea-2","host":"sea-1.us.uncletopia.com","port":27025,"enabled":true,"region":"us-west","cc":"us","latitude":47.608013,"longitude":-122.33517,"reserved":0,"last_update":"0001-01-01T00:00:00Z","name_a2s":"Uncletopia | Seattle | 2 | All Maps","protocol":17,"map":"pl_pier","folder":"tf","game":"Team Fortress","app_id":440,"player_count":24,"max_players":24,"Bots":0,"server_type":"Dedicated","server_os":"Linux","password":true,"vac":true,"version":"7742253","steam_id":85568392924469998,"keywords":["nocrits","nodmgspread","payload","uncletopia"],"game_id":440,"stv_port":27026,"stv_name":"Uncletopia | Seattle | 2 | All Maps | STV","players":[{"user_id":631,"name":"Koishi","steam_id":76561198054541054,"connected_time":3480000000000,"state":"active","ping":122},{"user_id":670,"name":"maincaller of the united states","steam_id":76561198110661425,"connected_time":534000000000,"state":"active","ping":57},{"user_id":653,"name":"Shaquille Oatmeal","steam_id":76561198283213819,"connected_time":1805000000000,"state":"active","ping":84},{"user_id":654,"name":"Leidon","steam_id":76561198078386945,"connected_time":1723000000000,"state":"active","ping":69},{"user_id":646,"name":"MEDICINAL CRACK ENJOYER","steam_id":76561198113427343,"connected_time":1945000000000,"state":"active","ping":98},{"user_id":671,"name":"hellohello","steam_id":76561198094058177,"connected_time":438000000000,"state":"active","ping":82},{"user_id":650,"name":"SvicidalBug","steam_id":76561198221390504,"connected_time":1886000000000,"state":"active","ping":76},{"user_id":649,"name":"Julien","steam_id":76561199389584938,"connected_time":1892000000000,"state":"active","ping":48},{"user_id":607,"name":"Strength!!","steam_id":76561198001241984,"connected_time":5383000000000,"state":"active","ping":67},{"user_id":608,"name":"im low on health (hurt)","steam_id":76561198035698704,"connected_time":5351000000000,"state":"active","ping":81},{"user_id":655,"name":"Slavic Pancake","steam_id":76561199319750064,"connected_time":1679000000000,"state":"active","ping":113},{"user_id":662,"name":"Arrythmia","steam_id":76561198093748123,"connected_time":1456000000000,"state":"active","ping":67},{"user_id":668,"name":"Defeat","steam_id":76561198065203818,"connected_time":962000000000,"state":"active","ping":48},{"user_id":669,"name":"rat gets the cheese","steam_id":76561198031234032,"connected_time":785000000000,"state":"active","ping":107},{"user_id":674,"name":"Bubbamanme","steam_id":76561198119778504,"connected_time":257000000000,"state":"active","ping":56},{"user_id":639,"name":"Cpt. Dingle","steam_id":76561198025720199,"connected_time":3172000000000,"state":"active","ping":83},{"user_id":659,"name":"NeoN","steam_id":76561198117608366,"connected_time":1573000000000,"state":"active","ping":49},{"user_id":660,"name":"CheeseCake488","steam_id":76561199407617942,"connected_time":1557000000000,"state":"active","ping":200},{"user_id":627,"name":"Amogous Supreme","steam_id":76561198025476774,"connected_time":3970000000000,"state":"active","ping":80},{"user_id":661,"name":"Naffers","steam_id":76561198195957335,"connected_time":1525000000000,"state":"active","ping":51},{"user_id":665,"name":"An Old Lady","steam_id":76561198047480318,"connected_time":1174000000000,"state":"active","ping":74},{"user_id":636,"name":"femmescout","steam_id":76561198250928638,"connected_time":3363000000000,"state":"active","ping":80},{"user_id":672,"name":"Uncle yellow","steam_id":76561199200296010,"connected_time":385000000000,"state":"active","ping":142},{"user_id":673,"name":"[TrC] Dackstrus","steam_id":76561197973518509,"connected_time":376000000000,"state":"active","ping":68}]},{"server_id":406,"name":"Uncletopia | Seattle | 3 | Stopwatch Beta","name_short":"sea-3","host":"sea-1.us.uncletopia.com","port":27035,"enabled":true,"region":"us-west","cc":"us","latitude":47.608013,"longitude":-122.33517,"reserved":0,"last_update":"0001-01-01T00:00:00Z","name_a2s":"Uncletopia | Seattle | 3 | Stopwatch Beta","protocol":17,"map":"pl_borneo","folder":"tf","game":"Team Fortress","app_id":440,"player_count":0,"max_players":24,"Bots":0,"server_type":"Dedicated","server_os":"Linux","password":true,"vac":true,"version":"7742253","steam_id":85568392924515217,"keywords":["nocrits","nodmgspread","payload","uncletopia"],"game_id":440,"stv_port":27036,"stv_name":"Uncletopia | Seattle | 3 | Stopwatch Beta | STV","players":null},{"server_id":17,"name":"Uncletopia | San Francisco | 1 | All Maps","name_short":"sfo-1","host":"sfo-1.us.uncletopia.com","port":27015,"enabled":true,"region":"us-west","cc":"us","latitude":37.77397,"longitude":-122.4313,"reserved":0,"last_update":"0001-01-01T00:00:00Z","name_a2s":"Uncletopia | San Francisco | 1 | All Maps","protocol":17,"map":"pl_upward","folder":"tf","game":"Team Fortress","app_id":440,"player_count":24,"max_players":24,"Bots":0,"server_type":"Dedicated","server_os":"Linux","password":true,"vac":true,"version":"7742253","steam_id":85568392924469999,"keywords":["nocrits","nodmgspread","payload","uncletopia"],"game_id":440,"stv_port":27016,"stv_name":"Uncletopia | San Francisco | 1 | All Maps | STV","players":[{"user_id":225,"name":"mango cafe","steam_id":76561198142328193,"connected_time":1195000000000,"state":"active","ping":67},{"user_id":146,"name":"LazyDoll","steam_id":76561198053186338,"connected_time":4935000000000,"state":"active","ping":52},{"user_id":226,"name":"Checkmate","steam_id":76561199071968894,"connected_time":1185000000000,"state":"active","ping":58},{"user_id":147,"name":"Villchip","steam_id":76561198198599982,"connected_time":4893000000000,"state":"active","ping":69},{"user_id":199,"name":"DarthRevan","steam_id":76561198164492361,"connected_time":2266000000000,"state":"active","ping":110},{"user_id":228,"name":"mcjuice","steam_id":76561198087730829,"connected_time":866000000000,"state":"active","ping":114},{"user_id":229,"name":"Line","steam_id":76561198086222096,"connected_time":854000000000,"state":"active","ping":78},{"user_id":200,"name":"experiment 149","steam_id":76561198189540306,"connected_time":2175000000000,"state":"active","ping":80},{"user_id":236,"name":"THC Freebaser","steam_id":76561198075779863,"connected_time":305000000000,"state":"active","ping":65},{"user_id":231,"name":"The Teufort Misogynist","steam_id":76561198080775161,"connected_time":692000000000,"state":"active","ping":64},{"user_id":237,"name":"GROOVYROOM","steam_id":76561199153684166,"connected_time":300000000000,"state":"active","ping":64},{"user_id":241,"name":"WanderingGenji","steam_id":76561198965812987,"connected_time":18000000000,"state":"spawning","ping":118},{"user_id":222,"name":"StarB","steam_id":76561198149605368,"connected_time":1384000000000,"state":"active","ping":112},{"user_id":180,"name":"Dad Rock Deluxe","steam_id":76561198051224819,"connected_time":2999000000000,"state":"active","ping":75},{"user_id":235,"name":"Your very own loving mother","steam_id":76561199160073173,"connected_time":590000000000,"state":"active","ping":62},{"user_id":205,"name":"DaBetes","steam_id":76561198255941081,"connected_time":1947000000000,"state":"active","ping":62},{"user_id":206,"name":"saltyJeff","steam_id":76561198058563645,"connected_time":1927000000000,"state":"active","ping":62},{"user_id":123,"name":"goldhed","steam_id":76561198051751133,"connected_time":7078000000000,"state":"active","ping":69},{"user_id":242,"name":"jelderjr","steam_id":76561198208862897,"connected_time":17000000000,"state":"active","ping":189},{"user_id":207,"name":"MR. MODE","steam_id":76561198046775352,"connected_time":1876000000000,"state":"active","ping":45},{"user_id":238,"name":"Awildrock","steam_id":76561198040401086,"connected_time":298000000000,"state":"active","ping":90},{"user_id":239,"name":"Wormy wants to RTV","steam_id":76561198054539200,"connected_time":269000000000,"state":"active","ping":73},{"user_id":240,"name":"\u003c blank \u003e","steam_id":76561198061448188,"connected_time":208000000000,"state":"active","ping":74},{"user_id":224,"name":"rock gaming","steam_id":76561199402868311,"connected_time":1261000000000,"state":"active","ping":71}]},{"server_id":18,"name":"Uncletopia | San Francisco | 2 | All Maps","name_short":"sfo-2","host":"sfo-1.us.uncletopia.com","port":27025,"enabled":true,"region":"us-west","cc":"us","latitude":37.77397,"longitude":-122.4313,"reserved":0,"last_update":"0001-01-01T00:00:00Z","name_a2s":"Uncletopia | San Francisco | 2 | All Maps","protocol":17,"map":"pl_barnblitz","folder":"tf","game":"Team Fortress","app_id":440,"player_count":22,"max_players":24,"Bots":0,"server_type":"Dedicated","server_os":"Linux","password":true,"vac":true,"version":"7742253","steam_id":85568392924470000,"keywords":["nocrits","nodmgspread","payload","uncletopia"],"game_id":440,"stv_port":27026,"stv_name":"Uncletopia | San Francisco | 2 | All Maps | STV","players":[{"user_id":300,"name":"Sabaman55","steam_id":76561198212267979,"connected_time":2004000000000,"state":"active","ping":81},{"user_id":319,"name":"Earth","steam_id":76561198108908550,"connected_time":192000000000,"state":"active","ping":52},{"user_id":312,"name":"soup mode","steam_id":76561198071451771,"connected_time":1286000000000,"state":"active","ping":49},{"user_id":264,"name":"teh mummy","steam_id":76561198044123636,"connected_time":4146000000000,"state":"active","ping":38},{"user_id":290,"name":"DeckofDragons","steam_id":76561198057398213,"connected_time":2509000000000,"state":"active","ping":67},{"user_id":285,"name":"Daddy-O Dizzy","steam_id":76561198292349348,"connected_time":2998000000000,"state":"active","ping":83},{"user_id":320,"name":"you're finally awake","steam_id":76561198046394237,"connected_time":65000000000,"state":"active","ping":64},{"user_id":267,"name":"quack","steam_id":76561198242362464,"connected_time":4003000000000,"state":"active","ping":94},{"user_id":309,"name":"Smershey","steam_id":76561198127036645,"connected_time":1638000000000,"state":"active","ping":64},{"user_id":303,"name":"5ball","steam_id":76561198866050532,"connected_time":1762000000000,"state":"active","ping":49},{"user_id":292,"name":"served","steam_id":76561199438267625,"connected_time":2354000000000,"state":"active","ping":49},{"user_id":313,"name":"Woodstock","steam_id":76561198041442667,"connected_time":1255000000000,"state":"active","ping":61},{"user_id":287,"name":"other pyro","steam_id":76561199430474740,"connected_time":2766000000000,"state":"active","ping":73},{"user_id":272,"name":"Mashiro","steam_id":76561198332141755,"connected_time":3889000000000,"state":"active","ping":46},{"user_id":294,"name":"playdough eater","steam_id":76561199045901994,"connected_time":2209000000000,"state":"active","ping":54},{"user_id":315,"name":"JZ","steam_id":76561198377029198,"connected_time":1192000000000,"state":"active","ping":74},{"user_id":316,"name":"s9","steam_id":76561198065339248,"connected_time":1177000000000,"state":"active","ping":46},{"user_id":277,"name":"brickers","steam_id":76561198145072434,"connected_time":3810000000000,"state":"active","ping":77},{"user_id":306,"name":"Tommy Pickles (Very Cool)","steam_id":76561198391261463,"connected_time":1694000000000,"state":"active","ping":93},{"user_id":283,"name":"Zenyaru","steam_id":76561199128779995,"connected_time":3482000000000,"state":"active","ping":57},{"user_id":307,"name":"York","steam_id":76561198139501696,"connected_time":1668000000000,"state":"active","ping":57},{"user_id":311,"name":"cyra","steam_id":76561198025454291,"connected_time":1325000000000,"state":"active","ping":59}]},{"server_id":19,"name":"Uncletopia | San Francisco | 3 | Stopwatch Beta","name_short":"sfo-3","host":"sfo-1.us.uncletopia.com","port":27035,"enabled":true,"region":"us-west","cc":"us","latitude":37.77397,"longitude":-122.4313,"reserved":0,"last_update":"0001-01-01T00:00:00Z","name_a2s":"Uncletopia | San Francisco | 3 | Stopwatch Beta","protocol":17,"map":"koth_lakeside_final","folder":"tf","game":"Team Fortress","app_id":440,"player_count":0,"max_players":24,"Bots":0,"server_type":"Dedicated","server_os":"Linux","password":true,"vac":true,"version":"7742253","steam_id":85568392924742824,"keywords":["cp","nocrits","nodmgspread","uncletopia"],"game_id":440,"stv_port":27036,"stv_name":"Uncletopia | San Francisco | 3 | Stopwatch Beta | STV","players":null},{"server_id":20,"name":"Uncletopia | San Francisco | 4 | Community","name_short":"sfo-4","host":"sfo-1.us.uncletopia.com","port":27045,"enabled":true,"region":"us-west","cc":"us","latitude":37.77397,"longitude":-122.4313,"reserved":0,"last_update":"0001-01-01T00:00:00Z","name_a2s":"Uncletopia | San Francisco | 4 | Community","protocol":17,"map":"workshop/rd_asteroid_redux_b1.ugc2154902912","folder":"tf","game":"Team Fortress","app_id":440,"player_count":0,"max_players":24,"Bots":0,"server_type":"Dedicated","server_os":"Linux","password":true,"vac":true,"version":"7742253","steam_id":85568392924742826,"keywords":["beta","nocrits","nodmgspread","rd","uncletopia"],"game_id":440,"stv_port":27046,"stv_name":"Uncletopia | San Francisco | 4 | Community | STV","players":null},{"server_id":141,"name":"Uncletopia | Sydney | 1 | All Maps","name_short":"syd-1","host":"syd-1.au.uncletopia.com","port":27015,"enabled":true,"region":"au","cc":"au","latitude":-33.865143,"longitude":151.2099,"reserved":0,"last_update":"0001-01-01T00:00:00Z","name_a2s":"Uncletopia | Sydney | 1 | All Maps","protocol":17,"map":"pl_snowycoast","folder":"tf","game":"Team Fortress","app_id":440,"player_count":20,"max_players":24,"Bots":0,"server_type":"Dedicated","server_os":"Linux","password":true,"vac":true,"version":"7742253","steam_id":85568392924470001,"keywords":["nocrits","nodmgspread","payload","uncletopia"],"game_id":440,"stv_port":27016,"stv_name":"Uncletopia | Sydney | 1 | All Maps | STV","players":[{"user_id":401,"name":"Autistic Raptor","steam_id":76561198354523762,"connected_time":5788000000000,"state":"active","ping":45},{"user_id":454,"name":"pos1tve","steam_id":76561199087124672,"connected_time":3135000000000,"state":"active","ping":51},{"user_id":484,"name":"Ganome Chilled","steam_id":76561198064898965,"connected_time":870000000000,"state":"active","ping":140},{"user_id":485,"name":"SamK #DestroyTF2","steam_id":76561198149051619,"connected_time":864000000000,"state":"active","ping":57},{"user_id":486,"name":"zeaphg","steam_id":76561199014878539,"connected_time":826000000000,"state":"active","ping":57},{"user_id":426,"name":"FrOStY","steam_id":76561198088155805,"connected_time":4557000000000,"state":"active","ping":74},{"user_id":504,"name":"zirconthecrystal","steam_id":76561198396082531,"connected_time":70000000000,"state":"active","ping":56},{"user_id":505,"name":"Blayter #SaveTF2","steam_id":76561198285056354,"connected_time":67000000000,"state":"active","ping":71},{"user_id":470,"name":"Ok Mate","steam_id":76561198254922035,"connected_time":1764000000000,"state":"active","ping":51},{"user_id":490,"name":"NewChris","steam_id":76561198254754182,"connected_time":660000000000,"state":"active","ping":65},{"user_id":480,"name":"Abraham Lincoln","steam_id":76561198095292515,"connected_time":891000000000,"state":"active","ping":68},{"user_id":503,"name":"trash","steam_id":76561198110764631,"connected_time":226000000000,"state":"active","ping":90},{"user_id":479,"name":"michael","steam_id":76561198052848358,"connected_time":894000000000,"state":"active","ping":63},{"user_id":415,"name":"April","steam_id":76561198848287180,"connected_time":4914000000000,"state":"active","ping":45},{"user_id":467,"name":"Fishmonger Water Tower","steam_id":76561199045059964,"connected_time":2188000000000,"state":"active","ping":101},{"user_id":502,"name":"I Told the Judge im not guilty","steam_id":76561198139990966,"connected_time":230000000000,"state":"active","ping":47},{"user_id":483,"name":"EpicGuy4227","steam_id":76561198094132328,"connected_time":871000000000,"state":"active","ping":53},{"user_id":459,"name":"ุbifcheg","steam_id":76561198319806610,"connected_time":2941000000000,"state":"active","ping":63},{"user_id":476,"name":"Bananapeeler","steam_id":76561198218738629,"connected_time":1274000000000,"state":"active","ping":56},{"user_id":453,"name":"Flint Lockwood","steam_id":76561198830920173,"connected_time":3193000000000,"state":"active","ping":55}]},{"server_id":123,"name":"Uncletopia | Sydney | 2 | All Maps","name_short":"syd-2","host":"syd-1.au.uncletopia.com","port":27025,"enabled":true,"region":"au","cc":"au","latitude":-33.865143,"longitude":151.2099,"reserved":0,"last_update":"0001-01-01T00:00:00Z","name_a2s":"Uncletopia | Sydney | 2 | All Maps","protocol":17,"map":"pl_frontier_final","folder":"tf","game":"Team Fortress","app_id":440,"player_count":24,"max_players":24,"Bots":0,"server_type":"Dedicated","server_os":"Linux","password":true,"vac":true,"version":"7742253","steam_id":85568392924470002,"keywords":["nocrits","nodmgspread","payload","uncletopia"],"game_id":440,"stv_port":27026,"stv_name":"Uncletopia | Sydney | 2 | All Maps | STV","players":[{"user_id":214,"name":"covenofbats","steam_id":76561198152117315,"connected_time":3347000000000,"state":"active","ping":41},{"user_id":243,"name":"what_happy","steam_id":76561198971334734,"connected_time":97000000000,"state":"active","ping":70},{"user_id":215,"name":"huncho","steam_id":76561198162196243,"connected_time":3299000000000,"state":"active","ping":37},{"user_id":240,"name":"Jamie2Cool","steam_id":76561198155695809,"connected_time":236000000000,"state":"active","ping":77},{"user_id":195,"name":"MR Martian","steam_id":76561198157854561,"connected_time":4725000000000,"state":"active","ping":91},{"user_id":217,"name":"Mr Doctor","steam_id":76561198081415999,"connected_time":2969000000000,"state":"active","ping":76},{"user_id":209,"name":"Pompadouraus","steam_id":76561198327530525,"connected_time":3883000000000,"state":"active","ping":75},{"user_id":210,"name":"HazDaddySlim","steam_id":76561198140262325,"connected_time":3880000000000,"state":"active","ping":56},{"user_id":184,"name":"Wrainbow","steam_id":76561199039385168,"connected_time":5262000000000,"state":"active","ping":113},{"user_id":235,"name":"Poison_Kouki","steam_id":76561198150364859,"connected_time":1066000000000,"state":"active","ping":61},{"user_id":220,"name":"SchlaytoN","steam_id":76561198206793747,"connected_time":2190000000000,"state":"active","ping":65},{"user_id":242,"name":"Sinister80s","steam_id":76561198343540472,"connected_time":211000000000,"state":"active","ping":74},{"user_id":221,"name":"Muon","steam_id":76561198031870803,"connected_time":2116000000000,"state":"active","ping":73},{"user_id":233,"name":"Upload me to the Robot Brain!","steam_id":76561198055345254,"connected_time":1404000000000,"state":"active","ping":56},{"user_id":241,"name":"Erl","steam_id":76561198041082043,"connected_time":233000000000,"state":"active","ping":104},{"user_id":208,"name":"nojnosbod11","steam_id":76561199176012151,"connected_time":3932000000000,"state":"active","ping":58},{"user_id":219,"name":"Macca","steam_id":76561198010207998,"connected_time":2523000000000,"state":"active","ping":60},{"user_id":234,"name":"Dr Crazii","steam_id":76561198067775226,"connected_time":1263000000000,"state":"active","ping":90},{"user_id":238,"name":"clout","steam_id":76561198073310502,"connected_time":803000000000,"state":"active","ping":75},{"user_id":237,"name":"Atlas","steam_id":76561198069332870,"connected_time":881000000000,"state":"active","ping":52},{"user_id":239,"name":"bird","steam_id":76561198258514103,"connected_time":505000000000,"state":"active","ping":60},{"user_id":232,"name":"krandlez` (Any/All)","steam_id":76561198044839726,"connected_time":1501000000000,"state":"active","ping":43},{"user_id":222,"name":"perturb","steam_id":76561198085124297,"connected_time":2112000000000,"state":"active","ping":60},{"user_id":224,"name":"Sio","steam_id":76561198045934338,"connected_time":1906000000000,"state":"active","ping":77}]},{"server_id":395,"name":"Uncletopia | Sydney | 3 | All Maps","name_short":"syd-3","host":"syd-1.au.uncletopia.com","port":27035,"enabled":true,"region":"au","cc":"au","latitude":-33.865143,"longitude":151.2099,"reserved":0,"last_update":"0001-01-01T00:00:00Z","name_a2s":"Uncletopia | Sydney | 3 | All Maps","protocol":17,"map":"koth_highpass","folder":"tf","game":"Team Fortress","app_id":440,"player_count":0,"max_players":24,"Bots":0,"server_type":"Dedicated","server_os":"Linux","password":true,"vac":true,"version":"7742253","steam_id":85568392925194467,"keywords":["cp","nocrits","nodmgspread","uncletopia"],"game_id":440,"stv_port":27036,"stv_name":"Uncletopia | Sydney | 3 | All Maps | STV","players":null},{"server_id":396,"name":"Uncletopia | Sydney | 4 | All Maps","name_short":"syd-4","host":"syd-1.au.uncletopia.com","port":27045,"enabled":true,"region":"au","cc":"au","latitude":-33.865143,"longitude":151.2099,"reserved":0,"last_update":"0001-01-01T00:00:00Z","name_a2s":"Uncletopia | Sydney | 4 | All Maps","protocol":17,"map":"cp_dustbowl","folder":"tf","game":"Team Fortress","app_id":440,"player_count":0,"max_players":24,"Bots":0,"server_type":"Dedicated","server_os":"Linux","password":true,"vac":true,"version":"7742253","steam_id":85568392925397958,"keywords":["cp","nocrits","nodmgspread","uncletopia"],"game_id":440,"stv_port":27046,"stv_name":"Uncletopia | Sydney | 4 | All Maps | STV","players":null},{"server_id":58,"name":"Uncletopia | Sydney | 5 | Stopwatch Beta","name_short":"syd-5","host":"syd-1.au.uncletopia.com","port":27055,"enabled":true,"region":"au","cc":"au","latitude":-33.865143,"longitude":151.2099,"reserved":0,"last_update":"0001-01-01T00:00:00Z","name_a2s":"Uncletopia | Sydney | 5 | Stopwatch Beta","protocol":17,"map":"cp_process_final","folder":"tf","game":"Team Fortress","app_id":440,"player_count":0,"max_players":24,"Bots":0,"server_type":"Dedicated","server_os":"Linux","password":true,"vac":true,"version":"7742253","steam_id":85568392925397959,"keywords":["cp","nocrits","nodmgspread","uncletopia"],"game_id":440,"stv_port":27056,"stv_name":"Uncletopia | Sydney | 5 | Stopwatch Beta | STV","players":null},{"server_id":59,"name":"Uncletopia | Sydney | 6 | Community","name_short":"syd-6","host":"syd-1.au.uncletopia.com","port":27065,"enabled":true,"region":"au","cc":"au","latitude":-33.865143,"longitude":151.2099,"reserved":0,"last_update":"0001-01-01T00:00:00Z","name_a2s":"Uncletopia | Sydney | 6 | Community","protocol":17,"map":"workshop/pl_barnblitz_pro7.ugc582280235","folder":"tf","game":"Team Fortress","app_id":440,"player_count":0,"max_players":24,"Bots":0,"server_type":"Dedicated","server_os":"Linux","password":true,"vac":true,"version":"7742253","steam_id":85568392925397960,"keywords":["nocrits","nodmgspread","payload","uncletopia"],"game_id":440,"stv_port":27066,"stv_name":"Uncletopia | Sydney | 6 | Community | STV","players":null},{"server_id":49,"name":"Uncletopia | Warsaw | 1 | All Maps","name_short":"waw-1","host":"waw-1.pl.uncletopia.com","port":27015,"enabled":true,"region":"eu","cc":"pl","latitude":52.2297,"longitude":21.017532,"reserved":0,"last_update":"0001-01-01T00:00:00Z","name_a2s":"","protocol":0,"map":"","folder":"","game":"","app_id":0,"player_count":0,"max_players":0,"Bots":0,"server_type":"","server_os":"","password":false,"vac":false,"version":"","steam_id":0,"keywords":null,"game_id":0,"stv_port":0,"stv_name":"","players":null},{"server_id":50,"name":"Uncletopia | Warsaw | 2 | All Maps","name_short":"waw-2","host":"waw-1.pl.uncletopia.com","port":27025,"enabled":true,"region":"eu","cc":"pl","latitude":52.2297,"longitude":21.017532,"reserved":0,"last_update":"0001-01-01T00:00:00Z","name_a2s":"Uncletopia | Warsaw | 2 | All Maps","protocol":17,"map":"pl_upward","folder":"tf","game":"Team Fortress","app_id":440,"player_count":0,"max_players":24,"Bots":0,"server_type":"Dedicated","server_os":"Linux","password":true,"vac":true,"version":"7742253","steam_id":85568392925397851,"keywords":["nocrits","nodmgspread","payload","uncletopia"],"game_id":440,"stv_port":27026,"stv_name":"Uncletopia | Warsaw | 2 | All Maps | STV","players":null},{"server_id":51,"name":"Uncletopia | Warsaw | 3 | All Maps","name_short":"waw-3","host":"waw-1.pl.uncletopia.com","port":27035,"enabled":true,"region":"eu","cc":"pl","latitude":52.2297,"longitude":21.017532,"reserved":0,"last_update":"0001-01-01T00:00:00Z","name_a2s":"Uncletopia | Warsaw | 3 | All Maps","protocol":17,"map":"koth_lakeside_final","folder":"tf","game":"Team Fortress","app_id":440,"player_count":0,"max_players":24,"Bots":0,"server_type":"Dedicated","server_os":"Linux","password":true,"vac":true,"version":"7742253","steam_id":85568392925397852,"keywords":["cp","nocrits","nodmgspread","uncletopia"],"game_id":440,"stv_port":27036,"stv_name":"Uncletopia | Warsaw | 3 | All Maps | STV","players":null},{"server_id":52,"name":"Uncletopia | Warsaw | 4 | All Maps","name_short":"waw-4","host":"waw-1.pl.uncletopia.com","port":27045,"enabled":true,"region":"eu","cc":"pl","latitude":52.2297,"longitude":21.017532,"reserved":0,"last_update":"0001-01-01T00:00:00Z","name_a2s":"Uncletopia | Warsaw | 4 | All Maps","protocol":17,"map":"pl_upward","folder":"tf","game":"Team Fortress","app_id":440,"player_count":0,"max_players":24,"Bots":0,"server_type":"Dedicated","server_os":"Linux","password":true,"vac":true,"version":"7742253","steam_id":85568392925397853,"keywords":["nocrits","nodmgspread","payload","uncletopia"],"game_id":440,"stv_port":27046,"stv_name":"Uncletopia | Warsaw | 4 | All Maps | STV","players":null},{"server_id":53,"name":"Uncletopia | Warsaw | 5 | Stopwatch Beta","name_short":"waw-5","host":"waw-1.pl.uncletopia.com","port":27055,"enabled":true,"region":"eu","cc":"pl","latitude":52.2297,"longitude":21.017532,"reserved":0,"last_update":"0001-01-01T00:00:00Z","name_a2s":"Uncletopia | Warsaw | 5 | Stopwatch Beta","protocol":17,"map":"pl_swiftwater_final1","folder":"tf","game":"Team Fortress","app_id":440,"player_count":0,"max_players":24,"Bots":0,"server_type":"Dedicated","server_os":"Linux","password":true,"vac":true,"version":"7742253","steam_id":85568392925397854,"keywords":["nocrits","nodmgspread","payload","uncletopia"],"game_id":440,"stv_port":27056,"stv_name":"Uncletopia | Warsaw | 5 | Stopwatch Beta | STV","players":null},{"server_id":54,"name":"Uncletopia | Warsaw | 6 | Community","name_short":"waw-6","host":"waw-1.pl.uncletopia.com","port":27065,"enabled":true,"region":"eu","cc":"pl","latitude":52.2297,"longitude":21.017532,"reserved":0,"last_update":"0001-01-01T00:00:00Z","name_a2s":"Uncletopia | Warsaw | 6 | Community","protocol":17,"map":"koth_highpass","folder":"tf","game":"Team Fortress","app_id":440,"player_count":0,"max_players":24,"Bots":0,"server_type":"Dedicated","server_os":"Linux","password":true,"vac":true,"version":"7742253","steam_id":85568392925397856,"keywords":["cp","nocrits","nodmgspread","uncletopia"],"game_id":440,"stv_port":27066,"stv_name":"Uncletopia | Warsaw | 6 | Community | STV","players":null}]}