{"status":true,"message":"","result":[{"server_id":9,"name":"Uncletopia | Atlanta | 1 | All Maps","name_short":"atl-1","host":"atl-1.us.uncletopia.com","port":27015,"enabled":true,"region":"us-east","cc":"us","latitude":33.753746,"longitude":-84.38633,"reserved":0,"last_update":"0001-01-01T00:00:00Z","name_a2s":"Uncletopia | Atlanta | 1 | All Maps","protocol":17,"map":"pl_borneo","folder":"tf","game":"Team Fortress","app_id":440,"player_count":24,"max_players":24,"Bots":0,"server_type":"Dedicated","server_os":"Linux","password":true,"vac":true,"version":"7742253","steam_id":85568392924469982,"keywords":["nocrits","nodmgspread","payload","uncletopia"],"game_id":440,"stv_port":27016,"stv_name":"Uncletopia | Atlanta | 1 | All Maps | STV","players":[{"user_id":630,"name":"kingbachfan830926471823","steam_id":76561198097426573,"connected_time":1008000000000,"state":"active","ping":73},{"user_id":623,"name":"Bugaboo","steam_id":76561198056280232,"connected_time":1881000000000,"state":"active","ping":128},{"user_id":634,"name":"Karma's Camera","steam_id":76561198059385185,"connected_time":680000000000,"state":"active","ping":77},{"user_id":613,"name":"evil wizard","steam_id":76561198119732242,"connected_time":2242000000000,"state":"active","ping":102},{"user_id":640,"name":"Dr. Strain","steam_id":76561198078476091,"connected_time":412000000000,"state":"active","ping":63},{"user_id":603,"name":"Colin102004","steam_id":76561198202384334,"connected_time":2895000000000,"state":"active","ping":60},{"user_id":629,"name":"smitty","steam_id":76561198082277044,"connected_time":1209000000000,"state":"active","ping":41},{"user_id":590,"name":"Gio","steam_id":76561198146497143,"connected_time":3295000000000,"state":"active","ping":68},{"user_id":639,"name":"Raven57p","steam_id":76561198118992563,"connected_time":520000000000,"state":"active","ping":71},{"user_id":577,"name":"Re-Crix","steam_id":76561198351895601,"connected_time":4540000000000,"state":"active","ping":111},{"user_id":587,"name":"ATL1 | to4st","steam_id":76561198981009008,"connected_time":3542000000000,"state":"active","ping":74},{"user_id":584,"name":"Wattchit","steam_id":76561197999410233,"connected_time":4165000000000,"state":"active","ping":74},{"user_id":638,"name":"Uriel Ventris","steam_id":76561199289682859,"connected_time":586000000000,"state":"active","ping":151},{"user_id":617,"name":"bladee fursona","steam_id":76561198254782296,"connected_time":2151000000000,"state":"active","ping":74},{"user_id":641,"name":"ATL1 | Lav4ie [txc]","steam_id":76561198825997674,"connected_time":333000000000,"state":"active","ping":46},{"user_id":574,"name":"Nyle","steam_id":76561198045652639,"connected_time":4913000000000,"state":"active","ping":113},{"user_id":580,"name":"linus","steam_id":76561198106196691,"connected_time":4381000000000,"state":"active","ping":77},{"user_id":615,"name":"JuneMoon","steam_id":76561198061347702,"connected_time":2189000000000,"state":"active","ping":79},{"user_id":625,"name":"Nnyllazxz","steam_id":76561198247797436,"connected_time":1834000000000,"state":"active","ping":64},{"user_id":633,"name":"WalrusNyetheBonkGuy","steam_id":76561197995626774,"connected_time":862000000000,"state":"active","ping":130},{"user_id":626,"name":"Breaking Bad Reference","steam_id":76561198318100254,"connected_time":1505000000000,"state":"active","ping":91},{"user_id":627,"name":"BORN IN GOOP RAISED IN POOP","steam_id":76561198095909397,"connected_time":1505000000000,"state":"active","ping":86}]},{"server_id":400,"name":"Uncletopia | Atlanta | 3 | Stopwatch Beta","name_short":"atl-3","host":"atl-1.us.uncletopia.com","port":27035,"enabled":true,"region":"us-east","cc":"us","latitude":33.753746,"longitude":-84.38633,"reserved":0,"last_update":"0001-01-01T00:00:00Z","name_a2s":"Uncletopia | Atlanta | 3 | Stopwatch Beta","protocol":17,"map":"pl_pier","folder":"tf","game":"Team Fortress","app_id":440,"player_count":0,"max_players":24,"Bots":0,"server_type":"Dedicated","server_os":"Linux","password":true,"vac":true,"version":"7742253","steam_id":85568392924515187,"keywords":["nocrits","nodmgspread","payload","uncletopia"],"game_id":440,"stv_port":27036,"stv_name":"Uncletopia | Atlanta | 3 | Stopwatch Beta | STV","players":null},{"server_id":401,"name":"Uncletopia | Atlanta | 4 | No Payload","name_short":"atl-4","host":"atl-1.us.uncletopia.com","port":27045,"enabled":true,"region":"us-east","cc":"us","latitude":33.753746,"longitude":-84.38633,"reserved":0,"last_update":"0001-01-01T00:00:00Z","name_a2s":"Uncletopia | Atlanta | 4 | No Payload","protocol":17,"map":"pl_pier","folder":"tf","game":"Team Fortress","app_id":440,"player_count":0,"max_players":24,"Bots":0,"server_type":"Dedicated","server_os":"Linux","password":true,"vac":true,"version":"7723704","steam_id":85568392924515188,"keywords":["nocrits","nodmgspread","payload","uncletopia"],"game_id":440,"stv_port":27046,"stv_name":"Uncletopia | Atlanta | 4 | No Payload | STV","players":null},{"server_id":2,"name":"Uncletopia | Chicago | 1 | All Maps","name_short":"chi-1","host":"chi-1.us.uncletopia.com","port":27015,"enabled":true,"region":"us-central","cc":"us","latitude":41.881832,"longitude":-87.62318,"reserved":0,"last_update":"0001-01-01T00:00:00Z","name_a2s":"Uncletopia | Chicago | 1 | All Maps","protocol":17,"map":"pl_snowycoast","folder":"tf","game":"Team Fortress","app_id":440,"player_count":23,"max_players":24,"Bots":0,"server_type":"Dedicated","server_os":"Linux","password":true,"vac":true,"version":"7742253","steam_id":85568392924469984,"keywords":["nocrits","nodmgspread","payload","uncletopia"],"game_id":440,"stv_port":27016,"stv_name":"Uncletopia | Chicago | 1 | All Maps | STV","players":[{"user_id":572,"name":"UnsettlingVoice","steam_id":76561198036614583,"connected_time":7653000000000,"state":"active","ping":80},{"user_id":643,"name":"Mitchu The Bidness Man","steam_id":76561198102494381,"connected_time":497000000000,"state":"active","ping":60},{"user_id":644,"name":"Ryan","steam_id":76561198045137432,"connected_time":480000000000,"state":"active","ping":53},{"user_id":616,"name":"PuppySky","steam_id":76561197998344183,"connected_time":4008000000000,"state":"active","ping":105},{"user_id":632,"name":"Kng","steam_id":76561198993248203,"connected_time":1789000000000,"state":"active","ping":77},{"user_id":641,"name":"lawnmowinkitty","steam_id":76561198038997467,"connected_time":503000000000,"state":"active","ping":105},{"user_id":646,"name":"Bobato Chaps","steam_id":76561198065103552,"connected_time":343000000000,"state":"active","ping":50},{"user_id":640,"name":"wepry","steam_id":76561198114091417,"connected_time":1495000000000,"state":"active","ping":77},{"user_id":633,"name":"Run","steam_id":76561199050804016,"connected_time":1785000000000,"state":"active","ping":79},{"user_id":642,"name":"Jumbo \u003c3","steam_id":76561199075777687,"connected_time":502000000000,"state":"active","ping":93},{"user_id":622,"name":"The_Quiet_One","steam_id":76561198132476501,"connected_time":2672000000000,"state":"active","ping":57},{"user_id":634,"name":"Queen Frau the Round","steam_id":76561197999942134,"connected_time":1760000000000,"state":"active","ping":46},{"user_id":648,"name":"im a seal i live in the snow","steam_id":76561198058998371,"connected_time":327000000000,"state":"active","ping":64},{"user_id":603,"name":"AliCat","steam_id":76561198308360862,"connected_time":4908000000000,"state":"active","ping":63},{"user_id":626,"name":"Timmy Rigs","steam_id":76561198040743777,"connected_time":1881000000000,"state":"active","ping":58},{"user_id":617,"name":"Darkly","steam_id":76561198073281298,"connected_time":3720000000000,"state":"active","ping":43},{"user_id":610,"name":"shinon","steam_id":76561198373626848,"connected_time":4307000000000,"state":"active","ping":78},{"user_id":652,"name":"Red","steam_id":76561198031865869,"connected_time":132000000000,"state":"active","ping":89},{"user_id":637,"name":"NovaSc6ut","steam_id":76561198277163301,"connected_time":1711000000000,"state":"active","ping":81},{"user_id":628,"name":"ham gaming","steam_id":76561198072592880,"connected_time":1876000000000,"state":"active","ping":42},{"user_id":627,"name":"Torei","steam_id":76561198799229190,"connected_time":1878000000000,"state":"active","ping":59},{"user_id":653,"name":"Toaster WiFi","steam_id":76561198378832479,"connected_time":57000000000,"state":"active","ping":66},{"user_id":624,"name":"Candy Quill","steam_id":76561198044092009,"connected_time":2547000000000,"state":"active","ping":100}]},{"server_id":106,"name":"Uncletopia | Chicago | 2 | All Maps","name_short":"chi-2","host":"chi-1.us.uncletopia.com","port":27025,"enabled":true,"region":"us-central","cc":"us","latitude":41.881832,"longitude":-87.62318,"reserved":0,"last_update":"0001-01-01T00:00:00Z","name_a2s":"Uncletopia | Chicago | 2 | All Maps","protocol":17,"map":"pl_wutville_event","folder":"tf","game":"Team Fortress","app_id":440,"player_count":0,"max_players":24,"Bots":0,"server_type":"Dedicated","server_os":"Linux","password":true,"vac":true,"version":"7742253","steam_id":85568392924469985,"keywords":["nocrits","nodmgspread","payload","uncletopia"],"game_id":440,"stv_port":27026,"stv_name":"Uncletopia | Chicago | 2 | All Maps | STV","players":null},{"server_id":402,"name":"Uncletopia | Chicago | 3 | All Maps","name_short":"chi-3","host":"chi-1.us.uncletopia.com","port":27035,"enabled":true,"region":"us-central","cc":"us","latitude":41.881832,"longitude":-87.62318,"reserved":0,"last_update":"0001-01-01T00:00:00Z","name_a2s":"Uncletopia | Chicago | 3 | All Maps","protocol":17,"map":"pl_badwater","folder":"tf","game":"Team Fortress","app_id":440,"player_count":24,"max_players":24,"Bots":0,"server_type":"Dedicated","server_os":"Linux","password":true,"vac":true,"version":"7742253","steam_id":85568392924515191,"keywords":["nocrits","nodmgspread","payload","uncletopia"],"game_id":440,"stv_port":27036,"stv_name":"Uncletopia | Chicago | 3 | All Maps | STV","players":[{"user_id":748,"name":"Purple brain","steam_id":76561198103924707,"connected_time":461000000000,"state":"active","ping":53},{"user_id":738,"name":"Grimlocker","steam_id":76561198056342648,"connected_time":1474000000000,"state":"active","ping":102},{"user_id":751,"name":"Shred Kaczynski","steam_id":76561199015501117,"connected_time":288000000000,"state":"active","ping":48},{"user_id":753,"name":"CreateADebate","steam_id":76561198115760035,"connected_time":217000000000,"state":"active","ping":72},{"user_id":754,"name":"Kobby","steam_id":76561198045040833,"connected_time":203000000000,"state":"active","ping":41},{"user_id":750,"name":"oblivious","steam_id":76561198257109863,"connected_time":338000000000,"state":"active","ping":61},{"user_id":720,"name":"Elias","steam_id":76561198106431732,"connected_time":2716000000000,"state":"active","ping":58},{"user_id":755,"name":"aaa","steam_id":76561198090531755,"connected_time":157000000000,"state":"active","ping":61},{"user_id":732,"name":"Worml1ps","steam_id":76561198108185717,"connected_time":1843000000000,"state":"active","ping":77},{"user_id":733,"name":"M@dH@tter0","steam_id":76561199148773626,"connected_time":1842000000000,"state":"active","ping":109},{"user_id":726,"name":"Dr. Marvello","steam_id":76561198107573800,"connected_time":2288000000000,"state":"active","ping":85},{"user_id":737,"name":"About That Beer I Owed Ya","steam_id":76561198071506287,"connected_time":1712000000000,"state":"active","ping":103},{"user_id":746,"name":"BillButtLicker69","steam_id":76561198070119268,"connected_time":902000000000,"state":"active","ping":106},{"user_id":742,"name":"Dank Ghost","steam_id":76561198400690889,"connected_time":1156000000000,"state":"active","ping":103},{"user_id":718,"name":"derdds","steam_id":76561198034339940,"connected_time":2792000000000,"state":"active","ping":59},{"user_id":739,"name":"sweaterfan","steam_id":76561199389567214,"connected_time":1191000000000,"state":"active","ping":58},{"user_id":752,"name":"Blxssed13","steam_id":76561199462595447,"connected_time":275000000000,"state":"active","ping":89},{"user_id":743,"name":"KTB","steam_id":76561197990744614,"connected_time":1147000000000,"state":"active","ping":45},{"user_id":628,"name":"Casual Costanza","steam_id":76561198024409325,"connected_time":10367000000000,"state":"active","ping":68},{"user_id":744,"name":"hashmap","steam_id":76561198043794014,"connected_time":1140000000000,"state":"active","ping":49},{"user_id":756,"name":"veno","steam_id":76561198110261781,"connected_time":138000000000,"state":"active","ping":90},{"user_id":721,"name":"ctap2lean","steam_id":76561198068538473,"connected_time":2696000000000,"state":"active","ping":75},{"user_id":747,"name":"Sniper Monkey","steam_id":76561198334511480,"connected_time":863000000000,"state":"active","ping":75},{"user_id":723,"name":"Fluffeline","steam_id":76561198352909489,"connected_time":2690000000000,"state":"active","ping":148}]},{"server_id":403,"name":"Uncletopia | Chicago | 4 | All Maps","name_short":"chi-4","host":"chi-1.us.uncletopia.com","port":27045,"enabled":true,"region":"us-central","cc":"us","latitude":41.881832,"longitude":-87.62318,"reserved":0,"last_update":"0001-01-01T00:00:00Z","name_a2s":"Uncletopia | Chicago | 4 | All Maps","protocol":17,"map":"koth_highpass","folder":"tf","game":"Team Fortress","app_id":440,"player_count":5,"max_players":24,"Bots":0,"server_type":"Dedicated","server_os":"Linux","password":true,"vac":true,"version":"7742253","steam_id":85568392924515193,"keywords":["cp","nocrits","nodmgspread","uncletopia"],"game_id":440,"stv_port":27046,"stv_name":"Uncletopia | Chicago | 4 | All Maps | STV","players":[{"user_id":494,"name":"themadlad67","steam_id":76561199309554436,"connected_time":2272000000000,"state":"active","ping":111},{"user_id":495,"name":"YT_Excellent","steam_id":76561199445895882,"connected_time":489000000000,"state":"active","ping":78},{"user_id":496,"name":"VibingVicinity","steam_id":76561198208211285,"connected_time":300000000000,"state":"active","ping":51},{"user_id":471,"name":"A very nice man","steam_id":76561198165472253,"connected_time":6932000000000,"state":"active","ping":76},{"user_id":472,"name":"TinyLgnd","steam_id":76561198254062116,"connected_time":6902000000000,"state":"active","ping":76}]},{"server_id":36,"name":"Uncletopia | Chicago | 5 | All Maps","name_short":"chi-5","host":"chi-2.us.uncletopia.com","port":27015,"enabled":true,"region":"us-central","cc":"us","latitude":41.881832,"longitude":-87.62318,"reserved":0,"last_update":"0001-01-01T00:00:00Z","name_a2s":"Uncletopia | Chicago | 5 | All Maps","protocol":17,"map":"koth_viaduct","folder":"tf","game":"Team Fortress","app_id":440,"player_count":0,"max_players":24,"Bots":0,"server_type":"Dedicated","server_os":"Linux","password":true,"vac":true,"version":"7742253","steam_id":85568392924866362,"keywords":["cp","nocrits","nodmgspread","uncletopia"],"game_id":440,"stv_port":27016,"stv_name":"Uncletopia | Chicago | 5 | All Maps | STV","players":null},{"server_id":37,"name":"Uncletopia | Chicago | 6 | All Maps","name_short":"chi-6","host":"chi-2.us.uncletopia.com","port":27025,"enabled":true,"region":"us-central","cc":"us","latitude":41.881832,"longitude":-87.62318,"reserved":0,"last_update":"0001-01-01T00:00:00Z","name_a2s":"Uncletopia | Chicago | 6 | All Maps","protocol":17,"map":"cp_sunshine","folder":"tf","game":"Team Fortress","app_id":440,"player_count":24,"max_players":24,"Bots":0,"server_type":"Dedicated","server_os":"Linux","password":true,"vac":true,"version":"7742253","steam_id":85568392924866363,"keywords":["cp","nocrits","nodmgspread","uncletopia"],"game_id":440,"stv_port":27026,"stv_name":"Uncletopia | Chicago | 6 | All Maps | STV","players":[{"user_id":643,"name":"Mini-engineer","steam_id":76561199131945299,"connected_time":269000000000,"state":"active","ping":76},{"user_id":617,"name":"jayy.t","steam_id":76561198059575962,"connected_time":2656000000000,"state":"active","ping":59},{"user_id":635,"name":"SpieCicle","steam_id":76561198087788419,"connected_time":1479000000000,"state":"active","ping":61},{"user_id":642,"name":"NERV enthusiast","steam_id":76561198420990480,"connected_time":362000000000,"state":"active","ping":79},{"user_id":535,"name":"TwoScore","steam_id":76561198024412148,"connected_time":8458000000000,"state":"active","ping":91},{"user_id":616,"name":"PixelGeek","steam_id":76561198094309870,"connected_time":2734000000000,"state":"active","ping":115},{"user_id":640,"name":"kezia","steam_id":76561198059815894,"connected_time":1112000000000,"state":"active","ping":44},{"user_id":620,"name":"Fraglin","steam_id":76561198124964000,"connected_time":2572000000000,"state":"active","ping":63},{"user_id":626,"name":"averted","steam_id":76561198067784310,"connected_time":2297000000000,"state":"active","ping":61},{"user_id":644,"name":"KlintEastHood","steam_id":76561198126356829,"connected_time":262000000000,"state":"active","ping":113},{"user_id":647,"name":"Gay Spider thing","steam_id":76561197994831406,"connected_time":44000000000,"state":"active","ping":95},{"user_id":631,"name":"Atomic Waffles","steam_id":76561197970935570,"connected_time":1719000000000,"state":"active","ping":77},{"user_id":633,"name":"howtobepker","steam_id":76561198115053865,"connected_time":1623000000000,"state":"active","ping":81},{"user_id":624,"name":"Spunch Bopp Comet","steam_id":76561198017223597,"connected_time":2351000000000,"state":"active","ping":84},{"user_id":553,"name":"Dongarrian","steam_id":76561198078564422,"connected_time":7077000000000,"state":"active","ping":80},{"user_id":552,"name":"Rose","steam_id":76561198020936286,"connected_time":7083000000000,"state":"active","ping":108},{"user_id":554,"name":"sakn","steam_id":76561198081817461,"connected_time":7070000000000,"state":"active","ping":78},{"user_id":648,"name":"AberrantAngora","steam_id":76561198130580944,"connected_time":43000000000,"state":"active","ping":73},{"user_id":587,"name":"Passes the Bungus","steam_id":76561198040647717,"connected_time":5153000000000,"state":"active","ping":80},{"user_id":634,"name":"p.k","steam_id":76561198307917606,"connected_time":1565000000000,"state":"active","ping":49},{"user_id":638,"name":"|Ruco Sama|","steam_id":76561198408593857,"connected_time":1333000000000,"state":"active","ping":50},{"user_id":625,"name":"Sovulous","steam_id":76561198045389233,"connected_time":2315000000000,"state":"active","ping":63},{"user_id":615,"name":"weeb_whacker #Jenius","steam_id":76561198187098041,"connected_time":2860000000000,"state":"active","ping":58},{"user_id":639,"name":"Schmufie","steam_id":76561198114218248,"connected_time":1305000000000,"state":"active","ping":85}]},{"server_id":38,"name":"Uncletopia | Chicago | 7 | Stopwatch Beta","name_short":"chi-7","host":"chi-2.us.uncletopia.com","port":27035,"enabled":true,"region":"us-central","cc":"us","latitude":41.881832,"longitude":-87.62318,"reserved":0,"last_update":"0001-01-01T00:00:00Z","name_a2s":"Uncletopia | Chicago | 7 | Stopwatch Beta","protocol":17,"map":"workshop/pl_barnblitz_pro7.ugc582280235","folder":"tf","game":"Team Fortress","app_id":440,"player_count":0,"max_players":24,"Bots":0,"server_type":"Dedicated","server_os":"Linux","password":true,"vac":true,"version":"7742253","steam_id":85568392924866364,"keywords":["nocrits","nodmgspread","payload","uncletopia"],"game_id":440,"stv_port":27036,"stv_name":"Uncletopia | Chicago | 7 | Stopwatch Beta | STV","players":null},{"server_id":39,"name":"Uncletopia | Chicago | 8 | Community","name_short":"chi-8","host":"chi-2.us.uncletopia.com","port":27045,"enabled":true,"region":"us-central","cc":"us","latitude":41.881832,"longitude":-87.62318,"reserved":0,"last_update":"0001-01-01T00:00:00Z","name_a2s":"Uncletopia | Chicago | 8 | Community","protocol":17,"map":"workshop/cp_reckoner_rc6.ugc674719999","folder":"tf","game":"Team Fortress","app_id":440,"player_count":0,"max_players":24,"Bots":0,"server_type":"Dedicated","server_os":"Linux","password":true,"vac":true,"version":"7742253","steam_id":85568392924866365,"keywords":["cp","nocrits","nodmgspread","uncletopia"],"game_id":440,"stv_port":27046,"stv_name":"Uncletopia | Chicago | 8 | Community | STV","players":null},{"server_id":8,"name":"Uncletopia | Dallas | 1 | All Maps","name_short":"dal-1","host":"dal-1.us.uncletopia.com","port":27015,"enabled":true,"region":"us-central","cc":"us","latitude":32.779167,"longitude":-96.80889,"reserved":0,"last_update":"0001-01-01T00:00:00Z","name_a2s":"Uncletopia | Dallas | 1 | All Maps","protocol":17,"map":"pl_snowycoast","folder":"tf","game":"Team Fortress","app_id":440,"player_count":0,"max_players":24,"Bots":0,"server_type":"Dedicated","server_os":"Linux","password":true,"vac":true,"version":"7742253","steam_id":85568392924469986,"keywords":["nocrits","nodmgspread","payload","uncletopia"],"game_id":440,"stv_port":27016,"stv_name":"Uncletopia | Dallas | 1 | All Maps | STV","players":null},{"server_id":108,"name":"Uncletopia | Dallas | 2 | All Maps","name_short":"dal-2","host":"dal-1.us.uncletopia.com","port":27025,"enabled":true,"region":"us-central","cc":"us","latitude":32.779167,"longitude":-96.80889,"reserved":0,"last_update":"0001-01-01T00:00:00Z","name_a2s":"Uncletopia | Dallas | 2 | All Maps","protocol":17,"map":"pl_pier","folder":"tf","game":"Team Fortress","app_id":440,"player_count":24,"max_players":24,"Bots":0,"server_type":"Dedicated","server_os":"Linux","password":true,"vac":true,"version":"7742253","steam_id":85568392924469988,"keywords":["nocrits","nodmgspread","payload","uncletopia"],"game_id":440,"stv_port":27026,"stv_name":"Uncletopia | Dallas | 2 | All Maps | STV","players":[{"user_id":397,"name":"[LINUX] F2P=S*(M/B)+H || Spy!","steam_id":76561198093538786,"connected_time":3531000000000,"state":"active","ping":44},{"user_id":398,"name":"design philosophy","steam_id":76561198010482603,"connected_time":3408000000000,"state":"active","ping":85},{"user_id":407,"name":"JIGRON","steam_id":76561197998694076,"connected_time":2624000000000,"state":"active","ping":59},{"user_id":440,"name":"Chesh","steam_id":76561197990316722,"connected_time":246000000000,"state":"active","ping":78},{"user_id":324,"name":"❤Dumpster Cat❤","steam_id":76561199200969139,"connected_time":9414000000000,"state":"active","ping":114},{"user_id":404,"name":"Cherno Beta","steam_id":76561198047918122,"connected_time":2756000000000,"state":"active","ping":155},{"user_id":383,"name":"pathways","steam_id":76561198054832333,"connected_time":4646000000000,"state":"active","ping":83},{"user_id":409,"name":"Insert_Name_Here","steam_id":76561198089428414,"connected_time":2413000000000,"state":"active","ping":77},{"user_id":439,"name":"b4ttle_axe","steam_id":76561198061691855,"connected_time":323000000000,"state":"active","ping":77},{"user_id":423,"name":"Lore","steam_id":76561198098407538,"connected_time":1012000000000,"state":"active","ping":75},{"user_id":435,"name":"Resident Coffeecat™","steam_id":76561198156395474,"connected_time":534000000000,"state":"active","ping":59},{"user_id":442,"name":"IncognitoLens","steam_id":76561198059647601,"connected_time":179000000000,"state":"active","ping":57},{"user_id":433,"name":"Cat","steam_id":76561198121342302,"connected_time":720000000000,"state":"active","ping":98},{"user_id":371,"name":"Average Gibus Enjoyer","steam_id":76561198300953867,"connected_time":5368000000000,"state":"active","ping":58},{"user_id":426,"name":"ryqset","steam_id":76561198349299874,"connected_time":935000000000,"state":"active","ping":106},{"user_id":427,"name":"Logan601 #savetf2","steam_id":76561198263116731,"connected_time":931000000000,"state":"active","ping":87},{"user_id":428,"name":"bauxoffdagloop","steam_id":76561199196442823,"connected_time":913000000000,"state":"active","ping":138},{"user_id":430,"name":"RayLee","steam_id":76561198086161771,"connected_time":808000000000,"state":"active","ping":102},{"user_id":356,"name":"SPREAD CHRISTMAS CHEER AND JOY","steam_id":76561198800386026,"connected_time":6537000000000,"state":"active","ping":86},{"user_id":416,"name":"staples easy button","steam_id":76561198040415947,"connected_time":1624000000000,"state":"active","ping":104},{"user_id":431,"name":"Dzhoshua","steam_id":76561198071915251,"connected_time":791000000000,"state":"active","ping":79},{"user_id":432,"name":"bo scrungulus","steam_id":76561198038036122,"connected_time":757000000000,"state":"active","ping":68},{"user_id":417,"name":"Ferguson","steam_id":76561198121349387,"connected_time":1606000000000,"state":"active","ping":50},{"user_id":418,"name":"damiankiller1243","steam_id":76561198868885090,"connected_time":1456000000000,"state":"active","ping":63}]},{"server_id":5,"name":"Uncletopia | Frankfurt | 1 | All Maps","name_short":"frk-1","host":"frk-1.de.uncletopia.com","port":27015,"enabled":true,"region":"eu","cc":"de","latitude":50.110924,"longitude":8.682127,"reserved":0,"last_update":"0001-01-01T00:00:00Z","name_a2s":"Uncletopia | Frankfurt | 1 | All Maps","protocol":17,"map":"pl_borneo","folder":"tf","game":"Team Fortress","app_id":440,"player_count":0,"max_players":24,"Bots":0,"server_type":"Dedicated","server_os":"Linux","password":true,"vac":true,"version":"7742253","steam_id":85568392924469989,"keywords":["nocrits","nodmgspread","payload","uncletopia"],"game_id":440,"stv_port":27016,"stv_name":"Uncletopia | Frankfurt | 1 | All Maps | STV","players":null},{"server_id":110,"name":"Uncletopia | Frankfurt | 2 | All Maps","name_short":"frk-2","host":"frk-1.de.uncletopia.com","port":27025,"enabled":true,"region":"eu","cc":"de","latitude":50.110924,"longitude":8.682127,"reserved":0,"last_update":"0001-01-01T00:00:00Z","name_a2s":"Uncletopia | Frankfurt | 2 | All Maps","protocol":17,"map":"pl_swiftwater_final1","folder":"tf","game":"Team Fortress","app_id":440,"player_count":0,"max_players":24,"Bots":0,"server_type":"Dedicated","server_os":"Linux","password":true,"vac":true,"version":"7742253","steam_id":85568392924469990,"keywords":["nocrits","nodmgspread","payload","uncletopia"],"game_id":440,"stv_port":27026,"stv_name":"Uncletopia | Frankfurt | 2 | All Maps | STV","players":null},{"server_id":308,"name":"Uncletopia | Frankfurt | 3 | All Maps","name_short":"frk-3","host":"frk-1.de.uncletopia.com","port":27035,"enabled":true,"region":"eu","cc":"de","latitude":50.110924,"longitude":8.682127,"reserved":0,"last_update":"0001-01-01T00:00:00Z","name_a2s":"Uncletopia | Frankfurt | 3 | All Maps","protocol":17,"map":"cp_dustbowl","folder":"tf","game":"Team Fortress","app_id":440,"player_count":0,"max_players":24,"Bots":0,"server_type":"Dedicated","server_os":"Linux","password":true,"vac":true,"version":"7742253","steam_id":85568392924504274,"keywords":["cp","nocrits","nodmgspread","uncletopia"],"game_id":440,"stv_port":27036,"stv_name":"Uncletopia | Frankfurt | 3 | All Maps | STV","players":null},{"server_id":309,"name":"Uncletopia | Frankfurt | 4 | All Maps","name_short":"frk-4","host":"frk-1.de.uncletopia.com","port":27045,"enabled":true,"region":"eu","cc":"de","latitude":50.110924,"longitude":8.682127,"reserved":0,"last_update":"0001-01-01T00:00:00Z","name_a2s":"Uncletopia | Frankfurt | 4 | All Maps","protocol":17,"map":"cp_sunshine","folder":"tf","game":"Team Fortress","app_id":440,"player_count":0,"max_players":24,"Bots":0,"server_type":"Dedicated","server_os":"Linux","password":true,"vac":true,"version":"7742253","steam_id":85568392924504275,"keywords":["cp","nocrits","nodmgspread","uncletopia"],"game_id":440,"stv_port":27046,"stv_name":"Uncletopia | Frankfurt | 4 | All Maps | STV","players":null},{"server_id":310,"name":"Uncletopia | Frankfurt | 5 | All Maps","name_short":"frk-5","host":"frk-1.de.uncletopia.com","port":27055,"enabled":true,"region":"eu","cc":"de","latitude":50.110924,"longitude":8.682127,"reserved":0,"last_update":"0001-01-01T00:00:00Z","name_a2s":"Uncletopia | Frankfurt | 5 | All Maps","protocol":17,"map":"cp_snakewater_final1","folder":"tf","game":"Team Fortress","app_id":440,"player_count":0,"max_players":24,"Bots":0,"server_type":"Dedicated","server_os":"Linux","password":true,"vac":true,"version":"7742253","steam_id":85568392924504277,"keywords":["cp","nocrits","nodmgspread","uncletopia"],"game_id":440,"stv_port":27056,"stv_name":"Uncletopia | Frankfurt | 5 | All Maps | STV","players":null},{"server_id":311,"name":"Uncletopia | Frankfurt | 6 | All Maps","name_short":"frk-6","host":"frk-1.de.uncletopia.com","port":27065,"enabled":true,"region":"eu","cc":"de","latitude":50.110924,"longitude":8.682127,"reserved":0,"last_update":"0001-01-01T00:00:00Z","name_a2s":"Uncletopia | Frankfurt | 6 | All Maps","protocol":17,"map":"koth_lakeside_final","folder":"tf","game":"Team Fortress","app_id":440,"player_count":0,"max_players":24,"Bots":0,"server_type":"Dedicated","server_os":"Linux","password":true,"vac":true,"version":"7742253","steam_id":85568392924504278,"keywords":["cp","nocrits","nodmgspread","uncletopia"],"game_id":440,"stv_port":27066,"stv_name":"Uncletopia | Frankfurt | 6 | All Maps | STV","players":null},{"server_id":23,"name":"Uncletopia | Frankfurt | 7 | Stopwatch Beta","name_short":"frk-7","host":"frk-1.de.uncletopia.com","port":27075,"enabled":true,"region":"eu","cc":"de","latitude":50.110924,"longitude":8.682127,"reserved":0,"last_update":"0001-01-01T00:00:00Z","name_a2s":"Uncletopia | Frankfurt | 7 | Stopwatch Beta","protocol":17,"map":"pl_badwater","folder":"tf","game":"Team Fortress","app_id":440,"player_count":0,"max_players":24,"Bots":0,"server_type":"Dedicated","server_os":"Linux","password":true,"vac":true,"version":"7742253","steam_id":85568392924742827,"keywords":["nocrits","nodmgspread","payload","uncletopia"],"game_id":440,"stv_port":27076,"stv_name":"Uncletopia | Frankfurt | 7 | Stopwatch Beta | STV","players":null},{"server_id":24,"name":"Uncletopia | Frankfurt | 8 | Community","name_short":"frk-8","host":"frk-1.de.uncletopia.com","port":27085,"enabled":true,"region":"eu","cc":"de","latitude":50.110924,"longitude":8.682127,"reserved":0,"last_update":"0001-01-01T00:00:00Z","name_a2s":"Uncletopia | Frankfurt | 8 | Community","protocol":17,"map":"koth_cascade","folder":"tf","game":"Team Fortress","app_id":440,"player_count":0,"max_players":24,"Bots":0,"server_type":"Dedicated","server_os":"Linux","password":true,"vac":true,"version":"7742253","steam_id":85568392924742828,"keywords":["cp","nocrits","nodmgspread","uncletopia"],"game_id":440,"stv_port":27086,"stv_name":"Uncletopia | Frankfurt | 8 | Community | STV","players":null},{"server_id":202,"name":"Uncletopia | Hong Kong | 1 | All Maps","name_short":"hgk-1","host":"hgk-1.hk.uncletopia.com","port":27015,"enabled":true,"region":"asia","cc":"hk","latitude":22.302711,"longitude":114.177216,"reserved":0,"last_update":"0001-01-01T00:00:00Z","name_a2s":"Uncletopia | Hong Kong | 1 | All Maps","protocol":17,"map":"pl_hoodoo_final","folder":"tf","game":"Team Fortress","app_id":440,"player_count":24,"max_players":24,"Bots":0,"server_type":"Dedicated","server_os":"Linux","password":true,"vac":true,"version":"7742253","steam_id":85568392924494504,"keywords":["nocrits","nodmgspread","payload","uncletopia"],"game_id":440,"stv_port":27016,"stv_name":"Uncletopia | Hong Kong | 1 | All Maps | STV","players":[{"user_id":499,"name":"Noyour","steam_id":76561198323259830,"connected_time":5892000000000,"state":"active","ping":117},{"user_id":646,"name":"CinderHex","steam_id":76561198854397761,"connected_time":2161000000000,"state":"active","ping":85},{"user_id":526,"name":"Urotsuki","steam_id":76561198074339034,"connected_time":5200000000000,"state":"active","ping":75},{"user_id":269,"name":"UZ","steam_id":76561198179320563,"connected_time":11997000000000,"state":"active","ping":69},{"user_id":658,"name":"Momoxhien","steam_id":76561198414997429,"connected_time":1950000000000,"state":"active","ping":65},{"user_id":655,"name":"Ian","steam_id":76561198159334435,"connected_time":2042000000000,"state":"active","ping":159},{"user_id":666,"name":"Clark Redgrave","steam_id":76561198247578638,"connected_time":872000000000,"state":"active","ping":61},{"user_id":561,"name":"Cá Tháng 4","steam_id":76561198047162026,"connected_time":4022000000000,"state":"active","ping":52},{"user_id":660,"name":"Saffron","steam_id":76561199025320247,"connected_time":1064000000000,"state":"active","ping":74},{"user_id":18,"name":"lillalune","steam_id":76561198230213828,"connected_time":18992000000000,"state":"active","ping":65},{"user_id":621,"name":"clori","steam_id":76561199146847474,"connected_time":2871000000000,"state":"active","ping":55},{"user_id":645,"name":"煙海 | Enkai","steam_id":76561198050460825,"connected_time":2176000000000,"state":"active","ping":77},{"user_id":661,"name":"u/Plencers2","steam_id":76561198311052198,"connected_time":1063000000000,"state":"active","ping":80},{"user_id":665,"name":"Odin (Playing on Zenia's Wacom)","steam_id":76561198239125304,"connected_time":929000000000,"state":"active","ping":85},{"user_id":169,"name":"Windmill","steam_id":76561199230997986,"connected_time":14301000000000,"state":"active","ping":73},{"user_id":663,"name":"joe.vincent.1987","steam_id":76561198200174375,"connected_time":940000000000,"state":"active","ping":69},{"user_id":667,"name":"CaptainBozo","steam_id":76561199151959977,"connected_time":649000000000,"state":"active","ping":60},{"user_id":543,"name":"Gold","steam_id":76561199008543001,"connected_time":4582000000000,"state":"active","ping":61},{"user_id":659,"name":"Degenerate With Standards","steam_id":76561199174449723,"connected_time":1923000000000,"state":"active","ping":78},{"user_id":647,"name":"professional esports fortnite","steam_id":76561198337887896,"connected_time":2161000000000,"state":"active","ping":85},{"user_id":652,"name":"Wattson22542","steam_id":76561198962485791,"connected_time":2086000000000,"state":"active","ping":86},{"user_id":669,"name":"ZCary","steam_id":76561198173516050,"connected_time":4000000000,"state":"spawning","ping":60},{"user_id":183,"name":"Bertengkar","steam_id":76561198213031155,"connected_time":13324000000000,"state":"active","ping":106},{"user_id":670,"name":"Ellie Goulding","steam_id":76561198035380358,"connected_time":3000000000,"state":"spawning","ping":163}]},{"server_id":1,"name":"Uncletopia | Los Angeles | 1 | All Maps","name_short":"lax-1","host":"lax-1.us.uncletopia.com","port":27015,"enabled":true,"region":"us-west","cc":"us","latitude":33.94279,"longitude":-118.41004,"reserved":0,"last_update":"0001-01-01T00:00:00Z","name_a2s":"Uncletopia | Los Angeles | 1 | All Maps","protocol":17,"map":"koth_lakeside_final","folder":"tf","game":"Team Fortress","app_id":440,"player_count":0,"max_players":24,"Bots":0,"server_type":"Dedicated","server_os":"Linux","password":true,"vac":true,"version":"7742253","steam_id":85568392924469991,"keywords":["cp","nocrits","nodmgspread","uncletopia"],"game_id":440,"stv_port":27016,"stv_name":"Uncletopia | Los Angeles | 1 | All Maps | STV","players":null},{"server_id":112,"name":"Uncletopia | Los Angeles | 2 | All Maps","name_short":"lax-2","host":"lax-1.us.uncletopia.com","port":27025,"enabled":true,"region":"us-west","cc":"us","latitude":33.94279,"longitude":-118.41004,"reserved":0,"last_update":"0001-01-01T00:00:00Z","name_a2s":"Uncletopia | Los Angeles | 2 | All Maps","protocol":17,"map":"pl_badwater","folder":"tf","game":"Team Fortress","app_id":440,"player_count":0,"max_players":24,"Bots":0,"server_type":"Dedicated","server_os":"Linux","password":true,"vac":true,"version":"7742253","steam_id":85568392924469992,"keywords":["nocrits","nodmgspread","payload","uncletopia"],"game_id":440,"stv_port":27026,"stv_name":"Uncletopia | Los Angeles | 2 | All Maps | STV","players":null},{"server_id":324,"name":"Uncletopia | Los Angeles | 3 | All Maps","name_short":"lax-3","host":"lax-1.us.uncletopia.com","port":27035,"enabled":true,"region":"us-west","cc":"us","latitude":33.94279,"longitude":-118.41004,"reserved":0,"last_update":"0001-01-01T00:00:00Z","name_a2s":"Uncletopia | Los Angeles | 3 | All Maps","protocol":17,"map":"koth_lakeside_final","folder":"tf","game":"Team Fortress","app_id":440,"player_count":0,"max_players":24,"Bots":0,"server_type":"Dedicated","server_os":"Linux","password":true,"vac":true,"version":"7742253","steam_id":85568392924510198,"keywords":["cp","nocrits","nodmgspread","uncletopia"],"game_id":440,"stv_port":27036,"stv_name":"Uncletopia | Los Angeles | 3 | All Maps | STV","players":null},{"server_id":25,"name":"Uncletopia | Los Angeles | 4 | Stopwatch Beta","name_short":"lax-4","host":"lax-1.us.uncletopia.com","port":27045,"enabled":true,"region":"us-west","cc":"us","latitude":33.94279,"longitude":-118.41004,"reserved":0,"last_update":"0001-01-01T00:00:00Z","name_a2s":"Uncletopia | Los Angeles | 4 | Stopwatch Beta","protocol":17,"map":"koth_lakeside_final","folder":"tf","game":"Team Fortress","app_id":440,"player_count":0,"max_players":24,"Bots":0,"server_type":"Dedicated","server_os":"Linux","password":true,"vac":true,"version":"7742253","steam_id":85568392924510199,"keywords":["cp","nocrits","nodmgspread","uncletopia"],"game_id":440,"stv_port":27046,"stv_name":"Uncletopia | Los Angeles | 4 | Stopwatch Beta | STV","players":null},{"server_id":11,"name":"Uncletopia | London | 1 | All Maps","name_short":"lon-1","host":"lon-1.uk.uncletopia.com","port":27015,"enabled":true,"region":"eu","cc":"gb","latitude":51.509865,"longitude":-0.118092,"reserved":0,"last_update":"0001-01-01T00:00:00Z","name_a2s":"Uncletopia | London | 1 | All Maps","protocol":17,"map":"pl_badwater","folder":"tf","game":"Team Fortress","app_id":440,"player_count":0,"max_players":24,"Bots":0,"server_type":"Dedicated","server_os":"Linux","password":true,"vac":true,"version":"7742253","steam_id":85568392924367362,"keywords":["nocrits","nodmgspread","payload","uncletopia"],"game_id":440,"stv_port":27016,"stv_name":"Uncletopia | London | 1 | All Maps | STV","players":null},{"server_id":114,"name":"Uncletopia | London | 2 | All Maps","name_short":"lon-2","host":"lon-1.uk.uncletopia.com","port":27025,"enabled":true,"region":"eu","cc":"gb","latitude":51.509865,"longitude":-0.118092,"reserved":0,"last_update":"0001-01-01T00:00:00Z","name_a2s":"Uncletopia | London | 2 | All Maps","protocol":17,"map":"pl_swiftwater_final1","folder":"tf","game":"Team Fortress","app_id":440,"player_count":0,"max_players":24,"Bots":0,"server_type":"Dedicated","server_os":"Linux","password":true,"vac":true,"version":"7742253","steam_id":85568392924470941,"keywords":["nocrits","nodmgspread","payload","uncletopia"],"game_id":440,"stv_port":27026,"stv_name":"Uncletopia | London | 2 | All Maps | STV","players":null},{"server_id":320,"name":"Uncletopia | London | 3 | All Maps","name_short":"lon-3","host":"lon-1.uk.uncletopia.com","port":27035,"enabled":true,"region":"eu","cc":"gb","latitude":51.509865,"longitude":-0.118092,"reserved":0,"last_update":"0001-01-01T00:00:00Z","name_a2s":"Uncletopia | London | 3 | All Maps","protocol":17,"map":"pl_upward","folder":"tf","game":"Team Fortress","app_id":440,"player_count":0,"max_players":24,"Bots":0,"server_type":"Dedicated","server_os":"Linux","password":true,"vac":true,"version":"7742253","steam_id":85568392924510192,"keywords":["nocrits","nodmgspread","payload","uncletopia"],"game_id":440,"stv_port":27036,"stv_name":"Uncletopia | London | 3 | All Maps | STV","players":null},{"server_id":321,"name":"Uncletopia | London | 4 | All Maps","name_short":"lon-4","host":"lon-1.uk.uncletopia.com","port":27045,"enabled":true,"region":"eu","cc":"gb","latitude":51.509865,"longitude":-0.118092,"reserved":0,"last_update":"0001-01-01T00:00:00Z","name_a2s":"Uncletopia | London | 4 | All Maps","protocol":17,"map":"koth_highpass","folder":"tf","game":"Team Fortress","app_id":440,"player_count":0,"max_players":24,"Bots":0,"server_type":"Dedicated","server_os":"Linux","password":true,"vac":true,"version":"7742253","steam_id":85568392924510193,"keywords":["cp","nocrits","nodmgspread","uncletopia"],"game_id":440,"stv_port":27046,"stv_name":"Uncletopia | London | 4 | All Maps | STV","players":null},{"server_id":21,"name":"Uncletopia | London | 5 | All Maps","name_short":"lon-5","host":"lon-1.uk.uncletopia.com","port":27055,"enabled":true,"region":"eu","cc":"gb","latitude":51.509865,"longitude":-0.118092,"reserved":0,"last_update":"0001-01-01T00:00:00Z","name_a2s":"Uncletopia | London | 5 | All Maps","protocol":17,"map":"pl_frontier_final","folder":"tf","game":"Team Fortress","app_id":440,"player_count":0,"max_players":24,"Bots":0,"server_type":"Dedicated","server_os":"Linux","password":true,"vac":true,"version":"7742253","steam_id":85568392924742829,"keywords":["nocrits","nodmgspread","payload","uncletopia"],"game_id":440,"stv_port":27056,"stv_name":"Uncletopia | London | 5 | All Maps | STV","players":null},{"server_id":22,"name":"Uncletopia | London | 6 | All Maps","name_short":"lon-6","host":"lon-1.uk.uncletopia.com","port":27065,"enabled":true,"region":"eu","cc":"gb","latitude":51.509865,"longitude":-0.118092,"reserved":0,"last_update":"0001-01-01T00:00:00Z","name_a2s":"Uncletopia | London | 6 | All Maps","protocol":17,"map":"pl_borneo","folder":"tf","game":"Team Fortress","app_id":440,"player_count":0,"max_players":24,"Bots":0,"server_type":"Dedicated","server_os":"Linux","password":true,"vac":true,"version":"7742253","steam_id":85568392924742830,"keywords":["nocrits","nodmgspread","payload","uncletopia"],"game_id":440,"stv_port":27066,"stv_name":"Uncletopia | London | 6 | All Maps | STV","players":null},{"server_id":40,"name":"Uncletopia | London | 7 | No Payload","name_short":"lon-7","host":"lon-1.uk.uncletopia.com","port":27075,"enabled":true,"region":"eu","cc":"gb","latitude":51.509865,"longitude":-0.118092,"reserved":0,"last_update":"0001-01-01T00:00:00Z","name_a2s":"Uncletopia | London | 7 | No Payload","protocol":17,"map":"koth_viaduct","folder":"tf","game":"Team Fortress","app_id":440,"player_count":0,"max_players":24,"Bots":0,"server_type":"Dedicated","server_os":"Linux","password":true,"vac":true,"version":"7742253","steam_id":85568392924964314,"keywords":["cp","nocrits","nodmgspread","uncletopia"],"game_id":440,"stv_port":27076,"stv_name":"Uncletopia | London | 7 | No Payload | STV","players":null},{"server_id":41,"name":"Uncletopia | London | 8 | Community","name_short":"lon-8","host":"lon-1.uk.uncletopia.com","port":27085,"enabled":true,"region":"eu","cc":"gb","latitude":51.509865,"longitude":-0.118092,"reserved":0,"last_update":"0001-01-01T00:00:00Z","name_a2s":"Uncletopia | London | 8 | Community","protocol":17,"map":"cp_altitude","folder":"tf","game":"Team Fortress","app_id":440,"player_count":0,"max_players":24,"Bots":0,"server_type":"Dedicated","server_os":"Linux","password":true,"vac":true,"version":"7742253","steam_id":85568392924964315,"keywords":["cp","nocrits","nodmgspread","uncletopia"],"game_id":440,"stv_port":27086,"stv_name":"Uncletopia | London | 8 | Community | STV","players":null},{"server_id":300,"name":"Uncletopia | Montréal | 1 | All Maps","name_short":"mtl-1","host":"mtl-1.ca.uncletopia.com","port":27015,"enabled":true,"region":"us-east","cc":"ca","latitude":45.50889,"longitude":-73.56167,"reserved":0,"last_update":"0001-01-01T00:00:00Z","name_a2s":"Uncletopia | Montréal | 1 | All Maps","protocol":17,"map":"koth_cascade","folder":"tf","game":"Team Fortress","app_id":440,"player_count":0,"max_players":24,"Bots":0,"server_type":"Dedicated","server_os":"Linux","password":true,"vac":true,"version":"7742253","steam_id":85568392924500087,"keywords":["cp","nocrits","nodmgspread","uncletopia"],"game_id":440,"stv_port":27016,"stv_name":"Uncletopia | Montréal | 1 | All Maps | STV","players":null},{"server_id":301,"name":"Uncletopia | Montréal | 2 | All Maps","name_short":"mtl-2","host":"mtl-1.ca.uncletopia.com","port":27025,"enabled":true,"region":"us-east","cc":"ca","latitude":45.50889,"longitude":-73.56167,"reserved":0,"last_update":"0001-01-01T00:00:00Z","name_a2s":"Uncletopia | Montréal | 2 | All Maps","protocol":17,"map":"koth_lakeside_final","folder":"tf","game":"Team Fortress","app_id":440,"player_count":0,"max_players":24,"Bots":0,"server_type":"Dedicated","server_os":"Linux","password":true,"vac":true,"version":"7742253","steam_id":85568392924500088,"keywords":["cp","nocrits","nodmgspread","uncletopia"],"game_id":440,"stv_port":27026,"stv_name":"Uncletopia | Montréal | 2 | All Maps | STV","players":null},{"server_id":302,"name":"Uncletopia | Montréal | 3 | All Maps","name_short":"mtl-3","host":"mtl-1.ca.uncletopia.com","port":27035,"enabled":true,"region":"us-east","cc":"ca","latitude":45.50889,"longitude":-73.56167,"reserved":0,"last_update":"0001-01-01T00:00:00Z","name_a2s":"Uncletopia | Montréal | 3 | All Maps","protocol":17,"map":"pl_frontier_final","folder":"tf","game":"Team Fortress","app_id":440,"player_count":0,"max_players":24,"Bots":0,"server_type":"Dedicated","server_os":"Linux","password":true,"vac":true,"version":"7742253","steam_id":85568392924500089,"keywords":["nocrits","nodmgspread","payload","uncletopia"],"game_id":440,"stv_port":27036,"stv_name":"Uncletopia | Montréal | 3 | All Maps | STV","players":null},{"server_id":303,"name":"Uncletopia | Montréal | 4 | No Payload","name_short":"mtl-4","host":"mtl-1.ca.uncletopia.com","port":27045,"enabled":true,"region":"us-east","cc":"ca","latitude":45.50889,"longitude":-73.56167,"reserved":0,"last_update":"0001-01-01T00:00:00Z","name_a2s":"Uncletopia | Montréal | 4 | No Payload","protocol":17,"map":"cp_mountainlab","folder":"tf","game":"Team Fortress","app_id":440,"player_count":0,"max_players":24,"Bots":0,"server_type":"Dedicated","server_os":"Linux","password":true,"vac":true,"version":"7742253","steam_id":85568392924500090,"keywords":["cp","nocrits","nodmgspread","uncletopia"],"game_id":440,"stv_port":27046,"stv_name":"Uncletopia | Montréal | 4 | No Payload | STV","players":null},{"server_id":13,"name":"Uncletopia | New York City | 1 | All Maps","name_short":"nyc-1","host":"nyc-1.us.uncletopia.com","port":27015,"enabled":true,"region":"us-east","cc":"us","latitude":40.73061,"longitude":-73.93524,"reserved":0,"last_update":"0001-01-01T00:00:00Z","name_a2s":"Uncletopia | New York City | 1 | All Maps","protocol":17,"map":"pl_badwater","folder":"tf","game":"Team Fortress","app_id":440,"player_count":24,"max_players":24,"Bots":0,"server_type":"Dedicated","server_os":"Linux","password":true,"vac":true,"version":"7742253","steam_id":85568392924469993,"keywords":["nocrits","nodmgspread","payload","uncletopia"],"game_id":440,"stv_port":27016,"stv_name":"Uncletopia | New York City | 1 | All Maps | STV","players":[{"user_id":227,"name":"Unholy","steam_id":76561198058312481,"connected_time":4658000000000,"state":"active","ping":60},{"user_id":220,"name":"Frank HardWood","steam_id":76561198109364911,"connected_time":6834000000000,"state":"active","ping":82},{"user_id":262,"name":"Brainfreezzzzz","steam_id":76561198068496884,"connected_time":1058000000000,"state":"active","ping":50},{"user_id":260,"name":"Smileland","steam_id":76561199223425104,"connected_time":1185000000000,"state":"active","ping":87},{"user_id":237,"name":"REDACTED_banana_887","steam_id":76561199224406093,"connected_time":3594000000000,"state":"active","ping":156},{"user_id":251,"name":"r0ck","steam_id":76561198141716764,"connected_time":2089000000000,"state":"active","ping":50},{"user_id":263,"name":"Daddy-O Dizzy","steam_id":76561198292349348,"connected_time":947000000000,"state":"active","ping":82},{"user_id":246,"name":"sakurae","steam_id":76561198281821832,"connected_time":2555000000000,"state":"active","ping":134},{"user_id":247,"name":"drifloy","steam_id":76561198153437083,"connected_time":2483000000000,"state":"active","ping":45},{"user_id":264,"name":"gertchy","steam_id":76561199111932529,"connected_time":878000000000,"state":"active","ping":50},{"user_id":254,"name":"Diamond Jack","steam_id":76561198321304762,"connected_time":1594000000000,"state":"active","ping":47},{"user_id":154,"name":"Yuzu","steam_id":76561198417913035,"connected_time":13103000000000,"state":"active","ping":66},{"user_id":225,"name":"Laelaps","steam_id":76561198100061416,"connected_time":4662000000000,"state":"active","ping":46},{"user_id":196,"name":"Brass beast heavy","steam_id":76561198274197623,"connected_time":9200000000000,"state":"active","ping":134},{"user_id":250,"name":"SKIN IS WHERE THE FLAVOR IS","steam_id":76561198115842661,"connected_time":2156000000000,"state":"active","ping":79},{"user_id":245,"name":"Horrizan","steam_id":76561197965028480,"connected_time":2580000000000,"state":"active","ping":69},{"user_id":271,"name":"MisterCat","steam_id":76561199448904053,"connected_time":234000000000,"state":"active","ping":100},{"user_id":266,"name":"esog","steam_id":76561198250069226,"connected_time":769000000000,"state":"active","ping":57},{"user_id":272,"name":"GavinGWhiz (they/them)","steam_id":76561198009269123,"connected_time":186000000000,"state":"active","ping":76},{"user_id":268,"name":"asian","steam_id":76561198082561695,"connected_time":692000000000,"state":"active","ping":60},{"user_id":273,"name":"emukill","steam_id":76561198053143720,"connected_time":105000000000,"state":"active","ping":115},{"user_id":274,"name":"High Medic","steam_id":76561198082405984,"connected_time":86000000000,"state":"active","ping":73},{"user_id":275,"name":"peachy","steam_id":76561198026664629,"connected_time":54000000000,"state":"active","ping":51},{"user_id":214,"name":"SALEM","steam_id":76561198116281100,"connected_time":7811000000000,"state":"active","ping":54}]},{"server_id":14,"name":"Uncletopia | New York City | 2 | All Maps","name_short":"nyc-2","host":"nyc-1.us.uncletopia.com","port":27025,"enabled":true,"region":"us-east","cc":"us","latitude":40.73061,"longitude":-73.93524,"reserved":0,"last_update":"0001-01-01T00:00:00Z","name_a2s":"Uncletopia | New York City | 2 | All Maps","protocol":17,"map":"cp_sunshine","folder":"tf","game":"Team Fortress","app_id":440,"player_count":1,"max_players":24,"Bots":0,"server_type":"Dedicated","server_os":"Linux","password":true,"vac":true,"version":"7742253","steam_id":85568392924469994,"keywords":["cp","nocrits","nodmgspread","uncletopia"],"game_id":440,"stv_port":27026,"stv_name":"Uncletopia | New York City | 2 | All Maps | STV","players":[{"user_id":232,"name":"Nuen","steam_id":76561198936096111,"connected_time":1223000000000,"state":"active","ping":170}]},{"server_id":15,"name":"Uncletopia | New York City | 3 | Stopwatch Beta","name_short":"nyc-3","host":"nyc-1.us.uncletopia.com","port":27035,"enabled":true,"region":"us-east","cc":"us","latitude":40.73061,"longitude":-73.93524,"reserved":0,"last_update":"0001-01-01T00:00:00Z","name_a2s":"Uncletopia | New York City | 3 | Stopwatch Beta","protocol":17,"map":"pl_pier","folder":"tf","game":"Team Fortress","app_id":440,"player_count":0,"max_players":24,"Bots":0,"server_type":"Dedicated","server_os":"Linux","password":true,"vac":true,"version":"7742253","steam_id":85568392924742820,"keywords":["nocrits","nodmgspread","payload","uncletopia"],"game_id":440,"stv_port":27036,"stv_name":"Uncletopia | New York City | 3 | Stopwatch Beta | STV","players":null},{"server_id":16,"name":"Uncletopia | New York City | 4 | Community","name_short":"nyc-4","host":"nyc-1.us.uncletopia.com","port":27045,"enabled":true,"region":"us-east","cc":"us","latitude":40.73061,"longitude":-73.93524,"reserved":0,"last_update":"0001-01-01T00:00:00Z","name_a2s":"Uncletopia | New York City | 4 | Community","protocol":17,"map":"workshop/pl_vigil_rc9.ugc1266210012","folder":"tf","game":"Team Fortress","app_id":440,"player_count":0,"max_players":24,"Bots":0,"server_type":"Dedicated","server_os":"Linux","password":true,"vac":true,"version":"7742253","steam_id":85568392924742821,"keywords":["nocrits","nodmgspread","payload","uncletopia"],"game_id":440,"stv_port":27046,"stv_name":"Uncletopia | New York City | 4 | Community | STV","players":null},{"server_id":142,"name":"Uncletopia | São Paulo | 1 | All Maps","name_short":"sao-1","host":"sao-1.br.uncletopia.com","port":27015,"enabled":true,"region":"sa","cc":"br","latitude":-23.533773,"longitude":-46.62529,"reserved":0,"last_update":"0001-01-01T00:00:00Z","name_a2s":"Uncletopia | São Paulo | 1 | All Maps","protocol":17,"map":"koth_lakeside_final","folder":"tf","game":"Team Fortress","app_id":440,"player_count":0,"max_players":24,"Bots":0,"server_type":"Dedicated","server_os":"Linux","password":true,"vac":true,"version":"7742253","steam_id":85568392924469996,"keywords":["cp","nocrits","nodmgspread","uncletopia"],"game_id":440,"stv_port":27016,"stv_name":"Uncletopia | São Paulo | 1 | All Maps | STV","players":null},{"server_id":143,"name":"Uncletopia | São Paulo | 2 | All Maps","name_short":"sao-2","host":"sao-2.br.uncletopia.com","port":27015,"enabled":true,"region":"sa","cc":"br","latitude":-23.533773,"longitude":-46.62529,"reserved":0,"last_update":"0001-01-01T00:00:00Z","name_a2s":"Uncletopia | São Paulo | 2 | All Maps","protocol":17,"map":"koth_cascade","folder":"tf","game":"Team Fortress","app_id":440,"player_count":0,"max_players":24,"Bots":0,"server_type":"Dedicated","server_os":"Linux","password":true,"vac":true,"version":"7742253","steam_id":85568392924485349,"keywords":["cp","nocrits","nodmgspread","uncletopia"],"game_id":440,"stv_port":27016,"stv_name":"Uncletopia | São Paulo | 2 | All Maps | STV","players":null},{"server_id":7,"name":"Uncletopia | Seattle | 1 | All Maps","name_short":"sea-1","host":"sea-1.us.uncletopia.com","port":27015,"enabled":true,"region":"us-west","cc":"us","latitude":47.608013,"longitude":-122.33517,"reserved":0,"last_update":"0001-01-01T00:00:00Z","name_a2s":"Uncletopia | Seattle | 1 | All Maps","protocol":17,"map":"pl_rumford_event","folder":"tf","game":"Team Fortress","app_id":440,"player_count":24,"max_players":24,"Bots":0,"server_type":"Dedicated","server_os":"Linux","password":true,"vac":true,"version":"7742253","steam_id":85568392924469997,"keywords":["nocrits","nodmgspread","payload","uncletopia"],"game_id":440,"stv_port":27016,"stv_name":"Uncletopia | Seattle | 1 | All Maps | STV","players":[{"user_id":560,"name":"juliusgem","steam_id":76561198206751192,"connected_time":2502000000000,"state":"active","ping":91},{"user_id":580,"name":"I'm So Fast...","steam_id":76561198448519830,"connected_time":298000000000,"state":"active","ping":142},{"user_id":585,"name":"Muteant","steam_id":76561197999237890,"connected_time":183000000000,"state":"active","ping":91},{"user_id":576,"name":"butt3r_","steam_id":76561198156374792,"connected_time":761000000000,"state":"active","ping":46},{"user_id":584,"name":"raduski","steam_id":76561198795699119,"connected_time":222000000000,"state":"active","ping":92},{"user_id":570,"name":"BONG THREAT","steam_id":76561197988234127,"connected_time":1182000000000,"state":"active","ping":47},{"user_id":449,"name":"Raian","steam_id":76561199138048671,"connected_time":7171000000000,"state":"active","ping":75},{"user_id":579,"name":"bad spy player","steam_id":76561198873699671,"connected_time":321000000000,"state":"active","ping":46},{"user_id":471,"name":"Thanks Ants","steam_id":76561197966221018,"connected_time":5878000000000,"state":"active","ping":39},{"user_id":586,"name":"Quietsharp","steam_id":76561198277968438,"connected_time":156000000000,"state":"active","ping":85},{"user_id":483,"name":"Chingga","steam_id":76561198165837395,"connected_time":5286000000000,"state":"active","ping":45},{"user_id":484,"name":"Sweets","steam_id":76561198998446307,"connected_time":5036000000000,"state":"active","ping":69},{"user_id":583,"name":"GOIN' APE LIKE NIGO","steam_id":76561198239598834,"connected_time":243000000000,"state":"active","ping":132},{"user_id":541,"name":"social distance warrior","steam_id":76561198128992994,"connected_time":3054000000000,"state":"active","ping":49},{"user_id":545,"name":"gerg","steam_id":76561197997127387,"connected_time":2995000000000,"state":"active","ping":63},{"user_id":587,"name":"Alteraxia","steam_id":76561198213333961,"connected_time":147000000000,"state":"active","ping":121},{"user_id":474,"name":"Sailor","steam_id":76561199081983517,"connected_time":5653000000000,"state":"active","ping":98},{"user_id":491,"name":"Strikerbolt","steam_id":76561199095622897,"connected_time":4299000000000,"state":"active","ping":84},{"user_id":568,"name":"gorlab","steam_id":76561198025089694,"connected_time":1657000000000,"state":"active","ping":61},{"user_id":544,"name":"Chiaki Nanami","steam_id":76561198164782653,"connected_time":3005000000000,"state":"active","ping":131},{"user_id":465,"name":"Savant","steam_id":76561197969881916,"connected_time":6153000000000,"state":"active","ping":62},{"user_id":574,"name":"kab789","steam_id":76561198069842202,"connected_time":1117000000000,"state":"active","ping":108},{"user_id":582,"name":"purply-ghost","steam_id":76561199204779865,"connected_time":277000000000,"state":"active","ping":106},{"user_id":565,"name":"John Calibur","steam_id":76561197999986606,"connected_time":1805000000000,"state":"active","ping":77}]},{"server_id":119,"name":"Uncletopia | Seattle | 2 | All Maps","name_short":"sea-2","host":"sea-1.us.uncletopia.com","port":27025,"enabled":true,"region":"us-west","cc":"us","latitude":47.608013,"longitude":-122.33517,"reserved":0,"last_update":"0001-01-01T00:00:00Z","name_a2s":"Uncletopia | Seattle | 2 | All Maps","protocol":17,"map":"pl_thundermountain","folder":"tf","game":"Team Fortress","app_id":440,"player_count":24,"max_players":24,"Bots":0,"server_type":"Dedicated","server_os":"Linux","password":true,"vac":true,"version":"7742253","steam_id":85568392924469998,"keywords":["nocrits","nodmgspread","payload","uncletopia"],"game_id":440,"stv_port":27026,"stv_name":"Uncletopia | Seattle | 2 | All Maps | STV","players":[{"user_id":519,"name":"Oxferd 𝓒𝓻𝓸𝔀","steam_id":76561198096916018,"connected_time":1846000000000,"state":"active","ping":66},{"user_id":534,"name":"smeasly","steam_id":76561198028718812,"connected_time":672000000000,"state":"active","ping":38},{"user_id":459,"name":"mooney","steam_id":76561199110622484,"connected_time":7177000000000,"state":"active","ping":57},{"user_id":500,"name":"rat gets the cheese","steam_id":76561198031234032,"connected_time":4679000000000,"state":"active","ping":98},{"user_id":528,"name":"Florist","steam_id":76561198009121060,"connected_time":1037000000000,"state":"active","ping":47},{"user_id":535,"name":"Scansy","steam_id":76561198140528754,"connected_time":486000000000,"state":"active","ping":48},{"user_id":536,"name":"SesataPomang","steam_id":76561198145133059,"connected_time":433000000000,"state":"active","ping":101},{"user_id":527,"name":"Kirkland Signature bacon","steam_id":76561199102963294,"connected_time":1134000000000,"state":"active","ping":65},{"user_id":427,"name":"THE NUT","steam_id":76561198067813626,"connected_time":9315000000000,"state":"active","ping":54},{"user_id":512,"name":"Arrythmia","steam_id":76561198093748123,"connected_time":2420000000000,"state":"active","ping":59},{"user_id":523,"name":"......","steam_id":76561198067612741,"connected_time":1592000000000,"state":"active","ping":50},{"user_id":529,"name":"suoosh","steam_id":76561198801471800,"connected_time":958000000000,"state":"active","ping":51},{"user_id":530,"name":"Adlai130s","steam_id":76561198571410221,"connected_time":916000000000,"state":"active","ping":86},{"user_id":501,"name":"Strength!!","steam_id":76561198001241984,"connected_time":4219000000000,"state":"active","ping":52},{"user_id":537,"name":"Star_Mann_Jr.","steam_id":76561198071148924,"connected_time":396000000000,"state":"active","ping":103},{"user_id":533,"name":"lamadre07","steam_id":76561198067337453,"connected_time":699000000000,"state":"active","ping":129},{"user_id":538,"name":"StrangeMachine","steam_id":76561198046628064,"connected_time":200000000000,"state":"active","ping":48},{"user_id":526,"name":"Dallas From Payday 2","steam_id":76561199059733640,"connected_time":1379000000000,"state":"active","ping":92},{"user_id":532,"name":"Nirvana","steam_id":76561198293556549,"connected_time":852000000000,"state":"active","ping":49},{"user_id":503,"name":"i am splatoon (ALL)","steam_id":76561198035698704,"connected_time":3837000000000,"state":"active","ping":74},{"user_id":453,"name":"zoo-music girl","steam_id":76561198325306660,"connected_time":7702000000000,"state":"active","ping":54},{"user_id":504,"name":"dr. chloé (apotropaic)","steam_id":76561198858926895,"connected_time":3655000000000,"state":"active","ping":42},{"user_id":488,"name":"General Fisticuffs","steam_id":76561198255721392,"connected_time":5407000000000,"state":"active","ping":108},{"user_id":518,"name":"Cheese","steam_id":76561199435683727,"connected_time":2019000000000,"state":"active","ping":136}]},{"server_id":406,"name":"Uncletopia | Seattle | 3 | Stopwatch Beta","name_short":"sea-3","host":"sea-1.us.uncletopia.com","port":27035,"enabled":true,"region":"us-west","cc":"us","latitude":47.608013,"longitude":-122.33517,"reserved":0,"last_update":"0001-01-01T00:00:00Z","name_a2s":"Uncletopia | Seattle | 3 | Stopwatch Beta","protocol":17,"map":"workshop/pl_summercoast_rc8e.ugc1761528829","folder":"tf","game":"Team Fortress","app_id":440,"player_count":0,"max_players":24,"Bots":0,"server_type":"Dedicated","server_os":"Linux","password":true,"vac":true,"version":"7742253","steam_id":85568392924515217,"keywords":["nocrits","nodmgspread","payload","uncletopia"],"game_id":440,"stv_port":27036,"stv_name":"Uncletopia | Seattle | 3 | Stopwatch Beta | STV","players":null},{"server_id":17,"name":"Uncletopia | San Francisco | 1 | All Maps","name_short":"sfo-1","host":"sfo-1.us.uncletopia.com","port":27015,"enabled":true,"region":"us-west","cc":"us","latitude":37.77397,"longitude":-122.4313,"reserved":0,"last_update":"0001-01-01T00:00:00Z","name_a2s":"Uncletopia | San Francisco | 1 | All Maps","protocol":17,"map":"pl_coal_event","folder":"tf","game":"Team Fortress","app_id":440,"player_count":24,"max_players":24,"Bots":0,"server_type":"Dedicated","server_os":"Linux","password":true,"vac":true,"version":"7742253","steam_id":85568392924469999,"keywords":["nocrits","nodmgspread","payload","uncletopia"],"game_id":440,"stv_port":27016,"stv_name":"Uncletopia | San Francisco | 1 | All Maps | STV","players":[{"user_id":514,"name":"domo4772","steam_id":76561198042346467,"connected_time":161000000000,"state":"active","ping":107},{"user_id":506,"name":"ElectronX","steam_id":76561198116034988,"connected_time":454000000000,"state":"active","ping":57},{"user_id":501,"name":"Fiddle Diddle","steam_id":76561198046550440,"connected_time":619000000000,"state":"active","ping":107},{"user_id":472,"name":"Milkman","steam_id":76561198079740112,"connected_time":2632000000000,"state":"active","ping":60},{"user_id":477,"name":"Lapras Lazuli","steam_id":76561198086995944,"connected_time":2395000000000,"state":"active","ping":48},{"user_id":458,"name":"Frongus","steam_id":76561197979056451,"connected_time":3746000000000,"state":"active","ping":65},{"user_id":502,"name":"Maid 'n' China","steam_id":76561198423392976,"connected_time":611000000000,"state":"active","ping":41},{"user_id":503,"name":"Vuze","steam_id":76561198176454023,"connected_time":589000000000,"state":"active","ping":60},{"user_id":505,"name":"jsparks00","steam_id":76561198355516166,"connected_time":458000000000,"state":"active","ping":79},{"user_id":483,"name":"paChewychomp","steam_id":76561198068738250,"connected_time":2005000000000,"state":"active","ping":79},{"user_id":454,"name":"LennyClan","steam_id":76561198182959074,"connected_time":3806000000000,"state":"active","ping":57},{"user_id":451,"name":"goldhed","steam_id":76561198051751133,"connected_time":4851000000000,"state":"active","ping":72},{"user_id":486,"name":"dewey","steam_id":76561198132791511,"connected_time":1707000000000,"state":"active","ping":61},{"user_id":493,"name":"shoes","steam_id":76561198044104086,"connected_time":1544000000000,"state":"active","ping":59},{"user_id":475,"name":"Koyota","steam_id":76561198069878114,"connected_time":2424000000000,"state":"active","ping":60},{"user_id":508,"name":"gyroFSnoob","steam_id":76561198158404683,"connected_time":341000000000,"state":"active","ping":76},{"user_id":509,"name":"Hydroxianchaos","steam_id":76561198043786828,"connected_time":299000000000,"state":"active","ping":112},{"user_id":515,"name":"Gh0stlight","steam_id":76561199138042008,"connected_time":160000000000,"state":"active","ping":57},{"user_id":490,"name":"gazpacho","steam_id":76561198132903078,"connected_time":1623000000000,"state":"active","ping":58},{"user_id":432,"name":"Testicular Torsion","steam_id":76561197968179862,"connected_time":6852000000000,"state":"active","ping":66},{"user_id":510,"name":"Mr. Pickles","steam_id":76561197968210568,"connected_time":255000000000,"state":"active","ping":65},{"user_id":512,"name":"Brynkiwi","steam_id":76561198052177917,"connected_time":185000000000,"state":"active","ping":67},{"user_id":499,"name":"Protoshake","steam_id":76561198840276176,"connected_time":1050000000000,"state":"active","ping":78},{"user_id":513,"name":"Infentdegree211","steam_id":76561198385234127,"connected_time":170000000000,"state":"active","ping":81}]},{"server_id":18,"name":"Uncletopia | San Francisco | 2 | All Maps","name_short":"sfo-2","host":"sfo-1.us.uncletopia.com","port":27025,"enabled":true,"region":"us-west","cc":"us","latitude":37.77397,"longitude":-122.4313,"reserved":0,"last_update":"0001-01-01T00:00:00Z","name_a2s":"Uncletopia | San Francisco | 2 | All Maps","protocol":17,"map":"pl_swiftwater_final1","folder":"tf","game":"Team Fortress","app_id":440,"player_count":24,"max_players":24,"Bots":0,"server_type":"Dedicated","server_os":"Linux","password":true,"vac":true,"version":"7742253","steam_id":85568392924470000,"keywords":["nocrits","nodmgspread","payload","uncletopia"],"game_id":440,"stv_port":27026,"stv_name":"Uncletopia | San Francisco | 2 | All Maps | STV","players":[{"user_id":345,"name":"SirJameston","steam_id":76561198035674306,"connected_time":1511000000000,"state":"active","ping":76},{"user_id":366,"name":"1000 Ping","steam_id":76561198098330939,"connected_time":156000000000,"state":"active","ping":68},{"user_id":346,"name":"Stboxnard","steam_id":76561198089888887,"connected_time":1502000000000,"state":"active","ping":78},{"user_id":371,"name":"self sufficient kitten","steam_id":76561197960592612,"connected_time":47000000000,"state":"active","ping":60},{"user_id":320,"name":"cassius","steam_id":76561198203851303,"connected_time":3017000000000,"state":"active","ping":120},{"user_id":351,"name":"TheGlassPistol","steam_id":76561199383149833,"connected_time":972000000000,"state":"active","ping":64},{"user_id":352,"name":"mechanicvirus","steam_id":76561198038161480,"connected_time":957000000000,"state":"active","ping":64},{"user_id":322,"name":"ketsu","steam_id":76561197966171554,"connected_time":3007000000000,"state":"active","ping":167},{"user_id":342,"name":"Van","steam_id":76561198073518712,"connected_time":1645000000000,"state":"active","ping":89},{"user_id":353,"name":"FredTheGreater4","steam_id":76561198046542305,"connected_time":937000000000,"state":"active","ping":63},{"user_id":368,"name":"Boxmas Shelf","steam_id":76561198440602177,"connected_time":123000000000,"state":"active","ping":46},{"user_id":354,"name":"Knyght","steam_id":76561198066435869,"connected_time":909000000000,"state":"active","ping":62},{"user_id":365,"name":"Isopentyl Ethanoate","steam_id":76561198116389072,"connected_time":294000000000,"state":"active","ping":76},{"user_id":289,"name":"Communist Party of Wutville","steam_id":76561198844003641,"connected_time":7576000000000,"state":"active","ping":58},{"user_id":370,"name":"wattle","steam_id":76561199091719249,"connected_time":47000000000,"state":"active","ping":71},{"user_id":332,"name":"golia","steam_id":76561198000264266,"connected_time":2560000000000,"state":"active","ping":44},{"user_id":357,"name":"Schluge","steam_id":76561198042580672,"connected_time":686000000000,"state":"active","ping":69},{"user_id":356,"name":"CatLike Pigeon","steam_id":76561198171716030,"connected_time":715000000000,"state":"active","ping":93},{"user_id":358,"name":"Sad Sapling","steam_id":76561198075612150,"connected_time":685000000000,"state":"active","ping":59},{"user_id":372,"name":"happer","steam_id":76561198018252253,"connected_time":39000000000,"state":"active","ping":52},{"user_id":373,"name":"jimmy outlaw","steam_id":76561198070380402,"connected_time":36000000000,"state":"active","ping":114},{"user_id":374,"name":"wordyhook830","steam_id":76561198086538218,"connected_time":35000000000,"state":"active","ping":109},{"user_id":375,"name":"WolfManx500","steam_id":76561198411929693,"connected_time":26000000000,"state":"active","ping":84},{"user_id":310,"name":"xlesz","steam_id":76561199020119161,"connected_time":5509000000000,"state":"active","ping":61}]},{"server_id":19,"name":"Uncletopia | San Francisco | 3 | Stopwatch Beta","name_short":"sfo-3","host":"sfo-1.us.uncletopia.com","port":27035,"enabled":true,"region":"us-west","cc":"us","latitude":37.77397,"longitude":-122.4313,"reserved":0,"last_update":"0001-01-01T00:00:00Z","name_a2s":"Uncletopia | San Francisco | 3 | Stopwatch Beta","protocol":17,"map":"koth_lakeside_final","folder":"tf","game":"Team Fortress","app_id":440,"player_count":0,"max_players":24,"Bots":0,"server_type":"Dedicated","server_os":"Linux","password":true,"vac":true,"version":"7742253","steam_id":85568392924742824,"keywords":["cp","nocrits","nodmgspread","uncletopia"],"game_id":440,"stv_port":27036,"stv_name":"Uncletopia | San Francisco | 3 | Stopwatch Beta | STV","players":null},{"server_id":20,"name":"Uncletopia | San Francisco | 4 | Community","name_short":"sfo-4","host":"sfo-1.us.uncletopia.com","port":27045,"enabled":true,"region":"us-west","cc":"us","latitude":37.77397,"longitude":-122.4313,"reserved":0,"last_update":"0001-01-01T00:00:00Z","name_a2s":"Uncletopia | San Francisco | 4 | Community","protocol":17,"map":"workshop/koth_bagel_rc5.ugc2514036946","folder":"tf","game":"Team Fortress","app_id":440,"player_count":0,"max_players":24,"Bots":0,"server_type":"Dedicated","server_os":"Linux","password":true,"vac":true,"version":"7742253","steam_id":85568392924742826,"keywords":["cp","nocrits","nodmgspread","uncletopia"],"game_id":440,"stv_port":27046,"stv_name":"Uncletopia | San Francisco | 4 | Community | STV","players":null},{"server_id":141,"name":"Uncletopia | Sydney | 1 | All Maps","name_short":"syd-1","host":"syd-1.au.uncletopia.com","port":27015,"enabled":true,"region":"au","cc":"au","latitude":-33.865143,"longitude":151.2099,"reserved":0,"last_update":"0001-01-01T00:00:00Z","name_a2s":"Uncletopia | Sydney | 1 | All Maps","protocol":17,"map":"koth_lakeside_final","folder":"tf","game":"Team Fortress","app_id":440,"player_count":2,"max_players":24,"Bots":0,"server_type":"Dedicated","server_os":"Linux","password":true,"vac":true,"version":"7742253","steam_id":85568392924470001,"keywords":["cp","nocrits","nodmgspread","uncletopia"],"game_id":440,"stv_port":27016,"stv_name":"Uncletopia | Sydney | 1 | All Maps | STV","players":[{"user_id":18,"name":"AzureFox","steam_id":76561198108179408,"connected_time":776000000000,"state":"active","ping":103},{"user_id":19,"name":"Branko","steam_id":76561199262196710,"connected_time":439000000000,"state":"active","ping":49}]},{"server_id":123,"name":"Uncletopia | Sydney | 2 | All Maps","name_short":"syd-2","host":"syd-1.au.uncletopia.com","port":27025,"enabled":true,"region":"au","cc":"au","latitude":-33.865143,"longitude":151.2099,"reserved":0,"last_update":"0001-01-01T00:00:00Z","name_a2s":"Uncletopia | Sydney | 2 | All Maps","protocol":17,"map":"koth_cascade","folder":"tf","game":"Team Fortress","app_id":440,"player_count":0,"max_players":24,"Bots":0,"server_type":"Dedicated","server_os":"Linux","password":true,"vac":true,"version":"7742253","steam_id":85568392924470002,"keywords":["cp","nocrits","nodmgspread","uncletopia"],"game_id":440,"stv_port":27026,"stv_name":"Uncletopia | Sydney | 2 | All Maps | STV","players":null},{"server_id":395,"name":"Uncletopia | Sydney | 3 | All Maps","name_short":"syd-3","host":"syd-1.au.uncletopia.com","port":27035,"enabled":true,"region":"au","cc":"au","latitude":-33.865143,"longitude":151.2099,"reserved":0,"last_update":"0001-01-01T00:00:00Z","name_a2s":"Uncletopia | Sydney | 3 | All Maps","protocol":17,"map":"cp_mountainlab","folder":"tf","game":"Team Fortress","app_id":440,"player_count":0,"max_players":24,"Bots":0,"server_type":"Dedicated","server_os":"Linux","password":true,"vac":true,"version":"7742253","steam_id":85568392925194467,"keywords":["cp","nocrits","nodmgspread","uncletopia"],"game_id":440,"stv_port":27036,"stv_name":"Uncletopia | Sydney | 3 | All Maps | STV","players":null},{"server_id":396,"name":"Uncletopia | Sydney | 4 | All Maps","name_short":"syd-4","host":"syd-1.au.uncletopia.com","port":27045,"enabled":true,"region":"au","cc":"au","latitude":-33.865143,"longitude":151.2099,"reserved":0,"last_update":"0001-01-01T00:00:00Z","name_a2s":"Uncletopia | Sydney | 4 | All Maps","protocol":17,"map":"pl_barnblitz","folder":"tf","game":"Team Fortress","app_id":440,"player_count":0,"max_players":24,"Bots":0,"server_type":"Dedicated","server_os":"Linux","password":true,"vac":true,"version":"7742253","steam_id":85568392925397958,"keywords":["nocrits","nodmgspread","payload","uncletopia"],"game_id":440,"stv_port":27046,"stv_name":"Uncletopia | Sydney | 4 | All Maps | STV","players":null},{"server_id":58,"name":"Uncletopia | Sydney | 5 | Stopwatch Beta","name_short":"syd-5","host":"syd-1.au.uncletopia.com","port":27055,"enabled":true,"region":"au","cc":"au","latitude":-33.865143,"longitude":151.2099,"reserved":0,"last_update":"0001-01-01T00:00:00Z","name_a2s":"Uncletopia | Sydney | 5 | Stopwatch Beta","protocol":17,"map":"pl_borneo","folder":"tf","game":"Team Fortress","app_id":440,"player_count":0,"max_players":24,"Bots":0,"server_type":"Dedicated","server_os":"Linux","password":true,"vac":true,"version":"7742253","steam_id":85568392925397959,"keywords":["nocrits","nodmgspread","payload","uncletopia"],"game_id":440,"stv_port":27056,"stv_name":"Uncletopia | Sydney | 5 | Stopwatch Beta | STV","players":null},{"server_id":59,"name":"Uncletopia | Sydney | 6 | Community","name_short":"syd-6","host":"syd-1.au.uncletopia.com","port":27065,"enabled":true,"region":"au","cc":"au","latitude":-33.865143,"longitude":151.2099,"reserved":0,"last_update":"0001-01-01T00:00:00Z","name_a2s":"Uncletopia | Sydney | 6 | Community","protocol":17,"map":"workshop/koth_synthetic_rc6a.ugc1549817316","folder":"tf","game":"Team Fortress","app_id":440,"player_count":0,"max_players":24,"Bots":0,"server_type":"Dedicated","server_os":"Linux","password":true,"vac":true,"version":"7742253","steam_id":85568392925397960,"keywords":["cp","nocrits","nodmgspread","uncletopia"],"game_id":440,"stv_port":27066,"stv_name":"Uncletopia | Sydney | 6 | Community | STV","players":null},{"server_id":49,"name":"Uncletopia | Warsaw | 1 | All Maps","name_short":"waw-1","host":"waw-1.pl.uncletopia.com","port":27015,"enabled":true,"region":"eu","cc":"pl","latitude":52.2297,"longitude":21.017532,"reserved":0,"last_update":"0001-01-01T00:00:00Z","name_a2s":"","protocol":0,"map":"","folder":"","game":"","app_id":0,"player_count":0,"max_players":0,"Bots":0,"server_type":"","server_os":"","password":false,"vac":false,"version":"","steam_id":0,"keywords":null,"game_id":0,"stv_port":0,"stv_name":"","players":null},{"server_id":50,"name":"Uncletopia | Warsaw | 2 | All Maps","name_short":"waw-2","host":"waw-1.pl.uncletopia.com","port":27025,"enabled":true,"region":"eu","cc":"pl","latitude":52.2297,"longitude":21.017532,"reserved":0,"last_update":"0001-01-01T00:00:00Z","name_a2s":"Uncletopia | Warsaw | 2 | All Maps","protocol":17,"map":"pl_upward","folder":"tf","game":"Team Fortress","app_id":440,"player_count":0,"max_players":24,"Bots":0,"server_type":"Dedicated","server_os":"Linux","password":true,"vac":true,"version":"7742253","steam_id":85568392925397851,"keywords":["nocrits","nodmgspread","payload","uncletopia"],"game_id":440,"stv_port":27026,"stv_name":"Uncletopia | Warsaw | 2 | All Maps | STV","players":null},{"server_id":51,"name":"Uncletopia | Warsaw | 3 | All Maps","name_short":"waw-3","host":"waw-1.pl.uncletopia.com","port":27035,"enabled":true,"region":"eu","cc":"pl","latitude":52.2297,"longitude":21.017532,"reserved":0,"last_update":"0001-01-01T00:00:00Z","name_a2s":"Uncletopia | Warsaw | 3 | All Maps","protocol":17,"map":"koth_lakeside_final","folder":"tf","game":"Team Fortress","app_id":440,"player_count":0,"max_players":24,"Bots":0,"server_type":"Dedicated","server_os":"Linux","password":true,"vac":true,"version":"7742253","steam_id":85568392925397852,"keywords":["cp","nocrits","nodmgspread","uncletopia"],"game_id":440,"stv_port":27036,"stv_name":"Uncletopia | Warsaw | 3 | All Maps | STV","players":null},{"server_id":52,"name":"Uncletopia | Warsaw | 4 | All Maps","name_short":"waw-4","host":"waw-1.pl.uncletopia.com","port":27045,"enabled":true,"region":"eu","cc":"pl","latitude":52.2297,"longitude":21.017532,"reserved":0,"last_update":"0001-01-01T00:00:00Z","name_a2s":"Uncletopia | Warsaw | 4 | All Maps","protocol":17,"map":"pl_upward","folder":"tf","game":"Team Fortress","app_id":440,"player_count":0,"max_players":24,"Bots":0,"server_type":"Dedicated","server_os":"Linux","password":true,"vac":true,"version":"7742253","steam_id":85568392925397853,"keywords":["nocrits","nodmgspread","payload","uncletopia"],"game_id":440,"stv_port":27046,"stv_name":"Uncletopia | Warsaw | 4 | All Maps | STV","players":null},{"server_id":53,"name":"Uncletopia | Warsaw | 5 | Stopwatch Beta","name_short":"waw-5","host":"waw-1.pl.uncletopia.com","port":27055,"enabled":true,"region":"eu","cc":"pl","latitude":52.2297,"longitude":21.017532,"reserved":0,"last_update":"0001-01-01T00:00:00Z","name_a2s":"Uncletopia | Warsaw | 5 | Stopwatch Beta","protocol":17,"map":"pl_swiftwater_final1","folder":"tf","game":"Team Fortress","app_id":440,"player_count":0,"max_players":24,"Bots":0,"server_type":"Dedicated","server_os":"Linux","password":true,"vac":true,"version":"7742253","steam_id":85568392925397854,"keywords":["nocrits","nodmgspread","payload","uncletopia"],"game_id":440,"stv_port":27056,"stv_name":"Uncletopia | Warsaw | 5 | Stopwatch Beta | STV","players":null},{"server_id":54,"name":"Uncletopia | Warsaw | 6 | Community","name_short":"waw-6","host":"waw-1.pl.uncletopia.com","port":27065,"enabled":true,"region":"eu","cc":"pl","latitude":52.2297,"longitude":21.017532,"reserved":0,"last_update":"0001-01-01T00:00:00Z","name_a2s":"Uncletopia | Warsaw | 6 | Community","protocol":17,"map":"koth_highpass","folder":"tf","game":"Team Fortress","app_id":440,"player_count":0,"max_players":24,"Bots":0,"server_type":"Dedicated","server_os":"Linux","password":true,"vac":true,"version":"7742253","steam_id":85568392925397856,"keywords":["cp","nocrits","nodmgspread","uncletopia"],"game_id":440,"stv_port":27066,"stv_name":"Uncletopia | Warsaw | 6 | Community | STV","players":null}]}