{"status":true,"message":"","result":[{"server_id":9,"name":"Uncletopia | Atlanta | 1 | All Maps","name_short":"atl-1","host":"atl-1.us.uncletopia.com","port":27015,"enabled":true,"region":"us-east","cc":"us","latitude":33.753746,"longitude":-84.38633,"reserved":0,"last_update":"0001-01-01T00:00:00Z","name_a2s":"Uncletopia | Atlanta | 1 | All Maps","protocol":17,"map":"pl_badwater","folder":"tf","game":"Team Fortress","app_id":440,"player_count":2,"max_players":24,"Bots":0,"server_type":"Dedicated","server_os":"Linux","password":true,"vac":true,"version":"7961495","steam_id":85568392924469982,"keywords":["nocrits","nodmgspread","payload","uncletopia"],"game_id":440,"stv_port":27016,"stv_name":"Uncletopia | Atlanta | 1 | All Maps | STV","players":[{"user_id":682,"name":"–Ø–¥—Ä—ë–Ω –±–∞—Ç–æ–Ω","steam_id":76561198978262040,"connected_time":177000000000,"state":"active","ping":164},{"user_id":658,"name":"Hipster_Giraffe","steam_id":76561198069701092,"connected_time":4767000000000,"state":"active","ping":69}]},{"server_id":104,"name":"Uncletopia | Atlanta | 2 | All Maps","name_short":"atl-2","host":"atl-1.us.uncletopia.com","port":27025,"enabled":true,"region":"us-east","cc":"us","latitude":33.753746,"longitude":-84.38633,"reserved":0,"last_update":"0001-01-01T00:00:00Z","name_a2s":"Uncletopia | Atlanta | 2 | All Maps","protocol":17,"map":"pl_pier","folder":"tf","game":"Team Fortress","app_id":440,"player_count":1,"max_players":24,"Bots":0,"server_type":"Dedicated","server_os":"Linux","password":true,"vac":true,"version":"7961495","steam_id":85568392924469983,"keywords":["nocrits","nodmgspread","payload","uncletopia"],"game_id":440,"stv_port":27026,"stv_name":"Uncletopia | Atlanta | 2 | All Maps | STV","players":[{"user_id":627,"name":"Master Lemons","steam_id":76561198272406084,"connected_time":1135000000000,"state":"active","ping":52}]},{"server_id":400,"name":"Uncletopia | Atlanta | 3 | Stopwatch","name_short":"atl-3","host":"atl-1.us.uncletopia.com","port":27035,"enabled":true,"region":"us-east","cc":"us","latitude":33.753746,"longitude":-84.38633,"reserved":0,"last_update":"0001-01-01T00:00:00Z","name_a2s":"Uncletopia | Atlanta | 3 | Stopwatch","protocol":17,"map":"workshop/koth_jamram_rc1a.ugc2964065613","folder":"tf","game":"Team Fortress","app_id":440,"player_count":0,"max_players":24,"Bots":0,"server_type":"Dedicated","server_os":"Linux","password":true,"vac":true,"version":"7961495","steam_id":85568392924515187,"keywords":["cp","nocrits","nodmgspread","uncletopia"],"game_id":440,"stv_port":27036,"stv_name":"Uncletopia | Atlanta | 3 | Stopwatch | STV","players":null},{"server_id":401,"name":"Uncletopia | Atlanta | 4 | Community","name_short":"atl-4","host":"atl-1.us.uncletopia.com","port":27045,"enabled":true,"region":"us-east","cc":"us","latitude":33.753746,"longitude":-84.38633,"reserved":0,"last_update":"0001-01-01T00:00:00Z","name_a2s":"Uncletopia | Atlanta | 4 | Community","protocol":17,"map":"workshop/cp_glassworks_rc7a.ugc454118349","folder":"tf","game":"Team Fortress","app_id":440,"player_count":0,"max_players":24,"Bots":0,"server_type":"Dedicated","server_os":"Linux","password":true,"vac":true,"version":"7961495","steam_id":85568392924515188,"keywords":["cp","nocrits","nodmgspread","uncletopia"],"game_id":440,"stv_port":27046,"stv_name":"Uncletopia | Atlanta | 4 | Community | STV","players":null},{"server_id":2,"name":"Uncletopia | Chicago | 1 | All Maps","name_short":"chi-1","host":"chi-1.us.uncletopia.com","port":27015,"enabled":true,"region":"us-central","cc":"us","latitude":41.881832,"longitude":-87.62318,"reserved":0,"last_update":"0001-01-01T00:00:00Z","name_a2s":"Uncletopia | Chicago | 1 | All Maps","protocol":17,"map":"koth_lakeside_final","folder":"tf","game":"Team Fortress","app_id":440,"player_count":0,"max_players":24,"Bots":0,"server_type":"Dedicated","server_os":"Linux","password":true,"vac":true,"version":"7961495","steam_id":85568392924469984,"keywords":["cp","nocrits","nodmgspread","uncletopia"],"game_id":440,"stv_port":27016,"stv_name":"Uncletopia | Chicago | 1 | All Maps | STV","players":null},{"server_id":106,"name":"Uncletopia | Chicago | 2 | All Maps","name_short":"chi-2","host":"chi-1.us.uncletopia.com","port":27025,"enabled":true,"region":"us-central","cc":"us","latitude":41.881832,"longitude":-87.62318,"reserved":0,"last_update":"0001-01-01T00:00:00Z","name_a2s":"Uncletopia | Chicago | 2 | All Maps","protocol":17,"map":"cp_steel","folder":"tf","game":"Team Fortress","app_id":440,"player_count":18,"max_players":24,"Bots":0,"server_type":"Dedicated","server_os":"Linux","password":true,"vac":true,"version":"7961495","steam_id":85568392924469985,"keywords":["cp","nocrits","nodmgspread","uncletopia"],"game_id":440,"stv_port":27026,"stv_name":"Uncletopia | Chicago | 2 | All Maps | STV","players":[{"user_id":968,"name":"larguu","steam_id":76561197994336210,"connected_time":2004000000000,"state":"active","ping":56},{"user_id":955,"name":"a fuddruckers","steam_id":76561198092656099,"connected_time":2748000000000,"state":"active","ping":72},{"user_id":958,"name":"Yongle","steam_id":76561198068591156,"connected_time":2493000000000,"state":"active","ping":51},{"user_id":975,"name":"xRat5","steam_id":76561198399917864,"connected_time":861000000000,"state":"active","ping":68},{"user_id":994,"name":"motherfucker 2.0","steam_id":76561198141189209,"connected_time":51000000000,"state":"active","ping":59},{"user_id":978,"name":"La()VaJ()86","steam_id":76561198247547042,"connected_time":770000000000,"state":"active","ping":98},{"user_id":962,"name":"finn the human","steam_id":76561198072592880,"connected_time":2257000000000,"state":"active","ping":38},{"user_id":981,"name":"Irony is pretty cringy","steam_id":76561198120391460,"connected_time":624000000000,"state":"active","ping":98},{"user_id":977,"name":"dog","steam_id":76561198263873491,"connected_time":813000000000,"state":"active","ping":45},{"user_id":949,"name":"do'er of your mom","steam_id":76561198143132686,"connected_time":2970000000000,"state":"active","ping":81},{"user_id":970,"name":"wugmup","steam_id":76561199096287734,"connected_time":1986000000000,"state":"active","ping":109},{"user_id":989,"name":"BuncusBeffer","steam_id":76561198285936616,"connected_time":468000000000,"state":"active","ping":101},{"user_id":987,"name":"QwipQwop","steam_id":76561198019028725,"connected_time":539000000000,"state":"active","ping":97},{"user_id":980,"name":"Ninjoth","steam_id":76561198038611753,"connected_time":735000000000,"state":"active","ping":81},{"user_id":982,"name":"Antwan","steam_id":76561198246200638,"connected_time":602000000000,"state":"active","ping":74},{"user_id":992,"name":"Ket","steam_id":76561198241951244,"connected_time":338000000000,"state":"active","ping":61},{"user_id":986,"name":"average rust player","steam_id":76561198047627340,"connected_time":564000000000,"state":"active","ping":65},{"user_id":966,"name":"That's So Raven! [Dexgod]","steam_id":76561198017130786,"connected_time":2091000000000,"state":"active","ping":76}]},{"server_id":402,"name":"Uncletopia | Chicago | 3 | All Maps","name_short":"chi-3","host":"chi-1.us.uncletopia.com","port":27035,"enabled":true,"region":"us-central","cc":"us","latitude":41.881832,"longitude":-87.62318,"reserved":0,"last_update":"0001-01-01T00:00:00Z","name_a2s":"Uncletopia | Chicago | 3 | All Maps","protocol":17,"map":"koth_lakeside_final","folder":"tf","game":"Team Fortress","app_id":440,"player_count":24,"max_players":24,"Bots":0,"server_type":"Dedicated","server_os":"Linux","password":true,"vac":true,"version":"7961495","steam_id":85568392924515191,"keywords":["cp","nocrits","nodmgspread","uncletopia"],"game_id":440,"stv_port":27036,"stv_name":"Uncletopia | Chicago | 3 | All Maps | STV","players":[{"user_id":423,"name":"Makina","steam_id":76561198057475567,"connected_time":6574000000000,"state":"active","ping":55},{"user_id":519,"name":"Hex","steam_id":76561198185369025,"connected_time":429000000000,"state":"active","ping":61},{"user_id":514,"name":"Fluffy SAT8 (sleepy)","steam_id":76561198022720571,"connected_time":866000000000,"state":"active","ping":78},{"user_id":399,"name":"Mixed Up","steam_id":76561198042570322,"connected_time":7465000000000,"state":"active","ping":52},{"user_id":518,"name":"carne asada","steam_id":76561198108398751,"connected_time":485000000000,"state":"active","ping":57},{"user_id":495,"name":"HornySockPuppet","steam_id":76561198135035516,"connected_time":2013000000000,"state":"active","ping":83},{"user_id":520,"name":"Steggoman","steam_id":76561198202219235,"connected_time":406000000000,"state":"active","ping":86},{"user_id":521,"name":"bcizzo","steam_id":76561197994399953,"connected_time":396000000000,"state":"active","ping":104},{"user_id":529,"name":"I'm a Capricorn, I was born goa","steam_id":76561198092135570,"connected_time":96000000000,"state":"active","ping":60},{"user_id":507,"name":"tack","steam_id":76561198408477421,"connected_time":1569000000000,"state":"active","ping":76},{"user_id":523,"name":"Mal0","steam_id":76561198129584634,"connected_time":351000000000,"state":"active","ping":70},{"user_id":524,"name":"cwaggs76","steam_id":76561199013048778,"connected_time":331000000000,"state":"active","ping":72},{"user_id":445,"name":"√úberBurst inVinci","steam_id":76561198044470684,"connected_time":5322000000000,"state":"active","ping":144},{"user_id":500,"name":"Skudge Sister","steam_id":76561198041766766,"connected_time":1842000000000,"state":"active","ping":77},{"user_id":509,"name":"RavenwolF","steam_id":76561197963374354,"connected_time":1482000000000,"state":"active","ping":107},{"user_id":525,"name":"SQU1DDY","steam_id":76561198027757551,"connected_time":316000000000,"state":"active","ping":97},{"user_id":526,"name":"Nox","steam_id":76561198805679417,"connected_time":316000000000,"state":"active","ping":72},{"user_id":502,"name":"Yozzoy","steam_id":76561198027920369,"connected_time":1801000000000,"state":"active","ping":67},{"user_id":491,"name":"Firedust19","steam_id":76561198153238631,"connected_time":2095000000000,"state":"active","ping":116},{"user_id":485,"name":"Bucket Hat Trick","steam_id":76561198381785132,"connected_time":2766000000000,"state":"active","ping":90},{"user_id":527,"name":"W1CKEDY","steam_id":76561198353447602,"connected_time":306000000000,"state":"active","ping":63},{"user_id":530,"name":"comfy.","steam_id":76561198008818346,"connected_time":57000000000,"state":"active","ping":83},{"user_id":488,"name":"evdoke","steam_id":76561198044555219,"connected_time":2680000000000,"state":"active","ping":61},{"user_id":528,"name":"Mashumelo","steam_id":76561198842134264,"connected_time":283000000000,"state":"active","ping":92}]},{"server_id":403,"name":"Uncletopia | Chicago | 4 | All Maps","name_short":"chi-4","host":"chi-1.us.uncletopia.com","port":27045,"enabled":true,"region":"us-central","cc":"us","latitude":41.881832,"longitude":-87.62318,"reserved":0,"last_update":"0001-01-01T00:00:00Z","name_a2s":"Uncletopia | Chicago | 4 | All Maps","protocol":17,"map":"koth_harvest_final","folder":"tf","game":"Team Fortress","app_id":440,"player_count":0,"max_players":24,"Bots":0,"server_type":"Dedicated","server_os":"Linux","password":true,"vac":true,"version":"7961495","steam_id":85568392924515193,"keywords":["cp","nocrits","nodmgspread","uncletopia"],"game_id":440,"stv_port":27046,"stv_name":"Uncletopia | Chicago | 4 | All Maps | STV","players":null},{"server_id":36,"name":"Uncletopia | Chicago | 5 | All Maps","name_short":"chi-5","host":"chi-2.us.uncletopia.com","port":27015,"enabled":true,"region":"us-central","cc":"us","latitude":41.881832,"longitude":-87.62318,"reserved":0,"last_update":"0001-01-01T00:00:00Z","name_a2s":"Uncletopia | Chicago | 5 | All Maps","protocol":17,"map":"pl_barnblitz","folder":"tf","game":"Team Fortress","app_id":440,"player_count":24,"max_players":24,"Bots":0,"server_type":"Dedicated","server_os":"Linux","password":true,"vac":true,"version":"7961495","steam_id":85568392924866362,"keywords":["nocrits","nodmgspread","payload","uncletopia"],"game_id":440,"stv_port":27016,"stv_name":"Uncletopia | Chicago | 5 | All Maps | STV","players":[{"user_id":249,"name":"scooterre","steam_id":76561198055068182,"connected_time":880000000000,"state":"active","ping":55},{"user_id":236,"name":"‚úß.*Remzy‚úß.*","steam_id":76561199239412094,"connected_time":1589000000000,"state":"active","ping":149},{"user_id":224,"name":"·µê·µâ·µí ∑","steam_id":76561199200969139,"connected_time":2978000000000,"state":"active","ping":110},{"user_id":263,"name":"Rainbeon","steam_id":76561198046150531,"connected_time":243000000000,"state":"active","ping":58},{"user_id":238,"name":"üÖúüÖîüÖîüÖöüÖ¢üÖ£üÖî\ufffd\ufffd\ufffd","steam_id":76561197999748343,"connected_time":1398000000000,"state":"active","ping":68},{"user_id":254,"name":"Acanthus","steam_id":76561198059420693,"connected_time":554000000000,"state":"active","ping":58},{"user_id":240,"name":"totoro","steam_id":76561198210420871,"connected_time":1275000000000,"state":"active","ping":45},{"user_id":264,"name":"The Collective(Hypnotist)","steam_id":76561198170423483,"connected_time":233000000000,"state":"active","ping":65},{"user_id":242,"name":"Real Neanderthal Shit","steam_id":76561198086991324,"connected_time":1254000000000,"state":"active","ping":93},{"user_id":252,"name":"Scremz (Jeffery Bomber)","steam_id":76561198090314229,"connected_time":594000000000,"state":"active","ping":74},{"user_id":216,"name":"zaag","steam_id":76561198156386184,"connected_time":4247000000000,"state":"active","ping":82},{"user_id":253,"name":"giant shoe","steam_id":76561198329590943,"connected_time":591000000000,"state":"active","ping":103},{"user_id":230,"name":"Lennu","steam_id":76561198060730154,"connected_time":2045000000000,"state":"active","ping":77},{"user_id":243,"name":"Arrythmia","steam_id":76561198093748123,"connected_time":1215000000000,"state":"active","ping":90},{"user_id":265,"name":"SoundKitKiller","steam_id":76561198053535873,"connected_time":137000000000,"state":"active","ping":86},{"user_id":256,"name":"Joe, Banana","steam_id":76561198077551754,"connected_time":481000000000,"state":"active","ping":65},{"user_id":205,"name":"Scarecrow","steam_id":76561198045870511,"connected_time":5589000000000,"state":"active","ping":58},{"user_id":257,"name":"R.Y.","steam_id":76561199384459715,"connected_time":461000000000,"state":"active","ping":94},{"user_id":258,"name":"KrylonHeretic","steam_id":76561198139811459,"connected_time":446000000000,"state":"active","ping":146},{"user_id":266,"name":"Green Mario","steam_id":76561198094325997,"connected_time":132000000000,"state":"active","ping":74},{"user_id":267,"name":"slammin","steam_id":76561197965022076,"connected_time":29000000000,"state":"active","ping":62},{"user_id":261,"name":"Adawnby","steam_id":76561198103057295,"connected_time":425000000000,"state":"active","ping":105},{"user_id":223,"name":"Tony","steam_id":76561198169799653,"connected_time":3322000000000,"state":"active","ping":61},{"user_id":262,"name":"phantom","steam_id":76561197963860777,"connected_time":413000000000,"state":"active","ping":53}]},{"server_id":37,"name":"Uncletopia | Chicago | 6 | All Maps","name_short":"chi-6","host":"chi-2.us.uncletopia.com","port":27025,"enabled":true,"region":"us-central","cc":"us","latitude":41.881832,"longitude":-87.62318,"reserved":0,"last_update":"0001-01-01T00:00:00Z","name_a2s":"Uncletopia | Chicago | 6 | All Maps","protocol":17,"map":"koth_cascade","folder":"tf","game":"Team Fortress","app_id":440,"player_count":0,"max_players":24,"Bots":0,"server_type":"Dedicated","server_os":"Linux","password":true,"vac":true,"version":"7961495","steam_id":85568392924866363,"keywords":["cp","nocrits","nodmgspread","uncletopia"],"game_id":440,"stv_port":27026,"stv_name":"Uncletopia | Chicago | 6 | All Maps | STV","players":null},{"server_id":38,"name":"Uncletopia | Chicago | 7 | Stopwatch","name_short":"chi-7","host":"chi-2.us.uncletopia.com","port":27035,"enabled":true,"region":"us-central","cc":"us","latitude":41.881832,"longitude":-87.62318,"reserved":0,"last_update":"0001-01-01T00:00:00Z","name_a2s":"Uncletopia | Chicago | 7 | Stopwatch","protocol":17,"map":"workshop/cp_reckoner_rc6.ugc674719999","folder":"tf","game":"Team Fortress","app_id":440,"player_count":0,"max_players":24,"Bots":0,"server_type":"Dedicated","server_os":"Linux","password":true,"vac":true,"version":"7961495","steam_id":85568392924866364,"keywords":["cp","nocrits","nodmgspread","uncletopia"],"game_id":440,"stv_port":27036,"stv_name":"Uncletopia | Chicago | 7 | Stopwatch | STV","players":null},{"server_id":39,"name":"Uncletopia | Chicago | 8 | Community","name_short":"chi-8","host":"chi-2.us.uncletopia.com","port":27045,"enabled":true,"region":"us-central","cc":"us","latitude":41.881832,"longitude":-87.62318,"reserved":0,"last_update":"0001-01-01T00:00:00Z","name_a2s":"Uncletopia | Chicago | 8 | Community","protocol":17,"map":"workshop/pl_oasis_rc3.ugc1366095901","folder":"tf","game":"Team Fortress","app_id":440,"player_count":24,"max_players":24,"Bots":0,"server_type":"Dedicated","server_os":"Linux","password":true,"vac":true,"version":"7961495","steam_id":85568392924866365,"keywords":["nocrits","nodmgspread","payload","uncletopia"],"game_id":440,"stv_port":27046,"stv_name":"Uncletopia | Chicago | 8 | Community | STV","players":[{"user_id":92,"name":"DeluDreamer","steam_id":76561198153821775,"connected_time":2848000000000,"state":"active","ping":75},{"user_id":123,"name":"Derp Ravener","steam_id":76561197976580884,"connected_time":907000000000,"state":"active","ping":86},{"user_id":126,"name":"big milk fan :)","steam_id":76561197984099265,"connected_time":740000000000,"state":"active","ping":71},{"user_id":124,"name":"TruthHut","steam_id":76561198093452436,"connected_time":884000000000,"state":"active","ping":90},{"user_id":104,"name":"AH! ZE PIZZA!","steam_id":76561198113413363,"connected_time":2345000000000,"state":"active","ping":70},{"user_id":111,"name":"mechiimi ‚òÖ","steam_id":76561198321627268,"connected_time":2024000000000,"state":"active","ping":128},{"user_id":112,"name":"chaffy","steam_id":76561198021754567,"connected_time":2017000000000,"state":"active","ping":56},{"user_id":127,"name":"The_Stomach_Stone_Surgeon","steam_id":76561198044643725,"connected_time":552000000000,"state":"active","ping":57},{"user_id":125,"name":"Mom","steam_id":76561198207936000,"connected_time":842000000000,"state":"active","ping":90},{"user_id":121,"name":"Beans","steam_id":76561198066692286,"connected_time":1261000000000,"state":"active","ping":96},{"user_id":128,"name":"H.","steam_id":76561198074951179,"connected_time":431000000000,"state":"active","ping":67},{"user_id":91,"name":"canadian birds","steam_id":76561198059466588,"connected_time":2924000000000,"state":"active","ping":74},{"user_id":133,"name":"Bucky 'Backshot' Garage","steam_id":76561197995185343,"connected_time":70000000000,"state":"active","ping":223},{"user_id":100,"name":"Tec-9 Fubar","steam_id":76561198403649648,"connected_time":2581000000000,"state":"active","ping":56},{"user_id":134,"name":"frank","steam_id":76561198137777483,"connected_time":62000000000,"state":"active","ping":83},{"user_id":88,"name":"sir this is a wendys","steam_id":76561198827463766,"connected_time":3167000000000,"state":"active","ping":45},{"user_id":54,"name":"SuperEnderGuy","steam_id":76561198352732164,"connected_time":5897000000000,"state":"active","ping":124},{"user_id":131,"name":"Boxcars","steam_id":76561198120978767,"connected_time":310000000000,"state":"active","ping":103},{"user_id":117,"name":"Six Piece Chicken McNobody","steam_id":76561198129848222,"connected_time":1710000000000,"state":"active","ping":65},{"user_id":107,"name":"Freekin' Out on the Interstate","steam_id":76561198116023052,"connected_time":2180000000000,"state":"active","ping":69},{"user_id":110,"name":"Gimme your Teeth","steam_id":76561198240523882,"connected_time":2134000000000,"state":"active","ping":104},{"user_id":132,"name":"Quin","steam_id":76561198985618311,"connected_time":234000000000,"state":"active","ping":86},{"user_id":135,"name":"Da Stigmatism","steam_id":76561198114797924,"connected_time":42000000000,"state":"active","ping":72},{"user_id":136,"name":"him/her","steam_id":76561198122238340,"connected_time":33000000000,"state":"spawning","ping":189}]},{"server_id":8,"name":"Uncletopia | Dallas | 1 | All Maps","name_short":"dal-1","host":"dal-1.us.uncletopia.com","port":27015,"enabled":true,"region":"us-central","cc":"us","latitude":32.779167,"longitude":-96.80889,"reserved":0,"last_update":"0001-01-01T00:00:00Z","name_a2s":"Uncletopia | Dallas | 1 | All Maps","protocol":17,"map":"pl_swiftwater_final1","folder":"tf","game":"Team Fortress","app_id":440,"player_count":24,"max_players":24,"Bots":0,"server_type":"Dedicated","server_os":"Linux","password":true,"vac":true,"version":"7961495","steam_id":85568392924469986,"keywords":["nocrits","nodmgspread","payload","uncletopia"],"game_id":440,"stv_port":27016,"stv_name":"Uncletopia | Dallas | 1 | All Maps | STV","players":[{"user_id":554,"name":"Jash'eil Williams","steam_id":76561198880712648,"connected_time":1344000000000,"state":"active","ping":79},{"user_id":552,"name":"‚ú™ femboy egg","steam_id":76561198211477996,"connected_time":2008000000000,"state":"active","ping":82},{"user_id":525,"name":"CeLeb144","steam_id":76561199089907740,"connected_time":4615000000000,"state":"active","ping":64},{"user_id":482,"name":"Byan","steam_id":76561198319090131,"connected_time":7789000000000,"state":"active","ping":60},{"user_id":483,"name":"Dynamic","steam_id":76561198204547960,"connected_time":7763000000000,"state":"active","ping":66},{"user_id":550,"name":"Certified Hood Classic","steam_id":76561199086159354,"connected_time":2129000000000,"state":"active","ping":56},{"user_id":559,"name":"Mr. Squirt","steam_id":76561198174755679,"connected_time":1172000000000,"state":"active","ping":79},{"user_id":533,"name":"The Assistant loser","steam_id":76561199221484936,"connected_time":3519000000000,"state":"active","ping":83},{"user_id":553,"name":"TOASTEngineer","steam_id":76561198004890916,"connected_time":1350000000000,"state":"active","ping":97},{"user_id":580,"name":"AzuriousAlex","steam_id":76561198158026405,"connected_time":57000000000,"state":"active","ping":70},{"user_id":578,"name":"merc","steam_id":76561198162688146,"connected_time":173000000000,"state":"active","ping":80},{"user_id":570,"name":"GUH","steam_id":76561199013202758,"connected_time":847000000000,"state":"active","ping":76},{"user_id":567,"name":"Zippy","steam_id":76561198279229422,"connected_time":1001000000000,"state":"active","ping":86},{"user_id":563,"name":"gonishiwa","steam_id":76561198318705181,"connected_time":1065000000000,"state":"active","ping":101},{"user_id":561,"name":"Scorcho","steam_id":76561198071413833,"connected_time":1131000000000,"state":"active","ping":126},{"user_id":562,"name":"gale","steam_id":76561198250068972,"connected_time":1105000000000,"state":"active","ping":74},{"user_id":581,"name":"mandarin man","steam_id":76561199085433536,"connected_time":0,"state":"spawning","ping":30},{"user_id":575,"name":"Captain Underbelly","steam_id":76561198811270935,"connected_time":273000000000,"state":"active","ping":93},{"user_id":547,"name":"blizzard","steam_id":76561198066056920,"connected_time":2626000000000,"state":"active","ping":68},{"user_id":576,"name":"tsz","steam_id":76561199246231090,"connected_time":271000000000,"state":"active","ping":85},{"user_id":568,"name":"Luca!","steam_id":76561198137880777,"connected_time":997000000000,"state":"active","ping":101},{"user_id":565,"name":"baunter","steam_id":76561198024311871,"connected_time":1048000000000,"state":"active","ping":74},{"user_id":569,"name":"sora","steam_id":76561198094256973,"connected_time":935000000000,"state":"active","ping":90},{"user_id":573,"name":"Eomy","steam_id":76561198297783627,"connected_time":687000000000,"state":"active","ping":93}]},{"server_id":108,"name":"Uncletopia | Dallas | 2 | All Maps","name_short":"dal-2","host":"dal-1.us.uncletopia.com","port":27025,"enabled":true,"region":"us-central","cc":"us","latitude":32.779167,"longitude":-96.80889,"reserved":0,"last_update":"0001-01-01T00:00:00Z","name_a2s":"Uncletopia | Dallas | 2 | All Maps","protocol":17,"map":"pl_barnblitz","folder":"tf","game":"Team Fortress","app_id":440,"player_count":16,"max_players":24,"Bots":0,"server_type":"Dedicated","server_os":"Linux","password":true,"vac":true,"version":"7961495","steam_id":85568392924469988,"keywords":["nocrits","nodmgspread","payload","uncletopia"],"game_id":440,"stv_port":27026,"stv_name":"Uncletopia | Dallas | 2 | All Maps | STV","players":[{"user_id":605,"name":"G!B","steam_id":76561199508468914,"connected_time":3388000000000,"state":"active","ping":61},{"user_id":648,"name":"‚ô° Tona ‚ô°","steam_id":76561199079963747,"connected_time":47000000000,"state":"active","ping":95},{"user_id":612,"name":"bad spy player","steam_id":76561198873699671,"connected_time":2374000000000,"state":"active","ping":103},{"user_id":621,"name":"HOG RIDER","steam_id":76561198298589502,"connected_time":1687000000000,"state":"active","ping":75},{"user_id":642,"name":"Spaceman","steam_id":76561198098025074,"connected_time":660000000000,"state":"active","ping":50},{"user_id":610,"name":"‚òëJuanaco is dead","steam_id":76561198029895630,"connected_time":3143000000000,"state":"active","ping":105},{"user_id":640,"name":"Batso","steam_id":76561198106589452,"connected_time":723000000000,"state":"active","ping":76},{"user_id":644,"name":"Levi","steam_id":76561198089832776,"connected_time":595000000000,"state":"active","ping":53},{"user_id":632,"name":"Sentry Gun","steam_id":76561199056503496,"connected_time":1281000000000,"state":"active","ping":111},{"user_id":625,"name":"dax","steam_id":76561198045335319,"connected_time":1602000000000,"state":"active","ping":77},{"user_id":641,"name":"UnkownGamerLOL","steam_id":76561198225902368,"connected_time":699000000000,"state":"active","ping":75},{"user_id":633,"name":"dr. chungy ph.d","steam_id":76561198215559840,"connected_time":1052000000000,"state":"active","ping":60},{"user_id":617,"name":"Cars 2 Enjoyer","steam_id":76561198880355236,"connected_time":1903000000000,"state":"active","ping":86},{"user_id":615,"name":"Hey","steam_id":76561198447517893,"connected_time":2305000000000,"state":"active","ping":74},{"user_id":594,"name":"The Anime Protagonist","steam_id":76561198131400543,"connected_time":4126000000000,"state":"active","ping":67},{"user_id":647,"name":"Mouse","steam_id":76561198388034715,"connected_time":190000000000,"state":"active","ping":51}]},{"server_id":404,"name":"Uncletopia | Dallas | 3 | All Maps","name_short":"dal-3","host":"dal-1.us.uncletopia.com","port":27035,"enabled":true,"region":"us-central","cc":"us","latitude":32.779167,"longitude":-96.80889,"reserved":0,"last_update":"0001-01-01T00:00:00Z","name_a2s":"Uncletopia | Dallas | 3 | All Maps","protocol":17,"map":"cp_dustbowl","folder":"tf","game":"Team Fortress","app_id":440,"player_count":8,"max_players":24,"Bots":0,"server_type":"Dedicated","server_os":"Linux","password":true,"vac":true,"version":"7961495","steam_id":85568392924515219,"keywords":["cp","nocrits","nodmgspread","uncletopia"],"game_id":440,"stv_port":27036,"stv_name":"Uncletopia | Dallas | 3 | All Maps | STV","players":[{"user_id":248,"name":"GLG MUTT","steam_id":76561198147785541,"connected_time":2662000000000,"state":"active","ping":64},{"user_id":247,"name":"CrŒªf227","steam_id":76561198196211121,"connected_time":2747000000000,"state":"active","ping":59},{"user_id":262,"name":"MapleSyrup","steam_id":76561199222442855,"connected_time":255000000000,"state":"active","ping":92},{"user_id":263,"name":"Clownfucker","steam_id":76561198091713728,"connected_time":246000000000,"state":"active","ping":74},{"user_id":264,"name":"chesterwnimitz","steam_id":76561198062664377,"connected_time":150000000000,"state":"active","ping":77},{"user_id":120,"name":"Friggin_Ponies","steam_id":76561198064379318,"connected_time":11009000000000,"state":"active","ping":86},{"user_id":254,"name":"Noxcat lunacy","steam_id":76561199088881426,"connected_time":2095000000000,"state":"active","ping":79},{"user_id":122,"name":"The Nuclear Kitsune","steam_id":76561198004852482,"connected_time":10974000000000,"state":"active","ping":116}]},{"server_id":405,"name":"Uncletopia | Dallas | 4 | Community","name_short":"dal-4","host":"dal-1.us.uncletopia.com","port":27045,"enabled":true,"region":"us-central","cc":"us","latitude":32.779167,"longitude":-96.80889,"reserved":0,"last_update":"0001-01-01T00:00:00Z","name_a2s":"Uncletopia | Dallas | 4 | Community","protocol":17,"map":"workshop/koth_rotunda_rc10w.ugc2964421291","folder":"tf","game":"Team Fortress","app_id":440,"player_count":0,"max_players":24,"Bots":0,"server_type":"Dedicated","server_os":"Linux","password":true,"vac":true,"version":"7961495","steam_id":85568392924515220,"keywords":["cp","nocrits","nodmgspread","uncletopia"],"game_id":440,"stv_port":27046,"stv_name":"Uncletopia | Dallas | 4 | Community | STV","players":null},{"server_id":5,"name":"Uncletopia | Frankfurt | 1 | All Maps","name_short":"frk-1","host":"frk-1.de.uncletopia.com","port":27015,"enabled":true,"region":"eu","cc":"de","latitude":50.110924,"longitude":8.682127,"reserved":0,"last_update":"0001-01-01T00:00:00Z","name_a2s":"Uncletopia | Frankfurt | 1 | All Maps","protocol":17,"map":"ctf_doublecross","folder":"tf","game":"Team Fortress","app_id":440,"player_count":0,"max_players":24,"Bots":0,"server_type":"Dedicated","server_os":"Linux","password":true,"vac":true,"version":"7961495","steam_id":85568392924469989,"keywords":["ctf","nocrits","nodmgspread","uncletopia"],"game_id":440,"stv_port":27016,"stv_name":"Uncletopia | Frankfurt | 1 | All Maps | STV","players":null},{"server_id":110,"name":"Uncletopia | Frankfurt | 2 | All Maps","name_short":"frk-2","host":"frk-1.de.uncletopia.com","port":27025,"enabled":true,"region":"eu","cc":"de","latitude":50.110924,"longitude":8.682127,"reserved":0,"last_update":"0001-01-01T00:00:00Z","name_a2s":"Uncletopia | Frankfurt | 2 | All Maps","protocol":17,"map":"cp_gorge","folder":"tf","game":"Team Fortress","app_id":440,"player_count":19,"max_players":24,"Bots":0,"server_type":"Dedicated","server_os":"Linux","password":true,"vac":true,"version":"7961495","steam_id":85568392924469990,"keywords":["cp","nocrits","nodmgspread","uncletopia"],"game_id":440,"stv_port":27026,"stv_name":"Uncletopia | Frankfurt | 2 | All Maps | STV","players":[{"user_id":50,"name":"Loona my beloved","steam_id":76561198067182918,"connected_time":1642000000000,"state":"active","ping":86},{"user_id":4,"name":"my son came out okay","steam_id":76561199179040672,"connected_time":6918000000000,"state":"active","ping":69},{"user_id":31,"name":"Canis[Magnus]Pectus","steam_id":76561198363775072,"connected_time":4490000000000,"state":"active","ping":110},{"user_id":43,"name":"beebo","steam_id":76561199120277007,"connected_time":2841000000000,"state":"active","ping":54},{"user_id":57,"name":"Nova","steam_id":76561199001959014,"connected_time":577000000000,"state":"active","ping":120},{"user_id":9,"name":"CumbustiblePunda","steam_id":76561197974274677,"connected_time":6911000000000,"state":"active","ping":59},{"user_id":65,"name":"Mask","steam_id":76561198040445441,"connected_time":199000000000,"state":"active","ping":92},{"user_id":11,"name":"Volodya","steam_id":76561198124484658,"connected_time":6881000000000,"state":"active","ping":111},{"user_id":55,"name":"PP_master69420","steam_id":76561199019913910,"connected_time":674000000000,"state":"active","ping":80},{"user_id":58,"name":"RedyRedman","steam_id":76561199187722102,"connected_time":553000000000,"state":"active","ping":99},{"user_id":59,"name":"Yeetstuf","steam_id":76561199240598000,"connected_time":536000000000,"state":"active","ping":60},{"user_id":68,"name":"Husaa","steam_id":76561198123514161,"connected_time":76000000000,"state":"active","ping":63},{"user_id":61,"name":"tempLimit","steam_id":76561199158363470,"connected_time":453000000000,"state":"active","ping":77},{"user_id":62,"name":"THVG","steam_id":76561199156685368,"connected_time":443000000000,"state":"active","ping":60},{"user_id":63,"name":"Tiq9r","steam_id":76561198997501172,"connected_time":401000000000,"state":"active","ping":91},{"user_id":64,"name":"tallgrass_02","steam_id":76561198168039646,"connected_time":238000000000,"state":"active","ping":80},{"user_id":69,"name":"Mr.Dies a lot","steam_id":76561199061602946,"connected_time":56000000000,"state":"active","ping":98},{"user_id":67,"name":"pdf file","steam_id":76561198349333567,"connected_time":103000000000,"state":"active","ping":45},{"user_id":70,"name":"DABEARS","steam_id":76561198045969472,"connected_time":28000000000,"state":"active","ping":139}]},{"server_id":308,"name":"Uncletopia | Frankfurt | 3 | All Maps","name_short":"frk-3","host":"frk-1.de.uncletopia.com","port":27035,"enabled":true,"region":"eu","cc":"de","latitude":50.110924,"longitude":8.682127,"reserved":0,"last_update":"0001-01-01T00:00:00Z","name_a2s":"Uncletopia | Frankfurt | 3 | All Maps","protocol":17,"map":"plr_pipeline","folder":"tf","game":"Team Fortress","app_id":440,"player_count":0,"max_players":24,"Bots":0,"server_type":"Dedicated","server_os":"Linux","password":true,"vac":true,"version":"7961495","steam_id":85568392924504274,"keywords":["nocrits","nodmgspread","payload","uncletopia"],"game_id":440,"stv_port":27036,"stv_name":"Uncletopia | Frankfurt | 3 | All Maps | STV","players":null},{"server_id":309,"name":"Uncletopia | Frankfurt | 4 | All Maps","name_short":"frk-4","host":"frk-1.de.uncletopia.com","port":27045,"enabled":true,"region":"eu","cc":"de","latitude":50.110924,"longitude":8.682127,"reserved":0,"last_update":"0001-01-01T00:00:00Z","name_a2s":"Uncletopia | Frankfurt | 4 | All Maps","protocol":17,"map":"koth_lakeside_final","folder":"tf","game":"Team Fortress","app_id":440,"player_count":0,"max_players":24,"Bots":0,"server_type":"Dedicated","server_os":"Linux","password":true,"vac":true,"version":"7961495","steam_id":85568392924504275,"keywords":["cp","nocrits","nodmgspread","uncletopia"],"game_id":440,"stv_port":27046,"stv_name":"Uncletopia | Frankfurt | 4 | All Maps | STV","players":null},{"server_id":310,"name":"Uncletopia | Frankfurt | 5 | All Maps","name_short":"frk-5","host":"frk-1.de.uncletopia.com","port":27055,"enabled":true,"region":"eu","cc":"de","latitude":50.110924,"longitude":8.682127,"reserved":0,"last_update":"0001-01-01T00:00:00Z","name_a2s":"Uncletopia | Frankfurt | 5 | All Maps","protocol":17,"map":"ctf_landfall","folder":"tf","game":"Team Fortress","app_id":440,"player_count":0,"max_players":24,"Bots":0,"server_type":"Dedicated","server_os":"Linux","password":true,"vac":true,"version":"7961495","steam_id":85568392924504277,"keywords":["ctf","nocrits","nodmgspread","uncletopia"],"game_id":440,"stv_port":27056,"stv_name":"Uncletopia | Frankfurt | 5 | All Maps | STV","players":null},{"server_id":311,"name":"Uncletopia | Frankfurt | 6 | All Maps","name_short":"frk-6","host":"frk-1.de.uncletopia.com","port":27065,"enabled":true,"region":"eu","cc":"de","latitude":50.110924,"longitude":8.682127,"reserved":0,"last_update":"0001-01-01T00:00:00Z","name_a2s":"Uncletopia | Frankfurt | 6 | All Maps","protocol":17,"map":"pl_swiftwater_final1","folder":"tf","game":"Team Fortress","app_id":440,"player_count":2,"max_players":24,"Bots":0,"server_type":"Dedicated","server_os":"Linux","password":true,"vac":true,"version":"7961495","steam_id":85568392924504278,"keywords":["nocrits","nodmgspread","payload","uncletopia"],"game_id":440,"stv_port":27066,"stv_name":"Uncletopia | Frankfurt | 6 | All Maps | STV","players":[{"user_id":4,"name":"mokau","steam_id":76561199150622722,"connected_time":2629000000000,"state":"active","ping":70},{"user_id":6,"name":"seulruker","steam_id":76561198200519882,"connected_time":808000000000,"state":"active","ping":205}]},{"server_id":23,"name":"Uncletopia | Frankfurt | 7 | Stopwatch","name_short":"frk-7","host":"frk-1.de.uncletopia.com","port":27075,"enabled":true,"region":"eu","cc":"de","latitude":50.110924,"longitude":8.682127,"reserved":0,"last_update":"0001-01-01T00:00:00Z","name_a2s":"Uncletopia | Frankfurt | 7 | Stopwatch","protocol":17,"map":"koth_highpass","folder":"tf","game":"Team Fortress","app_id":440,"player_count":0,"max_players":24,"Bots":0,"server_type":"Dedicated","server_os":"Linux","password":true,"vac":true,"version":"7961495","steam_id":85568392924742827,"keywords":["cp","nocrits","nodmgspread","uncletopia"],"game_id":440,"stv_port":27076,"stv_name":"Uncletopia | Frankfurt | 7 | Stopwatch | STV","players":null},{"server_id":24,"name":"Uncletopia | Frankfurt | 8 | Community","name_short":"frk-8","host":"frk-1.de.uncletopia.com","port":27085,"enabled":true,"region":"eu","cc":"de","latitude":50.110924,"longitude":8.682127,"reserved":0,"last_update":"0001-01-01T00:00:00Z","name_a2s":"Uncletopia | Frankfurt | 8 | Community","protocol":17,"map":"workshop/pl_stallberg_rc3.ugc1849111469","folder":"tf","game":"Team Fortress","app_id":440,"player_count":0,"max_players":24,"Bots":0,"server_type":"Dedicated","server_os":"Linux","password":true,"vac":true,"version":"7961495","steam_id":85568392924742828,"keywords":["nocrits","nodmgspread","payload","uncletopia"],"game_id":440,"stv_port":27086,"stv_name":"Uncletopia | Frankfurt | 8 | Community | STV","players":null},{"server_id":202,"name":"Uncletopia | Hong Kong | 1 | All Maps","name_short":"hgk-1","host":"hgk-1.hk.uncletopia.com","port":27015,"enabled":true,"region":"asia","cc":"hk","latitude":22.302711,"longitude":114.177216,"reserved":0,"last_update":"0001-01-01T00:00:00Z","name_a2s":"Uncletopia | Hong Kong | 1 | All Maps","protocol":17,"map":"cp_process_final","folder":"tf","game":"Team Fortress","app_id":440,"player_count":0,"max_players":24,"Bots":0,"server_type":"Dedicated","server_os":"Linux","password":true,"vac":true,"version":"7961495","steam_id":85568392924494504,"keywords":["cp","nocrits","nodmgspread","uncletopia"],"game_id":440,"stv_port":27016,"stv_name":"Uncletopia | Hong Kong | 1 | All Maps | STV","players":null},{"server_id":1,"name":"Uncletopia | Los Angeles | 1 | All Maps","name_short":"lax-1","host":"lax-1.us.uncletopia.com","port":27015,"enabled":true,"region":"us-west","cc":"us","latitude":33.94279,"longitude":-118.41004,"reserved":0,"last_update":"0001-01-01T00:00:00Z","name_a2s":"Uncletopia | Los Angeles | 1 | All Maps","protocol":17,"map":"koth_highpass","folder":"tf","game":"Team Fortress","app_id":440,"player_count":2,"max_players":24,"Bots":0,"server_type":"Dedicated","server_os":"Linux","password":true,"vac":true,"version":"7961495","steam_id":85568392924469991,"keywords":["cp","nocrits","nodmgspread","uncletopia"],"game_id":440,"stv_port":27016,"stv_name":"Uncletopia | Los Angeles | 1 | All Maps | STV","players":[{"user_id":309,"name":"The Broken Lightbulb","steam_id":76561198141566312,"connected_time":19000000000,"state":"active","ping":49},{"user_id":310,"name":"Just A Water Bottle","steam_id":76561198998941769,"connected_time":0,"state":"spawning","ping":22}]},{"server_id":112,"name":"Uncletopia | Los Angeles | 2 | All Maps","name_short":"lax-2","host":"lax-1.us.uncletopia.com","port":27025,"enabled":true,"region":"us-west","cc":"us","latitude":33.94279,"longitude":-118.41004,"reserved":0,"last_update":"0001-01-01T00:00:00Z","name_a2s":"Uncletopia | Los Angeles | 2 | All Maps","protocol":17,"map":"koth_harvest_final","folder":"tf","game":"Team Fortress","app_id":440,"player_count":22,"max_players":24,"Bots":0,"server_type":"Dedicated","server_os":"Linux","password":true,"vac":true,"version":"7961495","steam_id":85568392924469992,"keywords":["cp","nocrits","nodmgspread","uncletopia"],"game_id":440,"stv_port":27026,"stv_name":"Uncletopia | Los Angeles | 2 | All Maps | STV","players":[{"user_id":275,"name":"lover","steam_id":76561198089852954,"connected_time":763000000000,"state":"active","ping":106},{"user_id":257,"name":"adapt","steam_id":76561198156181017,"connected_time":2034000000000,"state":"active","ping":54},{"user_id":209,"name":"tunaa","steam_id":76561198362763159,"connected_time":5489000000000,"state":"active","ping":46},{"user_id":281,"name":"yellow ·óúÀ¨·óú","steam_id":76561198366474647,"connected_time":158000000000,"state":"active","ping":44},{"user_id":269,"name":"souljaboytellem.com","steam_id":76561198095824426,"connected_time":1351000000000,"state":"active","ping":83},{"user_id":272,"name":"Mr.Rogers","steam_id":76561198043878683,"connected_time":876000000000,"state":"active","ping":52},{"user_id":243,"name":"sly1","steam_id":76561198049014977,"connected_time":3541000000000,"state":"active","ping":50},{"user_id":207,"name":"Just Juanito","steam_id":76561198241446874,"connected_time":5654000000000,"state":"active","ping":66},{"user_id":282,"name":"d","steam_id":76561198066114874,"connected_time":156000000000,"state":"active","ping":75},{"user_id":279,"name":"Garfelf","steam_id":76561198419850129,"connected_time":291000000000,"state":"active","ping":80},{"user_id":246,"name":"8core","steam_id":76561198131163454,"connected_time":3504000000000,"state":"active","ping":77},{"user_id":278,"name":"Clagger","steam_id":76561198066701092,"connected_time":339000000000,"state":"active","ping":60},{"user_id":283,"name":"axel.gonz64","steam_id":76561198868438070,"connected_time":74000000000,"state":"active","ping":114},{"user_id":284,"name":"Straight Busta","steam_id":76561198135274720,"connected_time":60000000000,"state":"active","ping":103},{"user_id":256,"name":"SofaKing","steam_id":76561198176691859,"connected_time":2277000000000,"state":"active","ping":80},{"user_id":252,"name":"HumbDoe","steam_id":76561198065556553,"connected_time":2737000000000,"state":"active","ping":53},{"user_id":274,"name":"Meepster","steam_id":76561198146305159,"connected_time":861000000000,"state":"active","ping":47},{"user_id":285,"name":"turn around","steam_id":76561198046526036,"connected_time":57000000000,"state":"active","ping":47},{"user_id":251,"name":"Just a Good Friend","steam_id":76561198140052403,"connected_time":2955000000000,"state":"active","ping":46},{"user_id":266,"name":"Mexican Elvis","steam_id":76561198165100210,"connected_time":1545000000000,"state":"active","ping":76},{"user_id":261,"name":"allMAX","steam_id":76561198270980670,"connected_time":1935000000000,"state":"active","ping":143},{"user_id":262,"name":"Captain Buggy","steam_id":76561198024444448,"connected_time":1890000000000,"state":"active","ping":71}]},{"server_id":324,"name":"Uncletopia | Los Angeles | 3 | All Maps","name_short":"lax-3","host":"lax-1.us.uncletopia.com","port":27035,"enabled":true,"region":"us-west","cc":"us","latitude":33.94279,"longitude":-118.41004,"reserved":0,"last_update":"0001-01-01T00:00:00Z","name_a2s":"Uncletopia | Los Angeles | 3 | All Maps","protocol":17,"map":"pl_barnblitz","folder":"tf","game":"Team Fortress","app_id":440,"player_count":0,"max_players":24,"Bots":0,"server_type":"Dedicated","server_os":"Linux","password":true,"vac":true,"version":"7961495","steam_id":85568392924510198,"keywords":["nocrits","nodmgspread","payload","uncletopia"],"game_id":440,"stv_port":27036,"stv_name":"Uncletopia | Los Angeles | 3 | All Maps | STV","players":null},{"server_id":25,"name":"Uncletopia | Los Angeles | 4 | Stopwatch","name_short":"lax-4","host":"lax-1.us.uncletopia.com","port":27045,"enabled":true,"region":"us-west","cc":"us","latitude":33.94279,"longitude":-118.41004,"reserved":0,"last_update":"0001-01-01T00:00:00Z","name_a2s":"Uncletopia | Los Angeles | 4 | Stopwatch","protocol":17,"map":"cp_process_final","folder":"tf","game":"Team Fortress","app_id":440,"player_count":0,"max_players":24,"Bots":0,"server_type":"Dedicated","server_os":"Linux","password":true,"vac":true,"version":"7961495","steam_id":85568392924510199,"keywords":["cp","nocrits","nodmgspread","uncletopia"],"game_id":440,"stv_port":27046,"stv_name":"Uncletopia | Los Angeles | 4 | Stopwatch | STV","players":null},{"server_id":11,"name":"Uncletopia | London | 1 | All Maps","name_short":"lon-1","host":"lon-1.uk.uncletopia.com","port":27015,"enabled":true,"region":"eu","cc":"gb","latitude":51.509865,"longitude":-0.118092,"reserved":0,"last_update":"0001-01-01T00:00:00Z","name_a2s":"Uncletopia | London | 1 | All Maps","protocol":17,"map":"koth_sawmill","folder":"tf","game":"Team Fortress","app_id":440,"player_count":0,"max_players":24,"Bots":0,"server_type":"Dedicated","server_os":"Linux","password":true,"vac":true,"version":"7961495","steam_id":85568392924367362,"keywords":["cp","nocrits","nodmgspread","uncletopia"],"game_id":440,"stv_port":27016,"stv_name":"Uncletopia | London | 1 | All Maps | STV","players":null},{"server_id":114,"name":"Uncletopia | London | 2 | All Maps","name_short":"lon-2","host":"lon-1.uk.uncletopia.com","port":27025,"enabled":true,"region":"eu","cc":"gb","latitude":51.509865,"longitude":-0.118092,"reserved":0,"last_update":"0001-01-01T00:00:00Z","name_a2s":"Uncletopia | London | 2 | All Maps","protocol":17,"map":"cp_mountainlab","folder":"tf","game":"Team Fortress","app_id":440,"player_count":0,"max_players":24,"Bots":0,"server_type":"Dedicated","server_os":"Linux","password":true,"vac":true,"version":"7961495","steam_id":85568392924470941,"keywords":["cp","nocrits","nodmgspread","uncletopia"],"game_id":440,"stv_port":27026,"stv_name":"Uncletopia | London | 2 | All Maps | STV","players":null},{"server_id":320,"name":"Uncletopia | London | 3 | All Maps","name_short":"lon-3","host":"lon-1.uk.uncletopia.com","port":27035,"enabled":true,"region":"eu","cc":"gb","latitude":51.509865,"longitude":-0.118092,"reserved":0,"last_update":"0001-01-01T00:00:00Z","name_a2s":"Uncletopia | London | 3 | All Maps","protocol":17,"map":"cp_mountainlab","folder":"tf","game":"Team Fortress","app_id":440,"player_count":0,"max_players":24,"Bots":0,"server_type":"Dedicated","server_os":"Linux","password":true,"vac":true,"version":"7961495","steam_id":85568392924510192,"keywords":["cp","nocrits","nodmgspread","uncletopia"],"game_id":440,"stv_port":27036,"stv_name":"Uncletopia | London | 3 | All Maps | STV","players":null},{"server_id":321,"name":"Uncletopia | London | 4 | All Maps","name_short":"lon-4","host":"lon-1.uk.uncletopia.com","port":27045,"enabled":true,"region":"eu","cc":"gb","latitude":51.509865,"longitude":-0.118092,"reserved":0,"last_update":"0001-01-01T00:00:00Z","name_a2s":"Uncletopia | London | 4 | All Maps","protocol":17,"map":"pl_badwater","folder":"tf","game":"Team Fortress","app_id":440,"player_count":0,"max_players":24,"Bots":0,"server_type":"Dedicated","server_os":"Linux","password":true,"vac":true,"version":"7961495","steam_id":85568392924510193,"keywords":["nocrits","nodmgspread","payload","uncletopia"],"game_id":440,"stv_port":27046,"stv_name":"Uncletopia | London | 4 | All Maps | STV","players":null},{"server_id":21,"name":"Uncletopia | London | 5 | All Maps","name_short":"lon-5","host":"lon-1.uk.uncletopia.com","port":27055,"enabled":true,"region":"eu","cc":"gb","latitude":51.509865,"longitude":-0.118092,"reserved":0,"last_update":"0001-01-01T00:00:00Z","name_a2s":"Uncletopia | London | 5 | All Maps","protocol":17,"map":"koth_suijin","folder":"tf","game":"Team Fortress","app_id":440,"player_count":0,"max_players":24,"Bots":0,"server_type":"Dedicated","server_os":"Linux","password":true,"vac":true,"version":"7961495","steam_id":85568392924742829,"keywords":["cp","nocrits","nodmgspread","uncletopia"],"game_id":440,"stv_port":27056,"stv_name":"Uncletopia | London | 5 | All Maps | STV","players":null},{"server_id":22,"name":"Uncletopia | London | 6 | All Maps","name_short":"lon-6","host":"lon-1.uk.uncletopia.com","port":27065,"enabled":true,"region":"eu","cc":"gb","latitude":51.509865,"longitude":-0.118092,"reserved":0,"last_update":"0001-01-01T00:00:00Z","name_a2s":"Uncletopia | London | 6 | All Maps","protocol":17,"map":"pl_frontier_final","folder":"tf","game":"Team Fortress","app_id":440,"player_count":0,"max_players":24,"Bots":0,"server_type":"Dedicated","server_os":"Linux","password":true,"vac":true,"version":"7961495","steam_id":85568392924742830,"keywords":["nocrits","nodmgspread","payload","uncletopia"],"game_id":440,"stv_port":27066,"stv_name":"Uncletopia | London | 6 | All Maps | STV","players":null},{"server_id":40,"name":"Uncletopia | London | 7 | Stopwatch","name_short":"lon-7","host":"lon-1.uk.uncletopia.com","port":27075,"enabled":true,"region":"eu","cc":"gb","latitude":51.509865,"longitude":-0.118092,"reserved":0,"last_update":"0001-01-01T00:00:00Z","name_a2s":"Uncletopia | London | 7 | Stopwatch","protocol":17,"map":"pl_swiftwater_final1","folder":"tf","game":"Team Fortress","app_id":440,"player_count":0,"max_players":24,"Bots":0,"server_type":"Dedicated","server_os":"Linux","password":true,"vac":true,"version":"7961495","steam_id":85568392924964314,"keywords":["nocrits","nodmgspread","payload","uncletopia"],"game_id":440,"stv_port":27076,"stv_name":"Uncletopia | London | 7 | Stopwatch | STV","players":null},{"server_id":41,"name":"Uncletopia | London | 8 | Community","name_short":"lon-8","host":"lon-1.uk.uncletopia.com","port":27085,"enabled":true,"region":"eu","cc":"gb","latitude":51.509865,"longitude":-0.118092,"reserved":0,"last_update":"0001-01-01T00:00:00Z","name_a2s":"Uncletopia | London | 8 | Community","protocol":17,"map":"workshop/cp_propaganda_b18.ugc1603743849","folder":"tf","game":"Team Fortress","app_id":440,"player_count":0,"max_players":24,"Bots":0,"server_type":"Dedicated","server_os":"Linux","password":true,"vac":true,"version":"7961495","steam_id":85568392924964315,"keywords":["cp","nocrits","nodmgspread","uncletopia"],"game_id":440,"stv_port":27086,"stv_name":"Uncletopia | London | 8 | Community | STV","players":null},{"server_id":300,"name":"Uncletopia | Montr√©al | 1 | One Thousand Uncles","name_short":"mtl-1","host":"mtl-1.ca.uncletopia.com","port":27015,"enabled":true,"region":"us-east","cc":"ca","latitude":45.50889,"longitude":-73.56167,"reserved":0,"last_update":"0001-01-01T00:00:00Z","name_a2s":"Uncletopia | Montr√©al | 1 | One Thousand Uncles","protocol":17,"map":"cp_dustbowl","folder":"tf","game":"Team Fortress","app_id":440,"player_count":0,"max_players":32,"Bots":0,"server_type":"Dedicated","server_os":"Linux","password":true,"vac":true,"version":"7961495","steam_id":85568392924500087,"keywords":["alltalk","cp","danepve","increased_maxplayers","norespawntime","uncletopia"],"game_id":440,"stv_port":0,"stv_name":"","players":null},{"server_id":301,"name":"Uncletopia | Montr√©al | 2 | One Thousand Uncles","name_short":"mtl-2","host":"mtl-1.ca.uncletopia.com","port":27025,"enabled":true,"region":"us-east","cc":"ca","latitude":45.50889,"longitude":-73.56167,"reserved":0,"last_update":"0001-01-01T00:00:00Z","name_a2s":"Uncletopia | Montr√©al | 2 | One Thousand Uncles","protocol":17,"map":"cp_mossrock","folder":"tf","game":"Team Fortress","app_id":440,"player_count":0,"max_players":32,"Bots":0,"server_type":"Dedicated","server_os":"Linux","password":true,"vac":true,"version":"7961495","steam_id":85568392924500088,"keywords":["alltalk","cp","danepve","increased_maxplayers","norespawntime","uncletopia"],"game_id":440,"stv_port":0,"stv_name":"","players":null},{"server_id":302,"name":"Uncletopia | Montr√©al | 3 | One Thousand Uncles","name_short":"mtl-3","host":"mtl-1.ca.uncletopia.com","port":27035,"enabled":true,"region":"us-east","cc":"ca","latitude":45.50889,"longitude":-73.56167,"reserved":0,"last_update":"0001-01-01T00:00:00Z","name_a2s":"Uncletopia | Montr√©al | 3 | One Thousand Uncles","protocol":17,"map":"pl_pier","folder":"tf","game":"Team Fortress","app_id":440,"player_count":0,"max_players":32,"Bots":0,"server_type":"Dedicated","server_os":"Linux","password":true,"vac":true,"version":"7961495","steam_id":85568392924500089,"keywords":["alltalk","danepve","increased_maxplayers","norespawntime","payload","uncletopia"],"game_id":440,"stv_port":0,"stv_name":"","players":null},{"server_id":13,"name":"Uncletopia | New York City | 1 | All Maps","name_short":"nyc-1","host":"nyc-1.us.uncletopia.com","port":27015,"enabled":true,"region":"us-east","cc":"us","latitude":40.73061,"longitude":-73.93524,"reserved":0,"last_update":"0001-01-01T00:00:00Z","name_a2s":"Uncletopia | New York City | 1 | All Maps","protocol":17,"map":"pl_snowycoast","folder":"tf","game":"Team Fortress","app_id":440,"player_count":24,"max_players":24,"Bots":0,"server_type":"Dedicated","server_os":"Linux","password":true,"vac":true,"version":"7961495","steam_id":85568392924469993,"keywords":["nocrits","nodmgspread","payload","uncletopia"],"game_id":440,"stv_port":27016,"stv_name":"Uncletopia | New York City | 1 | All Maps | STV","players":[{"user_id":668,"name":"Lyle from Los Pollos Hermanos","steam_id":76561199045075356,"connected_time":2291000000000,"state":"active","ping":87},{"user_id":658,"name":"Onion Mayonnaise Soda","steam_id":76561198092483430,"connected_time":2737000000000,"state":"active","ping":85},{"user_id":604,"name":"Shwartzy","steam_id":76561198073927139,"connected_time":6980000000000,"state":"active","ping":57},{"user_id":672,"name":"violet","steam_id":76561198248461754,"connected_time":2157000000000,"state":"active","ping":119},{"user_id":681,"name":"woman respecter","steam_id":76561198083225542,"connected_time":1143000000000,"state":"active","ping":61},{"user_id":688,"name":"Rudy","steam_id":76561198013456828,"connected_time":902000000000,"state":"active","ping":55},{"user_id":692,"name":"ray (the based god)","steam_id":76561198311984941,"connected_time":424000000000,"state":"active","ping":81},{"user_id":649,"name":"Dusk","steam_id":76561198119302704,"connected_time":3523000000000,"state":"active","ping":43},{"user_id":633,"name":"Tony","steam_id":76561198042257740,"connected_time":5240000000000,"state":"active","ping":68},{"user_id":541,"name":"Chanddy","steam_id":76561198058949058,"connected_time":10763000000000,"state":"active","ping":56},{"user_id":683,"name":"m√ºde","steam_id":76561198141184894,"connected_time":1070000000000,"state":"active","ping":102},{"user_id":640,"name":"Slauvy","steam_id":76561198001479663,"connected_time":4628000000000,"state":"active","ping":76},{"user_id":662,"name":"snark","steam_id":76561198132980859,"connected_time":2658000000000,"state":"active","ping":60},{"user_id":687,"name":"CrushforceX","steam_id":76561198367985723,"connected_time":955000000000,"state":"active","ping":89},{"user_id":693,"name":"Voodo133","steam_id":76561198042670351,"connected_time":385000000000,"state":"active","ping":70},{"user_id":685,"name":"thearrab","steam_id":76561198203623919,"connected_time":992000000000,"state":"active","ping":160},{"user_id":695,"name":"Canadian Beb","steam_id":76561198055462395,"connected_time":169000000000,"state":"active","ping":73},{"user_id":690,"name":"üéÑDetective FlutterbatüéÑ","steam_id":76561198107233559,"connected_time":726000000000,"state":"active","ping":52},{"user_id":670,"name":"vampire girl","steam_id":76561198100477765,"connected_time":2243000000000,"state":"active","ping":67},{"user_id":610,"name":"BiggFoot","steam_id":76561197998605599,"connected_time":6895000000000,"state":"active","ping":64},{"user_id":635,"name":"xFactr","steam_id":76561198129007422,"connected_time":5215000000000,"state":"active","ping":44},{"user_id":679,"name":"THEY DONT KNOWWWWWW","steam_id":76561198062991744,"connected_time":1483000000000,"state":"active","ping":49},{"user_id":614,"name":"None of that $9.99 bullshit","steam_id":76561198116169903,"connected_time":6636000000000,"state":"active","ping":60},{"user_id":691,"name":"zzzz","steam_id":76561198310495200,"connected_time":712000000000,"state":"active","ping":65}]},{"server_id":14,"name":"Uncletopia | New York City | 2 | All Maps","name_short":"nyc-2","host":"nyc-1.us.uncletopia.com","port":27025,"enabled":true,"region":"us-east","cc":"us","latitude":40.73061,"longitude":-73.93524,"reserved":0,"last_update":"0001-01-01T00:00:00Z","name_a2s":"Uncletopia | New York City | 2 | All Maps","protocol":17,"map":"koth_highpass","folder":"tf","game":"Team Fortress","app_id":440,"player_count":0,"max_players":24,"Bots":0,"server_type":"Dedicated","server_os":"Linux","password":true,"vac":true,"version":"7961495","steam_id":85568392924469994,"keywords":["cp","nocrits","nodmgspread","uncletopia"],"game_id":440,"stv_port":27026,"stv_name":"Uncletopia | New York City | 2 | All Maps | STV","players":null},{"server_id":15,"name":"Uncletopia | New York City | 3 | Stopwatch","name_short":"nyc-3","host":"nyc-1.us.uncletopia.com","port":27035,"enabled":true,"region":"us-east","cc":"us","latitude":40.73061,"longitude":-73.93524,"reserved":0,"last_update":"0001-01-01T00:00:00Z","name_a2s":"Uncletopia | New York City | 3 | Stopwatch","protocol":17,"map":"workshop/koth_bagel_rc6.ugc2514036946","folder":"tf","game":"Team Fortress","app_id":440,"player_count":0,"max_players":24,"Bots":0,"server_type":"Dedicated","server_os":"Linux","password":true,"vac":true,"version":"7961495","steam_id":85568392924742820,"keywords":["cp","nocrits","nodmgspread","uncletopia"],"game_id":440,"stv_port":27036,"stv_name":"Uncletopia | New York City | 3 | Stopwatch | STV","players":null},{"server_id":16,"name":"Uncletopia | New York City | 4 | Community","name_short":"nyc-4","host":"nyc-1.us.uncletopia.com","port":27045,"enabled":true,"region":"us-east","cc":"us","latitude":40.73061,"longitude":-73.93524,"reserved":0,"last_update":"0001-01-01T00:00:00Z","name_a2s":"Uncletopia | New York City | 4 | Community","protocol":17,"map":"workshop/koth_ashville_final.ugc2130459942","folder":"tf","game":"Team Fortress","app_id":440,"player_count":0,"max_players":24,"Bots":0,"server_type":"Dedicated","server_os":"Linux","password":true,"vac":true,"version":"7961495","steam_id":85568392924742821,"keywords":["cp","nocrits","nodmgspread","uncletopia"],"game_id":440,"stv_port":27046,"stv_name":"Uncletopia | New York City | 4 | Community | STV","players":null},{"server_id":142,"name":"Uncletopia | S√£o Paulo | 1 | All Maps","name_short":"sao-1","host":"sao-1.br.uncletopia.com","port":27015,"enabled":true,"region":"sa","cc":"br","latitude":-23.533773,"longitude":-46.62529,"reserved":0,"last_update":"0001-01-01T00:00:00Z","name_a2s":"Uncletopia | S√£o Paulo | 1 | All Maps","protocol":17,"map":"koth_cascade","folder":"tf","game":"Team Fortress","app_id":440,"player_count":0,"max_players":24,"Bots":0,"server_type":"Dedicated","server_os":"Linux","password":true,"vac":true,"version":"7961495","steam_id":85568392924469996,"keywords":["cp","nocrits","nodmgspread","uncletopia"],"game_id":440,"stv_port":27016,"stv_name":"Uncletopia | S√£o Paulo | 1 | All Maps | STV","players":null},{"server_id":143,"name":"Uncletopia | S√£o Paulo | 2 | Community","name_short":"sao-2","host":"sao-2.br.uncletopia.com","port":27015,"enabled":true,"region":"sa","cc":"br","latitude":-23.533773,"longitude":-46.62529,"reserved":0,"last_update":"0001-01-01T00:00:00Z","name_a2s":"Uncletopia | S√£o Paulo | 2 | Community","protocol":17,"map":"workshop/cp_sultry_b8.ugc2775471508","folder":"tf","game":"Team Fortress","app_id":440,"player_count":0,"max_players":24,"Bots":0,"server_type":"Dedicated","server_os":"Linux","password":true,"vac":true,"version":"7961495","steam_id":85568392924485349,"keywords":["cp","nocrits","nodmgspread","uncletopia"],"game_id":440,"stv_port":27016,"stv_name":"Uncletopia | S√£o Paulo | 2 | Community | STV","players":null},{"server_id":7,"name":"Uncletopia | Seattle | 1 | All Maps","name_short":"sea-1","host":"sea-1.us.uncletopia.com","port":27015,"enabled":true,"region":"us-west","cc":"us","latitude":47.608013,"longitude":-122.33517,"reserved":0,"last_update":"0001-01-01T00:00:00Z","name_a2s":"Uncletopia | Seattle | 1 | All Maps","protocol":17,"map":"koth_highpass","folder":"tf","game":"Team Fortress","app_id":440,"player_count":24,"max_players":24,"Bots":0,"server_type":"Dedicated","server_os":"Linux","password":true,"vac":true,"version":"7961495","steam_id":85568392924469997,"keywords":["cp","nocrits","nodmgspread","uncletopia"],"game_id":440,"stv_port":27016,"stv_name":"Uncletopia | Seattle | 1 | All Maps | STV","players":[{"user_id":776,"name":"Shazzy","steam_id":76561198145460523,"connected_time":1819000000000,"state":"active","ping":44},{"user_id":797,"name":"NE–ØO","steam_id":76561197965450216,"connected_time":825000000000,"state":"active","ping":53},{"user_id":777,"name":"Arsonist Goose","steam_id":76561198147441830,"connected_time":1816000000000,"state":"active","ping":74},{"user_id":788,"name":"Mr8bittripper","steam_id":76561198133894229,"connected_time":1687000000000,"state":"active","ping":79},{"user_id":805,"name":"Luna","steam_id":76561198082944789,"connected_time":342000000000,"state":"active","ping":71},{"user_id":772,"name":"Lily Thorn","steam_id":76561198305488625,"connected_time":2482000000000,"state":"active","ping":61},{"user_id":779,"name":"Finkly","steam_id":76561198049828110,"connected_time":1810000000000,"state":"active","ping":46},{"user_id":789,"name":"Turts","steam_id":76561197998448097,"connected_time":1548000000000,"state":"active","ping":66},{"user_id":811,"name":"lukamine","steam_id":76561198166827208,"connected_time":296000000000,"state":"active","ping":45},{"user_id":809,"name":"Brathic","steam_id":76561198966232163,"connected_time":298000000000,"state":"active","ping":97},{"user_id":709,"name":"rat gets the cheese","steam_id":76561198031234032,"connected_time":8106000000000,"state":"active","ping":101},{"user_id":781,"name":"Hawksgamer","steam_id":76561198152405941,"connected_time":1804000000000,"state":"active","ping":49},{"user_id":806,"name":"john.","steam_id":76561198982939658,"connected_time":339000000000,"state":"active","ping":93},{"user_id":812,"name":"Cancerous Pineapple","steam_id":76561198097307656,"connected_time":296000000000,"state":"active","ping":70},{"user_id":813,"name":"a","steam_id":76561198074209737,"connected_time":78000000000,"state":"active","ping":93},{"user_id":765,"name":"Streamline","steam_id":76561198031098638,"connected_time":3633000000000,"state":"active","ping":102},{"user_id":694,"name":"soup","steam_id":76561198043209046,"connected_time":9708000000000,"state":"active","ping":66},{"user_id":791,"name":"trackpad gaming | f2p","steam_id":76561198840414371,"connected_time":1492000000000,"state":"active","ping":52},{"user_id":766,"name":"vfa","steam_id":76561198055729118,"connected_time":3377000000000,"state":"active","ping":61},{"user_id":764,"name":"Gwuf","steam_id":76561198091503282,"connected_time":3648000000000,"state":"active","ping":97},{"user_id":798,"name":"{907}DarkestFury","steam_id":76561198103662458,"connected_time":803000000000,"state":"active","ping":73},{"user_id":784,"name":"ack.awesome676","steam_id":76561199109415958,"connected_time":1773000000000,"state":"active","ping":75},{"user_id":790,"name":"Lonestar827","steam_id":76561198035533639,"connected_time":1507000000000,"state":"active","ping":51},{"user_id":794,"name":"Sasha The Foxgirl","steam_id":76561198018403555,"connected_time":1195000000000,"state":"active","ping":65}]},{"server_id":119,"name":"Uncletopia | Seattle | 2 | All Maps","name_short":"sea-2","host":"sea-1.us.uncletopia.com","port":27025,"enabled":true,"region":"us-west","cc":"us","latitude":47.608013,"longitude":-122.33517,"reserved":0,"last_update":"0001-01-01T00:00:00Z","name_a2s":"Uncletopia | Seattle | 2 | All Maps","protocol":17,"map":"pl_snowycoast","folder":"tf","game":"Team Fortress","app_id":440,"player_count":24,"max_players":24,"Bots":0,"server_type":"Dedicated","server_os":"Linux","password":true,"vac":true,"version":"7961495","steam_id":85568392924469998,"keywords":["nocrits","nodmgspread","payload","uncletopia"],"game_id":440,"stv_port":27026,"stv_name":"Uncletopia | Seattle | 2 | All Maps | STV","players":[{"user_id":424,"name":"Butterton","steam_id":76561198833286517,"connected_time":3668000000000,"state":"active","ping":88},{"user_id":453,"name":"Erectangles","steam_id":76561198030325786,"connected_time":622000000000,"state":"active","ping":32},{"user_id":441,"name":"rattyrat","steam_id":76561198233994900,"connected_time":2025000000000,"state":"active","ping":80},{"user_id":444,"name":"I_Want_A_Soft_Taco","steam_id":76561198225561352,"connected_time":1305000000000,"state":"active","ping":69},{"user_id":399,"name":"Thexx [she/they]","steam_id":76561198113823050,"connected_time":5746000000000,"state":"active","ping":49},{"user_id":449,"name":"ahazz","steam_id":76561198138161605,"connected_time":1069000000000,"state":"active","ping":75},{"user_id":413,"name":"MyMonkeyBaby","steam_id":76561198046896670,"connected_time":4481000000000,"state":"active","ping":54},{"user_id":404,"name":"Scrumfel Nutz","steam_id":76561198123286409,"connected_time":5243000000000,"state":"active","ping":56},{"user_id":446,"name":"S Q U I S H E  T H A T  C A T","steam_id":76561198293865429,"connected_time":1281000000000,"state":"active","ping":45},{"user_id":419,"name":"DaBigA","steam_id":76561198326492538,"connected_time":3926000000000,"state":"active","ping":38},{"user_id":435,"name":"Sierra Foxtrot","steam_id":76561197996667382,"connected_time":2487000000000,"state":"active","ping":96},{"user_id":421,"name":"pat","steam_id":76561198040595468,"connected_time":3765000000000,"state":"active","ping":84},{"user_id":422,"name":"ferby","steam_id":76561198028229594,"connected_time":3749000000000,"state":"active","ping":66},{"user_id":451,"name":"Rabblerouser","steam_id":76561198127930963,"connected_time":801000000000,"state":"active","ping":67},{"user_id":442,"name":"airbudetc","steam_id":76561199125415611,"connected_time":1423000000000,"state":"active","ping":55},{"user_id":436,"name":"Giorno Giovanna","steam_id":76561198044106874,"connected_time":2465000000000,"state":"active","ping":89},{"user_id":428,"name":"Sorbis The Grungler","steam_id":76561198057138795,"connected_time":3380000000000,"state":"active","ping":103},{"user_id":450,"name":"Bus!","steam_id":76561199082304859,"connected_time":982000000000,"state":"active","ping":75},{"user_id":455,"name":"rgarza210","steam_id":76561198028008805,"connected_time":13000000000,"state":"spawning","ping":120},{"user_id":448,"name":"hatty","steam_id":76561198300727403,"connected_time":1199000000000,"state":"active","ping":122},{"user_id":411,"name":"ArchmageF","steam_id":76561197992246851,"connected_time":4555000000000,"state":"active","ping":57},{"user_id":437,"name":"Legally retarded","steam_id":76561198289642788,"connected_time":2438000000000,"state":"active","ping":63},{"user_id":452,"name":"Bingleton","steam_id":76561197998930473,"connected_time":764000000000,"state":"active","ping":44},{"user_id":438,"name":"Robogineer","steam_id":76561198026994739,"connected_time":2436000000000,"state":"active","ping":77}]},{"server_id":406,"name":"Uncletopia | Seattle | 3 | Stopwatch","name_short":"sea-3","host":"sea-1.us.uncletopia.com","port":27035,"enabled":true,"region":"us-west","cc":"us","latitude":47.608013,"longitude":-122.33517,"reserved":0,"last_update":"0001-01-01T00:00:00Z","name_a2s":"Uncletopia | Seattle | 3 | Stopwatch","protocol":17,"map":"workshop/koth_jamram_rc1a.ugc2964065613","folder":"tf","game":"Team Fortress","app_id":440,"player_count":0,"max_players":24,"Bots":0,"server_type":"Dedicated","server_os":"Linux","password":true,"vac":true,"version":"7961495","steam_id":85568392924515217,"keywords":["cp","nocrits","nodmgspread","uncletopia"],"game_id":440,"stv_port":27036,"stv_name":"Uncletopia | Seattle | 3 | Stopwatch | STV","players":null},{"server_id":17,"name":"Uncletopia | San Francisco | 1 | All Maps","name_short":"sfo-1","host":"sfo-1.us.uncletopia.com","port":27015,"enabled":true,"region":"us-west","cc":"us","latitude":37.77397,"longitude":-122.4313,"reserved":0,"last_update":"0001-01-01T00:00:00Z","name_a2s":"Uncletopia | San Francisco | 1 | All Maps","protocol":17,"map":"koth_cascade","folder":"tf","game":"Team Fortress","app_id":440,"player_count":0,"max_players":24,"Bots":0,"server_type":"Dedicated","server_os":"Linux","password":true,"vac":true,"version":"7961495","steam_id":85568392924469999,"keywords":["cp","nocrits","nodmgspread","uncletopia"],"game_id":440,"stv_port":27016,"stv_name":"Uncletopia | San Francisco | 1 | All Maps | STV","players":null},{"server_id":18,"name":"Uncletopia | San Francisco | 2 | All Maps","name_short":"sfo-2","host":"sfo-1.us.uncletopia.com","port":27025,"enabled":true,"region":"us-west","cc":"us","latitude":37.77397,"longitude":-122.4313,"reserved":0,"last_update":"0001-01-01T00:00:00Z","name_a2s":"Uncletopia | San Francisco | 2 | All Maps","protocol":17,"map":"cp_dustbowl","folder":"tf","game":"Team Fortress","app_id":440,"player_count":16,"max_players":24,"Bots":0,"server_type":"Dedicated","server_os":"Linux","password":true,"vac":true,"version":"7961495","steam_id":85568392924470000,"keywords":["cp","nocrits","nodmgspread","uncletopia"],"game_id":440,"stv_port":27026,"stv_name":"Uncletopia | San Francisco | 2 | All Maps | STV","players":[{"user_id":163,"name":"johnny","steam_id":76561198050225055,"connected_time":8273000000000,"state":"active","ping":56},{"user_id":263,"name":"fart","steam_id":76561198074198286,"connected_time":2071000000000,"state":"active","ping":74},{"user_id":240,"name":"Humble Learner","steam_id":76561198066091050,"connected_time":3333000000000,"state":"active","ping":60},{"user_id":297,"name":"chocolat3823","steam_id":76561199249875689,"connected_time":367000000000,"state":"active","ping":44},{"user_id":255,"name":"Icy ‚ùã","steam_id":76561197998655231,"connected_time":2615000000000,"state":"active","ping":47},{"user_id":276,"name":"Boobie and vagene","steam_id":76561198078464924,"connected_time":1581000000000,"state":"active","ping":62},{"user_id":289,"name":"James","steam_id":76561198098325427,"connected_time":666000000000,"state":"active","ping":60},{"user_id":298,"name":"SkadooshPlayz","steam_id":76561198310986662,"connected_time":321000000000,"state":"active","ping":75},{"user_id":299,"name":"Bestmaster202","steam_id":76561198235282680,"connected_time":314000000000,"state":"active","ping":55},{"user_id":292,"name":"what makes me a good","steam_id":76561198065662025,"connected_time":482000000000,"state":"active","ping":50},{"user_id":223,"name":"Poorly Programmed Bot","steam_id":76561198128299594,"connected_time":4208000000000,"state":"active","ping":60},{"user_id":267,"name":"SunkenSole9132","steam_id":76561198359562446,"connected_time":1967000000000,"state":"active","ping":82},{"user_id":280,"name":"Addii","steam_id":76561199088297605,"connected_time":1256000000000,"state":"active","ping":78},{"user_id":279,"name":"T√ºCold","steam_id":76561198111278197,"connected_time":1287000000000,"state":"active","ping":46},{"user_id":243,"name":"lol","steam_id":76561198026491738,"connected_time":3156000000000,"state":"active","ping":67},{"user_id":295,"name":"esQ","steam_id":76561198242699432,"connected_time":441000000000,"state":"active","ping":54}]},{"server_id":19,"name":"Uncletopia | San Francisco | 3 | Stopwatch","name_short":"sfo-3","host":"sfo-1.us.uncletopia.com","port":27035,"enabled":true,"region":"us-west","cc":"us","latitude":37.77397,"longitude":-122.4313,"reserved":0,"last_update":"0001-01-01T00:00:00Z","name_a2s":"Uncletopia | San Francisco | 3 | Stopwatch","protocol":17,"map":"workshop/koth_clearcut_b15.ugc2107050255","folder":"tf","game":"Team Fortress","app_id":440,"player_count":0,"max_players":24,"Bots":0,"server_type":"Dedicated","server_os":"Linux","password":true,"vac":true,"version":"7961495","steam_id":85568392924742824,"keywords":["cp","nocrits","nodmgspread","uncletopia"],"game_id":440,"stv_port":27036,"stv_name":"Uncletopia | San Francisco | 3 | Stopwatch | STV","players":null},{"server_id":20,"name":"Uncletopia | San Francisco | 4 | Community","name_short":"sfo-4","host":"sfo-1.us.uncletopia.com","port":27045,"enabled":true,"region":"us-west","cc":"us","latitude":37.77397,"longitude":-122.4313,"reserved":0,"last_update":"0001-01-01T00:00:00Z","name_a2s":"Uncletopia | San Francisco | 4 | Community","protocol":17,"map":"workshop/cp_reckoner_rc6.ugc674719999","folder":"tf","game":"Team Fortress","app_id":440,"player_count":0,"max_players":24,"Bots":0,"server_type":"Dedicated","server_os":"Linux","password":true,"vac":true,"version":"7961495","steam_id":85568392924742826,"keywords":["cp","nocrits","nodmgspread","uncletopia"],"game_id":440,"stv_port":27046,"stv_name":"Uncletopia | San Francisco | 4 | Community | STV","players":null},{"server_id":141,"name":"Uncletopia | Sydney | 1 | All Maps","name_short":"syd-1","host":"syd-1.au.uncletopia.com","port":27015,"enabled":true,"region":"au","cc":"au","latitude":-33.865143,"longitude":151.2099,"reserved":0,"last_update":"0001-01-01T00:00:00Z","name_a2s":"Uncletopia | Sydney | 1 | All Maps","protocol":17,"map":"pl_upward","folder":"tf","game":"Team Fortress","app_id":440,"player_count":5,"max_players":24,"Bots":0,"server_type":"Dedicated","server_os":"Linux","password":true,"vac":true,"version":"7961495","steam_id":85568392924470001,"keywords":["nocrits","nodmgspread","payload","uncletopia"],"game_id":440,"stv_port":27016,"stv_name":"Uncletopia | Sydney | 1 | All Maps | STV","players":[{"user_id":11,"name":"akmon753","steam_id":76561199507989067,"connected_time":1392000000000,"state":"active","ping":82},{"user_id":16,"name":"Wonk","steam_id":76561198153116520,"connected_time":156000000000,"state":"active","ping":63},{"user_id":13,"name":"4LOW","steam_id":76561199156942316,"connected_time":960000000000,"state":"active","ping":82},{"user_id":17,"name":"Help","steam_id":76561198065723340,"connected_time":46000000000,"state":"active","ping":51},{"user_id":15,"name":"sav","steam_id":76561198058760041,"connected_time":792000000000,"state":"active","ping":71}]},{"server_id":123,"name":"Uncletopia | Sydney | 2 | All Maps","name_short":"syd-2","host":"syd-1.au.uncletopia.com","port":27025,"enabled":true,"region":"au","cc":"au","latitude":-33.865143,"longitude":151.2099,"reserved":0,"last_update":"0001-01-01T00:00:00Z","name_a2s":"Uncletopia | Sydney | 2 | All Maps","protocol":17,"map":"cp_mercenarypark","folder":"tf","game":"Team Fortress","app_id":440,"player_count":0,"max_players":24,"Bots":0,"server_type":"Dedicated","server_os":"Linux","password":true,"vac":true,"version":"7961495","steam_id":85568392924470002,"keywords":["cp","nocrits","nodmgspread","uncletopia"],"game_id":440,"stv_port":27026,"stv_name":"Uncletopia | Sydney | 2 | All Maps | STV","players":null},{"server_id":395,"name":"Uncletopia | Sydney | 3 | All Maps","name_short":"syd-3","host":"syd-1.au.uncletopia.com","port":27035,"enabled":true,"region":"au","cc":"au","latitude":-33.865143,"longitude":151.2099,"reserved":0,"last_update":"0001-01-01T00:00:00Z","name_a2s":"Uncletopia | Sydney | 3 | All Maps","protocol":17,"map":"koth_brazil","folder":"tf","game":"Team Fortress","app_id":440,"player_count":0,"max_players":24,"Bots":0,"server_type":"Dedicated","server_os":"Linux","password":true,"vac":true,"version":"7961495","steam_id":85568392925194467,"keywords":["cp","nocrits","nodmgspread","uncletopia"],"game_id":440,"stv_port":27036,"stv_name":"Uncletopia | Sydney | 3 | All Maps | STV","players":null},{"server_id":396,"name":"Uncletopia | Sydney | 4 | All Maps","name_short":"syd-4","host":"syd-1.au.uncletopia.com","port":27045,"enabled":true,"region":"au","cc":"au","latitude":-33.865143,"longitude":151.2099,"reserved":0,"last_update":"0001-01-01T00:00:00Z","name_a2s":"Uncletopia | Sydney | 4 | All Maps","protocol":17,"map":"cp_standin_final","folder":"tf","game":"Team Fortress","app_id":440,"player_count":0,"max_players":24,"Bots":0,"server_type":"Dedicated","server_os":"Linux","password":true,"vac":true,"version":"7961495","steam_id":85568392925397958,"keywords":["cp","nocrits","nodmgspread","uncletopia"],"game_id":440,"stv_port":27046,"stv_name":"Uncletopia | Sydney | 4 | All Maps | STV","players":null},{"server_id":58,"name":"Uncletopia | Sydney | 5 | Stopwatch","name_short":"syd-5","host":"syd-1.au.uncletopia.com","port":27055,"enabled":true,"region":"au","cc":"au","latitude":-33.865143,"longitude":151.2099,"reserved":0,"last_update":"0001-01-01T00:00:00Z","name_a2s":"Uncletopia | Sydney | 5 | Stopwatch","protocol":17,"map":"koth_highpass","folder":"tf","game":"Team Fortress","app_id":440,"player_count":0,"max_players":24,"Bots":0,"server_type":"Dedicated","server_os":"Linux","password":true,"vac":true,"version":"7961495","steam_id":85568392925397959,"keywords":["cp","nocrits","nodmgspread","uncletopia"],"game_id":440,"stv_port":27056,"stv_name":"Uncletopia | Sydney | 5 | Stopwatch | STV","players":null},{"server_id":59,"name":"Uncletopia | Sydney | 6 | Community","name_short":"syd-6","host":"syd-1.au.uncletopia.com","port":27065,"enabled":true,"region":"au","cc":"au","latitude":-33.865143,"longitude":151.2099,"reserved":0,"last_update":"0001-01-01T00:00:00Z","name_a2s":"Uncletopia | Sydney | 6 | Community","protocol":17,"map":"workshop/koth_soot_final1.ugc2969540689","folder":"tf","game":"Team Fortress","app_id":440,"player_count":0,"max_players":24,"Bots":0,"server_type":"Dedicated","server_os":"Linux","password":true,"vac":true,"version":"7961495","steam_id":85568392925397960,"keywords":["cp","nocrits","nodmgspread","uncletopia"],"game_id":440,"stv_port":27066,"stv_name":"Uncletopia | Sydney | 6 | Community | STV","players":null},{"server_id":49,"name":"Uncletopia | Warsaw | 1 | One Thousand Uncles","name_short":"waw-1","host":"waw-1.pl.uncletopia.com","port":27015,"enabled":true,"region":"eu","cc":"pl","latitude":52.2297,"longitude":21.017532,"reserved":0,"last_update":"0001-01-01T00:00:00Z","name_a2s":"Uncletopia | Warsaw | 1 | One Thousand Uncles","protocol":17,"map":"pl_upward","folder":"tf","game":"Team Fortress","app_id":440,"player_count":23,"max_players":32,"Bots":20,"server_type":"Dedicated","server_os":"Linux","password":true,"vac":true,"version":"7961495","steam_id":85568392925397850,"keywords":["alltalk","bots","danepve","increased_maxplayers","norespawntime","payload","uncletopia"],"game_id":440,"stv_port":0,"stv_name":"","players":[{"user_id":44,"name":"GAYPORN69","steam_id":76561199473267237,"connected_time":875000000000,"state":"active","ping":60},{"user_id":65,"name":"Cat ^_^","steam_id":76561199201240790,"connected_time":829000000000,"state":"active","ping":47},{"user_id":86,"name":"I can't aim","steam_id":76561198118272874,"connected_time":637000000000,"state":"active","ping":219}]},{"server_id":50,"name":"Uncletopia | Warsaw | 2 | One Thousand Uncles","name_short":"waw-2","host":"waw-1.pl.uncletopia.com","port":27025,"enabled":true,"region":"eu","cc":"pl","latitude":52.2297,"longitude":21.017532,"reserved":0,"last_update":"0001-01-01T00:00:00Z","name_a2s":"Uncletopia | Warsaw | 2 | One Thousand Uncles","protocol":17,"map":"pl_pier","folder":"tf","game":"Team Fortress","app_id":440,"player_count":0,"max_players":32,"Bots":0,"server_type":"Dedicated","server_os":"Linux","password":true,"vac":true,"version":"7961495","steam_id":85568392925397851,"keywords":["alltalk","danepve","increased_maxplayers","norespawntime","payload","uncletopia"],"game_id":440,"stv_port":0,"stv_name":"","players":null},{"server_id":51,"name":"Uncletopia | Warsaw | 3 | All Maps","name_short":"waw-3","host":"waw-1.pl.uncletopia.com","port":27035,"enabled":true,"region":"eu","cc":"pl","latitude":52.2297,"longitude":21.017532,"reserved":0,"last_update":"0001-01-01T00:00:00Z","name_a2s":"Uncletopia | Warsaw | 3 | All Maps","protocol":17,"map":"pl_frontier_final","folder":"tf","game":"Team Fortress","app_id":440,"player_count":0,"max_players":24,"Bots":0,"server_type":"Dedicated","server_os":"Linux","password":true,"vac":true,"version":"7961495","steam_id":85568392925397852,"keywords":["nocrits","nodmgspread","payload","uncletopia"],"game_id":440,"stv_port":27036,"stv_name":"Uncletopia | Warsaw | 3 | All Maps | STV","players":null},{"server_id":52,"name":"Uncletopia | Warsaw | 4 | All Maps","name_short":"waw-4","host":"waw-1.pl.uncletopia.com","port":27045,"enabled":true,"region":"eu","cc":"pl","latitude":52.2297,"longitude":21.017532,"reserved":0,"last_update":"0001-01-01T00:00:00Z","name_a2s":"Uncletopia | Warsaw | 4 | All Maps","protocol":17,"map":"ctf_turbine","folder":"tf","game":"Team Fortress","app_id":440,"player_count":0,"max_players":24,"Bots":0,"server_type":"Dedicated","server_os":"Linux","password":true,"vac":true,"version":"7961495","steam_id":85568392925397853,"keywords":["ctf","nocrits","nodmgspread","uncletopia"],"game_id":440,"stv_port":27046,"stv_name":"Uncletopia | Warsaw | 4 | All Maps | STV","players":null},{"server_id":53,"name":"Uncletopia | Warsaw | 5 | Stopwatch","name_short":"waw-5","host":"waw-1.pl.uncletopia.com","port":27055,"enabled":true,"region":"eu","cc":"pl","latitude":52.2297,"longitude":21.017532,"reserved":0,"last_update":"0001-01-01T00:00:00Z","name_a2s":"Uncletopia | Warsaw | 5 | Stopwatch","protocol":17,"map":"workshop/koth_clearcut_b15.ugc2107050255","folder":"tf","game":"Team Fortress","app_id":440,"player_count":0,"max_players":24,"Bots":0,"server_type":"Dedicated","server_os":"Linux","password":true,"vac":true,"version":"7961495","steam_id":85568392925397854,"keywords":["cp","nocrits","nodmgspread","uncletopia"],"game_id":440,"stv_port":27056,"stv_name":"Uncletopia | Warsaw | 5 | Stopwatch | STV","players":null},{"server_id":54,"name":"Uncletopia | Warsaw | 6 | Community","name_short":"waw-6","host":"waw-1.pl.uncletopia.com","port":27065,"enabled":true,"region":"eu","cc":"pl","latitude":52.2297,"longitude":21.017532,"reserved":0,"last_update":"0001-01-01T00:00:00Z","name_a2s":"Uncletopia | Warsaw | 6 | Community","protocol":17,"map":"workshop/pl_highwood_b19.ugc1769496557","folder":"tf","game":"Team Fortress","app_id":440,"player_count":0,"max_players":24,"Bots":0,"server_type":"Dedicated","server_os":"Linux","password":true,"vac":true,"version":"7961495","steam_id":85568392925397856,"keywords":["nocrits","nodmgspread","payload","uncletopia"],"game_id":440,"stv_port":27066,"stv_name":"Uncletopia | Warsaw | 6 | Community | STV","players":null}]}