{"status":true,"message":"","result":[{"server_id":9,"name":"Uncletopia | Atlanta | 1 | All Maps","name_short":"atl-1","host":"atl-1.us.uncletopia.com","port":27015,"enabled":true,"region":"us-east","cc":"us","latitude":33.753746,"longitude":-84.38633,"reserved":0,"last_update":"0001-01-01T00:00:00Z","name_a2s":"Uncletopia | Atlanta | 1 | All Maps","protocol":17,"map":"pl_snowycoast","folder":"tf","game":"Team Fortress","app_id":440,"player_count":24,"max_players":24,"Bots":0,"server_type":"Dedicated","server_os":"Linux","password":true,"vac":true,"version":"7880732","steam_id":85568392924469982,"keywords":["nocrits","nodmgspread","payload","uncletopia"],"game_id":440,"stv_port":27016,"stv_name":"Uncletopia | Atlanta | 1 | All Maps | STV","players":[{"user_id":78,"name":"nomad","steam_id":76561197998740399,"connected_time":1583000000000,"state":"active","ping":69},{"user_id":76,"name":"Frost ♥","steam_id":76561198168870617,"connected_time":1784000000000,"state":"active","ping":73},{"user_id":45,"name":"PinkLemonade","steam_id":76561198799286228,"connected_time":4389000000000,"state":"active","ping":77},{"user_id":98,"name":"BIG HOG","steam_id":76561198079923652,"connected_time":238000000000,"state":"active","ping":73},{"user_id":90,"name":"O'Keearns","steam_id":76561198042213797,"connected_time":679000000000,"state":"active","ping":46},{"user_id":58,"name":"Ashes!","steam_id":76561197998475441,"connected_time":3163000000000,"state":"active","ping":79},{"user_id":10,"name":"morphine","steam_id":76561198072124799,"connected_time":5462000000000,"state":"active","ping":84},{"user_id":74,"name":"SparkStorm","steam_id":76561198095817025,"connected_time":1817000000000,"state":"active","ping":42},{"user_id":39,"name":"Dob Bole","steam_id":76561198056367220,"connected_time":4605000000000,"state":"active","ping":104},{"user_id":83,"name":"crayonnipple","steam_id":76561198070253331,"connected_time":1141000000000,"state":"active","ping":102},{"user_id":64,"name":"e0e0","steam_id":76561198293839750,"connected_time":2794000000000,"state":"active","ping":60},{"user_id":65,"name":"Inkmix(boopberrylover)","steam_id":76561198854070384,"connected_time":2568000000000,"state":"active","ping":112},{"user_id":95,"name":"Tony","steam_id":76561198040602075,"connected_time":260000000000,"state":"active","ping":86},{"user_id":96,"name":"kite","steam_id":76561198346516392,"connected_time":260000000000,"state":"active","ping":93},{"user_id":91,"name":"Vee (very cool)","steam_id":76561198330432889,"connected_time":521000000000,"state":"active","ping":72},{"user_id":69,"name":"Bow_","steam_id":76561198109608134,"connected_time":2375000000000,"state":"active","ping":90},{"user_id":75,"name":"Chernov","steam_id":76561198014463424,"connected_time":1817000000000,"state":"active","ping":62},{"user_id":88,"name":"sam","steam_id":76561198217362968,"connected_time":974000000000,"state":"active","ping":81},{"user_id":23,"name":"reis","steam_id":76561199232952016,"connected_time":5410000000000,"state":"active","ping":170},{"user_id":82,"name":"big ol' buford","steam_id":76561198290675957,"connected_time":1326000000000,"state":"active","ping":67},{"user_id":93,"name":"Oni","steam_id":76561198112066584,"connected_time":294000000000,"state":"active","ping":58},{"user_id":31,"name":"go touch keyboard","steam_id":76561198197388678,"connected_time":5287000000000,"state":"active","ping":69},{"user_id":73,"name":"LionHeart","steam_id":76561198075573693,"connected_time":1837000000000,"state":"active","ping":65},{"user_id":54,"name":"Dr. drippenstein","steam_id":76561198209380493,"connected_time":3567000000000,"state":"active","ping":64}]},{"server_id":104,"name":"Uncletopia | Atlanta | 2 | All Maps","name_short":"atl-2","host":"atl-1.us.uncletopia.com","port":27025,"enabled":true,"region":"us-east","cc":"us","latitude":33.753746,"longitude":-84.38633,"reserved":0,"last_update":"0001-01-01T00:00:00Z","name_a2s":"Uncletopia | Atlanta | 2 | All Maps","protocol":17,"map":"cp_mountainlab","folder":"tf","game":"Team Fortress","app_id":440,"player_count":23,"max_players":24,"Bots":0,"server_type":"Dedicated","server_os":"Linux","password":true,"vac":true,"version":"7880732","steam_id":85568392924469983,"keywords":["cp","nocrits","nodmgspread","uncletopia"],"game_id":440,"stv_port":27026,"stv_name":"Uncletopia | Atlanta | 2 | All Maps | STV","players":[{"user_id":90,"name":"1TheExterminator","steam_id":76561198972879727,"connected_time":578000000000,"state":"active","ping":72},{"user_id":4,"name":"cheers2x","steam_id":76561198366299848,"connected_time":5374000000000,"state":"active","ping":48},{"user_id":95,"name":"Sea raider","steam_id":76561198123982355,"connected_time":300000000000,"state":"active","ping":87},{"user_id":40,"name":"Wigl","steam_id":76561198019324464,"connected_time":4045000000000,"state":"active","ping":63},{"user_id":49,"name":"Brown_Dream","steam_id":76561198975766145,"connected_time":3520000000000,"state":"active","ping":76},{"user_id":76,"name":"Partark","steam_id":76561198010265825,"connected_time":1454000000000,"state":"active","ping":45},{"user_id":62,"name":"Hold Still","steam_id":76561198119536891,"connected_time":2362000000000,"state":"active","ping":67},{"user_id":83,"name":"Fresh0c0","steam_id":76561198271933283,"connected_time":1070000000000,"state":"active","ping":83},{"user_id":54,"name":"Goobed!","steam_id":76561198804349470,"connected_time":2657000000000,"state":"active","ping":87},{"user_id":53,"name":"SiurWurg","steam_id":76561198799928755,"connected_time":2732000000000,"state":"active","ping":84},{"user_id":66,"name":"Shy","steam_id":76561198394890836,"connected_time":2259000000000,"state":"active","ping":58},{"user_id":84,"name":"Ximos","steam_id":76561197998512226,"connected_time":751000000000,"state":"active","ping":52},{"user_id":67,"name":"dog","steam_id":76561198090737207,"connected_time":2235000000000,"state":"active","ping":105},{"user_id":71,"name":"Rickysuper_52","steam_id":76561198067865179,"connected_time":2087000000000,"state":"active","ping":121},{"user_id":86,"name":"ray (the based god)","steam_id":76561198311984941,"connected_time":717000000000,"state":"active","ping":80},{"user_id":19,"name":"RollBox","steam_id":76561197997473474,"connected_time":4776000000000,"state":"active","ping":82},{"user_id":79,"name":"Weema!","steam_id":76561198256509860,"connected_time":1153000000000,"state":"active","ping":93},{"user_id":82,"name":"omyy","steam_id":76561198334751997,"connected_time":1113000000000,"state":"active","ping":73},{"user_id":97,"name":"You dad","steam_id":76561198044013623,"connected_time":45000000000,"state":"active","ping":54},{"user_id":92,"name":"slonked","steam_id":76561198124191084,"connected_time":546000000000,"state":"active","ping":47},{"user_id":89,"name":"Smeller","steam_id":76561198041767882,"connected_time":709000000000,"state":"active","ping":35},{"user_id":70,"name":"Aerobro","steam_id":76561198033530996,"connected_time":2213000000000,"state":"active","ping":83},{"user_id":37,"name":"SuppressedBarrel","steam_id":76561198032336504,"connected_time":4134000000000,"state":"active","ping":61}]},{"server_id":400,"name":"Uncletopia | Atlanta | 3 | Community","name_short":"atl-3","host":"atl-1.us.uncletopia.com","port":27035,"enabled":true,"region":"us-east","cc":"us","latitude":33.753746,"longitude":-84.38633,"reserved":0,"last_update":"0001-01-01T00:00:00Z","name_a2s":"Uncletopia | Atlanta | 3 | Community","protocol":17,"map":"workshop/cp_logjam_rc12.ugc454812035","folder":"tf","game":"Team Fortress","app_id":440,"player_count":24,"max_players":24,"Bots":0,"server_type":"Dedicated","server_os":"Linux","password":true,"vac":true,"version":"7880732","steam_id":85568392924515187,"keywords":["cp","nocrits","nodmgspread","uncletopia"],"game_id":440,"stv_port":27036,"stv_name":"Uncletopia | Atlanta | 3 | Community | STV","players":[{"user_id":82,"name":"teemo jungle","steam_id":76561198983069721,"connected_time":211000000000,"state":"active","ping":84},{"user_id":80,"name":"nurp","steam_id":76561198071687616,"connected_time":510000000000,"state":"active","ping":51},{"user_id":75,"name":"the.land.of.avalon","steam_id":76561198245431668,"connected_time":838000000000,"state":"active","ping":81},{"user_id":70,"name":"Red","steam_id":76561198255311543,"connected_time":1231000000000,"state":"active","ping":80},{"user_id":11,"name":"Suspiciously Black Spy","steam_id":76561199050642411,"connected_time":3797000000000,"state":"active","ping":70},{"user_id":51,"name":"♥ PsychicCellar ♥","steam_id":76561198045923020,"connected_time":2055000000000,"state":"active","ping":74},{"user_id":15,"name":"Spookus Iguanus","steam_id":76561198836555816,"connected_time":3689000000000,"state":"active","ping":91},{"user_id":53,"name":"We'll miss you, Pikamee","steam_id":76561198186154049,"connected_time":1993000000000,"state":"active","ping":60},{"user_id":16,"name":"Verily","steam_id":76561198200558318,"connected_time":3664000000000,"state":"active","ping":65},{"user_id":76,"name":"GuyGoom","steam_id":76561198254522178,"connected_time":809000000000,"state":"active","ping":86},{"user_id":54,"name":"Wizard worm","steam_id":76561198843498034,"connected_time":1990000000000,"state":"active","ping":72},{"user_id":78,"name":"Auggy","steam_id":76561198041816037,"connected_time":774000000000,"state":"active","ping":111},{"user_id":55,"name":"Instinct","steam_id":76561198855439750,"connected_time":1967000000000,"state":"active","ping":56},{"user_id":79,"name":"Big Jon","steam_id":76561198402285099,"connected_time":768000000000,"state":"active","ping":113},{"user_id":60,"name":"BubbyBoy27","steam_id":76561199102009679,"connected_time":1634000000000,"state":"active","ping":89},{"user_id":24,"name":"Snoozey","steam_id":76561198017120466,"connected_time":3585000000000,"state":"active","ping":65},{"user_id":65,"name":"Connie","steam_id":76561198068661013,"connected_time":1533000000000,"state":"active","ping":56},{"user_id":61,"name":"idk100987","steam_id":76561199447977988,"connected_time":1594000000000,"state":"active","ping":99},{"user_id":62,"name":"Yeagle","steam_id":76561199086620299,"connected_time":1587000000000,"state":"active","ping":76},{"user_id":87,"name":"garfield","steam_id":76561198114119308,"connected_time":5000000000,"state":"spawning","ping":45},{"user_id":81,"name":"\u003c`)))))\u003c fish","steam_id":76561198410078962,"connected_time":431000000000,"state":"active","ping":89},{"user_id":36,"name":"Jeffenthropus","steam_id":76561198134204248,"connected_time":3345000000000,"state":"active","ping":66},{"user_id":37,"name":"Romo","steam_id":76561198243101572,"connected_time":3334000000000,"state":"active","ping":70},{"user_id":83,"name":"Pimastr","steam_id":76561198230996464,"connected_time":129000000000,"state":"active","ping":87}]},{"server_id":401,"name":"Uncletopia | Atlanta | 4 | No Payload","name_short":"atl-4","host":"atl-1.us.uncletopia.com","port":27045,"enabled":true,"region":"us-east","cc":"us","latitude":33.753746,"longitude":-84.38633,"reserved":0,"last_update":"0001-01-01T00:00:00Z","name_a2s":"","protocol":0,"map":"","folder":"","game":"","app_id":0,"player_count":0,"max_players":0,"Bots":0,"server_type":"","server_os":"","password":false,"vac":false,"version":"","steam_id":0,"keywords":null,"game_id":0,"stv_port":0,"stv_name":"","players":null},{"server_id":2,"name":"Uncletopia | Chicago | 1 | All Maps","name_short":"chi-1","host":"chi-1.us.uncletopia.com","port":27015,"enabled":true,"region":"us-central","cc":"us","latitude":41.881832,"longitude":-87.62318,"reserved":0,"last_update":"0001-01-01T00:00:00Z","name_a2s":"Uncletopia | Chicago | 1 | All Maps","protocol":17,"map":"pl_thundermountain","folder":"tf","game":"Team Fortress","app_id":440,"player_count":24,"max_players":24,"Bots":0,"server_type":"Dedicated","server_os":"Linux","password":true,"vac":true,"version":"7880732","steam_id":85568392924469984,"keywords":["nocrits","nodmgspread","payload","uncletopia"],"game_id":440,"stv_port":27016,"stv_name":"Uncletopia | Chicago | 1 | All Maps | STV","players":[{"user_id":60,"name":"Foreskin Reattachment service","steam_id":76561198060342804,"connected_time":2292000000000,"state":"active","ping":73},{"user_id":10,"name":"いちごまろ","steam_id":76561198166100997,"connected_time":4273000000000,"state":"active","ping":74},{"user_id":78,"name":"Zephyr","steam_id":76561198129785553,"connected_time":976000000000,"state":"active","ping":64},{"user_id":11,"name":"Gaskranx","steam_id":76561198020269547,"connected_time":4226000000000,"state":"active","ping":66},{"user_id":13,"name":"canofspaghettios","steam_id":76561198124204246,"connected_time":4185000000000,"state":"active","ping":59},{"user_id":70,"name":"Rein","steam_id":76561198300340427,"connected_time":1091000000000,"state":"active","ping":62},{"user_id":84,"name":"[DEEP] Fitts1099","steam_id":76561198044986906,"connected_time":259000000000,"state":"active","ping":49},{"user_id":73,"name":"CPUnit","steam_id":76561198162881878,"connected_time":1074000000000,"state":"active","ping":47},{"user_id":76,"name":"tntexplosion","steam_id":76561199090152308,"connected_time":1041000000000,"state":"active","ping":94},{"user_id":79,"name":"bucket head","steam_id":76561199093619156,"connected_time":884000000000,"state":"active","ping":123},{"user_id":59,"name":"Emberdened","steam_id":76561199163688421,"connected_time":2318000000000,"state":"active","ping":99},{"user_id":20,"name":"wm1","steam_id":76561198265522923,"connected_time":4088000000000,"state":"active","ping":72},{"user_id":41,"name":"The Potato Romancer","steam_id":76561198204197648,"connected_time":3479000000000,"state":"active","ping":103},{"user_id":22,"name":"Yimberly","steam_id":76561199206923109,"connected_time":4071000000000,"state":"active","ping":80},{"user_id":83,"name":"TheRiGuy21","steam_id":76561199466243640,"connected_time":339000000000,"state":"active","ping":78},{"user_id":67,"name":"\u003c blank \u003e","steam_id":76561198937717599,"connected_time":1105000000000,"state":"active","ping":62},{"user_id":82,"name":"Snoball","steam_id":76561198205838372,"connected_time":384000000000,"state":"active","ping":70},{"user_id":77,"name":"yourдруг","steam_id":76561198317927140,"connected_time":1036000000000,"state":"active","ping":64},{"user_id":27,"name":"money getting 1 percenter","steam_id":76561198012796388,"connected_time":4054000000000,"state":"active","ping":46},{"user_id":86,"name":"[UHS] K24A4 2.4","steam_id":76561199072970627,"connected_time":168000000000,"state":"active","ping":45},{"user_id":29,"name":"Mr. Tickle","steam_id":76561198126684647,"connected_time":4046000000000,"state":"active","ping":60},{"user_id":85,"name":"Seller of Waffles","steam_id":76561198296018138,"connected_time":189000000000,"state":"active","ping":55},{"user_id":65,"name":"Lia_Rein","steam_id":76561198151569597,"connected_time":1309000000000,"state":"active","ping":147},{"user_id":69,"name":"Argo","steam_id":76561198353725622,"connected_time":1104000000000,"state":"active","ping":81}]},{"server_id":106,"name":"Uncletopia | Chicago | 2 | All Maps","name_short":"chi-2","host":"chi-1.us.uncletopia.com","port":27025,"enabled":true,"region":"us-central","cc":"us","latitude":41.881832,"longitude":-87.62318,"reserved":0,"last_update":"0001-01-01T00:00:00Z","name_a2s":"Uncletopia | Chicago | 2 | All Maps","protocol":17,"map":"pl_barnblitz","folder":"tf","game":"Team Fortress","app_id":440,"player_count":24,"max_players":24,"Bots":0,"server_type":"Dedicated","server_os":"Linux","password":true,"vac":true,"version":"7880732","steam_id":85568392924469985,"keywords":["nocrits","nodmgspread","payload","uncletopia"],"game_id":440,"stv_port":27026,"stv_name":"Uncletopia | Chicago | 2 | All Maps | STV","players":[{"user_id":65,"name":"[ˈlukɑ]","steam_id":76561197984462669,"connected_time":2225000000000,"state":"active","ping":179},{"user_id":66,"name":"tonyforshyr","steam_id":76561198846474978,"connected_time":2033000000000,"state":"active","ping":73},{"user_id":52,"name":"Maverick","steam_id":76561198322829814,"connected_time":2712000000000,"state":"active","ping":78},{"user_id":83,"name":"Coke","steam_id":76561198296374982,"connected_time":923000000000,"state":"active","ping":67},{"user_id":76,"name":"OddSlaush","steam_id":76561198043898488,"connected_time":1449000000000,"state":"active","ping":96},{"user_id":11,"name":"vv","steam_id":76561198134813102,"connected_time":5433000000000,"state":"active","ping":52},{"user_id":84,"name":"Loggybears","steam_id":76561198366828434,"connected_time":719000000000,"state":"active","ping":96},{"user_id":86,"name":"CyberZayne","steam_id":76561198002351356,"connected_time":575000000000,"state":"active","ping":139},{"user_id":79,"name":"Wookie","steam_id":76561198019780053,"connected_time":1264000000000,"state":"active","ping":81},{"user_id":63,"name":"gendermutt","steam_id":76561198152857317,"connected_time":2380000000000,"state":"active","ping":41},{"user_id":72,"name":"Mug Moment Gaming","steam_id":76561198233098136,"connected_time":1537000000000,"state":"active","ping":54},{"user_id":87,"name":"Mecha","steam_id":76561198014927379,"connected_time":402000000000,"state":"active","ping":70},{"user_id":68,"name":"Garbunkle","steam_id":76561198389831507,"connected_time":1700000000000,"state":"active","ping":68},{"user_id":56,"name":"Marijuanaut","steam_id":76561198069814977,"connected_time":2534000000000,"state":"active","ping":67},{"user_id":57,"name":"woww","steam_id":76561199272630650,"connected_time":2496000000000,"state":"active","ping":80},{"user_id":58,"name":"goliath birdeater","steam_id":76561198089852954,"connected_time":2485000000000,"state":"active","ping":80},{"user_id":81,"name":"GardenOfStone","steam_id":76561199069870534,"connected_time":994000000000,"state":"active","ping":77},{"user_id":67,"name":"CherriKat (she/her)","steam_id":76561198821297512,"connected_time":1849000000000,"state":"active","ping":100},{"user_id":38,"name":"Drapph","steam_id":76561199384213314,"connected_time":4607000000000,"state":"active","ping":68},{"user_id":28,"name":"Remmy","steam_id":76561198268857418,"connected_time":5261000000000,"state":"active","ping":67},{"user_id":60,"name":"Soupman_Official","steam_id":76561198314308732,"connected_time":2462000000000,"state":"active","ping":86},{"user_id":70,"name":"LVL 4 Dispenser Gaming","steam_id":76561198044244547,"connected_time":1591000000000,"state":"active","ping":71},{"user_id":77,"name":"Ojen","steam_id":76561197998414482,"connected_time":1406000000000,"state":"active","ping":78},{"user_id":45,"name":"popfulmail","steam_id":76561198865971290,"connected_time":3380000000000,"state":"active","ping":101}]},{"server_id":402,"name":"Uncletopia | Chicago | 3 | All Maps","name_short":"chi-3","host":"chi-1.us.uncletopia.com","port":27035,"enabled":true,"region":"us-central","cc":"us","latitude":41.881832,"longitude":-87.62318,"reserved":0,"last_update":"0001-01-01T00:00:00Z","name_a2s":"Uncletopia | Chicago | 3 | All Maps","protocol":17,"map":"pl_barnblitz","folder":"tf","game":"Team Fortress","app_id":440,"player_count":24,"max_players":24,"Bots":0,"server_type":"Dedicated","server_os":"Linux","password":true,"vac":true,"version":"7880732","steam_id":85568392924515191,"keywords":["nocrits","nodmgspread","payload","uncletopia"],"game_id":440,"stv_port":27036,"stv_name":"Uncletopia | Chicago | 3 | All Maps | STV","players":[{"user_id":73,"name":"pablo.minecraft.2009","steam_id":76561198337692867,"connected_time":878000000000,"state":"active","ping":65},{"user_id":4,"name":"NUt","steam_id":76561198031007966,"connected_time":5472000000000,"state":"active","ping":74},{"user_id":81,"name":"Dev","steam_id":76561198388276870,"connected_time":433000000000,"state":"active","ping":99},{"user_id":76,"name":"Colonel Crazy [on controller]","steam_id":76561198262296550,"connected_time":662000000000,"state":"active","ping":110},{"user_id":82,"name":"nonagon infinity","steam_id":76561198397662124,"connected_time":304000000000,"state":"active","ping":83},{"user_id":9,"name":"Super Ghostbusters (Full Album)","steam_id":76561198057415490,"connected_time":5256000000000,"state":"active","ping":52},{"user_id":75,"name":"tubby","steam_id":76561198174982661,"connected_time":846000000000,"state":"active","ping":89},{"user_id":11,"name":"Moisteur","steam_id":76561198415594894,"connected_time":5221000000000,"state":"active","ping":138},{"user_id":58,"name":"i really like this dog :)","steam_id":76561198882404753,"connected_time":1864000000000,"state":"active","ping":74},{"user_id":79,"name":"Voodo133","steam_id":76561198042670351,"connected_time":584000000000,"state":"active","ping":90},{"user_id":36,"name":"Goldensliv","steam_id":76561198161673891,"connected_time":4845000000000,"state":"active","ping":90},{"user_id":77,"name":"Chris P. Bacon","steam_id":76561198000851038,"connected_time":656000000000,"state":"active","ping":70},{"user_id":64,"name":"reallyfriendly","steam_id":76561197996819313,"connected_time":1541000000000,"state":"active","ping":83},{"user_id":74,"name":":D","steam_id":76561197977776086,"connected_time":853000000000,"state":"active","ping":60},{"user_id":20,"name":"Sprit ♥","steam_id":76561198268780781,"connected_time":5039000000000,"state":"active","ping":53},{"user_id":21,"name":"Lowvast","steam_id":76561198068455981,"connected_time":5035000000000,"state":"active","ping":71},{"user_id":84,"name":"Yule","steam_id":76561198087404667,"connected_time":187000000000,"state":"active","ping":93},{"user_id":57,"name":"hill of the king","steam_id":76561198099491925,"connected_time":1913000000000,"state":"active","ping":75},{"user_id":66,"name":"CJDGuy","steam_id":76561198213009545,"connected_time":1501000000000,"state":"active","ping":45},{"user_id":71,"name":"dmlookinviolent","steam_id":76561198125863174,"connected_time":1125000000000,"state":"active","ping":74},{"user_id":42,"name":"Wimojimo12","steam_id":76561198370459596,"connected_time":3282000000000,"state":"active","ping":60},{"user_id":83,"name":"Propaniac Gaming ☑","steam_id":76561198133963270,"connected_time":289000000000,"state":"active","ping":60},{"user_id":31,"name":"Darling","steam_id":76561198127525888,"connected_time":4972000000000,"state":"active","ping":77},{"user_id":47,"name":"Truly Cryo","steam_id":76561198347497484,"connected_time":3148000000000,"state":"active","ping":87}]},{"server_id":403,"name":"Uncletopia | Chicago | 4 | All Maps","name_short":"chi-4","host":"chi-1.us.uncletopia.com","port":27045,"enabled":true,"region":"us-central","cc":"us","latitude":41.881832,"longitude":-87.62318,"reserved":0,"last_update":"0001-01-01T00:00:00Z","name_a2s":"Uncletopia | Chicago | 4 | All Maps","protocol":17,"map":"pl_upward","folder":"tf","game":"Team Fortress","app_id":440,"player_count":24,"max_players":24,"Bots":0,"server_type":"Dedicated","server_os":"Linux","password":true,"vac":true,"version":"7880732","steam_id":85568392924515193,"keywords":["nocrits","nodmgspread","payload","uncletopia"],"game_id":440,"stv_port":27046,"stv_name":"Uncletopia | Chicago | 4 | All Maps | STV","players":[{"user_id":42,"name":"SaucySandwichKid","steam_id":76561199372590934,"connected_time":29000000000,"state":"active","ping":85},{"user_id":7,"name":"Cruisin'","steam_id":76561199245457119,"connected_time":3001000000000,"state":"active","ping":75},{"user_id":11,"name":"Nephs","steam_id":76561198136763403,"connected_time":1270000000000,"state":"active","ping":70},{"user_id":9,"name":"GeneralMike","steam_id":76561198065799430,"connected_time":2180000000000,"state":"active","ping":56},{"user_id":12,"name":"Vidiot","steam_id":76561198026169377,"connected_time":1129000000000,"state":"active","ping":171},{"user_id":13,"name":"Rezayne","steam_id":76561198047576346,"connected_time":1072000000000,"state":"active","ping":75},{"user_id":14,"name":"Hi, I am PIPPUM nice to meetcha","steam_id":76561198081457924,"connected_time":1069000000000,"state":"active","ping":70},{"user_id":15,"name":"Eve","steam_id":76561198052472822,"connected_time":977000000000,"state":"active","ping":68},{"user_id":35,"name":"Baby gaming","steam_id":76561198867319323,"connected_time":678000000000,"state":"active","ping":61},{"user_id":40,"name":"Emijon","steam_id":76561198255179590,"connected_time":37000000000,"state":"active","ping":102},{"user_id":18,"name":"Recursive Gamer","steam_id":76561198042102952,"connected_time":949000000000,"state":"active","ping":64},{"user_id":21,"name":"bomb","steam_id":76561198359135819,"connected_time":849000000000,"state":"active","ping":94},{"user_id":37,"name":"loser","steam_id":76561198171507451,"connected_time":599000000000,"state":"active","ping":115},{"user_id":22,"name":"Tophu","steam_id":76561198380229671,"connected_time":848000000000,"state":"active","ping":66},{"user_id":23,"name":"Pubby Do","steam_id":76561198072066185,"connected_time":841000000000,"state":"active","ping":60},{"user_id":25,"name":"Athaz","steam_id":76561198296557673,"connected_time":764000000000,"state":"active","ping":81},{"user_id":26,"name":"Carpicious","steam_id":76561198426619665,"connected_time":757000000000,"state":"active","ping":125},{"user_id":39,"name":"ContinuedBear","steam_id":76561198265176919,"connected_time":190000000000,"state":"active","ping":50},{"user_id":36,"name":"recycle","steam_id":76561198819562111,"connected_time":676000000000,"state":"active","ping":61},{"user_id":29,"name":"Frank the Tank","steam_id":76561198014574925,"connected_time":743000000000,"state":"active","ping":67},{"user_id":30,"name":"Matt","steam_id":76561198008108521,"connected_time":743000000000,"state":"active","ping":61},{"user_id":31,"name":"ecto cooler","steam_id":76561198068409067,"connected_time":741000000000,"state":"active","ping":76},{"user_id":41,"name":"Ta5K","steam_id":76561198939558155,"connected_time":37000000000,"state":"active","ping":47},{"user_id":43,"name":"alolan duntski","steam_id":76561198038826744,"connected_time":28000000000,"state":"active","ping":49}]},{"server_id":36,"name":"Uncletopia | Chicago | 5 | All Maps","name_short":"chi-5","host":"chi-2.us.uncletopia.com","port":27015,"enabled":true,"region":"us-central","cc":"us","latitude":41.881832,"longitude":-87.62318,"reserved":0,"last_update":"0001-01-01T00:00:00Z","name_a2s":"Uncletopia | Chicago | 5 | All Maps","protocol":17,"map":"koth_lakeside_final","folder":"tf","game":"Team Fortress","app_id":440,"player_count":0,"max_players":24,"Bots":0,"server_type":"Dedicated","server_os":"Linux","password":true,"vac":true,"version":"7880732","steam_id":85568392924866362,"keywords":["cp","nocrits","nodmgspread","uncletopia"],"game_id":440,"stv_port":27016,"stv_name":"Uncletopia | Chicago | 5 | All Maps | STV","players":null},{"server_id":37,"name":"Uncletopia | Chicago | 6 | All Maps","name_short":"chi-6","host":"chi-2.us.uncletopia.com","port":27025,"enabled":true,"region":"us-central","cc":"us","latitude":41.881832,"longitude":-87.62318,"reserved":0,"last_update":"0001-01-01T00:00:00Z","name_a2s":"Uncletopia | Chicago | 6 | All Maps","protocol":17,"map":"koth_cascade","folder":"tf","game":"Team Fortress","app_id":440,"player_count":0,"max_players":24,"Bots":0,"server_type":"Dedicated","server_os":"Linux","password":true,"vac":true,"version":"7880732","steam_id":85568392924866363,"keywords":["cp","nocrits","nodmgspread","uncletopia"],"game_id":440,"stv_port":27026,"stv_name":"Uncletopia | Chicago | 6 | All Maps | STV","players":null},{"server_id":38,"name":"Uncletopia | Chicago | 7 | Stopwatch Beta","name_short":"chi-7","host":"chi-2.us.uncletopia.com","port":27035,"enabled":true,"region":"us-central","cc":"us","latitude":41.881832,"longitude":-87.62318,"reserved":0,"last_update":"0001-01-01T00:00:00Z","name_a2s":"Uncletopia | Chicago | 7 | Stopwatch Beta","protocol":17,"map":"cp_mountainlab","folder":"tf","game":"Team Fortress","app_id":440,"player_count":0,"max_players":24,"Bots":0,"server_type":"Dedicated","server_os":"Linux","password":true,"vac":true,"version":"7880732","steam_id":85568392924866364,"keywords":["cp","nocrits","nodmgspread","uncletopia"],"game_id":440,"stv_port":27036,"stv_name":"Uncletopia | Chicago | 7 | Stopwatch Beta | STV","players":null},{"server_id":39,"name":"Uncletopia | Chicago | 8 | Community","name_short":"chi-8","host":"chi-2.us.uncletopia.com","port":27045,"enabled":true,"region":"us-central","cc":"us","latitude":41.881832,"longitude":-87.62318,"reserved":0,"last_update":"0001-01-01T00:00:00Z","name_a2s":"Uncletopia | Chicago | 8 | Community","protocol":17,"map":"cp_sunshine","folder":"tf","game":"Team Fortress","app_id":440,"player_count":0,"max_players":24,"Bots":0,"server_type":"Dedicated","server_os":"Linux","password":true,"vac":true,"version":"7880732","steam_id":85568392924866365,"keywords":["cp","nocrits","nodmgspread","uncletopia"],"game_id":440,"stv_port":27046,"stv_name":"Uncletopia | Chicago | 8 | Community | STV","players":null},{"server_id":8,"name":"Uncletopia | Dallas | 1 | All Maps","name_short":"dal-1","host":"dal-1.us.uncletopia.com","port":27015,"enabled":true,"region":"us-central","cc":"us","latitude":32.779167,"longitude":-96.80889,"reserved":0,"last_update":"0001-01-01T00:00:00Z","name_a2s":"Uncletopia | Dallas | 1 | All Maps","protocol":17,"map":"pl_badwater","folder":"tf","game":"Team Fortress","app_id":440,"player_count":24,"max_players":24,"Bots":0,"server_type":"Dedicated","server_os":"Linux","password":true,"vac":true,"version":"7880732","steam_id":85568392924469986,"keywords":["nocrits","nodmgspread","payload","uncletopia"],"game_id":440,"stv_port":27016,"stv_name":"Uncletopia | Dallas | 1 | All Maps | STV","players":[{"user_id":87,"name":"Duckywinner","steam_id":76561198254828139,"connected_time":786000000000,"state":"active","ping":82},{"user_id":22,"name":"Tri-Dot","steam_id":76561199075186597,"connected_time":3158000000000,"state":"active","ping":114},{"user_id":21,"name":"Garfelf","steam_id":76561198419850129,"connected_time":3329000000000,"state":"active","ping":135},{"user_id":91,"name":"Big J","steam_id":76561199189855696,"connected_time":408000000000,"state":"active","ping":82},{"user_id":69,"name":"CUBICLE #35","steam_id":76561198799010228,"connected_time":1532000000000,"state":"active","ping":79},{"user_id":70,"name":"Crustacean Daddy","steam_id":76561198993807061,"connected_time":1524000000000,"state":"active","ping":85},{"user_id":68,"name":"I am in your walls","steam_id":76561198881209174,"connected_time":1545000000000,"state":"active","ping":69},{"user_id":66,"name":"robertJMP","steam_id":76561199066260919,"connected_time":1731000000000,"state":"active","ping":67},{"user_id":94,"name":"YUNG NASTYMAN","steam_id":76561198039710677,"connected_time":163000000000,"state":"active","ping":76},{"user_id":89,"name":"mkl","steam_id":76561197986401685,"connected_time":700000000000,"state":"active","ping":59},{"user_id":64,"name":"momb","steam_id":76561198142234038,"connected_time":1810000000000,"state":"active","ping":81},{"user_id":90,"name":"el gato","steam_id":76561198071640699,"connected_time":581000000000,"state":"active","ping":71},{"user_id":93,"name":"OneLess","steam_id":76561198150870338,"connected_time":164000000000,"state":"active","ping":74},{"user_id":37,"name":"Big Dick Swinging","steam_id":76561198053819929,"connected_time":2655000000000,"state":"active","ping":76},{"user_id":74,"name":"Cad","steam_id":76561198312145232,"connected_time":1473000000000,"state":"active","ping":92},{"user_id":78,"name":"Bombat","steam_id":76561198083096946,"connected_time":1226000000000,"state":"active","ping":100},{"user_id":82,"name":"Minlit","steam_id":76561198205832799,"connected_time":1147000000000,"state":"active","ping":53},{"user_id":95,"name":"Rafl","steam_id":76561198055222756,"connected_time":159000000000,"state":"active","ping":46},{"user_id":75,"name":"Human Person","steam_id":76561198283855440,"connected_time":1469000000000,"state":"active","ping":84},{"user_id":48,"name":"FluttyPutty","steam_id":76561198218446556,"connected_time":2547000000000,"state":"active","ping":67},{"user_id":62,"name":"harrison.avenue","steam_id":76561198037288988,"connected_time":2126000000000,"state":"active","ping":115},{"user_id":86,"name":"Shamrock Shake Oct.10.2020 @8pm","steam_id":76561198833313201,"connected_time":867000000000,"state":"active","ping":85},{"user_id":83,"name":"You Don't Nomi.","steam_id":76561197969137836,"connected_time":1077000000000,"state":"active","ping":87},{"user_id":84,"name":"PerliousFalcon","steam_id":76561198124801907,"connected_time":961000000000,"state":"active","ping":104}]},{"server_id":108,"name":"Uncletopia | Dallas | 2 | All Maps","name_short":"dal-2","host":"dal-1.us.uncletopia.com","port":27025,"enabled":true,"region":"us-central","cc":"us","latitude":32.779167,"longitude":-96.80889,"reserved":0,"last_update":"0001-01-01T00:00:00Z","name_a2s":"Uncletopia | Dallas | 2 | All Maps","protocol":17,"map":"pl_snowycoast","folder":"tf","game":"Team Fortress","app_id":440,"player_count":7,"max_players":24,"Bots":0,"server_type":"Dedicated","server_os":"Linux","password":true,"vac":true,"version":"7880732","steam_id":85568392924469988,"keywords":["nocrits","nodmgspread","payload","uncletopia"],"game_id":440,"stv_port":27026,"stv_name":"Uncletopia | Dallas | 2 | All Maps | STV","players":[{"user_id":10,"name":"Doggo","steam_id":76561198313355373,"connected_time":732000000000,"state":"active","ping":88},{"user_id":13,"name":"RokkitFrog","steam_id":76561198046465850,"connected_time":168000000000,"state":"active","ping":51},{"user_id":18,"name":"cdozbirn10","steam_id":76561198104042921,"connected_time":28000000000,"state":"active","ping":118},{"user_id":12,"name":"Sammich","steam_id":76561198010543087,"connected_time":184000000000,"state":"active","ping":60},{"user_id":14,"name":"Daubee","steam_id":76561198004385130,"connected_time":167000000000,"state":"active","ping":61},{"user_id":19,"name":"Emails","steam_id":76561198836919458,"connected_time":24000000000,"state":"spawning","ping":120},{"user_id":16,"name":"Heavy Main","steam_id":76561198333746778,"connected_time":130000000000,"state":"active","ping":96}]},{"server_id":5,"name":"Uncletopia | Frankfurt | 1 | All Maps","name_short":"frk-1","host":"frk-1.de.uncletopia.com","port":27015,"enabled":true,"region":"eu","cc":"de","latitude":50.110924,"longitude":8.682127,"reserved":0,"last_update":"0001-01-01T00:00:00Z","name_a2s":"Uncletopia | Frankfurt | 1 | All Maps","protocol":17,"map":"cp_yukon_final","folder":"tf","game":"Team Fortress","app_id":440,"player_count":0,"max_players":24,"Bots":0,"server_type":"Dedicated","server_os":"Linux","password":true,"vac":true,"version":"7880732","steam_id":85568392924469989,"keywords":["cp","nocrits","nodmgspread","uncletopia"],"game_id":440,"stv_port":27016,"stv_name":"Uncletopia | Frankfurt | 1 | All Maps | STV","players":null},{"server_id":110,"name":"Uncletopia | Frankfurt | 2 | All Maps","name_short":"frk-2","host":"frk-1.de.uncletopia.com","port":27025,"enabled":true,"region":"eu","cc":"de","latitude":50.110924,"longitude":8.682127,"reserved":0,"last_update":"0001-01-01T00:00:00Z","name_a2s":"Uncletopia | Frankfurt | 2 | All Maps","protocol":17,"map":"pl_borneo","folder":"tf","game":"Team Fortress","app_id":440,"player_count":24,"max_players":24,"Bots":0,"server_type":"Dedicated","server_os":"Linux","password":true,"vac":true,"version":"7880732","steam_id":85568392924469990,"keywords":["nocrits","nodmgspread","payload","uncletopia"],"game_id":440,"stv_port":27026,"stv_name":"Uncletopia | Frankfurt | 2 | All Maps | STV","players":[{"user_id":6,"name":"The.Real.Genesis","steam_id":76561198999652040,"connected_time":3933000000000,"state":"active","ping":45},{"user_id":44,"name":"V0iDZMAX","steam_id":76561198153592566,"connected_time":1627000000000,"state":"active","ping":52},{"user_id":9,"name":"Michał","steam_id":76561198320346362,"connected_time":3385000000000,"state":"active","ping":56},{"user_id":71,"name":"Kamanie","steam_id":76561198135448255,"connected_time":180000000000,"state":"active","ping":49},{"user_id":70,"name":"PascalAdam","steam_id":76561198219583647,"connected_time":216000000000,"state":"active","ping":53},{"user_id":72,"name":"Solima","steam_id":76561198045349099,"connected_time":175000000000,"state":"active","ping":55},{"user_id":66,"name":"Place_Holder Gaming","steam_id":76561198050961867,"connected_time":360000000000,"state":"active","ping":162},{"user_id":78,"name":"Winfreakz","steam_id":76561198046952342,"connected_time":87000000000,"state":"active","ping":66},{"user_id":59,"name":"Rabizen","steam_id":76561198133242816,"connected_time":771000000000,"state":"active","ping":81},{"user_id":57,"name":"DiscoTraveler","steam_id":76561199240168088,"connected_time":932000000000,"state":"active","ping":131},{"user_id":61,"name":"xTheDarkLight","steam_id":76561198239128298,"connected_time":430000000000,"state":"active","ping":49},{"user_id":62,"name":"Johan","steam_id":76561199380849468,"connected_time":426000000000,"state":"active","ping":60},{"user_id":74,"name":"Lukas","steam_id":76561198009118452,"connected_time":160000000000,"state":"active","ping":55},{"user_id":58,"name":"Tutiwit","steam_id":76561198254481528,"connected_time":888000000000,"state":"active","ping":77},{"user_id":75,"name":"kilo","steam_id":76561198015641339,"connected_time":160000000000,"state":"active","ping":68},{"user_id":67,"name":"N0tzz","steam_id":76561198391025653,"connected_time":331000000000,"state":"active","ping":83},{"user_id":34,"name":"halo 3 rat","steam_id":76561198439007717,"connected_time":2020000000000,"state":"active","ping":77},{"user_id":76,"name":"Gay Engineer","steam_id":76561199110557595,"connected_time":152000000000,"state":"active","ping":61},{"user_id":68,"name":"Ðoggo","steam_id":76561198208781180,"connected_time":323000000000,"state":"active","ping":77},{"user_id":46,"name":"tired medic main","steam_id":76561198255340533,"connected_time":1610000000000,"state":"active","ping":78},{"user_id":69,"name":"cinny","steam_id":76561198832112629,"connected_time":316000000000,"state":"active","ping":75},{"user_id":48,"name":"Ječmen","steam_id":76561198051617968,"connected_time":1546000000000,"state":"active","ping":67},{"user_id":77,"name":"PUNK","steam_id":76561198181439907,"connected_time":146000000000,"state":"active","ping":73},{"user_id":51,"name":"ComradeFloppy","steam_id":76561198295671740,"connected_time":1432000000000,"state":"active","ping":58}]},{"server_id":308,"name":"Uncletopia | Frankfurt | 3 | All Maps","name_short":"frk-3","host":"frk-1.de.uncletopia.com","port":27035,"enabled":true,"region":"eu","cc":"de","latitude":50.110924,"longitude":8.682127,"reserved":0,"last_update":"0001-01-01T00:00:00Z","name_a2s":"Uncletopia | Frankfurt | 3 | All Maps","protocol":17,"map":"cp_altitude","folder":"tf","game":"Team Fortress","app_id":440,"player_count":0,"max_players":24,"Bots":0,"server_type":"Dedicated","server_os":"Linux","password":true,"vac":true,"version":"7880732","steam_id":85568392924504274,"keywords":["cp","nocrits","nodmgspread","uncletopia"],"game_id":440,"stv_port":27036,"stv_name":"Uncletopia | Frankfurt | 3 | All Maps | STV","players":null},{"server_id":309,"name":"Uncletopia | Frankfurt | 4 | All Maps","name_short":"frk-4","host":"frk-1.de.uncletopia.com","port":27045,"enabled":true,"region":"eu","cc":"de","latitude":50.110924,"longitude":8.682127,"reserved":0,"last_update":"0001-01-01T00:00:00Z","name_a2s":"Uncletopia | Frankfurt | 4 | All Maps","protocol":17,"map":"pl_barnblitz","folder":"tf","game":"Team Fortress","app_id":440,"player_count":24,"max_players":24,"Bots":0,"server_type":"Dedicated","server_os":"Linux","password":true,"vac":true,"version":"7880732","steam_id":85568392924504275,"keywords":["nocrits","nodmgspread","payload","uncletopia"],"game_id":440,"stv_port":27046,"stv_name":"Uncletopia | Frankfurt | 4 | All Maps | STV","players":[{"user_id":3,"name":"Mr_Pulse_","steam_id":76561198095001602,"connected_time":5499000000000,"state":"active","ping":93},{"user_id":60,"name":"uma","steam_id":76561198147976939,"connected_time":1873000000000,"state":"active","ping":48},{"user_id":68,"name":"Tonne","steam_id":76561197970856766,"connected_time":1088000000000,"state":"active","ping":58},{"user_id":82,"name":"Frank","steam_id":76561198086672774,"connected_time":950000000000,"state":"active","ping":64},{"user_id":83,"name":"DragonLord","steam_id":76561198074279225,"connected_time":878000000000,"state":"active","ping":61},{"user_id":84,"name":"BlueBlueFox","steam_id":76561198053817230,"connected_time":805000000000,"state":"active","ping":72},{"user_id":73,"name":"acuifex","steam_id":76561198106266513,"connected_time":1028000000000,"state":"active","ping":76},{"user_id":69,"name":"olivia","steam_id":76561198288130849,"connected_time":1088000000000,"state":"active","ping":156},{"user_id":33,"name":"Bambi","steam_id":76561198166972711,"connected_time":4805000000000,"state":"active","ping":74},{"user_id":48,"name":"MAKENTAKEN","steam_id":76561199127359587,"connected_time":3565000000000,"state":"active","ping":88},{"user_id":87,"name":"chomp","steam_id":76561198324048855,"connected_time":315000000000,"state":"active","ping":62},{"user_id":61,"name":"Dan86130","steam_id":76561199187190436,"connected_time":1847000000000,"state":"active","ping":62},{"user_id":85,"name":"STiNGHAN","steam_id":76561198023989090,"connected_time":804000000000,"state":"active","ping":83},{"user_id":86,"name":"увынск","steam_id":76561198172046813,"connected_time":699000000000,"state":"active","ping":74},{"user_id":20,"name":"LOBZIK","steam_id":76561198114830120,"connected_time":5135000000000,"state":"active","ping":75},{"user_id":63,"name":"ChPerette","steam_id":76561198060004887,"connected_time":1817000000000,"state":"active","ping":47},{"user_id":75,"name":"fear","steam_id":76561198043836847,"connected_time":1023000000000,"state":"active","ping":73},{"user_id":76,"name":"WojStaGra","steam_id":76561198157277370,"connected_time":1019000000000,"state":"active","ping":86},{"user_id":77,"name":"Haha?","steam_id":76561198056882245,"connected_time":1018000000000,"state":"active","ping":49},{"user_id":78,"name":"ducks","steam_id":76561198166148685,"connected_time":1016000000000,"state":"active","ping":45},{"user_id":79,"name":"Aroo","steam_id":76561198132601368,"connected_time":1011000000000,"state":"active","ping":71},{"user_id":54,"name":"HelwiiHill","steam_id":76561198066730552,"connected_time":2665000000000,"state":"active","ping":82},{"user_id":88,"name":"Mach","steam_id":76561198952487564,"connected_time":54000000000,"state":"active","ping":165},{"user_id":44,"name":"BrownBreadMan","steam_id":76561199092834214,"connected_time":4014000000000,"state":"active","ping":61}]},{"server_id":310,"name":"Uncletopia | Frankfurt | 5 | All Maps","name_short":"frk-5","host":"frk-1.de.uncletopia.com","port":27055,"enabled":true,"region":"eu","cc":"de","latitude":50.110924,"longitude":8.682127,"reserved":0,"last_update":"0001-01-01T00:00:00Z","name_a2s":"Uncletopia | Frankfurt | 5 | All Maps","protocol":17,"map":"cp_yukon_final","folder":"tf","game":"Team Fortress","app_id":440,"player_count":0,"max_players":24,"Bots":0,"server_type":"Dedicated","server_os":"Linux","password":true,"vac":true,"version":"7880732","steam_id":85568392924504277,"keywords":["cp","nocrits","nodmgspread","uncletopia"],"game_id":440,"stv_port":27056,"stv_name":"Uncletopia | Frankfurt | 5 | All Maps | STV","players":null},{"server_id":311,"name":"Uncletopia | Frankfurt | 6 | All Maps","name_short":"frk-6","host":"frk-1.de.uncletopia.com","port":27065,"enabled":true,"region":"eu","cc":"de","latitude":50.110924,"longitude":8.682127,"reserved":0,"last_update":"0001-01-01T00:00:00Z","name_a2s":"Uncletopia | Frankfurt | 6 | All Maps","protocol":17,"map":"cp_yukon_final","folder":"tf","game":"Team Fortress","app_id":440,"player_count":0,"max_players":24,"Bots":0,"server_type":"Dedicated","server_os":"Linux","password":true,"vac":true,"version":"7880732","steam_id":85568392924504278,"keywords":["cp","nocrits","nodmgspread","uncletopia"],"game_id":440,"stv_port":27066,"stv_name":"Uncletopia | Frankfurt | 6 | All Maps | STV","players":null},{"server_id":23,"name":"Uncletopia | Frankfurt | 7 | Stopwatch Beta","name_short":"frk-7","host":"frk-1.de.uncletopia.com","port":27075,"enabled":true,"region":"eu","cc":"de","latitude":50.110924,"longitude":8.682127,"reserved":0,"last_update":"0001-01-01T00:00:00Z","name_a2s":"Uncletopia | Frankfurt | 7 | Stopwatch Beta","protocol":17,"map":"workshop/pl_summercoast_rc8e.ugc1761528829","folder":"tf","game":"Team Fortress","app_id":440,"player_count":0,"max_players":24,"Bots":0,"server_type":"Dedicated","server_os":"Linux","password":true,"vac":true,"version":"7880732","steam_id":85568392924742827,"keywords":["nocrits","nodmgspread","payload","uncletopia"],"game_id":440,"stv_port":27076,"stv_name":"Uncletopia | Frankfurt | 7 | Stopwatch Beta | STV","players":null},{"server_id":24,"name":"Uncletopia | Frankfurt | 8 | Community","name_short":"frk-8","host":"frk-1.de.uncletopia.com","port":27085,"enabled":true,"region":"eu","cc":"de","latitude":50.110924,"longitude":8.682127,"reserved":0,"last_update":"0001-01-01T00:00:00Z","name_a2s":"Uncletopia | Frankfurt | 8 | Community","protocol":17,"map":"workshop/rd_asteroid_redux_b1.ugc2154902912","folder":"tf","game":"Team Fortress","app_id":440,"player_count":0,"max_players":24,"Bots":0,"server_type":"Dedicated","server_os":"Linux","password":true,"vac":true,"version":"7880732","steam_id":85568392924742828,"keywords":["beta","nocrits","nodmgspread","rd","uncletopia"],"game_id":440,"stv_port":27086,"stv_name":"Uncletopia | Frankfurt | 8 | Community | STV","players":null},{"server_id":202,"name":"Uncletopia | Hong Kong | 1 | All Maps","name_short":"hgk-1","host":"hgk-1.hk.uncletopia.com","port":27015,"enabled":true,"region":"asia","cc":"hk","latitude":22.302711,"longitude":114.177216,"reserved":0,"last_update":"0001-01-01T00:00:00Z","name_a2s":"Uncletopia | Hong Kong | 1 | All Maps","protocol":17,"map":"pl_pier","folder":"tf","game":"Team Fortress","app_id":440,"player_count":0,"max_players":24,"Bots":0,"server_type":"Dedicated","server_os":"Linux","password":true,"vac":true,"version":"7880732","steam_id":85568392924494504,"keywords":["nocrits","nodmgspread","payload","uncletopia"],"game_id":440,"stv_port":27016,"stv_name":"Uncletopia | Hong Kong | 1 | All Maps | STV","players":null},{"server_id":1,"name":"Uncletopia | Los Angeles | 1 | All Maps","name_short":"lax-1","host":"lax-1.us.uncletopia.com","port":27015,"enabled":true,"region":"us-west","cc":"us","latitude":33.94279,"longitude":-118.41004,"reserved":0,"last_update":"0001-01-01T00:00:00Z","name_a2s":"Uncletopia | Los Angeles | 1 | All Maps","protocol":17,"map":"pl_swiftwater_final1","folder":"tf","game":"Team Fortress","app_id":440,"player_count":1,"max_players":24,"Bots":0,"server_type":"Dedicated","server_os":"Linux","password":true,"vac":true,"version":"7880732","steam_id":85568392924469991,"keywords":["nocrits","nodmgspread","payload","uncletopia"],"game_id":440,"stv_port":27016,"stv_name":"Uncletopia | Los Angeles | 1 | All Maps | STV","players":[{"user_id":7,"name":"a cat plushie","steam_id":76561198080046542,"connected_time":328000000000,"state":"active","ping":72}]},{"server_id":112,"name":"Uncletopia | Los Angeles | 2 | All Maps","name_short":"lax-2","host":"lax-1.us.uncletopia.com","port":27025,"enabled":true,"region":"us-west","cc":"us","latitude":33.94279,"longitude":-118.41004,"reserved":0,"last_update":"0001-01-01T00:00:00Z","name_a2s":"Uncletopia | Los Angeles | 2 | All Maps","protocol":17,"map":"koth_viaduct","folder":"tf","game":"Team Fortress","app_id":440,"player_count":0,"max_players":24,"Bots":0,"server_type":"Dedicated","server_os":"Linux","password":true,"vac":true,"version":"7880732","steam_id":85568392924469992,"keywords":["cp","nocrits","nodmgspread","uncletopia"],"game_id":440,"stv_port":27026,"stv_name":"Uncletopia | Los Angeles | 2 | All Maps | STV","players":null},{"server_id":324,"name":"Uncletopia | Los Angeles | 3 | All Maps","name_short":"lax-3","host":"lax-1.us.uncletopia.com","port":27035,"enabled":true,"region":"us-west","cc":"us","latitude":33.94279,"longitude":-118.41004,"reserved":0,"last_update":"0001-01-01T00:00:00Z","name_a2s":"Uncletopia | Los Angeles | 3 | All Maps","protocol":17,"map":"pl_borneo","folder":"tf","game":"Team Fortress","app_id":440,"player_count":0,"max_players":24,"Bots":0,"server_type":"Dedicated","server_os":"Linux","password":true,"vac":true,"version":"7880732","steam_id":85568392924510198,"keywords":["nocrits","nodmgspread","payload","uncletopia"],"game_id":440,"stv_port":27036,"stv_name":"Uncletopia | Los Angeles | 3 | All Maps | STV","players":null},{"server_id":25,"name":"Uncletopia | Los Angeles | 4 | Stopwatch Beta","name_short":"lax-4","host":"lax-1.us.uncletopia.com","port":27045,"enabled":true,"region":"us-west","cc":"us","latitude":33.94279,"longitude":-118.41004,"reserved":0,"last_update":"0001-01-01T00:00:00Z","name_a2s":"Uncletopia | Los Angeles | 4 | Stopwatch Beta","protocol":17,"map":"koth_highpass","folder":"tf","game":"Team Fortress","app_id":440,"player_count":0,"max_players":24,"Bots":0,"server_type":"Dedicated","server_os":"Linux","password":true,"vac":true,"version":"7880732","steam_id":85568392924510199,"keywords":["cp","nocrits","nodmgspread","uncletopia"],"game_id":440,"stv_port":27046,"stv_name":"Uncletopia | Los Angeles | 4 | Stopwatch Beta | STV","players":null},{"server_id":11,"name":"Uncletopia | London | 1 | All Maps","name_short":"lon-1","host":"lon-1.uk.uncletopia.com","port":27015,"enabled":true,"region":"eu","cc":"gb","latitude":51.509865,"longitude":-0.118092,"reserved":0,"last_update":"0001-01-01T00:00:00Z","name_a2s":"Uncletopia | London | 1 | All Maps","protocol":17,"map":"pl_borneo","folder":"tf","game":"Team Fortress","app_id":440,"player_count":24,"max_players":24,"Bots":0,"server_type":"Dedicated","server_os":"Linux","password":true,"vac":true,"version":"7880732","steam_id":85568392924367362,"keywords":["nocrits","nodmgspread","payload","uncletopia"],"game_id":440,"stv_port":27016,"stv_name":"Uncletopia | London | 1 | All Maps | STV","players":[{"user_id":70,"name":"Milk","steam_id":76561198125876588,"connected_time":1468000000000,"state":"active","ping":40},{"user_id":50,"name":"Themadnessman","steam_id":76561198079732032,"connected_time":3354000000000,"state":"active","ping":86},{"user_id":76,"name":"beurgeur","steam_id":76561198872426314,"connected_time":698000000000,"state":"active","ping":33},{"user_id":62,"name":"Guy called Tycho","steam_id":76561198044560715,"connected_time":2303000000000,"state":"active","ping":57},{"user_id":89,"name":"Chinese Kharp","steam_id":76561199383220023,"connected_time":286000000000,"state":"active","ping":86},{"user_id":60,"name":"8 Ball","steam_id":76561197960988736,"connected_time":2332000000000,"state":"active","ping":47},{"user_id":58,"name":"Peat","steam_id":76561197992168067,"connected_time":2458000000000,"state":"active","ping":67},{"user_id":72,"name":"Reprobus","steam_id":76561198332243756,"connected_time":1422000000000,"state":"active","ping":75},{"user_id":75,"name":"skill","steam_id":76561198106012909,"connected_time":737000000000,"state":"active","ping":73},{"user_id":37,"name":"MEGOS","steam_id":76561198172740637,"connected_time":3564000000000,"state":"active","ping":59},{"user_id":69,"name":"Soda Drink","steam_id":76561198202990635,"connected_time":1489000000000,"state":"active","ping":70},{"user_id":63,"name":"twitch.tv/Dr.Sex","steam_id":76561198029044617,"connected_time":2280000000000,"state":"active","ping":50},{"user_id":80,"name":"Rat King","steam_id":76561198256783599,"connected_time":629000000000,"state":"active","ping":53},{"user_id":85,"name":"YBOT554","steam_id":76561198836830645,"connected_time":455000000000,"state":"active","ping":46},{"user_id":82,"name":"Dirty Joe","steam_id":76561198142418870,"connected_time":611000000000,"state":"active","ping":42},{"user_id":81,"name":"The Sunnyshot","steam_id":76561198086787499,"connected_time":622000000000,"state":"active","ping":69},{"user_id":35,"name":"r4s1","steam_id":76561198024034917,"connected_time":3586000000000,"state":"active","ping":59},{"user_id":83,"name":"FilipeLuk","steam_id":76561198150675438,"connected_time":598000000000,"state":"active","ping":60},{"user_id":47,"name":"boofing prozac","steam_id":76561198851157897,"connected_time":3434000000000,"state":"active","ping":65},{"user_id":65,"name":"Ichbaplaya","steam_id":76561198152701211,"connected_time":2186000000000,"state":"active","ping":74},{"user_id":39,"name":"shh... tiny carrots r sleeping","steam_id":76561198069649097,"connected_time":3560000000000,"state":"active","ping":48},{"user_id":84,"name":"ali","steam_id":76561198148359093,"connected_time":545000000000,"state":"active","ping":41},{"user_id":90,"name":"beebo","steam_id":76561199120277007,"connected_time":128000000000,"state":"active","ping":63},{"user_id":56,"name":"ROBIN HOOD","steam_id":76561198096547662,"connected_time":2775000000000,"state":"active","ping":52}]},{"server_id":114,"name":"Uncletopia | London | 2 | All Maps","name_short":"lon-2","host":"lon-1.uk.uncletopia.com","port":27025,"enabled":true,"region":"eu","cc":"gb","latitude":51.509865,"longitude":-0.118092,"reserved":0,"last_update":"0001-01-01T00:00:00Z","name_a2s":"Uncletopia | London | 2 | All Maps","protocol":17,"map":"pl_borneo","folder":"tf","game":"Team Fortress","app_id":440,"player_count":24,"max_players":24,"Bots":0,"server_type":"Dedicated","server_os":"Linux","password":true,"vac":true,"version":"7880732","steam_id":85568392924470941,"keywords":["nocrits","nodmgspread","payload","uncletopia"],"game_id":440,"stv_port":27026,"stv_name":"Uncletopia | London | 2 | All Maps | STV","players":[{"user_id":78,"name":"sharp stick enjoyer","steam_id":76561198070962612,"connected_time":1970000000000,"state":"active","ping":43},{"user_id":51,"name":"6'3 horny aroused male with gun","steam_id":76561199042470246,"connected_time":3937000000000,"state":"active","ping":60},{"user_id":97,"name":"R0mulone","steam_id":76561198352513792,"connected_time":1103000000000,"state":"active","ping":64},{"user_id":114,"name":"FlukeY","steam_id":76561198026137327,"connected_time":100000000000,"state":"active","ping":59},{"user_id":104,"name":"Femboy Lilli","steam_id":76561198090146457,"connected_time":297000000000,"state":"active","ping":34},{"user_id":63,"name":"General Petrov","steam_id":76561198027204104,"connected_time":2741000000000,"state":"active","ping":86},{"user_id":106,"name":"A Shiny Meat Bicycle","steam_id":76561198358757709,"connected_time":259000000000,"state":"active","ping":168},{"user_id":100,"name":"CEO of Monkey Business","steam_id":76561197970114051,"connected_time":537000000000,"state":"active","ping":45},{"user_id":56,"name":"Minimi","steam_id":76561198873850443,"connected_time":3894000000000,"state":"active","ping":41},{"user_id":99,"name":"Lux","steam_id":76561198060417740,"connected_time":692000000000,"state":"active","ping":46},{"user_id":50,"name":"thatCerv","steam_id":76561198037798308,"connected_time":3942000000000,"state":"active","ping":56},{"user_id":37,"name":"bachusa1657","steam_id":76561198202175911,"connected_time":5235000000000,"state":"active","ping":76},{"user_id":68,"name":"Terra","steam_id":76561198074482461,"connected_time":2516000000000,"state":"active","ping":101},{"user_id":107,"name":"Hnreeee","steam_id":76561198332936466,"connected_time":234000000000,"state":"active","ping":41},{"user_id":102,"name":"Shearman360","steam_id":76561198193909685,"connected_time":318000000000,"state":"active","ping":67},{"user_id":79,"name":"ricky pee pee","steam_id":76561198152620745,"connected_time":1532000000000,"state":"active","ping":58},{"user_id":115,"name":"mineblast99","steam_id":76561199065648954,"connected_time":67000000000,"state":"active","ping":148},{"user_id":113,"name":"SNS BATINАШ","steam_id":76561198053914183,"connected_time":108000000000,"state":"active","ping":73},{"user_id":82,"name":"Stańczyk","steam_id":76561197998906563,"connected_time":1461000000000,"state":"active","ping":43},{"user_id":116,"name":"Clark","steam_id":76561198120498831,"connected_time":46000000000,"state":"active","ping":55},{"user_id":110,"name":"fiter","steam_id":76561198331480295,"connected_time":231000000000,"state":"active","ping":51},{"user_id":98,"name":"Zerfesh","steam_id":76561198117534358,"connected_time":907000000000,"state":"active","ping":100},{"user_id":34,"name":"Gbus","steam_id":76561198072335838,"connected_time":5373000000000,"state":"active","ping":52},{"user_id":76,"name":"ShoobyDooby","steam_id":76561198118473910,"connected_time":2028000000000,"state":"active","ping":58}]},{"server_id":320,"name":"Uncletopia | London | 3 | All Maps","name_short":"lon-3","host":"lon-1.uk.uncletopia.com","port":27035,"enabled":true,"region":"eu","cc":"gb","latitude":51.509865,"longitude":-0.118092,"reserved":0,"last_update":"0001-01-01T00:00:00Z","name_a2s":"Uncletopia | London | 3 | All Maps","protocol":17,"map":"cp_yukon_final","folder":"tf","game":"Team Fortress","app_id":440,"player_count":0,"max_players":24,"Bots":0,"server_type":"Dedicated","server_os":"Linux","password":true,"vac":true,"version":"7880732","steam_id":85568392924510192,"keywords":["cp","nocrits","nodmgspread","uncletopia"],"game_id":440,"stv_port":27036,"stv_name":"Uncletopia | London | 3 | All Maps | STV","players":null},{"server_id":321,"name":"Uncletopia | London | 4 | All Maps","name_short":"lon-4","host":"lon-1.uk.uncletopia.com","port":27045,"enabled":true,"region":"eu","cc":"gb","latitude":51.509865,"longitude":-0.118092,"reserved":0,"last_update":"0001-01-01T00:00:00Z","name_a2s":"Uncletopia | London | 4 | All Maps","protocol":17,"map":"cp_yukon_final","folder":"tf","game":"Team Fortress","app_id":440,"player_count":0,"max_players":24,"Bots":0,"server_type":"Dedicated","server_os":"Linux","password":true,"vac":true,"version":"7880732","steam_id":85568392924510193,"keywords":["cp","nocrits","nodmgspread","uncletopia"],"game_id":440,"stv_port":27046,"stv_name":"Uncletopia | London | 4 | All Maps | STV","players":null},{"server_id":21,"name":"Uncletopia | London | 5 | All Maps","name_short":"lon-5","host":"lon-1.uk.uncletopia.com","port":27055,"enabled":true,"region":"eu","cc":"gb","latitude":51.509865,"longitude":-0.118092,"reserved":0,"last_update":"0001-01-01T00:00:00Z","name_a2s":"Uncletopia | London | 5 | All Maps","protocol":17,"map":"pl_upward","folder":"tf","game":"Team Fortress","app_id":440,"player_count":24,"max_players":24,"Bots":0,"server_type":"Dedicated","server_os":"Linux","password":true,"vac":true,"version":"7880732","steam_id":85568392924742829,"keywords":["nocrits","nodmgspread","payload","uncletopia"],"game_id":440,"stv_port":27056,"stv_name":"Uncletopia | London | 5 | All Maps | STV","players":[{"user_id":84,"name":"Mata_FM","steam_id":76561198044824504,"connected_time":1903000000000,"state":"active","ping":68},{"user_id":95,"name":"Ecy","steam_id":76561198110756682,"connected_time":738000000000,"state":"active","ping":54},{"user_id":97,"name":"Foonguz","steam_id":76561198834610534,"connected_time":151000000000,"state":"active","ping":60},{"user_id":60,"name":"Lyncurion","steam_id":76561199260022725,"connected_time":3156000000000,"state":"active","ping":84},{"user_id":47,"name":"Lil' Peen","steam_id":76561198073852509,"connected_time":4015000000000,"state":"active","ping":43},{"user_id":15,"name":"meriones","steam_id":76561198034234373,"connected_time":5245000000000,"state":"active","ping":39},{"user_id":96,"name":"shr1mple","steam_id":76561198173537027,"connected_time":341000000000,"state":"active","ping":54},{"user_id":91,"name":"harryhux","steam_id":76561198228052940,"connected_time":915000000000,"state":"active","ping":32},{"user_id":72,"name":"FoOzTV","steam_id":76561197998636728,"connected_time":2526000000000,"state":"active","ping":69},{"user_id":85,"name":"Sambuca","steam_id":76561199233979726,"connected_time":1902000000000,"state":"active","ping":90},{"user_id":63,"name":"Ferlo","steam_id":76561198095561504,"connected_time":3143000000000,"state":"active","ping":54},{"user_id":98,"name":"Paid Actor","steam_id":76561199066301000,"connected_time":97000000000,"state":"active","ping":145},{"user_id":55,"name":"lol","steam_id":76561198104438656,"connected_time":3420000000000,"state":"active","ping":70},{"user_id":89,"name":"UltraCoolKiddo","steam_id":76561198102025290,"connected_time":1295000000000,"state":"active","ping":61},{"user_id":99,"name":"Woman (Real)","steam_id":76561199151823932,"connected_time":85000000000,"state":"active","ping":83},{"user_id":92,"name":"Fibl","steam_id":76561198018480851,"connected_time":913000000000,"state":"active","ping":68},{"user_id":100,"name":"Riddle","steam_id":76561198892207399,"connected_time":78000000000,"state":"active","ping":137},{"user_id":65,"name":"Rai-the-CobaltClaw","steam_id":76561198027741747,"connected_time":3128000000000,"state":"active","ping":78},{"user_id":26,"name":"moomin","steam_id":76561198200607926,"connected_time":5125000000000,"state":"active","ping":83},{"user_id":88,"name":"Private Sex","steam_id":76561199007574830,"connected_time":1867000000000,"state":"active","ping":62},{"user_id":77,"name":"Sonya♥","steam_id":76561198012428880,"connected_time":2366000000000,"state":"active","ping":87},{"user_id":101,"name":"Accident","steam_id":76561198037232641,"connected_time":65000000000,"state":"active","ping":62},{"user_id":66,"name":"tube","steam_id":76561198188642265,"connected_time":3127000000000,"state":"active","ping":52},{"user_id":93,"name":"Mussolini","steam_id":76561198218384865,"connected_time":913000000000,"state":"active","ping":100}]},{"server_id":22,"name":"Uncletopia | London | 6 | All Maps","name_short":"lon-6","host":"lon-1.uk.uncletopia.com","port":27065,"enabled":true,"region":"eu","cc":"gb","latitude":51.509865,"longitude":-0.118092,"reserved":0,"last_update":"0001-01-01T00:00:00Z","name_a2s":"Uncletopia | London | 6 | All Maps","protocol":17,"map":"cp_snakewater_final1","folder":"tf","game":"Team Fortress","app_id":440,"player_count":0,"max_players":24,"Bots":0,"server_type":"Dedicated","server_os":"Linux","password":true,"vac":true,"version":"7880732","steam_id":85568392924742830,"keywords":["cp","nocrits","nodmgspread","uncletopia"],"game_id":440,"stv_port":27066,"stv_name":"Uncletopia | London | 6 | All Maps | STV","players":null},{"server_id":40,"name":"Uncletopia | London | 7 | No Payload","name_short":"lon-7","host":"lon-1.uk.uncletopia.com","port":27075,"enabled":true,"region":"eu","cc":"gb","latitude":51.509865,"longitude":-0.118092,"reserved":0,"last_update":"0001-01-01T00:00:00Z","name_a2s":"Uncletopia | London | 7 | No Payload","protocol":17,"map":"cp_yukon_final","folder":"tf","game":"Team Fortress","app_id":440,"player_count":0,"max_players":24,"Bots":0,"server_type":"Dedicated","server_os":"Linux","password":true,"vac":true,"version":"7880732","steam_id":85568392924964314,"keywords":["cp","nocrits","nodmgspread","uncletopia"],"game_id":440,"stv_port":27076,"stv_name":"Uncletopia | London | 7 | No Payload | STV","players":null},{"server_id":41,"name":"Uncletopia | London | 8 | Community","name_short":"lon-8","host":"lon-1.uk.uncletopia.com","port":27085,"enabled":true,"region":"eu","cc":"gb","latitude":51.509865,"longitude":-0.118092,"reserved":0,"last_update":"0001-01-01T00:00:00Z","name_a2s":"Uncletopia | London | 8 | Community","protocol":17,"map":"workshop/rd_asteroid_redux_b1.ugc2154902912","folder":"tf","game":"Team Fortress","app_id":440,"player_count":0,"max_players":24,"Bots":0,"server_type":"Dedicated","server_os":"Linux","password":true,"vac":true,"version":"7880732","steam_id":85568392924964315,"keywords":["beta","nocrits","nodmgspread","rd","uncletopia"],"game_id":440,"stv_port":27086,"stv_name":"Uncletopia | London | 8 | Community | STV","players":null},{"server_id":300,"name":"Uncletopia | Montréal | 1 | All Maps","name_short":"mtl-1","host":"mtl-1.ca.uncletopia.com","port":27015,"enabled":true,"region":"us-east","cc":"ca","latitude":45.50889,"longitude":-73.56167,"reserved":0,"last_update":"0001-01-01T00:00:00Z","name_a2s":"Uncletopia | Montréal | 1 | All Maps","protocol":17,"map":"cp_yukon_final","folder":"tf","game":"Team Fortress","app_id":440,"player_count":0,"max_players":24,"Bots":0,"server_type":"Dedicated","server_os":"Linux","password":true,"vac":true,"version":"7880732","steam_id":85568392924500087,"keywords":["cp","nocrits","nodmgspread","uncletopia"],"game_id":440,"stv_port":27016,"stv_name":"Uncletopia | Montréal | 1 | All Maps | STV","players":null},{"server_id":301,"name":"Uncletopia | Montréal | 2 | All Maps","name_short":"mtl-2","host":"mtl-1.ca.uncletopia.com","port":27025,"enabled":true,"region":"us-east","cc":"ca","latitude":45.50889,"longitude":-73.56167,"reserved":0,"last_update":"0001-01-01T00:00:00Z","name_a2s":"Uncletopia | Montréal | 2 | All Maps","protocol":17,"map":"koth_cascade","folder":"tf","game":"Team Fortress","app_id":440,"player_count":0,"max_players":24,"Bots":0,"server_type":"Dedicated","server_os":"Linux","password":true,"vac":true,"version":"7880732","steam_id":85568392924500088,"keywords":["cp","nocrits","nodmgspread","uncletopia"],"game_id":440,"stv_port":27026,"stv_name":"Uncletopia | Montréal | 2 | All Maps | STV","players":null},{"server_id":302,"name":"Uncletopia | Montréal | 3 | All Maps","name_short":"mtl-3","host":"mtl-1.ca.uncletopia.com","port":27035,"enabled":true,"region":"us-east","cc":"ca","latitude":45.50889,"longitude":-73.56167,"reserved":0,"last_update":"0001-01-01T00:00:00Z","name_a2s":"Uncletopia | Montréal | 3 | All Maps","protocol":17,"map":"pl_frontier_final","folder":"tf","game":"Team Fortress","app_id":440,"player_count":0,"max_players":24,"Bots":0,"server_type":"Dedicated","server_os":"Linux","password":true,"vac":true,"version":"7880732","steam_id":85568392924500089,"keywords":["nocrits","nodmgspread","payload","uncletopia"],"game_id":440,"stv_port":27036,"stv_name":"Uncletopia | Montréal | 3 | All Maps | STV","players":null},{"server_id":303,"name":"Uncletopia | Montréal | 4 | No Payload","name_short":"mtl-4","host":"mtl-1.ca.uncletopia.com","port":27045,"enabled":true,"region":"us-east","cc":"ca","latitude":45.50889,"longitude":-73.56167,"reserved":0,"last_update":"0001-01-01T00:00:00Z","name_a2s":"Uncletopia | Montréal | 4 | No Payload","protocol":17,"map":"cp_yukon_final","folder":"tf","game":"Team Fortress","app_id":440,"player_count":0,"max_players":24,"Bots":0,"server_type":"Dedicated","server_os":"Linux","password":true,"vac":true,"version":"7880732","steam_id":85568392924500090,"keywords":["cp","nocrits","nodmgspread","uncletopia"],"game_id":440,"stv_port":27046,"stv_name":"Uncletopia | Montréal | 4 | No Payload | STV","players":null},{"server_id":13,"name":"Uncletopia | New York City | 1 | All Maps","name_short":"nyc-1","host":"nyc-1.us.uncletopia.com","port":27015,"enabled":true,"region":"us-east","cc":"us","latitude":40.73061,"longitude":-73.93524,"reserved":0,"last_update":"0001-01-01T00:00:00Z","name_a2s":"Uncletopia | New York City | 1 | All Maps","protocol":17,"map":"koth_lakeside_final","folder":"tf","game":"Team Fortress","app_id":440,"player_count":23,"max_players":24,"Bots":0,"server_type":"Dedicated","server_os":"Linux","password":true,"vac":true,"version":"7880732","steam_id":85568392924469993,"keywords":["cp","nocrits","nodmgspread","uncletopia"],"game_id":440,"stv_port":27016,"stv_name":"Uncletopia | New York City | 1 | All Maps | STV","players":[{"user_id":74,"name":"TF2_TIME!??!?!","steam_id":76561199445629071,"connected_time":747000000000,"state":"active","ping":45},{"user_id":68,"name":"poiuytrewqwqwqwqwqwqwqwqwqwqwqw","steam_id":76561199105253001,"connected_time":1457000000000,"state":"active","ping":52},{"user_id":63,"name":"CFGU || RAWRWAFL","steam_id":76561198032118386,"connected_time":1887000000000,"state":"active","ping":107},{"user_id":7,"name":"drdoofus123","steam_id":76561198016826181,"connected_time":4818000000000,"state":"active","ping":61},{"user_id":75,"name":"Gaben Gaming","steam_id":76561198330119627,"connected_time":739000000000,"state":"active","ping":67},{"user_id":47,"name":"Reaper","steam_id":76561198435826103,"connected_time":3325000000000,"state":"active","ping":101},{"user_id":10,"name":"ludacris #1 rapper","steam_id":76561198070380404,"connected_time":4532000000000,"state":"active","ping":44},{"user_id":11,"name":"HollyBlocky","steam_id":76561198030156100,"connected_time":4474000000000,"state":"active","ping":75},{"user_id":73,"name":"monosodium glutamate","steam_id":76561198198787713,"connected_time":754000000000,"state":"active","ping":55},{"user_id":51,"name":"The Loveable CHI.I.BI.","steam_id":76561198039262228,"connected_time":3101000000000,"state":"active","ping":59},{"user_id":70,"name":"elincyt","steam_id":76561198967771724,"connected_time":1431000000000,"state":"active","ping":65},{"user_id":82,"name":"shibaba bababool","steam_id":76561197972601902,"connected_time":405000000000,"state":"active","ping":100},{"user_id":77,"name":"Bolster","steam_id":76561199153082207,"connected_time":728000000000,"state":"active","ping":93},{"user_id":76,"name":"mashallah","steam_id":76561198075111427,"connected_time":739000000000,"state":"active","ping":65},{"user_id":84,"name":"Sodemo","steam_id":76561198074987146,"connected_time":160000000000,"state":"active","ping":68},{"user_id":45,"name":"monke12344","steam_id":76561199274757725,"connected_time":3396000000000,"state":"active","ping":69},{"user_id":86,"name":"Diarrhea Gaming","steam_id":76561198090589784,"connected_time":50000000000,"state":"active","ping":75},{"user_id":78,"name":"CoconutNeutral","steam_id":76561198277110108,"connected_time":727000000000,"state":"active","ping":58},{"user_id":64,"name":"Hank the Tank","steam_id":76561198424853684,"connected_time":1845000000000,"state":"active","ping":78},{"user_id":23,"name":"Panic Opossum","steam_id":76561198043838227,"connected_time":4410000000000,"state":"active","ping":60},{"user_id":83,"name":"Muk__Tuk","steam_id":76561199122524457,"connected_time":377000000000,"state":"active","ping":98},{"user_id":85,"name":"this is a bucket","steam_id":76561199152814629,"connected_time":160000000000,"state":"active","ping":145},{"user_id":69,"name":"Kritzburgh","steam_id":76561198149466938,"connected_time":1452000000000,"state":"active","ping":52}]},{"server_id":14,"name":"Uncletopia | New York City | 2 | All Maps","name_short":"nyc-2","host":"nyc-1.us.uncletopia.com","port":27025,"enabled":true,"region":"us-east","cc":"us","latitude":40.73061,"longitude":-73.93524,"reserved":0,"last_update":"0001-01-01T00:00:00Z","name_a2s":"Uncletopia | New York City | 2 | All Maps","protocol":17,"map":"pl_barnblitz","folder":"tf","game":"Team Fortress","app_id":440,"player_count":25,"max_players":24,"Bots":0,"server_type":"Dedicated","server_os":"Linux","password":true,"vac":true,"version":"7880732","steam_id":85568392924469994,"keywords":["nocrits","nodmgspread","payload","uncletopia"],"game_id":440,"stv_port":27026,"stv_name":"Uncletopia | New York City | 2 | All Maps | STV","players":[{"user_id":62,"name":"gobbie FASTNESS","steam_id":76561198026865054,"connected_time":851000000000,"state":"active","ping":57},{"user_id":76,"name":"επιλέγω","steam_id":76561198076639682,"connected_time":28000000000,"state":"active","ping":51},{"user_id":39,"name":"abed","steam_id":76561198072856511,"connected_time":1966000000000,"state":"active","ping":70},{"user_id":52,"name":"professional twelve year old","steam_id":76561198858796870,"connected_time":1384000000000,"state":"active","ping":103},{"user_id":41,"name":"SnareString","steam_id":76561199082119457,"connected_time":1933000000000,"state":"active","ping":121},{"user_id":72,"name":"doodlenoodles","steam_id":76561199345823430,"connected_time":190000000000,"state":"active","ping":44},{"user_id":51,"name":"Sychke","steam_id":76561198067144055,"connected_time":1392000000000,"state":"active","ping":74},{"user_id":73,"name":"Pathara44","steam_id":76561198048238620,"connected_time":173000000000,"state":"active","ping":73},{"user_id":54,"name":"what","steam_id":76561198082336619,"connected_time":1377000000000,"state":"active","ping":56},{"user_id":18,"name":"gfloum","steam_id":76561198817585886,"connected_time":2493000000000,"state":"active","ping":168},{"user_id":68,"name":"orlando","steam_id":76561198128347876,"connected_time":448000000000,"state":"active","ping":55},{"user_id":64,"name":"yomommasabitch","steam_id":76561198323217150,"connected_time":580000000000,"state":"active","ping":75},{"user_id":23,"name":"IPlayGamez","steam_id":76561198041387508,"connected_time":2361000000000,"state":"active","ping":47},{"user_id":77,"name":"Slazzer","steam_id":76561198404351844,"connected_time":27000000000,"state":"spawning","ping":46},{"user_id":63,"name":"bachphong760","steam_id":76561199433780443,"connected_time":735000000000,"state":"active","ping":109},{"user_id":26,"name":"Ceiling Man","steam_id":76561198003959902,"connected_time":2266000000000,"state":"active","ping":37},{"user_id":67,"name":"Grundle Thunder","steam_id":76561197960790338,"connected_time":515000000000,"state":"active","ping":66},{"user_id":55,"name":"PGReddd","steam_id":76561198196771733,"connected_time":1371000000000,"state":"active","ping":82},{"user_id":75,"name":"brett","steam_id":76561198799740059,"connected_time":82000000000,"state":"active","ping":67},{"user_id":70,"name":"JTD1019","steam_id":76561198131179444,"connected_time":335000000000,"state":"active","ping":82},{"user_id":38,"name":"spherewithahat","steam_id":76561199122192660,"connected_time":1990000000000,"state":"active","ping":58},{"user_id":49,"name":"LemonZest","steam_id":76561199196369249,"connected_time":1495000000000,"state":"active","ping":64},{"user_id":43,"name":"pickles8080","steam_id":76561198352109679,"connected_time":1899000000000,"state":"active","ping":64},{"user_id":71,"name":"Cosmic sR","steam_id":76561198081738675,"connected_time":313000000000,"state":"active","ping":84},{"user_id":78,"name":"tres","steam_id":76561198361975035,"connected_time":1000000000,"state":"spawning","ping":80}]},{"server_id":15,"name":"Uncletopia | New York City | 3 | Stopwatch Beta","name_short":"nyc-3","host":"nyc-1.us.uncletopia.com","port":27035,"enabled":true,"region":"us-east","cc":"us","latitude":40.73061,"longitude":-73.93524,"reserved":0,"last_update":"0001-01-01T00:00:00Z","name_a2s":"Uncletopia | New York City | 3 | Stopwatch Beta","protocol":17,"map":"koth_cascade","folder":"tf","game":"Team Fortress","app_id":440,"player_count":0,"max_players":24,"Bots":0,"server_type":"Dedicated","server_os":"Linux","password":true,"vac":true,"version":"7880732","steam_id":85568392924742820,"keywords":["cp","nocrits","nodmgspread","uncletopia"],"game_id":440,"stv_port":27036,"stv_name":"Uncletopia | New York City | 3 | Stopwatch Beta | STV","players":null},{"server_id":16,"name":"Uncletopia | New York City | 4 | Community","name_short":"nyc-4","host":"nyc-1.us.uncletopia.com","port":27045,"enabled":true,"region":"us-east","cc":"us","latitude":40.73061,"longitude":-73.93524,"reserved":0,"last_update":"0001-01-01T00:00:00Z","name_a2s":"Uncletopia | New York City | 4 | Community","protocol":17,"map":"workshop/rd_asteroid_redux_b1.ugc2154902912","folder":"tf","game":"Team Fortress","app_id":440,"player_count":0,"max_players":24,"Bots":0,"server_type":"Dedicated","server_os":"Linux","password":true,"vac":true,"version":"7880732","steam_id":85568392924742821,"keywords":["beta","nocrits","nodmgspread","rd","uncletopia"],"game_id":440,"stv_port":27046,"stv_name":"Uncletopia | New York City | 4 | Community | STV","players":null},{"server_id":142,"name":"Uncletopia | São Paulo | 1 | All Maps","name_short":"sao-1","host":"sao-1.br.uncletopia.com","port":27015,"enabled":true,"region":"sa","cc":"br","latitude":-23.533773,"longitude":-46.62529,"reserved":0,"last_update":"0001-01-01T00:00:00Z","name_a2s":"Uncletopia | São Paulo | 1 | All Maps","protocol":17,"map":"koth_cascade","folder":"tf","game":"Team Fortress","app_id":440,"player_count":0,"max_players":24,"Bots":0,"server_type":"Dedicated","server_os":"Linux","password":true,"vac":true,"version":"7880732","steam_id":85568392924469996,"keywords":["cp","nocrits","nodmgspread","uncletopia"],"game_id":440,"stv_port":27016,"stv_name":"Uncletopia | São Paulo | 1 | All Maps | STV","players":null},{"server_id":143,"name":"Uncletopia | São Paulo | 2 | All Maps","name_short":"sao-2","host":"sao-2.br.uncletopia.com","port":27015,"enabled":true,"region":"sa","cc":"br","latitude":-23.533773,"longitude":-46.62529,"reserved":0,"last_update":"0001-01-01T00:00:00Z","name_a2s":"Uncletopia | São Paulo | 2 | All Maps","protocol":17,"map":"pl_badwater","folder":"tf","game":"Team Fortress","app_id":440,"player_count":3,"max_players":24,"Bots":0,"server_type":"Dedicated","server_os":"Linux","password":true,"vac":true,"version":"7880732","steam_id":85568392924485349,"keywords":["nocrits","nodmgspread","payload","uncletopia"],"game_id":440,"stv_port":27016,"stv_name":"Uncletopia | São Paulo | 2 | All Maps | STV","players":[{"user_id":18,"name":"//hd","steam_id":76561199098715784,"connected_time":7000000000,"state":"spawning","ping":52},{"user_id":13,"name":"pog","steam_id":76561198891777705,"connected_time":1126000000000,"state":"active","ping":89},{"user_id":16,"name":"flamingo","steam_id":76561198854099251,"connected_time":694000000000,"state":"active","ping":70}]},{"server_id":7,"name":"Uncletopia | Seattle | 1 | All Maps","name_short":"sea-1","host":"sea-1.us.uncletopia.com","port":27015,"enabled":true,"region":"us-west","cc":"us","latitude":47.608013,"longitude":-122.33517,"reserved":0,"last_update":"0001-01-01T00:00:00Z","name_a2s":"Uncletopia | Seattle | 1 | All Maps","protocol":17,"map":"pl_upward","folder":"tf","game":"Team Fortress","app_id":440,"player_count":24,"max_players":24,"Bots":0,"server_type":"Dedicated","server_os":"Linux","password":true,"vac":true,"version":"7880732","steam_id":85568392924469997,"keywords":["nocrits","nodmgspread","payload","uncletopia"],"game_id":440,"stv_port":27016,"stv_name":"Uncletopia | Seattle | 1 | All Maps | STV","players":[{"user_id":77,"name":"Rook","steam_id":76561198372780831,"connected_time":945000000000,"state":"active","ping":114},{"user_id":84,"name":"colespudzo","steam_id":76561198051127147,"connected_time":488000000000,"state":"active","ping":44},{"user_id":47,"name":"Mico (Mico)","steam_id":76561198125462953,"connected_time":3407000000000,"state":"active","ping":45},{"user_id":76,"name":"unlikelycure","steam_id":76561199174450788,"connected_time":964000000000,"state":"active","ping":141},{"user_id":74,"name":"XxX420UwUMaster666XxX","steam_id":76561199351137762,"connected_time":974000000000,"state":"active","ping":52},{"user_id":12,"name":"MisterManne","steam_id":76561198106598600,"connected_time":4970000000000,"state":"active","ping":56},{"user_id":83,"name":"Bishuhp","steam_id":76561198015062850,"connected_time":616000000000,"state":"active","ping":52},{"user_id":85,"name":"Pink","steam_id":76561199093650594,"connected_time":307000000000,"state":"active","ping":75},{"user_id":56,"name":"Pah-Wraith Gul Dukat","steam_id":76561198033918106,"connected_time":2630000000000,"state":"active","ping":80},{"user_id":70,"name":"tf3aflyingmouse","steam_id":76561198058134934,"connected_time":1013000000000,"state":"active","ping":101},{"user_id":78,"name":"Don't ask me to talk","steam_id":76561199388826335,"connected_time":915000000000,"state":"active","ping":127},{"user_id":80,"name":"SURRENDER FREEMEN","steam_id":76561198072277956,"connected_time":853000000000,"state":"active","ping":158},{"user_id":22,"name":"porfer","steam_id":76561199118049168,"connected_time":4622000000000,"state":"active","ping":79},{"user_id":51,"name":"Lock'd","steam_id":76561198170108230,"connected_time":3064000000000,"state":"active","ping":75},{"user_id":61,"name":"SpinetinglingToast","steam_id":76561198099470670,"connected_time":2180000000000,"state":"active","ping":125},{"user_id":52,"name":"Fh","steam_id":76561198000903511,"connected_time":3001000000000,"state":"active","ping":59},{"user_id":53,"name":"Grill Skills","steam_id":76561198053575147,"connected_time":2946000000000,"state":"active","ping":62},{"user_id":82,"name":"FI LO","steam_id":76561198976530881,"connected_time":751000000000,"state":"active","ping":60},{"user_id":71,"name":"HaphazardHazel","steam_id":76561198316812693,"connected_time":1012000000000,"state":"active","ping":181},{"user_id":59,"name":"DaBigA","steam_id":76561198326492538,"connected_time":2442000000000,"state":"active","ping":52},{"user_id":54,"name":"ShiverBorn","steam_id":76561198384811149,"connected_time":2940000000000,"state":"active","ping":123},{"user_id":73,"name":"soda","steam_id":76561198105924953,"connected_time":1000000000000,"state":"active","ping":78},{"user_id":46,"name":"mega","steam_id":76561198089520959,"connected_time":3573000000000,"state":"active","ping":97},{"user_id":68,"name":"MayaBon","steam_id":76561198797968261,"connected_time":1324000000000,"state":"active","ping":58}]},{"server_id":119,"name":"Uncletopia | Seattle | 2 | All Maps","name_short":"sea-2","host":"sea-1.us.uncletopia.com","port":27025,"enabled":true,"region":"us-west","cc":"us","latitude":47.608013,"longitude":-122.33517,"reserved":0,"last_update":"0001-01-01T00:00:00Z","name_a2s":"Uncletopia | Seattle | 2 | All Maps","protocol":17,"map":"pl_pier","folder":"tf","game":"Team Fortress","app_id":440,"player_count":24,"max_players":24,"Bots":0,"server_type":"Dedicated","server_os":"Linux","password":true,"vac":true,"version":"7880732","steam_id":85568392924469998,"keywords":["nocrits","nodmgspread","payload","uncletopia"],"game_id":440,"stv_port":27026,"stv_name":"Uncletopia | Seattle | 2 | All Maps | STV","players":[{"user_id":60,"name":"real","steam_id":76561199161322235,"connected_time":562000000000,"state":"active","ping":47},{"user_id":69,"name":"kodynotcody","steam_id":76561198340685758,"connected_time":329000000000,"state":"active","ping":59},{"user_id":57,"name":"Sorbis The Grungler","steam_id":76561198057138795,"connected_time":662000000000,"state":"active","ping":102},{"user_id":9,"name":"[TTV]slendermansmoom","steam_id":76561199053946374,"connected_time":3648000000000,"state":"active","ping":64},{"user_id":34,"name":"Lolxdloldx","steam_id":76561198136887125,"connected_time":2785000000000,"state":"active","ping":97},{"user_id":12,"name":"dweamy","steam_id":76561198119181880,"connected_time":3372000000000,"state":"active","ping":89},{"user_id":13,"name":"GrabHis_AndTwist_It","steam_id":76561198139155108,"connected_time":3366000000000,"state":"active","ping":132},{"user_id":48,"name":"GJDon","steam_id":76561199026755019,"connected_time":1218000000000,"state":"active","ping":129},{"user_id":35,"name":"COOL master_9","steam_id":76561198073041151,"connected_time":2621000000000,"state":"active","ping":100},{"user_id":16,"name":"Goose","steam_id":76561198036774894,"connected_time":3296000000000,"state":"active","ping":53},{"user_id":59,"name":"Nolan","steam_id":76561198169648081,"connected_time":594000000000,"state":"active","ping":100},{"user_id":71,"name":"Rix FPV","steam_id":76561198299320893,"connected_time":203000000000,"state":"active","ping":113},{"user_id":61,"name":"Zeebop","steam_id":76561198148332988,"connected_time":528000000000,"state":"active","ping":85},{"user_id":62,"name":"GIANT RAT","steam_id":76561198088446869,"connected_time":523000000000,"state":"active","ping":56},{"user_id":64,"name":"Harold","steam_id":76561198057317770,"connected_time":494000000000,"state":"active","ping":57},{"user_id":32,"name":"Chimpanzee","steam_id":76561198850387282,"connected_time":2865000000000,"state":"active","ping":121},{"user_id":65,"name":"Punished Jeff (Drain Messiah)","steam_id":76561198304252584,"connected_time":489000000000,"state":"active","ping":72},{"user_id":24,"name":"Portal2Player","steam_id":76561198062870114,"connected_time":3069000000000,"state":"active","ping":127},{"user_id":66,"name":"smug (back)","steam_id":76561198320010759,"connected_time":483000000000,"state":"active","ping":69},{"user_id":51,"name":"Thexx ❤","steam_id":76561198113823050,"connected_time":788000000000,"state":"active","ping":47},{"user_id":70,"name":"Schizophrenia Gaming","steam_id":76561198242118240,"connected_time":271000000000,"state":"active","ping":106},{"user_id":52,"name":"Sleuth","steam_id":76561198418288939,"connected_time":715000000000,"state":"active","ping":58},{"user_id":30,"name":"PPFitzenreit","steam_id":76561199381005210,"connected_time":2984000000000,"state":"active","ping":86},{"user_id":44,"name":"Seriously Bruh","steam_id":76561198070408485,"connected_time":1547000000000,"state":"active","ping":47}]},{"server_id":406,"name":"Uncletopia | Seattle | 3 | Stopwatch Beta","name_short":"sea-3","host":"sea-1.us.uncletopia.com","port":27035,"enabled":true,"region":"us-west","cc":"us","latitude":47.608013,"longitude":-122.33517,"reserved":0,"last_update":"0001-01-01T00:00:00Z","name_a2s":"Uncletopia | Seattle | 3 | Stopwatch Beta","protocol":17,"map":"pl_badwater","folder":"tf","game":"Team Fortress","app_id":440,"player_count":0,"max_players":24,"Bots":0,"server_type":"Dedicated","server_os":"Linux","password":true,"vac":true,"version":"7880732","steam_id":85568392924515217,"keywords":["nocrits","nodmgspread","payload","uncletopia"],"game_id":440,"stv_port":27036,"stv_name":"Uncletopia | Seattle | 3 | Stopwatch Beta | STV","players":null},{"server_id":17,"name":"Uncletopia | San Francisco | 1 | All Maps","name_short":"sfo-1","host":"sfo-1.us.uncletopia.com","port":27015,"enabled":true,"region":"us-west","cc":"us","latitude":37.77397,"longitude":-122.4313,"reserved":0,"last_update":"0001-01-01T00:00:00Z","name_a2s":"Uncletopia | San Francisco | 1 | All Maps","protocol":17,"map":"cp_altitude","folder":"tf","game":"Team Fortress","app_id":440,"player_count":0,"max_players":24,"Bots":0,"server_type":"Dedicated","server_os":"Linux","password":true,"vac":true,"version":"7757534","steam_id":85568392924469999,"keywords":["cp","nocrits","nodmgspread","uncletopia"],"game_id":440,"stv_port":27016,"stv_name":"Uncletopia | San Francisco | 1 | All Maps | STV","players":null},{"server_id":18,"name":"Uncletopia | San Francisco | 2 | All Maps","name_short":"sfo-2","host":"sfo-1.us.uncletopia.com","port":27025,"enabled":true,"region":"us-west","cc":"us","latitude":37.77397,"longitude":-122.4313,"reserved":0,"last_update":"0001-01-01T00:00:00Z","name_a2s":"Uncletopia | San Francisco | 2 | All Maps","protocol":17,"map":"koth_highpass","folder":"tf","game":"Team Fortress","app_id":440,"player_count":0,"max_players":24,"Bots":0,"server_type":"Dedicated","server_os":"Linux","password":true,"vac":true,"version":"7757534","steam_id":85568392924470000,"keywords":["cp","nocrits","nodmgspread","uncletopia"],"game_id":440,"stv_port":27026,"stv_name":"Uncletopia | San Francisco | 2 | All Maps | STV","players":null},{"server_id":19,"name":"Uncletopia | San Francisco | 3 | Stopwatch Beta","name_short":"sfo-3","host":"sfo-1.us.uncletopia.com","port":27035,"enabled":true,"region":"us-west","cc":"us","latitude":37.77397,"longitude":-122.4313,"reserved":0,"last_update":"0001-01-01T00:00:00Z","name_a2s":"Uncletopia | San Francisco | 3 | Stopwatch Beta","protocol":17,"map":"koth_lakeside_final","folder":"tf","game":"Team Fortress","app_id":440,"player_count":0,"max_players":24,"Bots":0,"server_type":"Dedicated","server_os":"Linux","password":true,"vac":true,"version":"7757534","steam_id":85568392924742824,"keywords":["cp","nocrits","nodmgspread","uncletopia"],"game_id":440,"stv_port":27036,"stv_name":"Uncletopia | San Francisco | 3 | Stopwatch Beta | STV","players":null},{"server_id":20,"name":"Uncletopia | San Francisco | 4 | Community","name_short":"sfo-4","host":"sfo-1.us.uncletopia.com","port":27045,"enabled":true,"region":"us-west","cc":"us","latitude":37.77397,"longitude":-122.4313,"reserved":0,"last_update":"0001-01-01T00:00:00Z","name_a2s":"Uncletopia | San Francisco | 4 | Community","protocol":17,"map":"cp_altitude","folder":"tf","game":"Team Fortress","app_id":440,"player_count":0,"max_players":24,"Bots":0,"server_type":"Dedicated","server_os":"Linux","password":true,"vac":true,"version":"7757534","steam_id":85568392924742826,"keywords":["cp","nocrits","nodmgspread","uncletopia"],"game_id":440,"stv_port":27046,"stv_name":"Uncletopia | San Francisco | 4 | Community | STV","players":null},{"server_id":141,"name":"Uncletopia | Sydney | 1 | All Maps","name_short":"syd-1","host":"syd-1.au.uncletopia.com","port":27015,"enabled":true,"region":"au","cc":"au","latitude":-33.865143,"longitude":151.2099,"reserved":0,"last_update":"0001-01-01T00:00:00Z","name_a2s":"Uncletopia | Sydney | 1 | All Maps","protocol":17,"map":"pl_pier","folder":"tf","game":"Team Fortress","app_id":440,"player_count":0,"max_players":24,"Bots":0,"server_type":"Dedicated","server_os":"Linux","password":true,"vac":true,"version":"7880732","steam_id":85568392924470001,"keywords":["nocrits","nodmgspread","payload","uncletopia"],"game_id":440,"stv_port":27016,"stv_name":"Uncletopia | Sydney | 1 | All Maps | STV","players":null},{"server_id":123,"name":"Uncletopia | Sydney | 2 | All Maps","name_short":"syd-2","host":"syd-1.au.uncletopia.com","port":27025,"enabled":true,"region":"au","cc":"au","latitude":-33.865143,"longitude":151.2099,"reserved":0,"last_update":"0001-01-01T00:00:00Z","name_a2s":"Uncletopia | Sydney | 2 | All Maps","protocol":17,"map":"pl_swiftwater_final1","folder":"tf","game":"Team Fortress","app_id":440,"player_count":0,"max_players":24,"Bots":0,"server_type":"Dedicated","server_os":"Linux","password":true,"vac":true,"version":"7880732","steam_id":85568392924470002,"keywords":["nocrits","nodmgspread","payload","uncletopia"],"game_id":440,"stv_port":27026,"stv_name":"Uncletopia | Sydney | 2 | All Maps | STV","players":null},{"server_id":395,"name":"Uncletopia | Sydney | 3 | All Maps","name_short":"syd-3","host":"syd-1.au.uncletopia.com","port":27035,"enabled":true,"region":"au","cc":"au","latitude":-33.865143,"longitude":151.2099,"reserved":0,"last_update":"0001-01-01T00:00:00Z","name_a2s":"Uncletopia | Sydney | 3 | All Maps","protocol":17,"map":"koth_viaduct","folder":"tf","game":"Team Fortress","app_id":440,"player_count":0,"max_players":24,"Bots":0,"server_type":"Dedicated","server_os":"Linux","password":true,"vac":true,"version":"7880732","steam_id":85568392925194467,"keywords":["cp","nocrits","nodmgspread","uncletopia"],"game_id":440,"stv_port":27036,"stv_name":"Uncletopia | Sydney | 3 | All Maps | STV","players":null},{"server_id":396,"name":"Uncletopia | Sydney | 4 | All Maps","name_short":"syd-4","host":"syd-1.au.uncletopia.com","port":27045,"enabled":true,"region":"au","cc":"au","latitude":-33.865143,"longitude":151.2099,"reserved":0,"last_update":"0001-01-01T00:00:00Z","name_a2s":"Uncletopia | Sydney | 4 | All Maps","protocol":17,"map":"pl_upward","folder":"tf","game":"Team Fortress","app_id":440,"player_count":0,"max_players":24,"Bots":0,"server_type":"Dedicated","server_os":"Linux","password":true,"vac":true,"version":"7880732","steam_id":85568392925397958,"keywords":["nocrits","nodmgspread","payload","uncletopia"],"game_id":440,"stv_port":27046,"stv_name":"Uncletopia | Sydney | 4 | All Maps | STV","players":null},{"server_id":58,"name":"Uncletopia | Sydney | 5 | Stopwatch Beta","name_short":"syd-5","host":"syd-1.au.uncletopia.com","port":27055,"enabled":true,"region":"au","cc":"au","latitude":-33.865143,"longitude":151.2099,"reserved":0,"last_update":"0001-01-01T00:00:00Z","name_a2s":"Uncletopia | Sydney | 5 | Stopwatch Beta","protocol":17,"map":"cp_altitude","folder":"tf","game":"Team Fortress","app_id":440,"player_count":0,"max_players":24,"Bots":0,"server_type":"Dedicated","server_os":"Linux","password":true,"vac":true,"version":"7880732","steam_id":85568392925397959,"keywords":["cp","nocrits","nodmgspread","uncletopia"],"game_id":440,"stv_port":27056,"stv_name":"Uncletopia | Sydney | 5 | Stopwatch Beta | STV","players":null},{"server_id":59,"name":"Uncletopia | Sydney | 6 | Community","name_short":"syd-6","host":"syd-1.au.uncletopia.com","port":27065,"enabled":true,"region":"au","cc":"au","latitude":-33.865143,"longitude":151.2099,"reserved":0,"last_update":"0001-01-01T00:00:00Z","name_a2s":"Uncletopia | Sydney | 6 | Community","protocol":17,"map":"pl_borneo","folder":"tf","game":"Team Fortress","app_id":440,"player_count":0,"max_players":24,"Bots":0,"server_type":"Dedicated","server_os":"Linux","password":true,"vac":true,"version":"7880732","steam_id":85568392925397960,"keywords":["nocrits","nodmgspread","payload","uncletopia"],"game_id":440,"stv_port":27066,"stv_name":"Uncletopia | Sydney | 6 | Community | STV","players":null},{"server_id":49,"name":"Uncletopia | Warsaw | 1 | All Maps","name_short":"waw-1","host":"waw-1.pl.uncletopia.com","port":27015,"enabled":true,"region":"eu","cc":"pl","latitude":52.2297,"longitude":21.017532,"reserved":0,"last_update":"0001-01-01T00:00:00Z","name_a2s":"","protocol":0,"map":"","folder":"","game":"","app_id":0,"player_count":0,"max_players":0,"Bots":0,"server_type":"","server_os":"","password":false,"vac":false,"version":"","steam_id":0,"keywords":null,"game_id":0,"stv_port":0,"stv_name":"","players":null},{"server_id":50,"name":"Uncletopia | Warsaw | 2 | All Maps","name_short":"waw-2","host":"waw-1.pl.uncletopia.com","port":27025,"enabled":true,"region":"eu","cc":"pl","latitude":52.2297,"longitude":21.017532,"reserved":0,"last_update":"0001-01-01T00:00:00Z","name_a2s":"Uncletopia | Warsaw | 2 | All Maps","protocol":17,"map":"cp_yukon_final","folder":"tf","game":"Team Fortress","app_id":440,"player_count":0,"max_players":24,"Bots":0,"server_type":"Dedicated","server_os":"Linux","password":true,"vac":true,"version":"7880732","steam_id":85568392925397851,"keywords":["cp","nocrits","nodmgspread","uncletopia"],"game_id":440,"stv_port":27026,"stv_name":"Uncletopia | Warsaw | 2 | All Maps | STV","players":null},{"server_id":51,"name":"Uncletopia | Warsaw | 3 | All Maps","name_short":"waw-3","host":"waw-1.pl.uncletopia.com","port":27035,"enabled":true,"region":"eu","cc":"pl","latitude":52.2297,"longitude":21.017532,"reserved":0,"last_update":"0001-01-01T00:00:00Z","name_a2s":"Uncletopia | Warsaw | 3 | All Maps","protocol":17,"map":"cp_yukon_final","folder":"tf","game":"Team Fortress","app_id":440,"player_count":0,"max_players":24,"Bots":0,"server_type":"Dedicated","server_os":"Linux","password":true,"vac":true,"version":"7880732","steam_id":85568392925397852,"keywords":["cp","nocrits","nodmgspread","uncletopia"],"game_id":440,"stv_port":27036,"stv_name":"Uncletopia | Warsaw | 3 | All Maps | STV","players":null},{"server_id":52,"name":"Uncletopia | Warsaw | 4 | All Maps","name_short":"waw-4","host":"waw-1.pl.uncletopia.com","port":27045,"enabled":true,"region":"eu","cc":"pl","latitude":52.2297,"longitude":21.017532,"reserved":0,"last_update":"0001-01-01T00:00:00Z","name_a2s":"Uncletopia | Warsaw | 4 | All Maps","protocol":17,"map":"cp_yukon_final","folder":"tf","game":"Team Fortress","app_id":440,"player_count":0,"max_players":24,"Bots":0,"server_type":"Dedicated","server_os":"Linux","password":true,"vac":true,"version":"7880732","steam_id":85568392925397853,"keywords":["cp","nocrits","nodmgspread","uncletopia"],"game_id":440,"stv_port":27046,"stv_name":"Uncletopia | Warsaw | 4 | All Maps | STV","players":null},{"server_id":53,"name":"Uncletopia | Warsaw | 5 | Stopwatch Beta","name_short":"waw-5","host":"waw-1.pl.uncletopia.com","port":27055,"enabled":true,"region":"eu","cc":"pl","latitude":52.2297,"longitude":21.017532,"reserved":0,"last_update":"0001-01-01T00:00:00Z","name_a2s":"Uncletopia | Warsaw | 5 | Stopwatch Beta","protocol":17,"map":"workshop/koth_ramjam_rc1.ugc459778887","folder":"tf","game":"Team Fortress","app_id":440,"player_count":0,"max_players":24,"Bots":0,"server_type":"Dedicated","server_os":"Linux","password":true,"vac":true,"version":"7880732","steam_id":85568392925397854,"keywords":["cp","nocrits","nodmgspread","uncletopia"],"game_id":440,"stv_port":27056,"stv_name":"Uncletopia | Warsaw | 5 | Stopwatch Beta | STV","players":null},{"server_id":54,"name":"Uncletopia | Warsaw | 6 | Community","name_short":"waw-6","host":"waw-1.pl.uncletopia.com","port":27065,"enabled":true,"region":"eu","cc":"pl","latitude":52.2297,"longitude":21.017532,"reserved":0,"last_update":"0001-01-01T00:00:00Z","name_a2s":"Uncletopia | Warsaw | 6 | Community","protocol":17,"map":"workshop/rd_asteroid_redux_b1.ugc2154902912","folder":"tf","game":"Team Fortress","app_id":440,"player_count":0,"max_players":24,"Bots":0,"server_type":"Dedicated","server_os":"Linux","password":true,"vac":true,"version":"7880732","steam_id":85568392925397856,"keywords":["beta","nocrits","nodmgspread","rd","uncletopia"],"game_id":440,"stv_port":27066,"stv_name":"Uncletopia | Warsaw | 6 | Community | STV","players":null}]}