{"status":true,"message":"","result":[{"server_id":9,"name":"Uncletopia | Atlanta | 1 | All Maps","name_short":"atl-1","host":"atl-1.us.uncletopia.com","port":27015,"enabled":true,"region":"us-east","cc":"us","latitude":33.753746,"longitude":-84.38633,"reserved":0,"last_update":"0001-01-01T00:00:00Z","name_a2s":"Uncletopia | Atlanta | 1 | All Maps","protocol":17,"map":"cp_dustbowl","folder":"tf","game":"Team Fortress","app_id":440,"player_count":24,"max_players":24,"Bots":0,"server_type":"Dedicated","server_os":"Linux","password":true,"vac":true,"version":"7961495","steam_id":85568392924469982,"keywords":["cp","nocrits","nodmgspread","uncletopia"],"game_id":440,"stv_port":27016,"stv_name":"Uncletopia | Atlanta | 1 | All Maps | STV","players":[{"user_id":303,"name":"eeeeeeeenE","steam_id":76561198857793523,"connected_time":2311000000000,"state":"active","ping":145},{"user_id":285,"name":"Ashes!","steam_id":76561197998475441,"connected_time":3794000000000,"state":"active","ping":77},{"user_id":312,"name":"lil hog","steam_id":76561199230929836,"connected_time":1749000000000,"state":"active","ping":82},{"user_id":318,"name":"Albino Jellyfish","steam_id":76561198208561097,"connected_time":867000000000,"state":"active","ping":55},{"user_id":234,"name":"Heathcliff","steam_id":76561198044288534,"connected_time":8894000000000,"state":"active","ping":79},{"user_id":287,"name":"DanielGarka","steam_id":76561198302972656,"connected_time":3784000000000,"state":"active","ping":162},{"user_id":276,"name":"Crystron","steam_id":76561198880437428,"connected_time":4423000000000,"state":"active","ping":88},{"user_id":321,"name":"Try Gardening","steam_id":76561198120311340,"connected_time":825000000000,"state":"active","ping":68},{"user_id":313,"name":"CoffeeZombee","steam_id":76561198172708053,"connected_time":1445000000000,"state":"active","ping":57},{"user_id":322,"name":"YOU WHAT?!","steam_id":76561198418679471,"connected_time":813000000000,"state":"active","ping":45},{"user_id":306,"name":"vv","steam_id":76561198134813102,"connected_time":2272000000000,"state":"active","ping":85},{"user_id":310,"name":"flwrgrl","steam_id":76561198815644949,"connected_time":2160000000000,"state":"active","ping":38},{"user_id":311,"name":"rose","steam_id":76561198048882285,"connected_time":2058000000000,"state":"active","ping":62},{"user_id":319,"name":"lynt","steam_id":76561198988333976,"connected_time":864000000000,"state":"active","ping":42},{"user_id":280,"name":"wooby","steam_id":76561198004610133,"connected_time":4267000000000,"state":"active","ping":75},{"user_id":298,"name":"zabloinkus","steam_id":76561198069967245,"connected_time":2826000000000,"state":"active","ping":84},{"user_id":302,"name":"The Twice-Gorped Morp","steam_id":76561198052636352,"connected_time":2329000000000,"state":"active","ping":134},{"user_id":323,"name":"Legit_Jaxer","steam_id":76561198172234053,"connected_time":715000000000,"state":"active","ping":110},{"user_id":325,"name":"'LaxAttack","steam_id":76561198044129346,"connected_time":690000000000,"state":"active","ping":79},{"user_id":267,"name":"the controller pyro","steam_id":76561199468748840,"connected_time":5343000000000,"state":"active","ping":67},{"user_id":326,"name":"Pugzilla","steam_id":76561198108088960,"connected_time":679000000000,"state":"active","ping":71},{"user_id":297,"name":"Onyx","steam_id":76561198275349640,"connected_time":3170000000000,"state":"active","ping":85},{"user_id":317,"name":"tgirl swag","steam_id":76561198128164970,"connected_time":958000000000,"state":"active","ping":101},{"user_id":314,"name":"Toasr","steam_id":76561199106140887,"connected_time":1408000000000,"state":"active","ping":78}]},{"server_id":104,"name":"Uncletopia | Atlanta | 2 | All Maps","name_short":"atl-2","host":"atl-1.us.uncletopia.com","port":27025,"enabled":true,"region":"us-east","cc":"us","latitude":33.753746,"longitude":-84.38633,"reserved":0,"last_update":"0001-01-01T00:00:00Z","name_a2s":"Uncletopia | Atlanta | 2 | All Maps","protocol":17,"map":"koth_cascade","folder":"tf","game":"Team Fortress","app_id":440,"player_count":1,"max_players":24,"Bots":0,"server_type":"Dedicated","server_os":"Linux","password":true,"vac":true,"version":"7961495","steam_id":85568392924469983,"keywords":["cp","nocrits","nodmgspread","uncletopia"],"game_id":440,"stv_port":27026,"stv_name":"Uncletopia | Atlanta | 2 | All Maps | STV","players":[{"user_id":12,"name":"Notorious Hume","steam_id":76561198078232724,"connected_time":201000000000,"state":"active","ping":59}]},{"server_id":400,"name":"Uncletopia | Atlanta | 3 | Stopwatch","name_short":"atl-3","host":"atl-1.us.uncletopia.com","port":27035,"enabled":true,"region":"us-east","cc":"us","latitude":33.753746,"longitude":-84.38633,"reserved":0,"last_update":"0001-01-01T00:00:00Z","name_a2s":"Uncletopia | Atlanta | 3 | Stopwatch","protocol":17,"map":"cp_gullywash_final1","folder":"tf","game":"Team Fortress","app_id":440,"player_count":0,"max_players":24,"Bots":0,"server_type":"Dedicated","server_os":"Linux","password":true,"vac":true,"version":"7961495","steam_id":85568392924515187,"keywords":["cp","nocrits","nodmgspread","uncletopia"],"game_id":440,"stv_port":27036,"stv_name":"Uncletopia | Atlanta | 3 | Stopwatch | STV","players":null},{"server_id":401,"name":"Uncletopia | Atlanta | 4 | Community","name_short":"atl-4","host":"atl-1.us.uncletopia.com","port":27045,"enabled":true,"region":"us-east","cc":"us","latitude":33.753746,"longitude":-84.38633,"reserved":0,"last_update":"0001-01-01T00:00:00Z","name_a2s":"Uncletopia | Atlanta | 4 | Community","protocol":17,"map":"workshop/koth_ashville_final.ugc2130459942","folder":"tf","game":"Team Fortress","app_id":440,"player_count":0,"max_players":24,"Bots":0,"server_type":"Dedicated","server_os":"Linux","password":true,"vac":true,"version":"7961495","steam_id":85568392924515188,"keywords":["cp","nocrits","nodmgspread","uncletopia"],"game_id":440,"stv_port":27046,"stv_name":"Uncletopia | Atlanta | 4 | Community | STV","players":null},{"server_id":2,"name":"Uncletopia | Chicago | 1 | All Maps","name_short":"chi-1","host":"chi-1.us.uncletopia.com","port":27015,"enabled":true,"region":"us-central","cc":"us","latitude":41.881832,"longitude":-87.62318,"reserved":0,"last_update":"0001-01-01T00:00:00Z","name_a2s":"Uncletopia | Chicago | 1 | All Maps","protocol":17,"map":"pl_swiftwater_final1","folder":"tf","game":"Team Fortress","app_id":440,"player_count":24,"max_players":24,"Bots":0,"server_type":"Dedicated","server_os":"Linux","password":true,"vac":true,"version":"7961495","steam_id":85568392924469984,"keywords":["nocrits","nodmgspread","payload","uncletopia"],"game_id":440,"stv_port":27016,"stv_name":"Uncletopia | Chicago | 1 | All Maps | STV","players":[{"user_id":163,"name":"Fuegisimo","steam_id":76561198033678698,"connected_time":250000000000,"state":"active","ping":45},{"user_id":161,"name":"vacachimuela","steam_id":76561198297332421,"connected_time":271000000000,"state":"active","ping":107},{"user_id":74,"name":"Dragus","steam_id":76561198032967285,"connected_time":6411000000000,"state":"active","ping":53},{"user_id":136,"name":"No√´l610","steam_id":76561198850011631,"connected_time":1904000000000,"state":"active","ping":72},{"user_id":164,"name":"Fercho Mo","steam_id":76561198168935077,"connected_time":237000000000,"state":"active","ping":100},{"user_id":84,"name":"cannanza * \u003c3 teafy","steam_id":76561198103496593,"connected_time":5226000000000,"state":"active","ping":61},{"user_id":155,"name":"Fanatic","steam_id":76561198036960509,"connected_time":747000000000,"state":"active","ping":60},{"user_id":162,"name":"Carpetspill","steam_id":76561198240023406,"connected_time":261000000000,"state":"active","ping":83},{"user_id":159,"name":"Papillon","steam_id":76561198049725849,"connected_time":402000000000,"state":"active","ping":75},{"user_id":169,"name":"PootisMedic","steam_id":76561198882990007,"connected_time":58000000000,"state":"active","ping":45},{"user_id":166,"name":"toastman","steam_id":76561198207073088,"connected_time":226000000000,"state":"active","ping":65},{"user_id":170,"name":"Cassini","steam_id":76561198318526294,"connected_time":10000000000,"state":"active","ping":111},{"user_id":167,"name":"TerracottaP","steam_id":76561199402983168,"connected_time":220000000000,"state":"active","ping":76},{"user_id":49,"name":"Siz","steam_id":76561198072962154,"connected_time":8120000000000,"state":"active","ping":80},{"user_id":160,"name":"Looge","steam_id":76561198155483586,"connected_time":280000000000,"state":"active","ping":54},{"user_id":140,"name":"Horrowes","steam_id":76561198318446417,"connected_time":1751000000000,"state":"active","ping":82},{"user_id":153,"name":"Muffin","steam_id":76561198111403028,"connected_time":1029000000000,"state":"active","ping":49},{"user_id":157,"name":"Fred Ott","steam_id":76561198099088693,"connected_time":544000000000,"state":"active","ping":69},{"user_id":141,"name":"Back from the Grave","steam_id":76561198051003187,"connected_time":1735000000000,"state":"active","ping":78},{"user_id":134,"name":"ncc_42","steam_id":76561198066377700,"connected_time":1973000000000,"state":"active","ping":60},{"user_id":143,"name":"MattTheRatt","steam_id":76561198088256977,"connected_time":1702000000000,"state":"active","ping":86},{"user_id":168,"name":"This is my house, dude.","steam_id":76561198066566813,"connected_time":188000000000,"state":"active","ping":139},{"user_id":137,"name":"m.a.d.","steam_id":76561198040553982,"connected_time":1854000000000,"state":"active","ping":62},{"user_id":152,"name":"Philo","steam_id":76561198061873341,"connected_time":1042000000000,"state":"active","ping":97}]},{"server_id":106,"name":"Uncletopia | Chicago | 2 | All Maps","name_short":"chi-2","host":"chi-1.us.uncletopia.com","port":27025,"enabled":true,"region":"us-central","cc":"us","latitude":41.881832,"longitude":-87.62318,"reserved":0,"last_update":"0001-01-01T00:00:00Z","name_a2s":"Uncletopia | Chicago | 2 | All Maps","protocol":17,"map":"pl_upward","folder":"tf","game":"Team Fortress","app_id":440,"player_count":24,"max_players":24,"Bots":0,"server_type":"Dedicated","server_os":"Linux","password":true,"vac":true,"version":"7961495","steam_id":85568392924469985,"keywords":["nocrits","nodmgspread","payload","uncletopia"],"game_id":440,"stv_port":27026,"stv_name":"Uncletopia | Chicago | 2 | All Maps | STV","players":[{"user_id":108,"name":"Hunt0rb","steam_id":76561198120527608,"connected_time":1497000000000,"state":"active","ping":69},{"user_id":115,"name":"peace dog","steam_id":76561198267988522,"connected_time":1024000000000,"state":"active","ping":75},{"user_id":107,"name":"fluidity","steam_id":76561198109084485,"connected_time":1539000000000,"state":"active","ping":60},{"user_id":42,"name":"Blargh","steam_id":76561198044095816,"connected_time":6831000000000,"state":"active","ping":75},{"user_id":117,"name":"Lucy Lou!","steam_id":76561198078209088,"connected_time":976000000000,"state":"active","ping":43},{"user_id":109,"name":"Chicken","steam_id":76561198855273194,"connected_time":1482000000000,"state":"active","ping":69},{"user_id":98,"name":"(Edited)","steam_id":76561198201657342,"connected_time":2410000000000,"state":"active","ping":77},{"user_id":113,"name":"Jim the Fish","steam_id":76561199135784419,"connected_time":1158000000000,"state":"active","ping":126},{"user_id":114,"name":"Snivy64","steam_id":76561198423445376,"connected_time":1126000000000,"state":"active","ping":89},{"user_id":101,"name":"Lord Cutler Beckett","steam_id":76561198091356047,"connected_time":2162000000000,"state":"active","ping":60},{"user_id":65,"name":"oyasumi","steam_id":76561198128614882,"connected_time":4220000000000,"state":"active","ping":68},{"user_id":78,"name":"dox","steam_id":76561198838245430,"connected_time":3712000000000,"state":"active","ping":59},{"user_id":110,"name":"Thai","steam_id":76561198302397245,"connected_time":1468000000000,"state":"active","ping":62},{"user_id":102,"name":"Boofenshmirtz","steam_id":76561198071649858,"connected_time":2095000000000,"state":"active","ping":71},{"user_id":116,"name":"Stevelonk","steam_id":76561198088224665,"connected_time":984000000000,"state":"active","ping":74},{"user_id":103,"name":"loscemo","steam_id":76561197994884609,"connected_time":1928000000000,"state":"active","ping":50},{"user_id":90,"name":"arb1ter","steam_id":76561198042855616,"connected_time":3010000000000,"state":"active","ping":83},{"user_id":126,"name":"Wigl","steam_id":76561198019324464,"connected_time":206000000000,"state":"active","ping":73},{"user_id":74,"name":"SuperJagops","steam_id":76561198034689716,"connected_time":4027000000000,"state":"active","ping":67},{"user_id":118,"name":"Billyjoe3000","steam_id":76561198306524388,"connected_time":960000000000,"state":"active","ping":72},{"user_id":121,"name":"Seaport Hime","steam_id":76561198055914224,"connected_time":550000000000,"state":"active","ping":67},{"user_id":106,"name":"La Tabda","steam_id":76561198120364620,"connected_time":1679000000000,"state":"active","ping":91},{"user_id":124,"name":"Comfy!","steam_id":76561198008818346,"connected_time":238000000000,"state":"active","ping":88},{"user_id":127,"name":"imng","steam_id":76561198014988031,"connected_time":68000000000,"state":"active","ping":71}]},{"server_id":402,"name":"Uncletopia | Chicago | 3 | All Maps","name_short":"chi-3","host":"chi-1.us.uncletopia.com","port":27035,"enabled":true,"region":"us-central","cc":"us","latitude":41.881832,"longitude":-87.62318,"reserved":0,"last_update":"0001-01-01T00:00:00Z","name_a2s":"Uncletopia | Chicago | 3 | All Maps","protocol":17,"map":"pl_snowycoast","folder":"tf","game":"Team Fortress","app_id":440,"player_count":24,"max_players":24,"Bots":0,"server_type":"Dedicated","server_os":"Linux","password":true,"vac":true,"version":"7961495","steam_id":85568392924515191,"keywords":["nocrits","nodmgspread","payload","uncletopia"],"game_id":440,"stv_port":27036,"stv_name":"Uncletopia | Chicago | 3 | All Maps | STV","players":[{"user_id":370,"name":"Strange Diplomat","steam_id":76561198428191920,"connected_time":9431000000000,"state":"active","ping":68},{"user_id":479,"name":"Beejamoose","steam_id":76561198083117844,"connected_time":814000000000,"state":"active","ping":76},{"user_id":424,"name":"Frank","steam_id":76561198428759980,"connected_time":4072000000000,"state":"active","ping":76},{"user_id":416,"name":"Ockulus","steam_id":76561199069638460,"connected_time":4524000000000,"state":"active","ping":105},{"user_id":496,"name":"2bcoffee","steam_id":76561198810469767,"connected_time":236000000000,"state":"active","ping":77},{"user_id":497,"name":"3ggsalad3","steam_id":76561199386969191,"connected_time":178000000000,"state":"active","ping":47},{"user_id":414,"name":"[F2P] Chionophile Princess","steam_id":76561198082693090,"connected_time":4693000000000,"state":"active","ping":66},{"user_id":487,"name":"Cereal Killer","steam_id":76561198052368295,"connected_time":512000000000,"state":"active","ping":84},{"user_id":498,"name":"Inferbruh","steam_id":76561198381636477,"connected_time":174000000000,"state":"active","ping":94},{"user_id":428,"name":"Dr Oshawott","steam_id":76561198042021629,"connected_time":3663000000000,"state":"active","ping":66},{"user_id":494,"name":"thecal","steam_id":76561198307893384,"connected_time":387000000000,"state":"active","ping":55},{"user_id":425,"name":"!warn No RDM allowed","steam_id":76561198408159536,"connected_time":3818000000000,"state":"active","ping":47},{"user_id":493,"name":"‚ô°Mogwr‚ô°","steam_id":76561198124942972,"connected_time":395000000000,"state":"active","ping":83},{"user_id":478,"name":"[DATS‚û°] Sugar Meowth","steam_id":76561197995251793,"connected_time":837000000000,"state":"active","ping":90},{"user_id":448,"name":"dadgummit","steam_id":76561198005806915,"connected_time":2549000000000,"state":"active","ping":78},{"user_id":476,"name":"blamblam","steam_id":76561198091049434,"connected_time":1002000000000,"state":"active","ping":67},{"user_id":450,"name":"Power","steam_id":76561197978508626,"connected_time":2477000000000,"state":"active","ping":75},{"user_id":499,"name":"Hepi","steam_id":76561199171919713,"connected_time":172000000000,"state":"active","ping":65},{"user_id":458,"name":"coda","steam_id":76561198092052685,"connected_time":1960000000000,"state":"active","ping":73},{"user_id":489,"name":"Kritzburgh","steam_id":76561198149466938,"connected_time":484000000000,"state":"active","ping":66},{"user_id":471,"name":"frog from pondAT","steam_id":76561198184900753,"connected_time":1212000000000,"state":"active","ping":59},{"user_id":464,"name":"Ekohtwo","steam_id":76561198067994868,"connected_time":1655000000000,"state":"active","ping":69},{"user_id":501,"name":"Irish Empire","steam_id":76561199107427068,"connected_time":135000000000,"state":"active","ping":116},{"user_id":503,"name":"Riff III","steam_id":76561198066921423,"connected_time":62000000000,"state":"active","ping":70}]},{"server_id":403,"name":"Uncletopia | Chicago | 4 | All Maps","name_short":"chi-4","host":"chi-1.us.uncletopia.com","port":27045,"enabled":true,"region":"us-central","cc":"us","latitude":41.881832,"longitude":-87.62318,"reserved":0,"last_update":"0001-01-01T00:00:00Z","name_a2s":"Uncletopia | Chicago | 4 | All Maps","protocol":17,"map":"koth_cascade","folder":"tf","game":"Team Fortress","app_id":440,"player_count":2,"max_players":24,"Bots":0,"server_type":"Dedicated","server_os":"Linux","password":true,"vac":true,"version":"7961495","steam_id":85568392924515193,"keywords":["cp","nocrits","nodmgspread","uncletopia"],"game_id":440,"stv_port":27046,"stv_name":"Uncletopia | Chicago | 4 | All Maps | STV","players":[{"user_id":9,"name":"BugsAreMyWorstEnemy","steam_id":76561199440395505,"connected_time":805000000000,"state":"active","ping":61},{"user_id":11,"name":"Killua","steam_id":76561198405299137,"connected_time":512000000000,"state":"active","ping":60}]},{"server_id":36,"name":"Uncletopia | Chicago | 5 | All Maps","name_short":"chi-5","host":"chi-2.us.uncletopia.com","port":27015,"enabled":true,"region":"us-central","cc":"us","latitude":41.881832,"longitude":-87.62318,"reserved":0,"last_update":"0001-01-01T00:00:00Z","name_a2s":"Uncletopia | Chicago | 5 | All Maps","protocol":17,"map":"koth_viaduct","folder":"tf","game":"Team Fortress","app_id":440,"player_count":0,"max_players":24,"Bots":0,"server_type":"Dedicated","server_os":"Linux","password":true,"vac":true,"version":"7961495","steam_id":85568392924866362,"keywords":["cp","nocrits","nodmgspread","uncletopia"],"game_id":440,"stv_port":27016,"stv_name":"Uncletopia | Chicago | 5 | All Maps | STV","players":null},{"server_id":37,"name":"Uncletopia | Chicago | 6 | All Maps","name_short":"chi-6","host":"chi-2.us.uncletopia.com","port":27025,"enabled":true,"region":"us-central","cc":"us","latitude":41.881832,"longitude":-87.62318,"reserved":0,"last_update":"0001-01-01T00:00:00Z","name_a2s":"Uncletopia | Chicago | 6 | All Maps","protocol":17,"map":"pl_badwater","folder":"tf","game":"Team Fortress","app_id":440,"player_count":0,"max_players":24,"Bots":0,"server_type":"Dedicated","server_os":"Linux","password":true,"vac":true,"version":"7961495","steam_id":85568392924866363,"keywords":["nocrits","nodmgspread","payload","uncletopia"],"game_id":440,"stv_port":27026,"stv_name":"Uncletopia | Chicago | 6 | All Maps | STV","players":null},{"server_id":38,"name":"Uncletopia | Chicago | 7 | Stopwatch","name_short":"chi-7","host":"chi-2.us.uncletopia.com","port":27035,"enabled":true,"region":"us-central","cc":"us","latitude":41.881832,"longitude":-87.62318,"reserved":0,"last_update":"0001-01-01T00:00:00Z","name_a2s":"Uncletopia | Chicago | 7 | Stopwatch","protocol":17,"map":"workshop/koth_bagel_rc6.ugc2514036946","folder":"tf","game":"Team Fortress","app_id":440,"player_count":0,"max_players":24,"Bots":0,"server_type":"Dedicated","server_os":"Linux","password":true,"vac":true,"version":"7961495","steam_id":85568392924866364,"keywords":["cp","nocrits","nodmgspread","uncletopia"],"game_id":440,"stv_port":27036,"stv_name":"Uncletopia | Chicago | 7 | Stopwatch | STV","players":null},{"server_id":39,"name":"Uncletopia | Chicago | 8 | Community","name_short":"chi-8","host":"chi-2.us.uncletopia.com","port":27045,"enabled":true,"region":"us-central","cc":"us","latitude":41.881832,"longitude":-87.62318,"reserved":0,"last_update":"0001-01-01T00:00:00Z","name_a2s":"Uncletopia | Chicago | 8 | Community","protocol":17,"map":"workshop/koth_synthetic_rc6a.ugc1549817316","folder":"tf","game":"Team Fortress","app_id":440,"player_count":0,"max_players":24,"Bots":0,"server_type":"Dedicated","server_os":"Linux","password":true,"vac":true,"version":"7961495","steam_id":85568392924866365,"keywords":["cp","nocrits","nodmgspread","uncletopia"],"game_id":440,"stv_port":27046,"stv_name":"Uncletopia | Chicago | 8 | Community | STV","players":null},{"server_id":8,"name":"Uncletopia | Dallas | 1 | All Maps","name_short":"dal-1","host":"dal-1.us.uncletopia.com","port":27015,"enabled":true,"region":"us-central","cc":"us","latitude":32.779167,"longitude":-96.80889,"reserved":0,"last_update":"0001-01-01T00:00:00Z","name_a2s":"Uncletopia | Dallas | 1 | All Maps","protocol":17,"map":"koth_viaduct","folder":"tf","game":"Team Fortress","app_id":440,"player_count":0,"max_players":24,"Bots":0,"server_type":"Dedicated","server_os":"Linux","password":true,"vac":true,"version":"7961495","steam_id":85568392924469986,"keywords":["cp","nocrits","nodmgspread","uncletopia"],"game_id":440,"stv_port":27016,"stv_name":"Uncletopia | Dallas | 1 | All Maps | STV","players":null},{"server_id":108,"name":"Uncletopia | Dallas | 2 | All Maps","name_short":"dal-2","host":"dal-1.us.uncletopia.com","port":27025,"enabled":true,"region":"us-central","cc":"us","latitude":32.779167,"longitude":-96.80889,"reserved":0,"last_update":"0001-01-01T00:00:00Z","name_a2s":"Uncletopia | Dallas | 2 | All Maps","protocol":17,"map":"pl_badwater","folder":"tf","game":"Team Fortress","app_id":440,"player_count":24,"max_players":24,"Bots":0,"server_type":"Dedicated","server_os":"Linux","password":true,"vac":true,"version":"7961495","steam_id":85568392924469988,"keywords":["nocrits","nodmgspread","payload","uncletopia"],"game_id":440,"stv_port":27026,"stv_name":"Uncletopia | Dallas | 2 | All Maps | STV","players":[{"user_id":268,"name":"Gargathor the Entity Catcher","steam_id":76561198189429665,"connected_time":411000000000,"state":"active","ping":75},{"user_id":238,"name":"LegendaireNic","steam_id":76561198211753861,"connected_time":3232000000000,"state":"active","ping":97},{"user_id":262,"name":"The Grim Heaper","steam_id":76561197987759101,"connected_time":985000000000,"state":"active","ping":111},{"user_id":263,"name":"Len","steam_id":76561199141913673,"connected_time":850000000000,"state":"active","ping":37},{"user_id":254,"name":"Evil little man","steam_id":76561198311053471,"connected_time":2332000000000,"state":"active","ping":49},{"user_id":269,"name":"BL√òRG","steam_id":76561198036126673,"connected_time":242000000000,"state":"active","ping":73},{"user_id":266,"name":"ZombieSlayer77","steam_id":76561199023974356,"connected_time":741000000000,"state":"active","ping":92},{"user_id":270,"name":"Fresh Lychee","steam_id":76561198045399559,"connected_time":236000000000,"state":"active","ping":76},{"user_id":252,"name":"Spud \u003c3","steam_id":76561198208657333,"connected_time":2391000000000,"state":"active","ping":75},{"user_id":255,"name":"johnwayne","steam_id":76561199061380038,"connected_time":2302000000000,"state":"active","ping":75},{"user_id":256,"name":"ApocalypticFirefly","steam_id":76561198064405546,"connected_time":2281000000000,"state":"active","ping":178},{"user_id":206,"name":"K2f","steam_id":76561198049600563,"connected_time":5829000000000,"state":"active","ping":77},{"user_id":265,"name":"batheman63","steam_id":76561198881818552,"connected_time":816000000000,"state":"active","ping":100},{"user_id":271,"name":"Tony Bananas","steam_id":76561197986081494,"connected_time":224000000000,"state":"active","ping":56},{"user_id":227,"name":"Sentry Gun Main Man","steam_id":76561198327938247,"connected_time":4501000000000,"state":"active","ping":87},{"user_id":261,"name":"AckWhack","steam_id":76561199060503258,"connected_time":1167000000000,"state":"active","ping":86},{"user_id":203,"name":"mkl","steam_id":76561197986401685,"connected_time":6047000000000,"state":"active","ping":63},{"user_id":272,"name":"somewhat silly","steam_id":76561198010269150,"connected_time":209000000000,"state":"active","ping":100},{"user_id":225,"name":"mini boss","steam_id":76561198062763756,"connected_time":4525000000000,"state":"active","ping":78},{"user_id":231,"name":"Bomb Squirtle‚Ñ¢","steam_id":76561197998931145,"connected_time":3932000000000,"state":"active","ping":102},{"user_id":259,"name":"the BIG BOI","steam_id":76561199433957660,"connected_time":1807000000000,"state":"active","ping":99},{"user_id":273,"name":"schizophrenic pyro","steam_id":76561198805603832,"connected_time":199000000000,"state":"active","ping":97},{"user_id":260,"name":"Yam Jazzy Jim","steam_id":76561198000788950,"connected_time":1588000000000,"state":"active","ping":86},{"user_id":232,"name":"CrŒªf227","steam_id":76561198196211121,"connected_time":3923000000000,"state":"active","ping":64}]},{"server_id":404,"name":"Uncletopia | Dallas | 3 | All Maps","name_short":"dal-3","host":"dal-1.us.uncletopia.com","port":27035,"enabled":true,"region":"us-central","cc":"us","latitude":32.779167,"longitude":-96.80889,"reserved":0,"last_update":"0001-01-01T00:00:00Z","name_a2s":"Uncletopia | Dallas | 3 | All Maps","protocol":17,"map":"pl_badwater","folder":"tf","game":"Team Fortress","app_id":440,"player_count":0,"max_players":24,"Bots":0,"server_type":"Dedicated","server_os":"Linux","password":true,"vac":true,"version":"7961495","steam_id":85568392924515219,"keywords":["nocrits","nodmgspread","payload","uncletopia"],"game_id":440,"stv_port":27036,"stv_name":"Uncletopia | Dallas | 3 | All Maps | STV","players":null},{"server_id":405,"name":"Uncletopia | Dallas | 4 | Community","name_short":"dal-4","host":"dal-1.us.uncletopia.com","port":27045,"enabled":true,"region":"us-central","cc":"us","latitude":32.779167,"longitude":-96.80889,"reserved":0,"last_update":"0001-01-01T00:00:00Z","name_a2s":"Uncletopia | Dallas | 4 | Community","protocol":17,"map":"pl_pier","folder":"tf","game":"Team Fortress","app_id":440,"player_count":0,"max_players":24,"Bots":0,"server_type":"Dedicated","server_os":"Linux","password":true,"vac":true,"version":"7961495","steam_id":85568392924515220,"keywords":["nocrits","nodmgspread","payload","uncletopia"],"game_id":440,"stv_port":27046,"stv_name":"Uncletopia | Dallas | 4 | Community | STV","players":null},{"server_id":5,"name":"Uncletopia | Frankfurt | 1 | All Maps","name_short":"frk-1","host":"frk-1.de.uncletopia.com","port":27015,"enabled":true,"region":"eu","cc":"de","latitude":50.110924,"longitude":8.682127,"reserved":0,"last_update":"0001-01-01T00:00:00Z","name_a2s":"Uncletopia | Frankfurt | 1 | All Maps","protocol":17,"map":"cp_process_final","folder":"tf","game":"Team Fortress","app_id":440,"player_count":24,"max_players":24,"Bots":0,"server_type":"Dedicated","server_os":"Linux","password":true,"vac":true,"version":"7961495","steam_id":85568392924469989,"keywords":["cp","nocrits","nodmgspread","uncletopia"],"game_id":440,"stv_port":27016,"stv_name":"Uncletopia | Frankfurt | 1 | All Maps | STV","players":[{"user_id":727,"name":"RedFlameGamer","steam_id":76561198057044425,"connected_time":866000000000,"state":"active","ping":79},{"user_id":617,"name":"Yoshi Island Speedrun","steam_id":76561198046873337,"connected_time":6825000000000,"state":"active","ping":69},{"user_id":740,"name":"Aphrodite","steam_id":76561199085162623,"connected_time":280000000000,"state":"active","ping":67},{"user_id":723,"name":"KLAMA  ‚ù§","steam_id":76561198351549661,"connected_time":1283000000000,"state":"active","ping":60},{"user_id":724,"name":"peruna","steam_id":76561198000721196,"connected_time":1216000000000,"state":"active","ping":93},{"user_id":722,"name":"frequeNt_","steam_id":76561198087457220,"connected_time":1685000000000,"state":"active","ping":66},{"user_id":626,"name":"Snd","steam_id":76561198010816408,"connected_time":6713000000000,"state":"active","ping":126},{"user_id":715,"name":"fish","steam_id":76561198092096689,"connected_time":2113000000000,"state":"active","ping":45},{"user_id":734,"name":"foxn573991","steam_id":76561197967712347,"connected_time":507000000000,"state":"active","ping":97},{"user_id":729,"name":"Tr4ilmaker","steam_id":76561198187758614,"connected_time":663000000000,"state":"active","ping":57},{"user_id":716,"name":"Benito Mussolini","steam_id":76561198362801147,"connected_time":2069000000000,"state":"active","ping":98},{"user_id":735,"name":"meap","steam_id":76561198126639221,"connected_time":497000000000,"state":"active","ping":92},{"user_id":739,"name":"miiq130","steam_id":76561198188010666,"connected_time":376000000000,"state":"active","ping":75},{"user_id":659,"name":"TheDeath","steam_id":76561198265038954,"connected_time":4554000000000,"state":"active","ping":58},{"user_id":733,"name":"Mangophysics","steam_id":76561198328905546,"connected_time":558000000000,"state":"active","ping":114},{"user_id":598,"name":"collat chris","steam_id":76561198076219289,"connected_time":8422000000000,"state":"active","ping":56},{"user_id":703,"name":"romov","steam_id":76561199182288871,"connected_time":2654000000000,"state":"active","ping":91},{"user_id":741,"name":"Dr.eggman","steam_id":76561198057707263,"connected_time":274000000000,"state":"active","ping":59},{"user_id":681,"name":"Kenny","steam_id":76561198994898206,"connected_time":3336000000000,"state":"active","ping":62},{"user_id":726,"name":"rob","steam_id":76561198122211848,"connected_time":921000000000,"state":"active","ping":86},{"user_id":661,"name":"Umme","steam_id":76561198053809566,"connected_time":4515000000000,"state":"active","ping":79},{"user_id":613,"name":"epic_furry_gamer_7","steam_id":76561198010662796,"connected_time":7333000000000,"state":"active","ping":59},{"user_id":738,"name":"F2P Challenge","steam_id":76561199498773639,"connected_time":415000000000,"state":"active","ping":75},{"user_id":728,"name":"BurningJoke","steam_id":76561199014358707,"connected_time":838000000000,"state":"active","ping":49}]},{"server_id":110,"name":"Uncletopia | Frankfurt | 2 | All Maps","name_short":"frk-2","host":"frk-1.de.uncletopia.com","port":27025,"enabled":true,"region":"eu","cc":"de","latitude":50.110924,"longitude":8.682127,"reserved":0,"last_update":"0001-01-01T00:00:00Z","name_a2s":"Uncletopia | Frankfurt | 2 | All Maps","protocol":17,"map":"cp_process_final","folder":"tf","game":"Team Fortress","app_id":440,"player_count":24,"max_players":24,"Bots":0,"server_type":"Dedicated","server_os":"Linux","password":true,"vac":true,"version":"7961495","steam_id":85568392924469990,"keywords":["cp","nocrits","nodmgspread","uncletopia"],"game_id":440,"stv_port":27026,"stv_name":"Uncletopia | Frankfurt | 2 | All Maps | STV","players":[{"user_id":482,"name":"Futaro","steam_id":76561198084534929,"connected_time":533000000000,"state":"active","ping":60},{"user_id":459,"name":"Udinese Dion","steam_id":76561198067931573,"connected_time":2198000000000,"state":"active","ping":53},{"user_id":485,"name":"Subterranean","steam_id":76561198106684566,"connected_time":186000000000,"state":"active","ping":78},{"user_id":472,"name":"Nithle","steam_id":76561198025372740,"connected_time":940000000000,"state":"active","ping":48},{"user_id":484,"name":"Deogard","steam_id":76561198014427090,"connected_time":257000000000,"state":"active","ping":75},{"user_id":486,"name":"pfear","steam_id":76561197999207328,"connected_time":79000000000,"state":"active","ping":75},{"user_id":468,"name":"Rock","steam_id":76561198314554574,"connected_time":1063000000000,"state":"active","ping":90},{"user_id":241,"name":"Gaxkang","steam_id":76561198125768571,"connected_time":18284000000000,"state":"active","ping":69},{"user_id":474,"name":"laido riteris","steam_id":76561199098499873,"connected_time":843000000000,"state":"active","ping":59},{"user_id":480,"name":"Bai lan do","steam_id":76561198176442942,"connected_time":577000000000,"state":"active","ping":69},{"user_id":465,"name":"plazma","steam_id":76561198886594048,"connected_time":1287000000000,"state":"active","ping":98},{"user_id":446,"name":"Cursed","steam_id":76561198188608817,"connected_time":3430000000000,"state":"active","ping":35},{"user_id":389,"name":"CzechMate #SaveTF2","steam_id":76561198012687703,"connected_time":7770000000000,"state":"active","ping":45},{"user_id":471,"name":"Favi","steam_id":76561198013236935,"connected_time":1035000000000,"state":"active","ping":76},{"user_id":458,"name":"Û†Ä°Û†Ä°","steam_id":76561198059375315,"connected_time":2212000000000,"state":"active","ping":67},{"user_id":473,"name":"chrisuu","steam_id":76561198994948011,"connected_time":900000000000,"state":"active","ping":74},{"user_id":487,"name":"FatSweatyBlackMan","steam_id":76561199020244051,"connected_time":44000000000,"state":"active","ping":178},{"user_id":475,"name":"Kappa","steam_id":76561198089341471,"connected_time":822000000000,"state":"active","ping":72},{"user_id":430,"name":"xavier","steam_id":76561198076494034,"connected_time":5185000000000,"state":"active","ping":59},{"user_id":476,"name":"Nebvlak! on Spotify","steam_id":76561199028057296,"connected_time":792000000000,"state":"active","ping":66},{"user_id":477,"name":"mumbler","steam_id":76561197970641239,"connected_time":784000000000,"state":"active","ping":46},{"user_id":424,"name":"gagalak","steam_id":76561198089979108,"connected_time":6094000000000,"state":"active","ping":120},{"user_id":449,"name":"always go marketplace naked","steam_id":76561198188647690,"connected_time":3121000000000,"state":"active","ping":71},{"user_id":483,"name":"Vince","steam_id":76561199103000131,"connected_time":456000000000,"state":"active","ping":60}]},{"server_id":308,"name":"Uncletopia | Frankfurt | 3 | All Maps","name_short":"frk-3","host":"frk-1.de.uncletopia.com","port":27035,"enabled":true,"region":"eu","cc":"de","latitude":50.110924,"longitude":8.682127,"reserved":0,"last_update":"0001-01-01T00:00:00Z","name_a2s":"Uncletopia | Frankfurt | 3 | All Maps","protocol":17,"map":"cp_dustbowl","folder":"tf","game":"Team Fortress","app_id":440,"player_count":24,"max_players":24,"Bots":0,"server_type":"Dedicated","server_os":"Linux","password":true,"vac":true,"version":"7961495","steam_id":85568392924504274,"keywords":["cp","nocrits","nodmgspread","uncletopia"],"game_id":440,"stv_port":27036,"stv_name":"Uncletopia | Frankfurt | 3 | All Maps | STV","players":[{"user_id":621,"name":"sloppy transgirl toppy","steam_id":76561198057092208,"connected_time":2115000000000,"state":"active","ping":60},{"user_id":639,"name":"shablool","steam_id":76561199192795613,"connected_time":373000000000,"state":"active","ping":85},{"user_id":496,"name":"Joe","steam_id":76561198061717026,"connected_time":9234000000000,"state":"active","ping":57},{"user_id":587,"name":"Mr Season","steam_id":76561198014005263,"connected_time":3677000000000,"state":"active","ping":96},{"user_id":640,"name":"Caruzon - Obismal","steam_id":76561198036211170,"connected_time":357000000000,"state":"active","ping":74},{"user_id":647,"name":"dont K*LL john oliver","steam_id":76561198015918787,"connected_time":56000000000,"state":"active","ping":64},{"user_id":642,"name":"Gabibikus den fagre","steam_id":76561198089248987,"connected_time":318000000000,"state":"active","ping":75},{"user_id":525,"name":"Lucky Number 13","steam_id":76561198043951279,"connected_time":7892000000000,"state":"active","ping":111},{"user_id":608,"name":"Artemis","steam_id":76561198199091801,"connected_time":2565000000000,"state":"active","ping":44},{"user_id":643,"name":"Michalo","steam_id":76561198195021867,"connected_time":312000000000,"state":"active","ping":85},{"user_id":644,"name":"DHD - Obismal","steam_id":76561198000356530,"connected_time":300000000000,"state":"active","ping":75},{"user_id":591,"name":"Yuzu","steam_id":76561198121694613,"connected_time":3452000000000,"state":"active","ping":45},{"user_id":648,"name":"Saucisse","steam_id":76561198119955969,"connected_time":55000000000,"state":"active","ping":67},{"user_id":585,"name":"Papa Cheese","steam_id":76561198276351496,"connected_time":3689000000000,"state":"active","ping":55},{"user_id":612,"name":"gaming (official)","steam_id":76561198106012909,"connected_time":2499000000000,"state":"active","ping":68},{"user_id":645,"name":"Caliban","steam_id":76561197999696839,"connected_time":173000000000,"state":"active","ping":108},{"user_id":634,"name":"kbbq -remove sniper rifles","steam_id":76561198346638308,"connected_time":791000000000,"state":"active","ping":66},{"user_id":630,"name":"kana","steam_id":76561198002343512,"connected_time":1386000000000,"state":"active","ping":79},{"user_id":544,"name":"MARKO","steam_id":76561198065127504,"connected_time":6246000000000,"state":"active","ping":62},{"user_id":579,"name":"mommyüñ§x_x","steam_id":76561199204257697,"connected_time":4123000000000,"state":"active","ping":62},{"user_id":593,"name":"JVLIVS","steam_id":76561198366167099,"connected_time":3435000000000,"state":"active","ping":44},{"user_id":646,"name":"MR.CRAB","steam_id":76561198329833659,"connected_time":142000000000,"state":"active","ping":71},{"user_id":638,"name":"Blax","steam_id":76561198377155387,"connected_time":673000000000,"state":"active","ping":71},{"user_id":636,"name":"rhm","steam_id":76561199438126261,"connected_time":767000000000,"state":"active","ping":97}]},{"server_id":309,"name":"Uncletopia | Frankfurt | 4 | All Maps","name_short":"frk-4","host":"frk-1.de.uncletopia.com","port":27045,"enabled":true,"region":"eu","cc":"de","latitude":50.110924,"longitude":8.682127,"reserved":0,"last_update":"0001-01-01T00:00:00Z","name_a2s":"Uncletopia | Frankfurt | 4 | All Maps","protocol":17,"map":"pl_pier","folder":"tf","game":"Team Fortress","app_id":440,"player_count":16,"max_players":24,"Bots":0,"server_type":"Dedicated","server_os":"Linux","password":true,"vac":true,"version":"7961495","steam_id":85568392924504275,"keywords":["nocrits","nodmgspread","payload","uncletopia"],"game_id":440,"stv_port":27046,"stv_name":"Uncletopia | Frankfurt | 4 | All Maps | STV","players":[{"user_id":323,"name":"DiracDeltaFunction","steam_id":76561199201624841,"connected_time":522000000000,"state":"spawning","ping":69},{"user_id":298,"name":"bone lord","steam_id":76561198334042273,"connected_time":2224000000000,"state":"spawning","ping":65},{"user_id":329,"name":"bn","steam_id":76561198742407927,"connected_time":95000000000,"state":"spawning","ping":83},{"user_id":321,"name":"Finnish Farmer","steam_id":76561198205366043,"connected_time":687000000000,"state":"spawning","ping":66},{"user_id":269,"name":"Adam","steam_id":76561199103777436,"connected_time":4275000000000,"state":"spawning","ping":156},{"user_id":307,"name":"donatofina","steam_id":76561198353497885,"connected_time":1411000000000,"state":"spawning","ping":186},{"user_id":325,"name":"Fran","steam_id":76561199070516960,"connected_time":471000000000,"state":"spawning","ping":63},{"user_id":312,"name":"Excadrill (GOAT)","steam_id":76561199012566222,"connected_time":1063000000000,"state":"spawning","ping":49},{"user_id":327,"name":"Hoss","steam_id":76561198000169123,"connected_time":218000000000,"state":"spawning","ping":253},{"user_id":317,"name":"Krefa12","steam_id":76561198268375393,"connected_time":734000000000,"state":"spawning","ping":143},{"user_id":326,"name":"mstrv","steam_id":76561198836329365,"connected_time":241000000000,"state":"spawning","ping":77},{"user_id":318,"name":"Cezaru7252","steam_id":76561198815955374,"connected_time":734000000000,"state":"spawning","ping":62},{"user_id":299,"name":"Egor Pomidor","steam_id":76561199175688390,"connected_time":2224000000000,"state":"spawning","ping":79},{"user_id":314,"name":"Armored","steam_id":76561198267449130,"connected_time":1014000000000,"state":"spawning","ping":61},{"user_id":315,"name":"nug","steam_id":76561198055396568,"connected_time":1010000000000,"state":"spawning","ping":52},{"user_id":291,"name":"Mike","steam_id":76561198266996665,"connected_time":2425000000000,"state":"spawning","ping":79}]},{"server_id":310,"name":"Uncletopia | Frankfurt | 5 | All Maps","name_short":"frk-5","host":"frk-1.de.uncletopia.com","port":27055,"enabled":true,"region":"eu","cc":"de","latitude":50.110924,"longitude":8.682127,"reserved":0,"last_update":"0001-01-01T00:00:00Z","name_a2s":"Uncletopia | Frankfurt | 5 | All Maps","protocol":17,"map":"cp_sunshine","folder":"tf","game":"Team Fortress","app_id":440,"player_count":24,"max_players":24,"Bots":0,"server_type":"Dedicated","server_os":"Linux","password":true,"vac":true,"version":"7961495","steam_id":85568392924504277,"keywords":["cp","nocrits","nodmgspread","uncletopia"],"game_id":440,"stv_port":27056,"stv_name":"Uncletopia | Frankfurt | 5 | All Maps | STV","players":[{"user_id":515,"name":"WrathNSpeed","steam_id":76561198390944504,"connected_time":2723000000000,"state":"active","ping":72},{"user_id":559,"name":"Graf Seryoznosti","steam_id":76561198009470191,"connected_time":1243000000000,"state":"active","ping":106},{"user_id":560,"name":"BLINKY","steam_id":76561198990110546,"connected_time":1100000000000,"state":"active","ping":122},{"user_id":553,"name":"Pfaff Ferenc","steam_id":76561199502583278,"connected_time":1398000000000,"state":"active","ping":53},{"user_id":556,"name":"G√º√ßl√ºAYraNsAƒû","steam_id":76561199184988396,"connected_time":1364000000000,"state":"active","ping":104},{"user_id":534,"name":"doomer","steam_id":76561198977420882,"connected_time":1653000000000,"state":"active","ping":69},{"user_id":565,"name":"dash.","steam_id":76561198084796149,"connected_time":498000000000,"state":"active","ping":47},{"user_id":522,"name":"BIGBILF","steam_id":76561199089870289,"connected_time":2402000000000,"state":"active","ping":56},{"user_id":566,"name":"JEAN-BERNARD THE SEX LORD","steam_id":76561198799097492,"connected_time":462000000000,"state":"active","ping":49},{"user_id":567,"name":"zinzyk","steam_id":76561198128011822,"connected_time":448000000000,"state":"active","ping":60},{"user_id":562,"name":"Shogg","steam_id":76561198056382237,"connected_time":932000000000,"state":"active","ping":74},{"user_id":573,"name":"svantezch","steam_id":76561198373831657,"connected_time":353000000000,"state":"active","ping":80},{"user_id":575,"name":"Minister of cocks","steam_id":76561198829740342,"connected_time":102000000000,"state":"active","ping":64},{"user_id":574,"name":"nolecukanovic","steam_id":76561199227261680,"connected_time":221000000000,"state":"active","ping":95},{"user_id":557,"name":"Koss","steam_id":76561198033316239,"connected_time":1300000000000,"state":"active","ping":92},{"user_id":563,"name":"shmax","steam_id":76561198889012709,"connected_time":553000000000,"state":"active","ping":90},{"user_id":540,"name":"In the balls","steam_id":76561198262350383,"connected_time":1603000000000,"state":"active","ping":53},{"user_id":541,"name":"energoosest","steam_id":76561199036816943,"connected_time":1589000000000,"state":"active","ping":94},{"user_id":561,"name":"baked beans gaming","steam_id":76561198040632263,"connected_time":986000000000,"state":"active","ping":73},{"user_id":543,"name":"shoras","steam_id":76561198019680159,"connected_time":1567000000000,"state":"active","ping":89},{"user_id":571,"name":"Dr Bondus Bolongus Dongus","steam_id":76561198378657692,"connected_time":389000000000,"state":"active","ping":68},{"user_id":551,"name":"powej","steam_id":76561198056381418,"connected_time":1460000000000,"state":"active","ping":44},{"user_id":572,"name":"ANGHENFILOD","steam_id":76561199492622823,"connected_time":377000000000,"state":"active","ping":53},{"user_id":547,"name":"Jaeger","steam_id":76561199392187099,"connected_time":1521000000000,"state":"active","ping":158}]},{"server_id":311,"name":"Uncletopia | Frankfurt | 6 | All Maps","name_short":"frk-6","host":"frk-1.de.uncletopia.com","port":27065,"enabled":true,"region":"eu","cc":"de","latitude":50.110924,"longitude":8.682127,"reserved":0,"last_update":"0001-01-01T00:00:00Z","name_a2s":"Uncletopia | Frankfurt | 6 | All Maps","protocol":17,"map":"pl_swiftwater_final1","folder":"tf","game":"Team Fortress","app_id":440,"player_count":24,"max_players":24,"Bots":0,"server_type":"Dedicated","server_os":"Linux","password":true,"vac":true,"version":"7961495","steam_id":85568392924504278,"keywords":["nocrits","nodmgspread","payload","uncletopia"],"game_id":440,"stv_port":27066,"stv_name":"Uncletopia | Frankfurt | 6 | All Maps | STV","players":[{"user_id":392,"name":"xiiski","steam_id":76561198152387747,"connected_time":434000000000,"state":"active","ping":97},{"user_id":358,"name":"Para Bellum","steam_id":76561198375413446,"connected_time":2413000000000,"state":"active","ping":48},{"user_id":388,"name":"Random Crit","steam_id":76561198066978791,"connected_time":752000000000,"state":"active","ping":73},{"user_id":396,"name":"Pvt Talbot","steam_id":76561198261001389,"connected_time":395000000000,"state":"active","ping":53},{"user_id":400,"name":"Adam","steam_id":76561198118572396,"connected_time":197000000000,"state":"active","ping":74},{"user_id":398,"name":"Creeperwinn-the-2st","steam_id":76561199080391190,"connected_time":264000000000,"state":"active","ping":91},{"user_id":349,"name":"Finem Belli","steam_id":76561198227177976,"connected_time":2607000000000,"state":"active","ping":52},{"user_id":360,"name":"Dirocks","steam_id":76561198138494815,"connected_time":2346000000000,"state":"active","ping":75},{"user_id":402,"name":"ArmedWithWings","steam_id":76561198154615474,"connected_time":154000000000,"state":"active","ping":81},{"user_id":401,"name":"masiina","steam_id":76561198207154244,"connected_time":161000000000,"state":"active","ping":99},{"user_id":394,"name":"Na'vi Misato (by popular demand","steam_id":76561198130860698,"connected_time":406000000000,"state":"active","ping":64},{"user_id":362,"name":"Lemonade in my eyes","steam_id":76561198338129578,"connected_time":2292000000000,"state":"active","ping":59},{"user_id":232,"name":"woop","steam_id":76561198985105074,"connected_time":12787000000000,"state":"active","ping":78},{"user_id":364,"name":"howdy","steam_id":76561199070752810,"connected_time":2214000000000,"state":"active","ping":61},{"user_id":404,"name":"‚ô° Cursed ‚ô°","steam_id":76561199161458959,"connected_time":122000000000,"state":"active","ping":185},{"user_id":380,"name":"MaciekToGigachad","steam_id":76561199387550937,"connected_time":1114000000000,"state":"active","ping":58},{"user_id":376,"name":"one dollar house","steam_id":76561197961263312,"connected_time":1792000000000,"state":"active","ping":123},{"user_id":399,"name":"yodel","steam_id":76561198138777659,"connected_time":254000000000,"state":"active","ping":71},{"user_id":403,"name":"Denialman (Muted)","steam_id":76561198309182092,"connected_time":142000000000,"state":"active","ping":51},{"user_id":405,"name":"Idiot","steam_id":76561199256424165,"connected_time":78000000000,"state":"active","ping":77},{"user_id":406,"name":"Civil Melon","steam_id":76561198988309618,"connected_time":78000000000,"state":"active","ping":78},{"user_id":373,"name":"LowQualityMan","steam_id":76561199443272346,"connected_time":2017000000000,"state":"active","ping":50},{"user_id":389,"name":"Apparently God","steam_id":76561199472680998,"connected_time":630000000000,"state":"active","ping":113},{"user_id":395,"name":"Tweedle","steam_id":76561198160141785,"connected_time":404000000000,"state":"active","ping":48}]},{"server_id":23,"name":"Uncletopia | Frankfurt | 7 | Stopwatch","name_short":"frk-7","host":"frk-1.de.uncletopia.com","port":27075,"enabled":true,"region":"eu","cc":"de","latitude":50.110924,"longitude":8.682127,"reserved":0,"last_update":"0001-01-01T00:00:00Z","name_a2s":"Uncletopia | Frankfurt | 7 | Stopwatch","protocol":17,"map":"pl_frontier_final","folder":"tf","game":"Team Fortress","app_id":440,"player_count":0,"max_players":24,"Bots":0,"server_type":"Dedicated","server_os":"Linux","password":true,"vac":true,"version":"7961495","steam_id":85568392924742827,"keywords":["nocrits","nodmgspread","payload","uncletopia"],"game_id":440,"stv_port":27076,"stv_name":"Uncletopia | Frankfurt | 7 | Stopwatch | STV","players":null},{"server_id":24,"name":"Uncletopia | Frankfurt | 8 | Community","name_short":"frk-8","host":"frk-1.de.uncletopia.com","port":27085,"enabled":true,"region":"eu","cc":"de","latitude":50.110924,"longitude":8.682127,"reserved":0,"last_update":"0001-01-01T00:00:00Z","name_a2s":"Uncletopia | Frankfurt | 8 | Community","protocol":17,"map":"workshop/koth_bagel_rc6.ugc2514036946","folder":"tf","game":"Team Fortress","app_id":440,"player_count":0,"max_players":24,"Bots":0,"server_type":"Dedicated","server_os":"Linux","password":true,"vac":true,"version":"7961495","steam_id":85568392924742828,"keywords":["cp","nocrits","nodmgspread","uncletopia"],"game_id":440,"stv_port":27086,"stv_name":"Uncletopia | Frankfurt | 8 | Community | STV","players":null},{"server_id":202,"name":"Uncletopia | Hong Kong | 1 | All Maps","name_short":"hgk-1","host":"hgk-1.hk.uncletopia.com","port":27015,"enabled":true,"region":"asia","cc":"hk","latitude":22.302711,"longitude":114.177216,"reserved":0,"last_update":"0001-01-01T00:00:00Z","name_a2s":"Uncletopia | Hong Kong | 1 | All Maps","protocol":17,"map":"koth_viaduct","folder":"tf","game":"Team Fortress","app_id":440,"player_count":0,"max_players":24,"Bots":0,"server_type":"Dedicated","server_os":"Linux","password":true,"vac":true,"version":"7961495","steam_id":85568392924494504,"keywords":["cp","nocrits","nodmgspread","uncletopia"],"game_id":440,"stv_port":27016,"stv_name":"Uncletopia | Hong Kong | 1 | All Maps | STV","players":null},{"server_id":1,"name":"Uncletopia | Los Angeles | 1 | All Maps","name_short":"lax-1","host":"lax-1.us.uncletopia.com","port":27015,"enabled":true,"region":"us-west","cc":"us","latitude":33.94279,"longitude":-118.41004,"reserved":0,"last_update":"0001-01-01T00:00:00Z","name_a2s":"Uncletopia | Los Angeles | 1 | All Maps","protocol":17,"map":"cp_mountainlab","folder":"tf","game":"Team Fortress","app_id":440,"player_count":24,"max_players":24,"Bots":0,"server_type":"Dedicated","server_os":"Linux","password":true,"vac":true,"version":"7961495","steam_id":85568392924469991,"keywords":["cp","nocrits","nodmgspread","uncletopia"],"game_id":440,"stv_port":27016,"stv_name":"Uncletopia | Los Angeles | 1 | All Maps | STV","players":[{"user_id":108,"name":"CaptainPikachu","steam_id":76561198075667401,"connected_time":993000000000,"state":"active","ping":82},{"user_id":109,"name":"falikk","steam_id":76561197970821648,"connected_time":975000000000,"state":"active","ping":75},{"user_id":89,"name":"MORE BOUNCE TO THE OUNCE","steam_id":76561198243399336,"connected_time":2067000000000,"state":"active","ping":71},{"user_id":112,"name":"LiXiS","steam_id":76561197994283812,"connected_time":886000000000,"state":"active","ping":57},{"user_id":100,"name":"Eden","steam_id":76561198081284664,"connected_time":1755000000000,"state":"active","ping":53},{"user_id":110,"name":"Petrivus","steam_id":76561198202152453,"connected_time":970000000000,"state":"active","ping":85},{"user_id":75,"name":"Temujin","steam_id":76561198030936583,"connected_time":2803000000000,"state":"active","ping":91},{"user_id":121,"name":"Defeat","steam_id":76561198065203818,"connected_time":63000000000,"state":"active","ping":60},{"user_id":107,"name":"noceof","steam_id":76561198043656816,"connected_time":1316000000000,"state":"active","ping":169},{"user_id":67,"name":"Anthid","steam_id":76561198074493797,"connected_time":3287000000000,"state":"active","ping":74},{"user_id":88,"name":"ShellBug","steam_id":76561198144187527,"connected_time":2157000000000,"state":"active","ping":113},{"user_id":104,"name":"logitchy","steam_id":76561199062753505,"connected_time":1560000000000,"state":"active","ping":105},{"user_id":111,"name":"Typh","steam_id":76561198315344079,"connected_time":957000000000,"state":"active","ping":106},{"user_id":113,"name":"gulch","steam_id":76561199227946025,"connected_time":847000000000,"state":"active","ping":103},{"user_id":119,"name":"SneekiCheekiQbone","steam_id":76561198045077980,"connected_time":217000000000,"state":"active","ping":45},{"user_id":83,"name":"Smiles","steam_id":76561198107197973,"connected_time":2331000000000,"state":"active","ping":107},{"user_id":115,"name":"seattlepilot","steam_id":76561198157510704,"connected_time":793000000000,"state":"active","ping":88},{"user_id":86,"name":"Grify","steam_id":76561198012292317,"connected_time":2177000000000,"state":"active","ping":120},{"user_id":94,"name":"grape","steam_id":76561197993980328,"connected_time":1974000000000,"state":"active","ping":98},{"user_id":120,"name":"mr poop","steam_id":76561199195196632,"connected_time":133000000000,"state":"active","ping":92},{"user_id":116,"name":"Pie","steam_id":76561198054721133,"connected_time":790000000000,"state":"active","ping":55},{"user_id":106,"name":"Noah","steam_id":76561198059048749,"connected_time":1519000000000,"state":"active","ping":85},{"user_id":118,"name":"Zhazon","steam_id":76561198847328010,"connected_time":586000000000,"state":"active","ping":111},{"user_id":96,"name":"Dr. Karl, the AUS Science Guy","steam_id":76561198031278747,"connected_time":1908000000000,"state":"active","ping":74}]},{"server_id":112,"name":"Uncletopia | Los Angeles | 2 | All Maps","name_short":"lax-2","host":"lax-1.us.uncletopia.com","port":27025,"enabled":true,"region":"us-west","cc":"us","latitude":33.94279,"longitude":-118.41004,"reserved":0,"last_update":"0001-01-01T00:00:00Z","name_a2s":"Uncletopia | Los Angeles | 2 | All Maps","protocol":17,"map":"koth_highpass","folder":"tf","game":"Team Fortress","app_id":440,"player_count":0,"max_players":24,"Bots":0,"server_type":"Dedicated","server_os":"Linux","password":true,"vac":true,"version":"7961495","steam_id":85568392924469992,"keywords":["cp","nocrits","nodmgspread","uncletopia"],"game_id":440,"stv_port":27026,"stv_name":"Uncletopia | Los Angeles | 2 | All Maps | STV","players":null},{"server_id":324,"name":"Uncletopia | Los Angeles | 3 | All Maps","name_short":"lax-3","host":"lax-1.us.uncletopia.com","port":27035,"enabled":true,"region":"us-west","cc":"us","latitude":33.94279,"longitude":-118.41004,"reserved":0,"last_update":"0001-01-01T00:00:00Z","name_a2s":"Uncletopia | Los Angeles | 3 | All Maps","protocol":17,"map":"pl_frontier_final","folder":"tf","game":"Team Fortress","app_id":440,"player_count":0,"max_players":24,"Bots":0,"server_type":"Dedicated","server_os":"Linux","password":true,"vac":true,"version":"7961495","steam_id":85568392924510198,"keywords":["nocrits","nodmgspread","payload","uncletopia"],"game_id":440,"stv_port":27036,"stv_name":"Uncletopia | Los Angeles | 3 | All Maps | STV","players":null},{"server_id":25,"name":"Uncletopia | Los Angeles | 4 | Stopwatch","name_short":"lax-4","host":"lax-1.us.uncletopia.com","port":27045,"enabled":true,"region":"us-west","cc":"us","latitude":33.94279,"longitude":-118.41004,"reserved":0,"last_update":"0001-01-01T00:00:00Z","name_a2s":"Uncletopia | Los Angeles | 4 | Stopwatch","protocol":17,"map":"pl_barnblitz","folder":"tf","game":"Team Fortress","app_id":440,"player_count":0,"max_players":24,"Bots":0,"server_type":"Dedicated","server_os":"Linux","password":true,"vac":true,"version":"7961495","steam_id":85568392924510199,"keywords":["nocrits","nodmgspread","payload","uncletopia"],"game_id":440,"stv_port":27046,"stv_name":"Uncletopia | Los Angeles | 4 | Stopwatch | STV","players":null},{"server_id":11,"name":"Uncletopia | London | 1 | All Maps","name_short":"lon-1","host":"lon-1.uk.uncletopia.com","port":27015,"enabled":true,"region":"eu","cc":"gb","latitude":51.509865,"longitude":-0.118092,"reserved":0,"last_update":"0001-01-01T00:00:00Z","name_a2s":"Uncletopia | London | 1 | All Maps","protocol":17,"map":"pl_upward","folder":"tf","game":"Team Fortress","app_id":440,"player_count":24,"max_players":24,"Bots":0,"server_type":"Dedicated","server_os":"Linux","password":true,"vac":true,"version":"7961495","steam_id":85568392924367362,"keywords":["nocrits","nodmgspread","payload","uncletopia"],"game_id":440,"stv_port":27016,"stv_name":"Uncletopia | London | 1 | All Maps | STV","players":[{"user_id":557,"name":"CallMeUnoriginal","steam_id":76561198977528294,"connected_time":5938000000000,"state":"active","ping":43},{"user_id":513,"name":"face beautiful lies","steam_id":76561198079277466,"connected_time":9105000000000,"state":"active","ping":75},{"user_id":569,"name":"Goldblade","steam_id":76561198382997614,"connected_time":5185000000000,"state":"active","ping":82},{"user_id":596,"name":"Weed Wizard Mega Genocider","steam_id":76561198368515513,"connected_time":998000000000,"state":"active","ping":40},{"user_id":602,"name":"heavy sings (real)","steam_id":76561199023804405,"connected_time":857000000000,"state":"active","ping":72},{"user_id":588,"name":"Rx07","steam_id":76561199013720618,"connected_time":2947000000000,"state":"active","ping":88},{"user_id":612,"name":"EnKay","steam_id":76561198397087279,"connected_time":34000000000,"state":"active","ping":100},{"user_id":592,"name":"Joe Biden","steam_id":76561198047299145,"connected_time":2256000000000,"state":"active","ping":77},{"user_id":577,"name":"Woman (Real)","steam_id":76561199151823932,"connected_time":4368000000000,"state":"active","ping":86},{"user_id":520,"name":"[BY] ree4ka","steam_id":76561198107460765,"connected_time":8112000000000,"state":"active","ping":45},{"user_id":561,"name":"shooer!","steam_id":76561198110531281,"connected_time":5741000000000,"state":"active","ping":70},{"user_id":609,"name":"AuwNina","steam_id":76561198128231464,"connected_time":234000000000,"state":"active","ping":66},{"user_id":536,"name":"hoizil","steam_id":76561198800688436,"connected_time":7321000000000,"state":"active","ping":73},{"user_id":476,"name":"reika","steam_id":76561198043601838,"connected_time":11729000000000,"state":"active","ping":62},{"user_id":590,"name":"Aaron","steam_id":76561197990046953,"connected_time":2363000000000,"state":"active","ping":60},{"user_id":599,"name":"Black Tom","steam_id":76561198335730273,"connected_time":954000000000,"state":"active","ping":59},{"user_id":498,"name":"Bill_nye_epic","steam_id":76561199216249214,"connected_time":10071000000000,"state":"active","ping":140},{"user_id":501,"name":"{UA} tom shelbey","steam_id":76561198080912087,"connected_time":9599000000000,"state":"active","ping":67},{"user_id":584,"name":"nappo","steam_id":76561198060105180,"connected_time":3552000000000,"state":"active","ping":76},{"user_id":572,"name":"STEFF","steam_id":76561198013306538,"connected_time":4916000000000,"state":"active","ping":52},{"user_id":607,"name":"Nutty Dark^^","steam_id":76561198036241064,"connected_time":328000000000,"state":"active","ping":69},{"user_id":606,"name":"impossible whopper eater","steam_id":76561198058641805,"connected_time":467000000000,"state":"active","ping":48},{"user_id":610,"name":"Guwop","steam_id":76561197970425737,"connected_time":231000000000,"state":"active","ping":145},{"user_id":544,"name":"Mango_Archimedes","steam_id":76561199096635508,"connected_time":7128000000000,"state":"active","ping":66}]},{"server_id":114,"name":"Uncletopia | London | 2 | All Maps","name_short":"lon-2","host":"lon-1.uk.uncletopia.com","port":27025,"enabled":true,"region":"eu","cc":"gb","latitude":51.509865,"longitude":-0.118092,"reserved":0,"last_update":"0001-01-01T00:00:00Z","name_a2s":"Uncletopia | London | 2 | All Maps","protocol":17,"map":"pl_badwater","folder":"tf","game":"Team Fortress","app_id":440,"player_count":24,"max_players":24,"Bots":0,"server_type":"Dedicated","server_os":"Linux","password":true,"vac":true,"version":"7961495","steam_id":85568392924470941,"keywords":["nocrits","nodmgspread","payload","uncletopia"],"game_id":440,"stv_port":27026,"stv_name":"Uncletopia | London | 2 | All Maps | STV","players":[{"user_id":204,"name":"After8","steam_id":76561198090750865,"connected_time":4796000000000,"state":"active","ping":69},{"user_id":275,"name":"Soldier_recorder_(F2P)","steam_id":76561199262720486,"connected_time":1153000000000,"state":"active","ping":83},{"user_id":277,"name":"M√©bh √ìg MacT√≠re","steam_id":76561198346399624,"connected_time":889000000000,"state":"active","ping":86},{"user_id":287,"name":"Spotmonkey","steam_id":76561198003994092,"connected_time":534000000000,"state":"active","ping":57},{"user_id":232,"name":"Rubi","steam_id":76561198139410003,"connected_time":2899000000000,"state":"active","ping":76},{"user_id":292,"name":"Maxin","steam_id":76561197999923364,"connected_time":11000000000,"state":"spawning","ping":48},{"user_id":276,"name":"TheSquirrel2522","steam_id":76561199466146107,"connected_time":1076000000000,"state":"active","ping":48},{"user_id":196,"name":"Plep","steam_id":76561198840259819,"connected_time":5538000000000,"state":"active","ping":58},{"user_id":271,"name":"eva","steam_id":76561198054474684,"connected_time":1334000000000,"state":"active","ping":85},{"user_id":218,"name":"BoPoe","steam_id":76561198093333882,"connected_time":3899000000000,"state":"active","ping":97},{"user_id":269,"name":"Emerald","steam_id":76561199141384216,"connected_time":1469000000000,"state":"active","ping":47},{"user_id":240,"name":"wG silentes","steam_id":76561197999595616,"connected_time":2412000000000,"state":"active","ping":30},{"user_id":279,"name":"kavun","steam_id":76561198023461869,"connected_time":872000000000,"state":"active","ping":90},{"user_id":267,"name":"EL WIWI","steam_id":76561198134378108,"connected_time":1677000000000,"state":"active","ping":77},{"user_id":242,"name":"Spinya","steam_id":76561198086653667,"connected_time":2396000000000,"state":"active","ping":55},{"user_id":150,"name":"Codex","steam_id":76561198068748584,"connected_time":8280000000000,"state":"active","ping":42},{"user_id":243,"name":"DudeoftheRock","steam_id":76561198059401865,"connected_time":2393000000000,"state":"active","ping":59},{"user_id":268,"name":"GabrielUltrakill","steam_id":76561199200442395,"connected_time":1595000000000,"state":"active","ping":87},{"user_id":288,"name":"xva","steam_id":76561198969286813,"connected_time":533000000000,"state":"active","ping":69},{"user_id":280,"name":"juicy [‚úö]","steam_id":76561198127264835,"connected_time":861000000000,"state":"active","ping":45},{"user_id":285,"name":"XPullaHiiri","steam_id":76561198031652375,"connected_time":589000000000,"state":"active","ping":91},{"user_id":291,"name":"Noob_with_source","steam_id":76561198870362103,"connected_time":426000000000,"state":"active","ping":58},{"user_id":265,"name":"Pimpin' \u0026 Blimpin'","steam_id":76561198326776107,"connected_time":1729000000000,"state":"active","ping":93},{"user_id":186,"name":"Flying Squirrel","steam_id":76561198005202791,"connected_time":6471000000000,"state":"active","ping":78}]},{"server_id":320,"name":"Uncletopia | London | 3 | All Maps","name_short":"lon-3","host":"lon-1.uk.uncletopia.com","port":27035,"enabled":true,"region":"eu","cc":"gb","latitude":51.509865,"longitude":-0.118092,"reserved":0,"last_update":"0001-01-01T00:00:00Z","name_a2s":"Uncletopia | London | 3 | All Maps","protocol":17,"map":"pl_badwater","folder":"tf","game":"Team Fortress","app_id":440,"player_count":24,"max_players":24,"Bots":0,"server_type":"Dedicated","server_os":"Linux","password":true,"vac":true,"version":"7961495","steam_id":85568392924510192,"keywords":["nocrits","nodmgspread","payload","uncletopia"],"game_id":440,"stv_port":27036,"stv_name":"Uncletopia | London | 3 | All Maps | STV","players":[{"user_id":223,"name":"Trans Femtress 2","steam_id":76561198014056212,"connected_time":1831000000000,"state":"active","ping":68},{"user_id":234,"name":"highest noon","steam_id":76561199103959197,"connected_time":155000000000,"state":"active","ping":99},{"user_id":201,"name":"Welder","steam_id":76561198355300561,"connected_time":3477000000000,"state":"active","ping":64},{"user_id":192,"name":"( Õ°¬∞ Õú ñ Õ°¬∞)","steam_id":76561199196316280,"connected_time":4177000000000,"state":"active","ping":82},{"user_id":217,"name":"Lemmy","steam_id":76561199038870751,"connected_time":2316000000000,"state":"active","ping":60},{"user_id":198,"name":"ediheelo","steam_id":76561198363615045,"connected_time":3544000000000,"state":"active","ping":46},{"user_id":229,"name":"Prime","steam_id":76561198136901842,"connected_time":870000000000,"state":"active","ping":59},{"user_id":236,"name":"Lubrsi","steam_id":76561198040208195,"connected_time":143000000000,"state":"active","ping":47},{"user_id":238,"name":"BIG BOI SPICE","steam_id":76561198194862277,"connected_time":40000000000,"state":"active","ping":53},{"user_id":154,"name":"Kinjiko","steam_id":76561199124619827,"connected_time":6773000000000,"state":"active","ping":67},{"user_id":227,"name":"engie?","steam_id":76561198331852832,"connected_time":1070000000000,"state":"active","ping":159},{"user_id":231,"name":"Semtilion","steam_id":76561198107642445,"connected_time":485000000000,"state":"active","ping":110},{"user_id":232,"name":"hop","steam_id":76561197982485114,"connected_time":484000000000,"state":"active","ping":77},{"user_id":114,"name":"d u k k i","steam_id":76561198071807437,"connected_time":9513000000000,"state":"active","ping":87},{"user_id":205,"name":"HoneyBe_","steam_id":76561198288930154,"connected_time":2834000000000,"state":"active","ping":65},{"user_id":207,"name":"Tero","steam_id":76561198073147972,"connected_time":2419000000000,"state":"active","ping":85},{"user_id":225,"name":"BigPapaBrogan","steam_id":76561199012814165,"connected_time":1396000000000,"state":"active","ping":138},{"user_id":235,"name":"Reimu","steam_id":76561198101532240,"connected_time":155000000000,"state":"active","ping":66},{"user_id":175,"name":"meriones","steam_id":76561198034234373,"connected_time":5157000000000,"state":"active","ping":43},{"user_id":226,"name":"The Lady","steam_id":76561198029895809,"connected_time":1259000000000,"state":"active","ping":80},{"user_id":222,"name":"average manicotti enjoyer","steam_id":76561198059535856,"connected_time":1922000000000,"state":"active","ping":167},{"user_id":220,"name":"Tort","steam_id":76561198329646769,"connected_time":2034000000000,"state":"active","ping":58},{"user_id":209,"name":"m0‚Åß‚Åß ‚Åß‚Åß‚Åß‚Åßm","steam_id":76561198151388694,"connected_time":2418000000000,"state":"active","ping":67},{"user_id":237,"name":"Prox","steam_id":76561198351490981,"connected_time":142000000000,"state":"active","ping":38}]},{"server_id":321,"name":"Uncletopia | London | 4 | All Maps","name_short":"lon-4","host":"lon-1.uk.uncletopia.com","port":27045,"enabled":true,"region":"eu","cc":"gb","latitude":51.509865,"longitude":-0.118092,"reserved":0,"last_update":"0001-01-01T00:00:00Z","name_a2s":"Uncletopia | London | 4 | All Maps","protocol":17,"map":"koth_harvest_final","folder":"tf","game":"Team Fortress","app_id":440,"player_count":23,"max_players":24,"Bots":0,"server_type":"Dedicated","server_os":"Linux","password":true,"vac":true,"version":"7961495","steam_id":85568392924510193,"keywords":["cp","nocrits","nodmgspread","uncletopia"],"game_id":440,"stv_port":27046,"stv_name":"Uncletopia | London | 4 | All Maps | STV","players":[{"user_id":219,"name":"yng_btc","steam_id":76561197987289683,"connected_time":4906000000000,"state":"active","ping":68},{"user_id":293,"name":"herbal tea","steam_id":76561198179711137,"connected_time":1327000000000,"state":"active","ping":66},{"user_id":285,"name":"Yes","steam_id":76561198046729687,"connected_time":1984000000000,"state":"active","ping":60},{"user_id":298,"name":"Ullr","steam_id":76561198140547483,"connected_time":1026000000000,"state":"active","ping":40},{"user_id":317,"name":"Losre","steam_id":76561198071393125,"connected_time":174000000000,"state":"active","ping":55},{"user_id":287,"name":"ran is running","steam_id":76561199443185667,"connected_time":1938000000000,"state":"active","ping":135},{"user_id":250,"name":"the pyro","steam_id":76561199217601719,"connected_time":3836000000000,"state":"active","ping":76},{"user_id":251,"name":"MakeItRainbow","steam_id":76561198045098064,"connected_time":3823000000000,"state":"active","ping":61},{"user_id":314,"name":"AIDS MEDIC","steam_id":76561198042774930,"connected_time":565000000000,"state":"active","ping":61},{"user_id":271,"name":"TomNoSocks","steam_id":76561198114071046,"connected_time":2935000000000,"state":"active","ping":64},{"user_id":187,"name":"Marcel","steam_id":76561198348686648,"connected_time":7050000000000,"state":"active","ping":45},{"user_id":303,"name":"Andy","steam_id":76561198046918834,"connected_time":835000000000,"state":"active","ping":60},{"user_id":280,"name":"Keany","steam_id":76561199041393458,"connected_time":2378000000000,"state":"active","ping":57},{"user_id":290,"name":"Dr. Gruno","steam_id":76561198815633513,"connected_time":1758000000000,"state":"active","ping":102},{"user_id":311,"name":"McAtka","steam_id":76561198019759329,"connected_time":616000000000,"state":"active","ping":70},{"user_id":294,"name":"Sentry Man","steam_id":76561198088417596,"connected_time":1327000000000,"state":"active","ping":91},{"user_id":279,"name":"Eggcracker","steam_id":76561199274850641,"connected_time":2460000000000,"state":"active","ping":92},{"user_id":255,"name":"Summer ‚ô•","steam_id":76561198047723907,"connected_time":3756000000000,"state":"active","ping":32},{"user_id":316,"name":"Dean Craig Pelton From Communit","steam_id":76561198155010055,"connected_time":268000000000,"state":"active","ping":119},{"user_id":296,"name":"TylowStar","steam_id":76561198357107806,"connected_time":1217000000000,"state":"active","ping":63},{"user_id":319,"name":"Cool Beans","steam_id":76561197995130085,"connected_time":85000000000,"state":"active","ping":44},{"user_id":284,"name":"Xiqui","steam_id":76561198818386611,"connected_time":2089000000000,"state":"active","ping":75},{"user_id":313,"name":"Hogs Sidekick","steam_id":76561198136433205,"connected_time":584000000000,"state":"active","ping":40}]},{"server_id":21,"name":"Uncletopia | London | 5 | All Maps","name_short":"lon-5","host":"lon-1.uk.uncletopia.com","port":27055,"enabled":true,"region":"eu","cc":"gb","latitude":51.509865,"longitude":-0.118092,"reserved":0,"last_update":"0001-01-01T00:00:00Z","name_a2s":"Uncletopia | London | 5 | All Maps","protocol":17,"map":"cp_dustbowl","folder":"tf","game":"Team Fortress","app_id":440,"player_count":23,"max_players":24,"Bots":0,"server_type":"Dedicated","server_os":"Linux","password":true,"vac":true,"version":"7961495","steam_id":85568392924742829,"keywords":["cp","nocrits","nodmgspread","uncletopia"],"game_id":440,"stv_port":27056,"stv_name":"Uncletopia | London | 5 | All Maps | STV","players":[{"user_id":61,"name":"losing it","steam_id":76561198161426956,"connected_time":1019000000000,"state":"active","ping":101},{"user_id":54,"name":"Frito","steam_id":76561198373177622,"connected_time":1230000000000,"state":"active","ping":89},{"user_id":74,"name":"comic_sans","steam_id":76561198845309519,"connected_time":257000000000,"state":"active","ping":89},{"user_id":34,"name":"skittish maiden","steam_id":76561198096856475,"connected_time":1901000000000,"state":"active","ping":52},{"user_id":35,"name":"Beanie","steam_id":76561198173882658,"connected_time":1885000000000,"state":"active","ping":53},{"user_id":67,"name":"Ganasti","steam_id":76561198382925185,"connected_time":562000000000,"state":"active","ping":88},{"user_id":73,"name":"The worst TF2 player(Real)","steam_id":76561199184873889,"connected_time":318000000000,"state":"active","ping":77},{"user_id":65,"name":"Sentient Toaster","steam_id":76561198168958712,"connected_time":674000000000,"state":"active","ping":49},{"user_id":66,"name":"RemRem","steam_id":76561199005155029,"connected_time":627000000000,"state":"active","ping":66},{"user_id":78,"name":"Gantzero","steam_id":76561198046379464,"connected_time":104000000000,"state":"active","ping":87},{"user_id":79,"name":"f0x","steam_id":76561198072921704,"connected_time":23000000000,"state":"active","ping":48},{"user_id":76,"name":"patrick","steam_id":76561198086684892,"connected_time":194000000000,"state":"active","ping":118},{"user_id":71,"name":"rauber","steam_id":76561198090001673,"connected_time":407000000000,"state":"active","ping":132},{"user_id":70,"name":"Goat","steam_id":76561198363480510,"connected_time":418000000000,"state":"active","ping":153},{"user_id":45,"name":"Jersku","steam_id":76561198140994845,"connected_time":1491000000000,"state":"active","ping":75},{"user_id":80,"name":"Ryan Gosling (Literally me)","steam_id":76561198438150893,"connected_time":7000000000,"state":"spawning","ping":74},{"user_id":77,"name":"kaze","steam_id":76561198997095048,"connected_time":175000000000,"state":"active","ping":71},{"user_id":81,"name":"spole","steam_id":76561198036049849,"connected_time":6000000000,"state":"spawning","ping":44},{"user_id":51,"name":"despikee","steam_id":76561198029805750,"connected_time":1284000000000,"state":"active","ping":86},{"user_id":57,"name":"Erenom","steam_id":76561199017383513,"connected_time":1187000000000,"state":"active","ping":90},{"user_id":53,"name":"Sergeant_cross","steam_id":76561198148270425,"connected_time":1273000000000,"state":"active","ping":64},{"user_id":58,"name":"–º–æ–Ω–æ–ª–∏—Ç","steam_id":76561198066755808,"connected_time":1157000000000,"state":"active","ping":57},{"user_id":60,"name":"pretty dick peso","steam_id":76561198798177799,"connected_time":1142000000000,"state":"active","ping":75}]},{"server_id":22,"name":"Uncletopia | London | 6 | All Maps","name_short":"lon-6","host":"lon-1.uk.uncletopia.com","port":27065,"enabled":true,"region":"eu","cc":"gb","latitude":51.509865,"longitude":-0.118092,"reserved":0,"last_update":"0001-01-01T00:00:00Z","name_a2s":"Uncletopia | London | 6 | All Maps","protocol":17,"map":"cp_mountainlab","folder":"tf","game":"Team Fortress","app_id":440,"player_count":0,"max_players":24,"Bots":0,"server_type":"Dedicated","server_os":"Linux","password":true,"vac":true,"version":"7961495","steam_id":85568392924742830,"keywords":["cp","nocrits","nodmgspread","uncletopia"],"game_id":440,"stv_port":27066,"stv_name":"Uncletopia | London | 6 | All Maps | STV","players":null},{"server_id":40,"name":"Uncletopia | London | 7 | Stopwatch","name_short":"lon-7","host":"lon-1.uk.uncletopia.com","port":27075,"enabled":true,"region":"eu","cc":"gb","latitude":51.509865,"longitude":-0.118092,"reserved":0,"last_update":"0001-01-01T00:00:00Z","name_a2s":"Uncletopia | London | 7 | Stopwatch","protocol":17,"map":"workshop/koth_ramjam_rc1.ugc459778887","folder":"tf","game":"Team Fortress","app_id":440,"player_count":0,"max_players":24,"Bots":0,"server_type":"Dedicated","server_os":"Linux","password":true,"vac":true,"version":"7961495","steam_id":85568392924964314,"keywords":["cp","nocrits","nodmgspread","uncletopia"],"game_id":440,"stv_port":27076,"stv_name":"Uncletopia | London | 7 | Stopwatch | STV","players":null},{"server_id":41,"name":"Uncletopia | London | 8 | Community","name_short":"lon-8","host":"lon-1.uk.uncletopia.com","port":27085,"enabled":true,"region":"eu","cc":"gb","latitude":51.509865,"longitude":-0.118092,"reserved":0,"last_update":"0001-01-01T00:00:00Z","name_a2s":"Uncletopia | London | 8 | Community","protocol":17,"map":"workshop/koth_product_final.ugc454272353","folder":"tf","game":"Team Fortress","app_id":440,"player_count":15,"max_players":24,"Bots":0,"server_type":"Dedicated","server_os":"Linux","password":true,"vac":true,"version":"7961495","steam_id":85568392924964315,"keywords":["cp","nocrits","nodmgspread","uncletopia"],"game_id":440,"stv_port":27086,"stv_name":"Uncletopia | London | 8 | Community | STV","players":[{"user_id":107,"name":"IndigoJones","steam_id":76561198050284262,"connected_time":329000000000,"state":"active","ping":47},{"user_id":108,"name":"WillDragonangel","steam_id":76561198258025259,"connected_time":159000000000,"state":"active","ping":148},{"user_id":109,"name":"Eidolon","steam_id":76561198043919565,"connected_time":151000000000,"state":"active","ping":78},{"user_id":53,"name":"Vins van Space","steam_id":76561198073054440,"connected_time":3022000000000,"state":"active","ping":74},{"user_id":103,"name":"irritable vowel syndrome","steam_id":76561198117033273,"connected_time":1233000000000,"state":"active","ping":50},{"user_id":100,"name":"Mero","steam_id":76561198397289130,"connected_time":1639000000000,"state":"active","ping":77},{"user_id":94,"name":"peters.garrett0","steam_id":76561199212526145,"connected_time":1954000000000,"state":"active","ping":133},{"user_id":83,"name":"femboylover69","steam_id":76561198131031404,"connected_time":2271000000000,"state":"active","ping":90},{"user_id":50,"name":"hwleo","steam_id":76561198090848620,"connected_time":3065000000000,"state":"active","ping":90},{"user_id":52,"name":"pihen","steam_id":76561198089598943,"connected_time":3054000000000,"state":"active","ping":70},{"user_id":80,"name":"ilimori","steam_id":76561197961231625,"connected_time":2313000000000,"state":"active","ping":35},{"user_id":85,"name":"Fizik","steam_id":76561198065548086,"connected_time":2236000000000,"state":"active","ping":60},{"user_id":89,"name":"cisgender clown","steam_id":76561199469909295,"connected_time":1990000000000,"state":"active","ping":71},{"user_id":86,"name":"DemiFiend","steam_id":76561198037444194,"connected_time":2231000000000,"state":"active","ping":73},{"user_id":79,"name":"Orbit","steam_id":76561198242999878,"connected_time":2360000000000,"state":"active","ping":58}]},{"server_id":300,"name":"Uncletopia | Montr√©al | 1 | One Thousand Uncles","name_short":"mtl-1","host":"mtl-1.ca.uncletopia.com","port":27015,"enabled":true,"region":"us-east","cc":"ca","latitude":45.50889,"longitude":-73.56167,"reserved":0,"last_update":"0001-01-01T00:00:00Z","name_a2s":"","protocol":0,"map":"","folder":"","game":"","app_id":0,"player_count":0,"max_players":0,"Bots":0,"server_type":"","server_os":"","password":false,"vac":false,"version":"","steam_id":0,"keywords":null,"game_id":0,"stv_port":0,"stv_name":"","players":null},{"server_id":301,"name":"Uncletopia | Montr√©al | 2 | One Thousand Uncles","name_short":"mtl-2","host":"mtl-1.ca.uncletopia.com","port":27025,"enabled":true,"region":"us-east","cc":"ca","latitude":45.50889,"longitude":-73.56167,"reserved":0,"last_update":"0001-01-01T00:00:00Z","name_a2s":"","protocol":0,"map":"","folder":"","game":"","app_id":0,"player_count":0,"max_players":0,"Bots":0,"server_type":"","server_os":"","password":false,"vac":false,"version":"","steam_id":0,"keywords":null,"game_id":0,"stv_port":0,"stv_name":"","players":null},{"server_id":302,"name":"Uncletopia | Montr√©al | 3 | One Thousand Uncles","name_short":"mtl-3","host":"mtl-1.ca.uncletopia.com","port":27035,"enabled":true,"region":"us-east","cc":"ca","latitude":45.50889,"longitude":-73.56167,"reserved":0,"last_update":"0001-01-01T00:00:00Z","name_a2s":"","protocol":0,"map":"","folder":"","game":"","app_id":0,"player_count":7,"max_players":0,"Bots":0,"server_type":"","server_os":"","password":false,"vac":false,"version":"","steam_id":0,"keywords":null,"game_id":0,"stv_port":0,"stv_name":"","players":[{"user_id":37,"name":"adiarn","steam_id":76561199154821818,"connected_time":6229000000000,"state":"active","ping":207},{"user_id":38,"name":"snake","steam_id":76561198841257835,"connected_time":6179000000000,"state":"active","ping":159},{"user_id":90,"name":"Sen","steam_id":76561199030540078,"connected_time":5055000000000,"state":"active","ping":227},{"user_id":89,"name":"Josnake","steam_id":76561199278232357,"connected_time":5467000000000,"state":"active","ping":197},{"user_id":94,"name":"LeGamingProPlays","steam_id":76561198121304032,"connected_time":1312000000000,"state":"active","ping":76},{"user_id":98,"name":"twizted","steam_id":76561197960407274,"connected_time":827000000000,"state":"active","ping":38},{"user_id":99,"name":"Drake the Pixel","steam_id":76561198131824401,"connected_time":10000000000,"state":"active","ping":93}]},{"server_id":13,"name":"Uncletopia | New York City | 1 | All Maps","name_short":"nyc-1","host":"nyc-1.us.uncletopia.com","port":27015,"enabled":true,"region":"us-east","cc":"us","latitude":40.73061,"longitude":-73.93524,"reserved":0,"last_update":"0001-01-01T00:00:00Z","name_a2s":"Uncletopia | New York City | 1 | All Maps","protocol":17,"map":"pl_upward","folder":"tf","game":"Team Fortress","app_id":440,"player_count":24,"max_players":24,"Bots":0,"server_type":"Dedicated","server_os":"Linux","password":true,"vac":true,"version":"7961495","steam_id":85568392924469993,"keywords":["nocrits","nodmgspread","payload","uncletopia"],"game_id":440,"stv_port":27016,"stv_name":"Uncletopia | New York City | 1 | All Maps | STV","players":[{"user_id":110,"name":"Pepsiman","steam_id":76561198436946165,"connected_time":1934000000000,"state":"active","ping":76},{"user_id":62,"name":"Mx. Mourning","steam_id":76561199010673891,"connected_time":4525000000000,"state":"active","ping":70},{"user_id":143,"name":"lu","steam_id":76561198080731872,"connected_time":63000000000,"state":"active","ping":69},{"user_id":112,"name":"The All-Seeing Tim","steam_id":76561198075510786,"connected_time":1907000000000,"state":"active","ping":92},{"user_id":68,"name":"Conscious Entity","steam_id":76561198079985773,"connected_time":4370000000000,"state":"active","ping":57},{"user_id":128,"name":"TiredBonz","steam_id":76561199445629071,"connected_time":664000000000,"state":"active","ping":45},{"user_id":100,"name":"PGLeafy","steam_id":76561198061516523,"connected_time":3161000000000,"state":"active","ping":74},{"user_id":103,"name":"Mentally Ill Woman","steam_id":76561198072030567,"connected_time":2828000000000,"state":"active","ping":74},{"user_id":144,"name":"Xyverle","steam_id":76561198799726415,"connected_time":44000000000,"state":"active","ping":74},{"user_id":133,"name":"Gregory","steam_id":76561199070901945,"connected_time":522000000000,"state":"active","ping":115},{"user_id":135,"name":"Smashing93","steam_id":76561199058453316,"connected_time":411000000000,"state":"active","ping":60},{"user_id":130,"name":"Bulk","steam_id":76561199009814535,"connected_time":561000000000,"state":"active","ping":47},{"user_id":114,"name":"sloth (i have gay)","steam_id":76561198047098172,"connected_time":1880000000000,"state":"active","ping":52},{"user_id":117,"name":"TheSecretNewbie","steam_id":76561198194671218,"connected_time":1715000000000,"state":"active","ping":59},{"user_id":122,"name":"len e","steam_id":76561198128123733,"connected_time":1265000000000,"state":"active","ping":50},{"user_id":140,"name":"Stonks","steam_id":76561199490085068,"connected_time":223000000000,"state":"active","ping":61},{"user_id":136,"name":"BFro","steam_id":76561198102758681,"connected_time":309000000000,"state":"active","ping":69},{"user_id":94,"name":"Tarot Warden","steam_id":76561198284383023,"connected_time":3611000000000,"state":"active","ping":81},{"user_id":76,"name":"·òõ‚ÅêÃ§·ïê·ê∑","steam_id":76561198092781027,"connected_time":4160000000000,"state":"active","ping":60},{"user_id":139,"name":"SpaceSanctum","steam_id":76561198805242305,"connected_time":229000000000,"state":"active","ping":46},{"user_id":138,"name":"you forgot the sauce","steam_id":76561198387016713,"connected_time":250000000000,"state":"active","ping":58},{"user_id":129,"name":"Lord_Calcium","steam_id":76561198302455088,"connected_time":641000000000,"state":"active","ping":71},{"user_id":49,"name":"Coup de Grass","steam_id":76561198011643226,"connected_time":5637000000000,"state":"active","ping":80},{"user_id":127,"name":"Jojo","steam_id":76561198332887086,"connected_time":795000000000,"state":"active","ping":45}]},{"server_id":14,"name":"Uncletopia | New York City | 2 | All Maps","name_short":"nyc-2","host":"nyc-1.us.uncletopia.com","port":27025,"enabled":true,"region":"us-east","cc":"us","latitude":40.73061,"longitude":-73.93524,"reserved":0,"last_update":"0001-01-01T00:00:00Z","name_a2s":"Uncletopia | New York City | 2 | All Maps","protocol":17,"map":"pl_barnblitz","folder":"tf","game":"Team Fortress","app_id":440,"player_count":0,"max_players":24,"Bots":0,"server_type":"Dedicated","server_os":"Linux","password":true,"vac":true,"version":"7961495","steam_id":85568392924469994,"keywords":["nocrits","nodmgspread","payload","uncletopia"],"game_id":440,"stv_port":27026,"stv_name":"Uncletopia | New York City | 2 | All Maps | STV","players":null},{"server_id":15,"name":"Uncletopia | New York City | 3 | Stopwatch","name_short":"nyc-3","host":"nyc-1.us.uncletopia.com","port":27035,"enabled":true,"region":"us-east","cc":"us","latitude":40.73061,"longitude":-73.93524,"reserved":0,"last_update":"0001-01-01T00:00:00Z","name_a2s":"Uncletopia | New York City | 3 | Stopwatch","protocol":17,"map":"pl_swiftwater_final1","folder":"tf","game":"Team Fortress","app_id":440,"player_count":1,"max_players":24,"Bots":0,"server_type":"Dedicated","server_os":"Linux","password":true,"vac":true,"version":"7961495","steam_id":85568392924742820,"keywords":["nocrits","nodmgspread","payload","uncletopia"],"game_id":440,"stv_port":27036,"stv_name":"Uncletopia | New York City | 3 | Stopwatch | STV","players":[{"user_id":13,"name":"L√ÜMppu","steam_id":76561199014627141,"connected_time":722000000000,"state":"active","ping":174}]},{"server_id":16,"name":"Uncletopia | New York City | 4 | Community","name_short":"nyc-4","host":"nyc-1.us.uncletopia.com","port":27045,"enabled":true,"region":"us-east","cc":"us","latitude":40.73061,"longitude":-73.93524,"reserved":0,"last_update":"0001-01-01T00:00:00Z","name_a2s":"Uncletopia | New York City | 4 | Community","protocol":17,"map":"cp_altitude","folder":"tf","game":"Team Fortress","app_id":440,"player_count":0,"max_players":24,"Bots":0,"server_type":"Dedicated","server_os":"Linux","password":true,"vac":true,"version":"7961495","steam_id":85568392924742821,"keywords":["cp","nocrits","nodmgspread","uncletopia"],"game_id":440,"stv_port":27046,"stv_name":"Uncletopia | New York City | 4 | Community | STV","players":null},{"server_id":142,"name":"Uncletopia | S√£o Paulo | 1 | All Maps","name_short":"sao-1","host":"sao-1.br.uncletopia.com","port":27015,"enabled":true,"region":"sa","cc":"br","latitude":-23.533773,"longitude":-46.62529,"reserved":0,"last_update":"0001-01-01T00:00:00Z","name_a2s":"Uncletopia | S√£o Paulo | 1 | All Maps","protocol":17,"map":"koth_cascade","folder":"tf","game":"Team Fortress","app_id":440,"player_count":0,"max_players":24,"Bots":0,"server_type":"Dedicated","server_os":"Linux","password":true,"vac":true,"version":"7961495","steam_id":85568392924469996,"keywords":["cp","nocrits","nodmgspread","uncletopia"],"game_id":440,"stv_port":27016,"stv_name":"Uncletopia | S√£o Paulo | 1 | All Maps | STV","players":null},{"server_id":143,"name":"Uncletopia | S√£o Paulo | 2 | Community","name_short":"sao-2","host":"sao-2.br.uncletopia.com","port":27015,"enabled":true,"region":"sa","cc":"br","latitude":-23.533773,"longitude":-46.62529,"reserved":0,"last_update":"0001-01-01T00:00:00Z","name_a2s":"Uncletopia | S√£o Paulo | 2 | Community","protocol":17,"map":"workshop/koth_product_final.ugc454272353","folder":"tf","game":"Team Fortress","app_id":440,"player_count":0,"max_players":24,"Bots":0,"server_type":"Dedicated","server_os":"Linux","password":true,"vac":true,"version":"7961495","steam_id":85568392924485349,"keywords":["cp","nocrits","nodmgspread","uncletopia"],"game_id":440,"stv_port":27016,"stv_name":"Uncletopia | S√£o Paulo | 2 | Community | STV","players":null},{"server_id":7,"name":"Uncletopia | Seattle | 1 | All Maps","name_short":"sea-1","host":"sea-1.us.uncletopia.com","port":27015,"enabled":true,"region":"us-west","cc":"us","latitude":47.608013,"longitude":-122.33517,"reserved":0,"last_update":"0001-01-01T00:00:00Z","name_a2s":"Uncletopia | Seattle | 1 | All Maps","protocol":17,"map":"cp_steel","folder":"tf","game":"Team Fortress","app_id":440,"player_count":24,"max_players":24,"Bots":0,"server_type":"Dedicated","server_os":"Linux","password":true,"vac":true,"version":"7961495","steam_id":85568392924469997,"keywords":["cp","nocrits","nodmgspread","uncletopia"],"game_id":440,"stv_port":27016,"stv_name":"Uncletopia | Seattle | 1 | All Maps | STV","players":[{"user_id":242,"name":"Classy Crow","steam_id":76561198208586049,"connected_time":582000000000,"state":"active","ping":46},{"user_id":248,"name":"Greskrendtregk","steam_id":76561197969553142,"connected_time":391000000000,"state":"active","ping":52},{"user_id":229,"name":"longhairedhippie","steam_id":76561199097615100,"connected_time":1420000000000,"state":"active","ping":60},{"user_id":211,"name":"Whimsy!","steam_id":76561197989578836,"connected_time":2599000000000,"state":"active","ping":65},{"user_id":170,"name":"Nom Skirrett","steam_id":76561198014600788,"connected_time":4437000000000,"state":"active","ping":69},{"user_id":249,"name":"summer ant","steam_id":76561198340389876,"connected_time":352000000000,"state":"active","ping":73},{"user_id":228,"name":"Mignyanne :3","steam_id":76561198048754056,"connected_time":1557000000000,"state":"active","ping":60},{"user_id":230,"name":"spectrumharlequin","steam_id":76561198094747249,"connected_time":1187000000000,"state":"active","ping":57},{"user_id":254,"name":"Seriously Bruh","steam_id":76561198070408485,"connected_time":151000000000,"state":"active","ping":66},{"user_id":231,"name":"Acro","steam_id":76561198092451804,"connected_time":1029000000000,"state":"active","ping":126},{"user_id":250,"name":"The CEO of cement","steam_id":76561199107177460,"connected_time":344000000000,"state":"active","ping":90},{"user_id":235,"name":"gloobern","steam_id":76561198341190679,"connected_time":897000000000,"state":"active","ping":48},{"user_id":251,"name":"Plimki","steam_id":76561199019877748,"connected_time":321000000000,"state":"active","ping":118},{"user_id":252,"name":"callie","steam_id":76561198131833567,"connected_time":302000000000,"state":"active","ping":78},{"user_id":215,"name":"Shrew","steam_id":76561198085421224,"connected_time":2524000000000,"state":"active","ping":47},{"user_id":255,"name":"miguelrodriguez2013","steam_id":76561198269253587,"connected_time":40000000000,"state":"active","ping":97},{"user_id":236,"name":"Not_Douglas","steam_id":76561199024184136,"connected_time":868000000000,"state":"active","ping":99},{"user_id":241,"name":"Hero Smasher","steam_id":76561198150681669,"connected_time":696000000000,"state":"active","ping":72},{"user_id":213,"name":"Dim","steam_id":76561198061411324,"connected_time":2573000000000,"state":"active","ping":130},{"user_id":214,"name":"-=Bits=-Dinkleberg","steam_id":76561198080367616,"connected_time":2570000000000,"state":"active","ping":90},{"user_id":182,"name":"NavyDinosaur","steam_id":76561198088459962,"connected_time":3696000000000,"state":"active","ping":74},{"user_id":239,"name":"TheRatBoi","steam_id":76561199123032506,"connected_time":782000000000,"state":"active","ping":108},{"user_id":243,"name":"A_Toaster","steam_id":76561198946997549,"connected_time":551000000000,"state":"active","ping":113},{"user_id":221,"name":"ÔΩêÔΩíÔΩèÔΩÜÔΩÖ ÔΩâÔΩìÔΩÅ","steam_id":76561198106966849,"connected_time":2370000000000,"state":"active","ping":123}]},{"server_id":119,"name":"Uncletopia | Seattle | 2 | All Maps","name_short":"sea-2","host":"sea-1.us.uncletopia.com","port":27025,"enabled":true,"region":"us-west","cc":"us","latitude":47.608013,"longitude":-122.33517,"reserved":0,"last_update":"0001-01-01T00:00:00Z","name_a2s":"Uncletopia | Seattle | 2 | All Maps","protocol":17,"map":"koth_highpass","folder":"tf","game":"Team Fortress","app_id":440,"player_count":1,"max_players":24,"Bots":0,"server_type":"Dedicated","server_os":"Linux","password":true,"vac":true,"version":"7961495","steam_id":85568392924469998,"keywords":["cp","nocrits","nodmgspread","uncletopia"],"game_id":440,"stv_port":27026,"stv_name":"Uncletopia | Seattle | 2 | All Maps | STV","players":[{"user_id":10,"name":"Twitch.tv/Jinx_VM","steam_id":76561198280150602,"connected_time":540000000000,"state":"active","ping":33}]},{"server_id":406,"name":"Uncletopia | Seattle | 3 | Stopwatch","name_short":"sea-3","host":"sea-1.us.uncletopia.com","port":27035,"enabled":true,"region":"us-west","cc":"us","latitude":47.608013,"longitude":-122.33517,"reserved":0,"last_update":"0001-01-01T00:00:00Z","name_a2s":"Uncletopia | Seattle | 3 | Stopwatch","protocol":17,"map":"pl_pier","folder":"tf","game":"Team Fortress","app_id":440,"player_count":0,"max_players":24,"Bots":0,"server_type":"Dedicated","server_os":"Linux","password":true,"vac":true,"version":"7961495","steam_id":85568392924515217,"keywords":["nocrits","nodmgspread","payload","uncletopia"],"game_id":440,"stv_port":27036,"stv_name":"Uncletopia | Seattle | 3 | Stopwatch | STV","players":null},{"server_id":17,"name":"Uncletopia | San Francisco | 1 | All Maps","name_short":"sfo-1","host":"sfo-1.us.uncletopia.com","port":27015,"enabled":true,"region":"us-west","cc":"us","latitude":37.77397,"longitude":-122.4313,"reserved":0,"last_update":"0001-01-01T00:00:00Z","name_a2s":"Uncletopia | San Francisco | 1 | All Maps","protocol":17,"map":"koth_cascade","folder":"tf","game":"Team Fortress","app_id":440,"player_count":0,"max_players":24,"Bots":0,"server_type":"Dedicated","server_os":"Linux","password":true,"vac":true,"version":"7961495","steam_id":85568392924469999,"keywords":["cp","nocrits","nodmgspread","uncletopia"],"game_id":440,"stv_port":27016,"stv_name":"Uncletopia | San Francisco | 1 | All Maps | STV","players":null},{"server_id":18,"name":"Uncletopia | San Francisco | 2 | All Maps","name_short":"sfo-2","host":"sfo-1.us.uncletopia.com","port":27025,"enabled":true,"region":"us-west","cc":"us","latitude":37.77397,"longitude":-122.4313,"reserved":0,"last_update":"0001-01-01T00:00:00Z","name_a2s":"Uncletopia | San Francisco | 2 | All Maps","protocol":17,"map":"pl_frontier_final","folder":"tf","game":"Team Fortress","app_id":440,"player_count":0,"max_players":24,"Bots":0,"server_type":"Dedicated","server_os":"Linux","password":true,"vac":true,"version":"7961495","steam_id":85568392924470000,"keywords":["nocrits","nodmgspread","payload","uncletopia"],"game_id":440,"stv_port":27026,"stv_name":"Uncletopia | San Francisco | 2 | All Maps | STV","players":null},{"server_id":19,"name":"Uncletopia | San Francisco | 3 | Stopwatch","name_short":"sfo-3","host":"sfo-1.us.uncletopia.com","port":27035,"enabled":true,"region":"us-west","cc":"us","latitude":37.77397,"longitude":-122.4313,"reserved":0,"last_update":"0001-01-01T00:00:00Z","name_a2s":"Uncletopia | San Francisco | 3 | Stopwatch","protocol":17,"map":"pl_pier","folder":"tf","game":"Team Fortress","app_id":440,"player_count":0,"max_players":24,"Bots":0,"server_type":"Dedicated","server_os":"Linux","password":true,"vac":true,"version":"7961495","steam_id":85568392924742824,"keywords":["nocrits","nodmgspread","payload","uncletopia"],"game_id":440,"stv_port":27036,"stv_name":"Uncletopia | San Francisco | 3 | Stopwatch | STV","players":null},{"server_id":20,"name":"Uncletopia | San Francisco | 4 | Community","name_short":"sfo-4","host":"sfo-1.us.uncletopia.com","port":27045,"enabled":true,"region":"us-west","cc":"us","latitude":37.77397,"longitude":-122.4313,"reserved":0,"last_update":"0001-01-01T00:00:00Z","name_a2s":"Uncletopia | San Francisco | 4 | Community","protocol":17,"map":"workshop/pl_badwater_pro_v12.ugc2142942074","folder":"tf","game":"Team Fortress","app_id":440,"player_count":0,"max_players":24,"Bots":0,"server_type":"Dedicated","server_os":"Linux","password":true,"vac":true,"version":"7961495","steam_id":85568392924742826,"keywords":["nocrits","nodmgspread","payload","uncletopia"],"game_id":440,"stv_port":27046,"stv_name":"Uncletopia | San Francisco | 4 | Community | STV","players":null},{"server_id":141,"name":"Uncletopia | Sydney | 1 | All Maps","name_short":"syd-1","host":"syd-1.au.uncletopia.com","port":27015,"enabled":true,"region":"au","cc":"au","latitude":-33.865143,"longitude":151.2099,"reserved":0,"last_update":"0001-01-01T00:00:00Z","name_a2s":"Uncletopia | Sydney | 1 | All Maps","protocol":17,"map":"koth_viaduct","folder":"tf","game":"Team Fortress","app_id":440,"player_count":0,"max_players":24,"Bots":0,"server_type":"Dedicated","server_os":"Linux","password":true,"vac":true,"version":"7961495","steam_id":85568392924470001,"keywords":["cp","nocrits","nodmgspread","uncletopia"],"game_id":440,"stv_port":27016,"stv_name":"Uncletopia | Sydney | 1 | All Maps | STV","players":null},{"server_id":123,"name":"Uncletopia | Sydney | 2 | All Maps","name_short":"syd-2","host":"syd-1.au.uncletopia.com","port":27025,"enabled":true,"region":"au","cc":"au","latitude":-33.865143,"longitude":151.2099,"reserved":0,"last_update":"0001-01-01T00:00:00Z","name_a2s":"Uncletopia | Sydney | 2 | All Maps","protocol":17,"map":"koth_lakeside_final","folder":"tf","game":"Team Fortress","app_id":440,"player_count":0,"max_players":24,"Bots":0,"server_type":"Dedicated","server_os":"Linux","password":true,"vac":true,"version":"7961495","steam_id":85568392924470002,"keywords":["cp","nocrits","nodmgspread","uncletopia"],"game_id":440,"stv_port":27026,"stv_name":"Uncletopia | Sydney | 2 | All Maps | STV","players":null},{"server_id":395,"name":"Uncletopia | Sydney | 3 | All Maps","name_short":"syd-3","host":"syd-1.au.uncletopia.com","port":27035,"enabled":true,"region":"au","cc":"au","latitude":-33.865143,"longitude":151.2099,"reserved":0,"last_update":"0001-01-01T00:00:00Z","name_a2s":"Uncletopia | Sydney | 3 | All Maps","protocol":17,"map":"pl_frontier_final","folder":"tf","game":"Team Fortress","app_id":440,"player_count":0,"max_players":24,"Bots":0,"server_type":"Dedicated","server_os":"Linux","password":true,"vac":true,"version":"7961495","steam_id":85568392925194467,"keywords":["nocrits","nodmgspread","payload","uncletopia"],"game_id":440,"stv_port":27036,"stv_name":"Uncletopia | Sydney | 3 | All Maps | STV","players":null},{"server_id":396,"name":"Uncletopia | Sydney | 4 | All Maps","name_short":"syd-4","host":"syd-1.au.uncletopia.com","port":27045,"enabled":true,"region":"au","cc":"au","latitude":-33.865143,"longitude":151.2099,"reserved":0,"last_update":"0001-01-01T00:00:00Z","name_a2s":"Uncletopia | Sydney | 4 | All Maps","protocol":17,"map":"cp_process_final","folder":"tf","game":"Team Fortress","app_id":440,"player_count":0,"max_players":24,"Bots":0,"server_type":"Dedicated","server_os":"Linux","password":true,"vac":true,"version":"7961495","steam_id":85568392925397958,"keywords":["cp","nocrits","nodmgspread","uncletopia"],"game_id":440,"stv_port":27046,"stv_name":"Uncletopia | Sydney | 4 | All Maps | STV","players":null},{"server_id":58,"name":"Uncletopia | Sydney | 5 | Stopwatch","name_short":"syd-5","host":"syd-1.au.uncletopia.com","port":27055,"enabled":true,"region":"au","cc":"au","latitude":-33.865143,"longitude":151.2099,"reserved":0,"last_update":"0001-01-01T00:00:00Z","name_a2s":"Uncletopia | Sydney | 5 | Stopwatch","protocol":17,"map":"pl_frontier_final","folder":"tf","game":"Team Fortress","app_id":440,"player_count":0,"max_players":24,"Bots":0,"server_type":"Dedicated","server_os":"Linux","password":true,"vac":true,"version":"7961495","steam_id":85568392925397959,"keywords":["nocrits","nodmgspread","payload","uncletopia"],"game_id":440,"stv_port":27056,"stv_name":"Uncletopia | Sydney | 5 | Stopwatch | STV","players":null},{"server_id":59,"name":"Uncletopia | Sydney | 6 | Community","name_short":"syd-6","host":"syd-1.au.uncletopia.com","port":27065,"enabled":true,"region":"au","cc":"au","latitude":-33.865143,"longitude":151.2099,"reserved":0,"last_update":"0001-01-01T00:00:00Z","name_a2s":"Uncletopia | Sydney | 6 | Community","protocol":17,"map":"cp_sunshine","folder":"tf","game":"Team Fortress","app_id":440,"player_count":0,"max_players":24,"Bots":0,"server_type":"Dedicated","server_os":"Linux","password":true,"vac":true,"version":"7961495","steam_id":85568392925397960,"keywords":["cp","nocrits","nodmgspread","uncletopia"],"game_id":440,"stv_port":27066,"stv_name":"Uncletopia | Sydney | 6 | Community | STV","players":null},{"server_id":49,"name":"Uncletopia | Warsaw | 1 | One Thousand Uncles","name_short":"waw-1","host":"waw-1.pl.uncletopia.com","port":27015,"enabled":true,"region":"eu","cc":"pl","latitude":52.2297,"longitude":21.017532,"reserved":0,"last_update":"0001-01-01T00:00:00Z","name_a2s":"Uncletopia | Warsaw | 1 | One Thousand Uncles","protocol":17,"map":"pl_goldrush","folder":"tf","game":"Team Fortress","app_id":440,"player_count":24,"max_players":32,"Bots":16,"server_type":"Dedicated","server_os":"Linux","password":true,"vac":true,"version":"7961495","steam_id":85568392925397850,"keywords":["alltalk","bots","danepve","increased_maxplayers","nocrits","norespawntime","payload","uncletopia"],"game_id":440,"stv_port":0,"stv_name":"","players":[{"user_id":508,"name":"Who?","steam_id":76561198271901063,"connected_time":622000000000,"state":"active","ping":96},{"user_id":454,"name":"[HK]Êàë‰øÇÈ¶ôÊ∏Ø‰∫∫","steam_id":76561198165376815,"connected_time":4928000000000,"state":"active","ping":78},{"user_id":510,"name":"Deer Friend","steam_id":76561198006609198,"connected_time":594000000000,"state":"active","ping":69},{"user_id":495,"name":"robo_xeque","steam_id":76561199467536524,"connected_time":2458000000000,"state":"active","ping":264},{"user_id":512,"name":"DemonDove","steam_id":76561198365195098,"connected_time":531000000000,"state":"active","ping":101},{"user_id":513,"name":"ArchaeoSquid","steam_id":76561198110234274,"connected_time":511000000000,"state":"active","ping":65},{"user_id":491,"name":"[Mann Co]Puzzle Games","steam_id":76561198022078318,"connected_time":2782000000000,"state":"active","ping":72},{"user_id":456,"name":"Colin McRave","steam_id":76561197981543898,"connected_time":4894000000000,"state":"active","ping":56},{"user_id":502,"name":"Lorenzo","steam_id":76561198155016205,"connected_time":1392000000000,"state":"active","ping":72}]},{"server_id":50,"name":"Uncletopia | Warsaw | 2 | One Thousand Uncles","name_short":"waw-2","host":"waw-1.pl.uncletopia.com","port":27025,"enabled":true,"region":"eu","cc":"pl","latitude":52.2297,"longitude":21.017532,"reserved":0,"last_update":"0001-01-01T00:00:00Z","name_a2s":"Uncletopia | Warsaw | 2 | One Thousand Uncles","protocol":17,"map":"pl_hoodoo_final","folder":"tf","game":"Team Fortress","app_id":440,"player_count":28,"max_players":32,"Bots":16,"server_type":"Dedicated","server_os":"Linux","password":true,"vac":true,"version":"7961495","steam_id":85568392925397851,"keywords":["alltalk","bots","danepve","increased_maxplayers","nocrits","norespawntime","payload","uncletopia"],"game_id":440,"stv_port":0,"stv_name":"","players":[{"user_id":412,"name":"Gustavo Fring","steam_id":76561199210435347,"connected_time":2889000000000,"state":"active","ping":59},{"user_id":418,"name":"The Detective","steam_id":76561198362995682,"connected_time":1680000000000,"state":"active","ping":105},{"user_id":406,"name":"Ascended DIO","steam_id":76561199135246694,"connected_time":3608000000000,"state":"active","ping":55},{"user_id":425,"name":"Miksi","steam_id":76561199138567944,"connected_time":901000000000,"state":"active","ping":65},{"user_id":427,"name":"pavyonspor","steam_id":76561198116530769,"connected_time":303000000000,"state":"active","ping":98},{"user_id":403,"name":"deth_cd","steam_id":76561198311004531,"connected_time":3917000000000,"state":"active","ping":60},{"user_id":416,"name":"Sir.Grusenberg","steam_id":76561198159584509,"connected_time":2038000000000,"state":"active","ping":44},{"user_id":428,"name":"Egtu","steam_id":76561198013757235,"connected_time":257000000000,"state":"active","ping":45},{"user_id":429,"name":"Loo32","steam_id":76561199094568704,"connected_time":174000000000,"state":"active","ping":65},{"user_id":419,"name":"HDox:)","steam_id":76561199096415792,"connected_time":1477000000000,"state":"active","ping":79},{"user_id":420,"name":"Flint","steam_id":76561197995920776,"connected_time":1427000000000,"state":"active","ping":63},{"user_id":424,"name":"PolishInsert","steam_id":76561198282646158,"connected_time":1130000000000,"state":"active","ping":59}]},{"server_id":51,"name":"Uncletopia | Warsaw | 3 | All Maps","name_short":"waw-3","host":"waw-1.pl.uncletopia.com","port":27035,"enabled":true,"region":"eu","cc":"pl","latitude":52.2297,"longitude":21.017532,"reserved":0,"last_update":"0001-01-01T00:00:00Z","name_a2s":"Uncletopia | Warsaw | 3 | All Maps","protocol":17,"map":"cp_gorge","folder":"tf","game":"Team Fortress","app_id":440,"player_count":10,"max_players":24,"Bots":0,"server_type":"Dedicated","server_os":"Linux","password":true,"vac":true,"version":"7961495","steam_id":85568392925397852,"keywords":["cp","nocrits","nodmgspread","uncletopia"],"game_id":440,"stv_port":27036,"stv_name":"Uncletopia | Warsaw | 3 | All Maps | STV","players":[{"user_id":19,"name":"Laryssa","steam_id":76561198271084076,"connected_time":751000000000,"state":"active","ping":46},{"user_id":20,"name":"Ursyn","steam_id":76561198287800213,"connected_time":710000000000,"state":"active","ping":52},{"user_id":21,"name":"Guthlaf","steam_id":76561198153564078,"connected_time":705000000000,"state":"active","ping":55},{"user_id":22,"name":"TheRock","steam_id":76561198386889558,"connected_time":649000000000,"state":"active","ping":56},{"user_id":23,"name":"Hrabia","steam_id":76561198164608139,"connected_time":612000000000,"state":"active","ping":45},{"user_id":24,"name":"gametram","steam_id":76561199129180186,"connected_time":401000000000,"state":"active","ping":75},{"user_id":29,"name":"Keira","steam_id":76561198330870400,"connected_time":230000000000,"state":"active","ping":59},{"user_id":26,"name":"epic_charles","steam_id":76561198048485283,"connected_time":347000000000,"state":"active","ping":180},{"user_id":27,"name":"Fex :D","steam_id":76561199136000324,"connected_time":331000000000,"state":"active","ping":43},{"user_id":32,"name":"fearful asymmetry","steam_id":76561198215966496,"connected_time":73000000000,"state":"active","ping":67}]},{"server_id":52,"name":"Uncletopia | Warsaw | 4 | All Maps","name_short":"waw-4","host":"waw-1.pl.uncletopia.com","port":27045,"enabled":true,"region":"eu","cc":"pl","latitude":52.2297,"longitude":21.017532,"reserved":0,"last_update":"0001-01-01T00:00:00Z","name_a2s":"Uncletopia | Warsaw | 4 | All Maps","protocol":17,"map":"koth_viaduct","folder":"tf","game":"Team Fortress","app_id":440,"player_count":0,"max_players":24,"Bots":0,"server_type":"Dedicated","server_os":"Linux","password":true,"vac":true,"version":"7961495","steam_id":85568392925397853,"keywords":["cp","nocrits","nodmgspread","uncletopia"],"game_id":440,"stv_port":27046,"stv_name":"Uncletopia | Warsaw | 4 | All Maps | STV","players":null},{"server_id":53,"name":"Uncletopia | Warsaw | 5 | Stopwatch","name_short":"waw-5","host":"waw-1.pl.uncletopia.com","port":27055,"enabled":true,"region":"eu","cc":"pl","latitude":52.2297,"longitude":21.017532,"reserved":0,"last_update":"0001-01-01T00:00:00Z","name_a2s":"Uncletopia | Warsaw | 5 | Stopwatch","protocol":17,"map":"workshop/koth_ashville_final.ugc2130459942","folder":"tf","game":"Team Fortress","app_id":440,"player_count":0,"max_players":24,"Bots":0,"server_type":"Dedicated","server_os":"Linux","password":true,"vac":true,"version":"7961495","steam_id":85568392925397854,"keywords":["cp","nocrits","nodmgspread","uncletopia"],"game_id":440,"stv_port":27056,"stv_name":"Uncletopia | Warsaw | 5 | Stopwatch | STV","players":null},{"server_id":54,"name":"Uncletopia | Warsaw | 6 | Community","name_short":"waw-6","host":"waw-1.pl.uncletopia.com","port":27065,"enabled":true,"region":"eu","cc":"pl","latitude":52.2297,"longitude":21.017532,"reserved":0,"last_update":"0001-01-01T00:00:00Z","name_a2s":"Uncletopia | Warsaw | 6 | Community","protocol":17,"map":"workshop/koth_ashville_final.ugc2130459942","folder":"tf","game":"Team Fortress","app_id":440,"player_count":0,"max_players":24,"Bots":0,"server_type":"Dedicated","server_os":"Linux","password":true,"vac":true,"version":"7961495","steam_id":85568392925397856,"keywords":["cp","nocrits","nodmgspread","uncletopia"],"game_id":440,"stv_port":27066,"stv_name":"Uncletopia | Warsaw | 6 | Community | STV","players":null}]}