{"status":true,"message":"","result":[{"server_id":9,"name":"Uncletopia | Atlanta | 1 | All Maps","name_short":"atl-1","host":"atl-1.us.uncletopia.com","port":27015,"enabled":true,"region":"us-east","cc":"us","latitude":33.753746,"longitude":-84.38633,"reserved":0,"last_update":"0001-01-01T00:00:00Z","name_a2s":"Uncletopia | Atlanta | 1 | All Maps","protocol":17,"map":"cp_dustbowl","folder":"tf","game":"Team Fortress","app_id":440,"player_count":0,"max_players":24,"Bots":0,"server_type":"Dedicated","server_os":"Linux","password":true,"vac":true,"version":"7757534","steam_id":85568392924469982,"keywords":["cp","nocrits","nodmgspread","uncletopia"],"game_id":440,"stv_port":27016,"stv_name":"Uncletopia | Atlanta | 1 | All Maps | STV","players":null},{"server_id":400,"name":"Uncletopia | Atlanta | 3 | Stopwatch Beta","name_short":"atl-3","host":"atl-1.us.uncletopia.com","port":27035,"enabled":true,"region":"us-east","cc":"us","latitude":33.753746,"longitude":-84.38633,"reserved":0,"last_update":"0001-01-01T00:00:00Z","name_a2s":"Uncletopia | Atlanta | 3 | Stopwatch Beta","protocol":17,"map":"koth_lakeside_final","folder":"tf","game":"Team Fortress","app_id":440,"player_count":2,"max_players":24,"Bots":0,"server_type":"Dedicated","server_os":"Linux","password":true,"vac":true,"version":"7757534","steam_id":85568392924515187,"keywords":["cp","nocrits","nodmgspread","uncletopia"],"game_id":440,"stv_port":27036,"stv_name":"Uncletopia | Atlanta | 3 | Stopwatch Beta | STV","players":[{"user_id":3,"name":"shadysessions","steam_id":76561198032464781,"connected_time":383000000000,"state":"active","ping":81},{"user_id":4,"name":"shadow6","steam_id":76561197979807910,"connected_time":137000000000,"state":"active","ping":110}]},{"server_id":401,"name":"Uncletopia | Atlanta | 4 | No Payload","name_short":"atl-4","host":"atl-1.us.uncletopia.com","port":27045,"enabled":true,"region":"us-east","cc":"us","latitude":33.753746,"longitude":-84.38633,"reserved":0,"last_update":"0001-01-01T00:00:00Z","name_a2s":"Uncletopia | Atlanta | 4 | No Payload","protocol":17,"map":"pl_pier","folder":"tf","game":"Team Fortress","app_id":440,"player_count":0,"max_players":24,"Bots":0,"server_type":"Dedicated","server_os":"Linux","password":true,"vac":true,"version":"7723704","steam_id":85568392924515188,"keywords":["nocrits","nodmgspread","payload","uncletopia"],"game_id":440,"stv_port":27046,"stv_name":"Uncletopia | Atlanta | 4 | No Payload | STV","players":null},{"server_id":2,"name":"Uncletopia | Chicago | 1 | All Maps","name_short":"chi-1","host":"chi-1.us.uncletopia.com","port":27015,"enabled":true,"region":"us-central","cc":"us","latitude":41.881832,"longitude":-87.62318,"reserved":0,"last_update":"0001-01-01T00:00:00Z","name_a2s":"Uncletopia | Chicago | 1 | All Maps","protocol":17,"map":"koth_highpass","folder":"tf","game":"Team Fortress","app_id":440,"player_count":0,"max_players":24,"Bots":0,"server_type":"Dedicated","server_os":"Linux","password":true,"vac":true,"version":"7757534","steam_id":85568392924469984,"keywords":["cp","nocrits","nodmgspread","uncletopia"],"game_id":440,"stv_port":27016,"stv_name":"Uncletopia | Chicago | 1 | All Maps | STV","players":null},{"server_id":106,"name":"Uncletopia | Chicago | 2 | All Maps","name_short":"chi-2","host":"chi-1.us.uncletopia.com","port":27025,"enabled":true,"region":"us-central","cc":"us","latitude":41.881832,"longitude":-87.62318,"reserved":0,"last_update":"0001-01-01T00:00:00Z","name_a2s":"Uncletopia | Chicago | 2 | All Maps","protocol":17,"map":"koth_lakeside_final","folder":"tf","game":"Team Fortress","app_id":440,"player_count":0,"max_players":24,"Bots":0,"server_type":"Dedicated","server_os":"Linux","password":true,"vac":true,"version":"7757534","steam_id":85568392924469985,"keywords":["cp","nocrits","nodmgspread","uncletopia"],"game_id":440,"stv_port":27026,"stv_name":"Uncletopia | Chicago | 2 | All Maps | STV","players":null},{"server_id":402,"name":"Uncletopia | Chicago | 3 | All Maps","name_short":"chi-3","host":"chi-1.us.uncletopia.com","port":27035,"enabled":true,"region":"us-central","cc":"us","latitude":41.881832,"longitude":-87.62318,"reserved":0,"last_update":"0001-01-01T00:00:00Z","name_a2s":"Uncletopia | Chicago | 3 | All Maps","protocol":17,"map":"cp_mountainlab","folder":"tf","game":"Team Fortress","app_id":440,"player_count":0,"max_players":24,"Bots":0,"server_type":"Dedicated","server_os":"Linux","password":true,"vac":true,"version":"7757534","steam_id":85568392924515191,"keywords":["cp","nocrits","nodmgspread","uncletopia"],"game_id":440,"stv_port":27036,"stv_name":"Uncletopia | Chicago | 3 | All Maps | STV","players":null},{"server_id":403,"name":"Uncletopia | Chicago | 4 | All Maps","name_short":"chi-4","host":"chi-1.us.uncletopia.com","port":27045,"enabled":true,"region":"us-central","cc":"us","latitude":41.881832,"longitude":-87.62318,"reserved":0,"last_update":"0001-01-01T00:00:00Z","name_a2s":"Uncletopia | Chicago | 4 | All Maps","protocol":17,"map":"cp_altitude","folder":"tf","game":"Team Fortress","app_id":440,"player_count":0,"max_players":24,"Bots":0,"server_type":"Dedicated","server_os":"Linux","password":true,"vac":true,"version":"7757534","steam_id":85568392924515193,"keywords":["cp","nocrits","nodmgspread","uncletopia"],"game_id":440,"stv_port":27046,"stv_name":"Uncletopia | Chicago | 4 | All Maps | STV","players":null},{"server_id":36,"name":"Uncletopia | Chicago | 5 | All Maps","name_short":"chi-5","host":"chi-2.us.uncletopia.com","port":27015,"enabled":true,"region":"us-central","cc":"us","latitude":41.881832,"longitude":-87.62318,"reserved":0,"last_update":"0001-01-01T00:00:00Z","name_a2s":"Uncletopia | Chicago | 5 | All Maps","protocol":17,"map":"koth_cascade","folder":"tf","game":"Team Fortress","app_id":440,"player_count":0,"max_players":24,"Bots":0,"server_type":"Dedicated","server_os":"Linux","password":true,"vac":true,"version":"7757534","steam_id":85568392924866362,"keywords":["cp","nocrits","nodmgspread","uncletopia"],"game_id":440,"stv_port":27016,"stv_name":"Uncletopia | Chicago | 5 | All Maps | STV","players":null},{"server_id":37,"name":"Uncletopia | Chicago | 6 | All Maps","name_short":"chi-6","host":"chi-2.us.uncletopia.com","port":27025,"enabled":true,"region":"us-central","cc":"us","latitude":41.881832,"longitude":-87.62318,"reserved":0,"last_update":"0001-01-01T00:00:00Z","name_a2s":"Uncletopia | Chicago | 6 | All Maps","protocol":17,"map":"cp_mountainlab","folder":"tf","game":"Team Fortress","app_id":440,"player_count":0,"max_players":24,"Bots":0,"server_type":"Dedicated","server_os":"Linux","password":true,"vac":true,"version":"7757534","steam_id":85568392924866363,"keywords":["cp","nocrits","nodmgspread","uncletopia"],"game_id":440,"stv_port":27026,"stv_name":"Uncletopia | Chicago | 6 | All Maps | STV","players":null},{"server_id":38,"name":"Uncletopia | Chicago | 7 | Stopwatch Beta","name_short":"chi-7","host":"chi-2.us.uncletopia.com","port":27035,"enabled":true,"region":"us-central","cc":"us","latitude":41.881832,"longitude":-87.62318,"reserved":0,"last_update":"0001-01-01T00:00:00Z","name_a2s":"Uncletopia | Chicago | 7 | Stopwatch Beta","protocol":17,"map":"cp_sunshine","folder":"tf","game":"Team Fortress","app_id":440,"player_count":0,"max_players":24,"Bots":0,"server_type":"Dedicated","server_os":"Linux","password":true,"vac":true,"version":"7757534","steam_id":85568392924866364,"keywords":["cp","nocrits","nodmgspread","uncletopia"],"game_id":440,"stv_port":27036,"stv_name":"Uncletopia | Chicago | 7 | Stopwatch Beta | STV","players":null},{"server_id":39,"name":"Uncletopia | Chicago | 8 | Community","name_short":"chi-8","host":"chi-2.us.uncletopia.com","port":27045,"enabled":true,"region":"us-central","cc":"us","latitude":41.881832,"longitude":-87.62318,"reserved":0,"last_update":"0001-01-01T00:00:00Z","name_a2s":"Uncletopia | Chicago | 8 | Community","protocol":17,"map":"pl_pier","folder":"tf","game":"Team Fortress","app_id":440,"player_count":0,"max_players":24,"Bots":0,"server_type":"Dedicated","server_os":"Linux","password":true,"vac":true,"version":"7757534","steam_id":85568392924866365,"keywords":["nocrits","nodmgspread","payload","uncletopia"],"game_id":440,"stv_port":27046,"stv_name":"Uncletopia | Chicago | 8 | Community | STV","players":null},{"server_id":8,"name":"Uncletopia | Dallas | 1 | All Maps","name_short":"dal-1","host":"dal-1.us.uncletopia.com","port":27015,"enabled":true,"region":"us-central","cc":"us","latitude":32.779167,"longitude":-96.80889,"reserved":0,"last_update":"0001-01-01T00:00:00Z","name_a2s":"Uncletopia | Dallas | 1 | All Maps","protocol":17,"map":"pl_badwater","folder":"tf","game":"Team Fortress","app_id":440,"player_count":0,"max_players":24,"Bots":0,"server_type":"Dedicated","server_os":"Linux","password":true,"vac":true,"version":"7757534","steam_id":85568392924469986,"keywords":["nocrits","nodmgspread","payload","uncletopia"],"game_id":440,"stv_port":27016,"stv_name":"Uncletopia | Dallas | 1 | All Maps | STV","players":null},{"server_id":108,"name":"Uncletopia | Dallas | 2 | All Maps","name_short":"dal-2","host":"dal-1.us.uncletopia.com","port":27025,"enabled":true,"region":"us-central","cc":"us","latitude":32.779167,"longitude":-96.80889,"reserved":0,"last_update":"0001-01-01T00:00:00Z","name_a2s":"Uncletopia | Dallas | 2 | All Maps","protocol":17,"map":"koth_highpass","folder":"tf","game":"Team Fortress","app_id":440,"player_count":0,"max_players":24,"Bots":0,"server_type":"Dedicated","server_os":"Linux","password":true,"vac":true,"version":"7757534","steam_id":85568392924469988,"keywords":["cp","nocrits","nodmgspread","uncletopia"],"game_id":440,"stv_port":27026,"stv_name":"Uncletopia | Dallas | 2 | All Maps | STV","players":null},{"server_id":5,"name":"Uncletopia | Frankfurt | 1 | All Maps","name_short":"frk-1","host":"frk-1.de.uncletopia.com","port":27015,"enabled":true,"region":"eu","cc":"de","latitude":50.110924,"longitude":8.682127,"reserved":0,"last_update":"0001-01-01T00:00:00Z","name_a2s":"Uncletopia | Frankfurt | 1 | All Maps","protocol":17,"map":"cp_steel","folder":"tf","game":"Team Fortress","app_id":440,"player_count":24,"max_players":24,"Bots":0,"server_type":"Dedicated","server_os":"Linux","password":true,"vac":true,"version":"7757534","steam_id":85568392924469989,"keywords":["cp","nocrits","nodmgspread","uncletopia"],"game_id":440,"stv_port":27016,"stv_name":"Uncletopia | Frankfurt | 1 | All Maps | STV","players":[{"user_id":169,"name":"Videogamer","steam_id":76561198106012909,"connected_time":906000000000,"state":"active","ping":67},{"user_id":173,"name":"disposablesuperbread","steam_id":76561199074703607,"connected_time":646000000000,"state":"active","ping":70},{"user_id":184,"name":"giorno giovanna","steam_id":76561198993161087,"connected_time":51000000000,"state":"active","ping":85},{"user_id":112,"name":"Buenos D√≠as!","steam_id":76561198417999443,"connected_time":5403000000000,"state":"active","ping":94},{"user_id":128,"name":"nachtraaf","steam_id":76561197960473205,"connected_time":3873000000000,"state":"active","ping":61},{"user_id":183,"name":"CarBombEnthusiast","steam_id":76561199448185434,"connected_time":100000000000,"state":"active","ping":63},{"user_id":181,"name":"BORGETENNISCLUB","steam_id":76561198049343723,"connected_time":272000000000,"state":"active","ping":69},{"user_id":185,"name":"kovat ajat","steam_id":76561198037672220,"connected_time":25000000000,"state":"active","ping":63},{"user_id":182,"name":"walluu","steam_id":76561198121830870,"connected_time":138000000000,"state":"active","ping":73},{"user_id":174,"name":"Ramefy","steam_id":76561198809895419,"connected_time":633000000000,"state":"active","ping":90},{"user_id":172,"name":"Matznmilian","steam_id":76561198024358403,"connected_time":733000000000,"state":"active","ping":75},{"user_id":122,"name":"tekt","steam_id":76561198044554387,"connected_time":4653000000000,"state":"active","ping":88},{"user_id":168,"name":"ghost","steam_id":76561198189940229,"connected_time":998000000000,"state":"active","ping":63},{"user_id":127,"name":"Swayer","steam_id":76561198056192460,"connected_time":4195000000000,"state":"active","ping":75},{"user_id":166,"name":"dr.cumfart","steam_id":76561198045330758,"connected_time":1493000000000,"state":"active","ping":133},{"user_id":176,"name":"MEDIC!","steam_id":76561198883848767,"connected_time":573000000000,"state":"active","ping":59},{"user_id":177,"name":"Tugazu","steam_id":76561198144223649,"connected_time":547000000000,"state":"active","ping":61},{"user_id":126,"name":"yourtruemedic","steam_id":76561198826881879,"connected_time":4228000000000,"state":"active","ping":70},{"user_id":124,"name":"donk","steam_id":76561198162676648,"connected_time":4519000000000,"state":"active","ping":75},{"user_id":180,"name":"Wenolainen","steam_id":76561198334592800,"connected_time":390000000000,"state":"active","ping":83},{"user_id":157,"name":"Neytan","steam_id":76561198027024747,"connected_time":2206000000000,"state":"active","ping":144},{"user_id":158,"name":"Rodia","steam_id":76561197968293161,"connected_time":2191000000000,"state":"active","ping":68},{"user_id":163,"name":"Miloleopard (bad at TF2)","steam_id":76561199196616680,"connected_time":1756000000000,"state":"active","ping":77},{"user_id":92,"name":"cockwater","steam_id":76561198209101861,"connected_time":6307000000000,"state":"active","ping":72}]},{"server_id":110,"name":"Uncletopia | Frankfurt | 2 | All Maps","name_short":"frk-2","host":"frk-1.de.uncletopia.com","port":27025,"enabled":true,"region":"eu","cc":"de","latitude":50.110924,"longitude":8.682127,"reserved":0,"last_update":"0001-01-01T00:00:00Z","name_a2s":"Uncletopia | Frankfurt | 2 | All Maps","protocol":17,"map":"pl_upward","folder":"tf","game":"Team Fortress","app_id":440,"player_count":22,"max_players":24,"Bots":0,"server_type":"Dedicated","server_os":"Linux","password":true,"vac":true,"version":"7757534","steam_id":85568392924469990,"keywords":["nocrits","nodmgspread","payload","uncletopia"],"game_id":440,"stv_port":27026,"stv_name":"Uncletopia | Frankfurt | 2 | All Maps | STV","players":[{"user_id":143,"name":"RocketBoy08","steam_id":76561198833978944,"connected_time":294000000000,"state":"active","ping":92},{"user_id":137,"name":"Acidpets","steam_id":76561198875421227,"connected_time":662000000000,"state":"active","ping":60},{"user_id":134,"name":"txrracxtta","steam_id":76561198073478010,"connected_time":1079000000000,"state":"active","ping":42},{"user_id":123,"name":"Alin","steam_id":76561198059679991,"connected_time":1559000000000,"state":"active","ping":96},{"user_id":138,"name":"silicon based life form","steam_id":76561199127121346,"connected_time":521000000000,"state":"active","ping":63},{"user_id":83,"name":"kackboon","steam_id":76561198044189114,"connected_time":4025000000000,"state":"active","ping":59},{"user_id":139,"name":"cookie","steam_id":76561198305378565,"connected_time":521000000000,"state":"active","ping":39},{"user_id":130,"name":"DeleteTrickster","steam_id":76561198397120242,"connected_time":1257000000000,"state":"active","ping":114},{"user_id":111,"name":"Guru","steam_id":76561198093853069,"connected_time":2089000000000,"state":"active","ping":51},{"user_id":67,"name":"Senator Armstrong","steam_id":76561198984346408,"connected_time":5083000000000,"state":"active","ping":66},{"user_id":112,"name":"justChaoyi","steam_id":76561199227837893,"connected_time":2077000000000,"state":"active","ping":61},{"user_id":140,"name":"Mal ‚òÖ","steam_id":76561198262337669,"connected_time":500000000000,"state":"active","ping":68},{"user_id":122,"name":"a fleet of maids","steam_id":76561198058012525,"connected_time":1658000000000,"state":"active","ping":70},{"user_id":133,"name":"EEEEEH","steam_id":76561198126717413,"connected_time":1182000000000,"state":"active","ping":80},{"user_id":114,"name":"theo von","steam_id":76561198125381319,"connected_time":2067000000000,"state":"active","ping":90},{"user_id":136,"name":"Iva","steam_id":76561198254963150,"connected_time":851000000000,"state":"active","ping":56},{"user_id":30,"name":"marcus","steam_id":76561198053429589,"connected_time":7476000000000,"state":"active","ping":61},{"user_id":141,"name":"Gryoss","steam_id":76561197999837111,"connected_time":485000000000,"state":"active","ping":93},{"user_id":93,"name":"fogings","steam_id":76561198044165284,"connected_time":3570000000000,"state":"active","ping":45},{"user_id":115,"name":"Kestrel","steam_id":76561198144033005,"connected_time":2066000000000,"state":"active","ping":60},{"user_id":126,"name":"Wololo","steam_id":76561197972235375,"connected_time":1515000000000,"state":"active","ping":62},{"user_id":37,"name":"Espa√±aa","steam_id":76561198879587832,"connected_time":7344000000000,"state":"active","ping":85}]},{"server_id":308,"name":"Uncletopia | Frankfurt | 3 | All Maps","name_short":"frk-3","host":"frk-1.de.uncletopia.com","port":27035,"enabled":true,"region":"eu","cc":"de","latitude":50.110924,"longitude":8.682127,"reserved":0,"last_update":"0001-01-01T00:00:00Z","name_a2s":"Uncletopia | Frankfurt | 3 | All Maps","protocol":17,"map":"koth_viaduct","folder":"tf","game":"Team Fortress","app_id":440,"player_count":17,"max_players":24,"Bots":0,"server_type":"Dedicated","server_os":"Linux","password":true,"vac":true,"version":"7757534","steam_id":85568392924504274,"keywords":["cp","nocrits","nodmgspread","uncletopia"],"game_id":440,"stv_port":27036,"stv_name":"Uncletopia | Frankfurt | 3 | All Maps | STV","players":[{"user_id":22,"name":"SeventySeven","steam_id":76561197988484041,"connected_time":1366000000000,"state":"active","ping":67},{"user_id":31,"name":"Jonas Destark","steam_id":76561198030327441,"connected_time":1053000000000,"state":"active","ping":66},{"user_id":32,"name":"snake9544","steam_id":76561198083076205,"connected_time":1048000000000,"state":"active","ping":78},{"user_id":33,"name":"Luke SpyWalker","steam_id":76561198008643276,"connected_time":961000000000,"state":"active","ping":60},{"user_id":45,"name":"TSx* Osa__PL","steam_id":76561198027016799,"connected_time":94000000000,"state":"active","ping":75},{"user_id":34,"name":"WZ-121","steam_id":76561198183752437,"connected_time":937000000000,"state":"active","ping":59},{"user_id":35,"name":"SaSSolino","steam_id":76561198011308018,"connected_time":866000000000,"state":"active","ping":50},{"user_id":36,"name":"Your friend (maybe)","steam_id":76561198240278328,"connected_time":821000000000,"state":"active","ping":73},{"user_id":37,"name":"the Demoman from Team Fortress ","steam_id":76561199418489332,"connected_time":631000000000,"state":"active","ping":59},{"user_id":39,"name":"nyanezt","steam_id":76561198253734265,"connected_time":376000000000,"state":"active","ping":90},{"user_id":40,"name":"jeezos christ !","steam_id":76561198123592400,"connected_time":339000000000,"state":"active","ping":82},{"user_id":41,"name":"sex haver","steam_id":76561198798892497,"connected_time":321000000000,"state":"active","ping":57},{"user_id":42,"name":"sex giver","steam_id":76561198074661617,"connected_time":319000000000,"state":"active","ping":78},{"user_id":43,"name":"kms","steam_id":76561198090090215,"connected_time":191000000000,"state":"active","ping":95},{"user_id":44,"name":"Lokinn","steam_id":76561198127117580,"connected_time":115000000000,"state":"active","ping":66},{"user_id":46,"name":"TSx* {Demon-Angel}","steam_id":76561198151486463,"connected_time":90000000000,"state":"active","ping":80},{"user_id":47,"name":"TSx* Naxer","steam_id":76561198011986779,"connected_time":76000000000,"state":"active","ping":62}]},{"server_id":309,"name":"Uncletopia | Frankfurt | 4 | All Maps","name_short":"frk-4","host":"frk-1.de.uncletopia.com","port":27045,"enabled":true,"region":"eu","cc":"de","latitude":50.110924,"longitude":8.682127,"reserved":0,"last_update":"0001-01-01T00:00:00Z","name_a2s":"Uncletopia | Frankfurt | 4 | All Maps","protocol":17,"map":"pl_badwater","folder":"tf","game":"Team Fortress","app_id":440,"player_count":25,"max_players":24,"Bots":0,"server_type":"Dedicated","server_os":"Linux","password":true,"vac":true,"version":"7757534","steam_id":85568392924504275,"keywords":["nocrits","nodmgspread","payload","uncletopia"],"game_id":440,"stv_port":27046,"stv_name":"Uncletopia | Frankfurt | 4 | All Maps | STV","players":[{"user_id":109,"name":"Asgaard","steam_id":76561198026516905,"connected_time":7023000000000,"state":"active","ping":99},{"user_id":144,"name":"Banana","steam_id":76561198155118706,"connected_time":4356000000000,"state":"active","ping":93},{"user_id":148,"name":"Hanƒ±mSever23","steam_id":76561198142124751,"connected_time":3195000000000,"state":"active","ping":115},{"user_id":173,"name":"Tryrn","steam_id":76561198075487436,"connected_time":891000000000,"state":"active","ping":89},{"user_id":174,"name":"Cireaell","steam_id":76561198991108744,"connected_time":581000000000,"state":"active","ping":75},{"user_id":130,"name":"Ged","steam_id":76561198079288943,"connected_time":5204000000000,"state":"active","ping":112},{"user_id":177,"name":"bob","steam_id":76561198974161184,"connected_time":290000000000,"state":"active","ping":156},{"user_id":136,"name":"clean carp","steam_id":76561198127053294,"connected_time":4991000000000,"state":"active","ping":60},{"user_id":160,"name":"kpn","steam_id":76561198063512694,"connected_time":2380000000000,"state":"active","ping":50},{"user_id":172,"name":"KeanuCheems","steam_id":76561198145580689,"connected_time":1047000000000,"state":"active","ping":73},{"user_id":150,"name":"Z4p4d","steam_id":76561198011755675,"connected_time":3165000000000,"state":"active","ping":70},{"user_id":169,"name":"keb","steam_id":76561198276137088,"connected_time":1398000000000,"state":"active","ping":87},{"user_id":151,"name":"Na'vi Misato (by popular demand","steam_id":76561198130860698,"connected_time":3156000000000,"state":"active","ping":64},{"user_id":146,"name":"Pastoss","steam_id":76561198379098260,"connected_time":4204000000000,"state":"active","ping":65},{"user_id":158,"name":"Johnny","steam_id":76561198880265246,"connected_time":2420000000000,"state":"active","ping":78},{"user_id":176,"name":"Chad Sex Defender","steam_id":76561198357871760,"connected_time":438000000000,"state":"active","ping":119},{"user_id":180,"name":"Hexagon","steam_id":76561198151205758,"connected_time":2000000000,"state":"spawning","ping":40},{"user_id":112,"name":"‚ò¢ Stalker ‚ò¢","steam_id":76561198147879113,"connected_time":6929000000000,"state":"active","ping":71},{"user_id":179,"name":"LightBulbGlue #SaveTF2","steam_id":76561198329573529,"connected_time":169000000000,"state":"active","ping":172},{"user_id":154,"name":"S0LDaTo","steam_id":76561198269413360,"connected_time":3107000000000,"state":"active","ping":64},{"user_id":138,"name":"irem eating tuna","steam_id":76561198142183478,"connected_time":4964000000000,"state":"active","ping":87},{"user_id":175,"name":"balanced diet","steam_id":76561198240320806,"connected_time":470000000000,"state":"active","ping":70},{"user_id":178,"name":"Cake","steam_id":76561198314334619,"connected_time":212000000000,"state":"active","ping":96},{"user_id":181,"name":"‡∂ûbominasus 2137  #SaveTF2","steam_id":76561198030062981,"connected_time":1000000000,"state":"spawning","ping":292},{"user_id":82,"name":"dotdotdot","steam_id":76561198057628751,"connected_time":8766000000000,"state":"active","ping":69}]},{"server_id":310,"name":"Uncletopia | Frankfurt | 5 | All Maps","name_short":"frk-5","host":"frk-1.de.uncletopia.com","port":27055,"enabled":true,"region":"eu","cc":"de","latitude":50.110924,"longitude":8.682127,"reserved":0,"last_update":"0001-01-01T00:00:00Z","name_a2s":"Uncletopia | Frankfurt | 5 | All Maps","protocol":17,"map":"pl_barnblitz","folder":"tf","game":"Team Fortress","app_id":440,"player_count":24,"max_players":24,"Bots":0,"server_type":"Dedicated","server_os":"Linux","password":true,"vac":true,"version":"7757534","steam_id":85568392924504277,"keywords":["nocrits","nodmgspread","payload","uncletopia"],"game_id":440,"stv_port":27056,"stv_name":"Uncletopia | Frankfurt | 5 | All Maps | STV","players":[{"user_id":76,"name":"System","steam_id":76561199442503973,"connected_time":653000000000,"state":"active","ping":48},{"user_id":70,"name":"goofy goober","steam_id":76561198013237629,"connected_time":1517000000000,"state":"active","ping":97},{"user_id":71,"name":"Catnip Smoker","steam_id":76561198284519569,"connected_time":997000000000,"state":"active","ping":116},{"user_id":49,"name":"Dominus.","steam_id":76561199065917088,"connected_time":2336000000000,"state":"active","ping":70},{"user_id":78,"name":"BUBBAAAAA","steam_id":76561198150597524,"connected_time":520000000000,"state":"active","ping":45},{"user_id":12,"name":"daidamuxa.6590","steam_id":76561198236773400,"connected_time":4135000000000,"state":"active","ping":119},{"user_id":34,"name":"Ale1199","steam_id":76561198994871986,"connected_time":3382000000000,"state":"active","ping":76},{"user_id":14,"name":"andria","steam_id":76561198930247131,"connected_time":4129000000000,"state":"active","ping":116},{"user_id":28,"name":"Kenny","steam_id":76561198107911141,"connected_time":3647000000000,"state":"active","ping":60},{"user_id":73,"name":"beepper","steam_id":76561198925734405,"connected_time":736000000000,"state":"active","ping":76},{"user_id":52,"name":"Baptek","steam_id":76561198330883754,"connected_time":2077000000000,"state":"active","ping":86},{"user_id":69,"name":"Big Balls Bill","steam_id":76561198045998627,"connected_time":1687000000000,"state":"active","ping":60},{"user_id":19,"name":"CosminSL","steam_id":76561198055827684,"connected_time":3870000000000,"state":"active","ping":76},{"user_id":36,"name":"VolcanicArts","steam_id":76561198063453246,"connected_time":3336000000000,"state":"active","ping":69},{"user_id":68,"name":"B0r–µ–∞l","steam_id":76561198268369013,"connected_time":1838000000000,"state":"active","ping":69},{"user_id":22,"name":"—Ç—É–∫–∫—É –∏—Ä–º–∞","steam_id":76561197998715016,"connected_time":3766000000000,"state":"active","ping":56},{"user_id":75,"name":"Rambi","steam_id":76561199058078505,"connected_time":666000000000,"state":"active","ping":158},{"user_id":40,"name":"fmdi","steam_id":76561199433879329,"connected_time":3139000000000,"state":"active","ping":67},{"user_id":66,"name":"practicing","steam_id":76561198176202865,"connected_time":1853000000000,"state":"active","ping":79},{"user_id":47,"name":"MrMartin","steam_id":76561198399954507,"connected_time":2555000000000,"state":"active","ping":89},{"user_id":50,"name":".::[SerafeTTiN]::.","steam_id":76561198009471724,"connected_time":2178000000000,"state":"active","ping":90},{"user_id":74,"name":"desoo","steam_id":76561198052878585,"connected_time":729000000000,"state":"active","ping":135},{"user_id":31,"name":"Pabs :D","steam_id":76561198000016962,"connected_time":3525000000000,"state":"active","ping":60},{"user_id":80,"name":"Gabys","steam_id":76561198282892553,"connected_time":412000000000,"state":"active","ping":74}]},{"server_id":311,"name":"Uncletopia | Frankfurt | 6 | All Maps","name_short":"frk-6","host":"frk-1.de.uncletopia.com","port":27065,"enabled":true,"region":"eu","cc":"de","latitude":50.110924,"longitude":8.682127,"reserved":0,"last_update":"0001-01-01T00:00:00Z","name_a2s":"Uncletopia | Frankfurt | 6 | All Maps","protocol":17,"map":"koth_highpass","folder":"tf","game":"Team Fortress","app_id":440,"player_count":0,"max_players":24,"Bots":0,"server_type":"Dedicated","server_os":"Linux","password":true,"vac":true,"version":"7757534","steam_id":85568392924504278,"keywords":["cp","nocrits","nodmgspread","uncletopia"],"game_id":440,"stv_port":27066,"stv_name":"Uncletopia | Frankfurt | 6 | All Maps | STV","players":null},{"server_id":23,"name":"Uncletopia | Frankfurt | 7 | Stopwatch Beta","name_short":"frk-7","host":"frk-1.de.uncletopia.com","port":27075,"enabled":true,"region":"eu","cc":"de","latitude":50.110924,"longitude":8.682127,"reserved":0,"last_update":"0001-01-01T00:00:00Z","name_a2s":"Uncletopia | Frankfurt | 7 | Stopwatch Beta","protocol":17,"map":"koth_lakeside_final","folder":"tf","game":"Team Fortress","app_id":440,"player_count":0,"max_players":24,"Bots":0,"server_type":"Dedicated","server_os":"Linux","password":true,"vac":true,"version":"7757534","steam_id":85568392924742827,"keywords":["cp","nocrits","nodmgspread","uncletopia"],"game_id":440,"stv_port":27076,"stv_name":"Uncletopia | Frankfurt | 7 | Stopwatch Beta | STV","players":null},{"server_id":24,"name":"Uncletopia | Frankfurt | 8 | Community","name_short":"frk-8","host":"frk-1.de.uncletopia.com","port":27085,"enabled":true,"region":"eu","cc":"de","latitude":50.110924,"longitude":8.682127,"reserved":0,"last_update":"0001-01-01T00:00:00Z","name_a2s":"Uncletopia | Frankfurt | 8 | Community","protocol":17,"map":"koth_cascade","folder":"tf","game":"Team Fortress","app_id":440,"player_count":0,"max_players":24,"Bots":0,"server_type":"Dedicated","server_os":"Linux","password":true,"vac":true,"version":"7757534","steam_id":85568392924742828,"keywords":["cp","nocrits","nodmgspread","uncletopia"],"game_id":440,"stv_port":27086,"stv_name":"Uncletopia | Frankfurt | 8 | Community | STV","players":null},{"server_id":202,"name":"Uncletopia | Hong Kong | 1 | All Maps","name_short":"hgk-1","host":"hgk-1.hk.uncletopia.com","port":27015,"enabled":true,"region":"asia","cc":"hk","latitude":22.302711,"longitude":114.177216,"reserved":0,"last_update":"0001-01-01T00:00:00Z","name_a2s":"Uncletopia | Hong Kong | 1 | All Maps","protocol":17,"map":"pl_swiftwater_final1","folder":"tf","game":"Team Fortress","app_id":440,"player_count":24,"max_players":24,"Bots":0,"server_type":"Dedicated","server_os":"Linux","password":true,"vac":true,"version":"7757534","steam_id":85568392924494504,"keywords":["nocrits","nodmgspread","payload","uncletopia"],"game_id":440,"stv_port":27016,"stv_name":"Uncletopia | Hong Kong | 1 | All Maps | STV","players":[{"user_id":259,"name":"TomCat","steam_id":76561198133744053,"connected_time":11843000000000,"state":"active","ping":116},{"user_id":372,"name":"Bottleknight","steam_id":76561199208084310,"connected_time":1865000000000,"state":"active","ping":55},{"user_id":370,"name":"pardo","steam_id":76561198230213828,"connected_time":2091000000000,"state":"active","ping":70},{"user_id":352,"name":"Kirov airship","steam_id":76561199024960087,"connected_time":3896000000000,"state":"active","ping":56},{"user_id":378,"name":"P","steam_id":76561198304514505,"connected_time":583000000000,"state":"active","ping":76},{"user_id":374,"name":"GrotesqueHorse","steam_id":76561198151298791,"connected_time":601000000000,"state":"active","ping":88},{"user_id":362,"name":"Talkk More","steam_id":76561198305424433,"connected_time":3012000000000,"state":"active","ping":102},{"user_id":290,"name":"i'm hungry","steam_id":76561198339657566,"connected_time":8662000000000,"state":"active","ping":144},{"user_id":367,"name":"U SUX","steam_id":76561199171910074,"connected_time":2822000000000,"state":"active","ping":80},{"user_id":260,"name":"Bertengkar","steam_id":76561198213031155,"connected_time":11839000000000,"state":"active","ping":97},{"user_id":373,"name":"JayJ","steam_id":76561198324008555,"connected_time":1506000000000,"state":"active","ping":52},{"user_id":334,"name":"„Åµ„Çè„Åµ„ÇèÊØõÂ∏É","steam_id":76561198088403016,"connected_time":5589000000000,"state":"active","ping":123},{"user_id":369,"name":"her","steam_id":76561198400698408,"connected_time":2543000000000,"state":"active","ping":91},{"user_id":264,"name":"i like cheese","steam_id":76561198085893796,"connected_time":11044000000000,"state":"active","ping":101},{"user_id":359,"name":"brizzard","steam_id":76561198048438653,"connected_time":3247000000000,"state":"active","ping":53},{"user_id":380,"name":" Ä.Íï§ÔΩ°.","steam_id":76561198029580420,"connected_time":575000000000,"state":"active","ping":91},{"user_id":383,"name":"Ïø†ÌÇ§","steam_id":76561197997220367,"connected_time":104000000000,"state":"active","ping":54},{"user_id":371,"name":"Esta_","steam_id":76561197998630235,"connected_time":2057000000000,"state":"active","ping":98},{"user_id":381,"name":"IRA car dealership","steam_id":76561199224577498,"connected_time":573000000000,"state":"active","ping":96},{"user_id":257,"name":"qb","steam_id":76561198412329672,"connected_time":12500000000000,"state":"active","ping":89},{"user_id":361,"name":"Momoxhien","steam_id":76561198414997429,"connected_time":3144000000000,"state":"active","ping":63},{"user_id":379,"name":"yw","steam_id":76561199382726488,"connected_time":582000000000,"state":"active","ping":49},{"user_id":365,"name":"Cheesey","steam_id":76561198975684137,"connected_time":2954000000000,"state":"active","ping":103},{"user_id":382,"name":"weerez","steam_id":76561198405393811,"connected_time":533000000000,"state":"active","ping":120}]},{"server_id":1,"name":"Uncletopia | Los Angeles | 1 | All Maps","name_short":"lax-1","host":"lax-1.us.uncletopia.com","port":27015,"enabled":true,"region":"us-west","cc":"us","latitude":33.94279,"longitude":-118.41004,"reserved":0,"last_update":"0001-01-01T00:00:00Z","name_a2s":"Uncletopia | Los Angeles | 1 | All Maps","protocol":17,"map":"cp_snakewater_final1","folder":"tf","game":"Team Fortress","app_id":440,"player_count":0,"max_players":24,"Bots":0,"server_type":"Dedicated","server_os":"Linux","password":true,"vac":true,"version":"7757534","steam_id":85568392924469991,"keywords":["cp","nocrits","nodmgspread","uncletopia"],"game_id":440,"stv_port":27016,"stv_name":"Uncletopia | Los Angeles | 1 | All Maps | STV","players":null},{"server_id":112,"name":"Uncletopia | Los Angeles | 2 | All Maps","name_short":"lax-2","host":"lax-1.us.uncletopia.com","port":27025,"enabled":true,"region":"us-west","cc":"us","latitude":33.94279,"longitude":-118.41004,"reserved":0,"last_update":"0001-01-01T00:00:00Z","name_a2s":"Uncletopia | Los Angeles | 2 | All Maps","protocol":17,"map":"cp_sunshine","folder":"tf","game":"Team Fortress","app_id":440,"player_count":24,"max_players":24,"Bots":0,"server_type":"Dedicated","server_os":"Linux","password":true,"vac":true,"version":"7757534","steam_id":85568392924469992,"keywords":["cp","nocrits","nodmgspread","uncletopia"],"game_id":440,"stv_port":27026,"stv_name":"Uncletopia | Los Angeles | 2 | All Maps | STV","players":[{"user_id":466,"name":"defcon","steam_id":76561198100656328,"connected_time":5082000000000,"state":"active","ping":106},{"user_id":521,"name":"=D","steam_id":76561198398465171,"connected_time":591000000000,"state":"active","ping":85},{"user_id":523,"name":"Extraordinary Absence of Pootis","steam_id":76561198020270981,"connected_time":387000000000,"state":"active","ping":110},{"user_id":507,"name":"av2ry","steam_id":76561198102081732,"connected_time":2214000000000,"state":"active","ping":111},{"user_id":477,"name":"Daz","steam_id":76561198041431938,"connected_time":4452000000000,"state":"active","ping":107},{"user_id":520,"name":"Mothership","steam_id":76561198044029501,"connected_time":630000000000,"state":"active","ping":98},{"user_id":478,"name":"facecheck","steam_id":76561198115269587,"connected_time":4448000000000,"state":"active","ping":96},{"user_id":496,"name":"solitaire","steam_id":76561198964025682,"connected_time":3085000000000,"state":"active","ping":49},{"user_id":353,"name":"Malmart_Employee","steam_id":76561198320388704,"connected_time":14379000000000,"state":"active","ping":95},{"user_id":516,"name":"maddieline","steam_id":76561198018674125,"connected_time":1069000000000,"state":"active","ping":75},{"user_id":508,"name":"Lychee","steam_id":76561198403878342,"connected_time":2098000000000,"state":"active","ping":41},{"user_id":487,"name":"Rommel2007","steam_id":76561198041744631,"connected_time":3708000000000,"state":"active","ping":50},{"user_id":512,"name":"Barracuda","steam_id":76561198013022083,"connected_time":1800000000000,"state":"active","ping":88},{"user_id":505,"name":"HiggsBoson","steam_id":76561198356538323,"connected_time":2665000000000,"state":"active","ping":66},{"user_id":515,"name":"TrustworthyStranger","steam_id":76561198154105678,"connected_time":1071000000000,"state":"active","ping":83},{"user_id":378,"name":"cringe","steam_id":76561198104086771,"connected_time":12549000000000,"state":"active","ping":44},{"user_id":494,"name":"Kartyac","steam_id":76561197991069005,"connected_time":3475000000000,"state":"active","ping":130},{"user_id":522,"name":"rose","steam_id":76561198048882285,"connected_time":485000000000,"state":"active","ping":95},{"user_id":517,"name":"SweetLou","steam_id":76561198064569582,"connected_time":1060000000000,"state":"active","ping":56},{"user_id":444,"name":"Literally a Trans Woman","steam_id":76561198054639925,"connected_time":6870000000000,"state":"active","ping":104},{"user_id":501,"name":"dickgrabber","steam_id":76561198061768122,"connected_time":2906000000000,"state":"active","ping":132},{"user_id":524,"name":"veno","steam_id":76561198110261781,"connected_time":374000000000,"state":"active","ping":82},{"user_id":525,"name":"‚ù§Graphite Muncher‚ù§","steam_id":76561199200969139,"connected_time":287000000000,"state":"active","ping":123},{"user_id":510,"name":"thanksgiving turkey","steam_id":76561198976876859,"connected_time":1986000000000,"state":"active","ping":112}]},{"server_id":324,"name":"Uncletopia | Los Angeles | 3 | All Maps","name_short":"lax-3","host":"lax-1.us.uncletopia.com","port":27035,"enabled":true,"region":"us-west","cc":"us","latitude":33.94279,"longitude":-118.41004,"reserved":0,"last_update":"0001-01-01T00:00:00Z","name_a2s":"Uncletopia | Los Angeles | 3 | All Maps","protocol":17,"map":"koth_cascade","folder":"tf","game":"Team Fortress","app_id":440,"player_count":0,"max_players":24,"Bots":0,"server_type":"Dedicated","server_os":"Linux","password":true,"vac":true,"version":"7757534","steam_id":85568392924510198,"keywords":["cp","nocrits","nodmgspread","uncletopia"],"game_id":440,"stv_port":27036,"stv_name":"Uncletopia | Los Angeles | 3 | All Maps | STV","players":null},{"server_id":25,"name":"Uncletopia | Los Angeles | 4 | Stopwatch Beta","name_short":"lax-4","host":"lax-1.us.uncletopia.com","port":27045,"enabled":true,"region":"us-west","cc":"us","latitude":33.94279,"longitude":-118.41004,"reserved":0,"last_update":"0001-01-01T00:00:00Z","name_a2s":"Uncletopia | Los Angeles | 4 | Stopwatch Beta","protocol":17,"map":"koth_viaduct","folder":"tf","game":"Team Fortress","app_id":440,"player_count":0,"max_players":24,"Bots":0,"server_type":"Dedicated","server_os":"Linux","password":true,"vac":true,"version":"7757534","steam_id":85568392924510199,"keywords":["cp","nocrits","nodmgspread","uncletopia"],"game_id":440,"stv_port":27046,"stv_name":"Uncletopia | Los Angeles | 4 | Stopwatch Beta | STV","players":null},{"server_id":11,"name":"Uncletopia | London | 1 | All Maps","name_short":"lon-1","host":"lon-1.uk.uncletopia.com","port":27015,"enabled":true,"region":"eu","cc":"gb","latitude":51.509865,"longitude":-0.118092,"reserved":0,"last_update":"0001-01-01T00:00:00Z","name_a2s":"Uncletopia | London | 1 | All Maps","protocol":17,"map":"pl_badwater","folder":"tf","game":"Team Fortress","app_id":440,"player_count":24,"max_players":24,"Bots":0,"server_type":"Dedicated","server_os":"Linux","password":true,"vac":true,"version":"7757534","steam_id":85568392924367362,"keywords":["nocrits","nodmgspread","payload","uncletopia"],"game_id":440,"stv_port":27016,"stv_name":"Uncletopia | London | 1 | All Maps | STV","players":[{"user_id":387,"name":"Lord","steam_id":76561198024964817,"connected_time":359000000000,"state":"active","ping":51},{"user_id":380,"name":"r06u3","steam_id":76561198254099253,"connected_time":1086000000000,"state":"active","ping":178},{"user_id":329,"name":"catboy trickster","steam_id":76561198075665211,"connected_time":3995000000000,"state":"active","ping":47},{"user_id":366,"name":"Sneaky boi","steam_id":76561199195985387,"connected_time":1964000000000,"state":"active","ping":93},{"user_id":371,"name":"majora's boostio","steam_id":76561198392628642,"connected_time":1623000000000,"state":"active","ping":41},{"user_id":388,"name":"Cruncy","steam_id":76561198336300747,"connected_time":274000000000,"state":"active","ping":48},{"user_id":373,"name":"Real (Real)","steam_id":76561198323425034,"connected_time":1613000000000,"state":"active","ping":70},{"user_id":370,"name":"goodguydragg","steam_id":76561198305104891,"connected_time":1637000000000,"state":"active","ping":74},{"user_id":385,"name":"Krof enjoyer","steam_id":76561199101777637,"connected_time":662000000000,"state":"active","ping":105},{"user_id":359,"name":"BlackBird","steam_id":76561198093229816,"connected_time":2491000000000,"state":"active","ping":92},{"user_id":340,"name":"eduardo","steam_id":76561198014491925,"connected_time":3283000000000,"state":"active","ping":90},{"user_id":347,"name":"Zogg","steam_id":76561198352683491,"connected_time":2899000000000,"state":"active","ping":38},{"user_id":379,"name":"üúè Drepp","steam_id":76561197998867164,"connected_time":1233000000000,"state":"active","ping":61},{"user_id":363,"name":"NOT THE LAZER BEAMS, ANYTHING B","steam_id":76561198255787237,"connected_time":2193000000000,"state":"active","ping":146},{"user_id":311,"name":"Flying Eagle","steam_id":76561198925681565,"connected_time":5062000000000,"state":"active","ping":101},{"user_id":386,"name":"player","steam_id":76561198054474684,"connected_time":602000000000,"state":"active","ping":85},{"user_id":355,"name":"aspect","steam_id":76561198315032412,"connected_time":2560000000000,"state":"active","ping":62},{"user_id":356,"name":"suna militisto","steam_id":76561198352926998,"connected_time":2554000000000,"state":"active","ping":105},{"user_id":368,"name":"Major","steam_id":76561198086483282,"connected_time":1951000000000,"state":"active","ping":55},{"user_id":350,"name":"Kwizine","steam_id":76561198147999400,"connected_time":2757000000000,"state":"active","ping":66},{"user_id":299,"name":"IKARUS","steam_id":76561198850898422,"connected_time":5688000000000,"state":"active","ping":81},{"user_id":345,"name":"RollerMobster","steam_id":76561197993508562,"connected_time":3015000000000,"state":"active","ping":64},{"user_id":382,"name":"goktwoxd","steam_id":76561198065114415,"connected_time":887000000000,"state":"active","ping":89},{"user_id":365,"name":"Yosha","steam_id":76561198064427063,"connected_time":2016000000000,"state":"active","ping":102}]},{"server_id":114,"name":"Uncletopia | London | 2 | All Maps","name_short":"lon-2","host":"lon-1.uk.uncletopia.com","port":27025,"enabled":true,"region":"eu","cc":"gb","latitude":51.509865,"longitude":-0.118092,"reserved":0,"last_update":"0001-01-01T00:00:00Z","name_a2s":"Uncletopia | London | 2 | All Maps","protocol":17,"map":"pl_snowycoast","folder":"tf","game":"Team Fortress","app_id":440,"player_count":24,"max_players":24,"Bots":0,"server_type":"Dedicated","server_os":"Linux","password":true,"vac":true,"version":"7757534","steam_id":85568392924470941,"keywords":["nocrits","nodmgspread","payload","uncletopia"],"game_id":440,"stv_port":27026,"stv_name":"Uncletopia | London | 2 | All Maps | STV","players":[{"user_id":184,"name":"HIFO2.0","steam_id":76561198179131749,"connected_time":2137000000000,"state":"active","ping":68},{"user_id":207,"name":"cloud","steam_id":76561198179768931,"connected_time":422000000000,"state":"active","ping":74},{"user_id":209,"name":"henoadam","steam_id":76561198151350377,"connected_time":213000000000,"state":"active","ping":74},{"user_id":185,"name":"ILoveKey2","steam_id":76561198814559564,"connected_time":1819000000000,"state":"active","ping":74},{"user_id":141,"name":"amy","steam_id":76561198960367693,"connected_time":4824000000000,"state":"active","ping":54},{"user_id":211,"name":"Flare","steam_id":76561198039098320,"connected_time":39000000000,"state":"spawning","ping":54},{"user_id":131,"name":"DocTwoEight","steam_id":76561198153488940,"connected_time":5651000000000,"state":"active","ping":75},{"user_id":196,"name":"Digi","steam_id":76561198302383805,"connected_time":1061000000000,"state":"active","ping":70},{"user_id":201,"name":"JET SET GRAMOPHONE","steam_id":76561198111590210,"connected_time":1009000000000,"state":"active","ping":50},{"user_id":193,"name":"sangth","steam_id":76561198032787233,"connected_time":1613000000000,"state":"active","ping":84},{"user_id":198,"name":"ayu","steam_id":76561198871342329,"connected_time":1049000000000,"state":"active","ping":101},{"user_id":190,"name":"Milk","steam_id":76561198125876588,"connected_time":1685000000000,"state":"active","ping":44},{"user_id":204,"name":"Mr.Fix","steam_id":76561199017362445,"connected_time":850000000000,"state":"active","ping":114},{"user_id":197,"name":"Dolcelatte","steam_id":76561198038501770,"connected_time":1060000000000,"state":"active","ping":63},{"user_id":206,"name":"Rayen","steam_id":76561198414934028,"connected_time":671000000000,"state":"active","ping":98},{"user_id":147,"name":"kuso","steam_id":76561198058031466,"connected_time":4619000000000,"state":"active","ping":73},{"user_id":174,"name":"O=(‚Äò-‚ÄôQ)","steam_id":76561198069685870,"connected_time":2899000000000,"state":"active","ping":73},{"user_id":202,"name":"bambamPL","steam_id":76561198874799060,"connected_time":1001000000000,"state":"active","ping":85},{"user_id":203,"name":"doggo","steam_id":76561198440774029,"connected_time":991000000000,"state":"active","ping":67},{"user_id":208,"name":"LegoKatt","steam_id":76561198064536870,"connected_time":225000000000,"state":"active","ping":85},{"user_id":129,"name":"RoXeUr-KaMiKaZe","steam_id":76561197998204782,"connected_time":5740000000000,"state":"active","ping":53},{"user_id":177,"name":"Sim","steam_id":76561198086641180,"connected_time":2856000000000,"state":"active","ping":99},{"user_id":158,"name":"Hansi","steam_id":76561198035577047,"connected_time":4068000000000,"state":"active","ping":73},{"user_id":183,"name":"Monoxide","steam_id":76561198056844412,"connected_time":2366000000000,"state":"active","ping":57}]},{"server_id":320,"name":"Uncletopia | London | 3 | All Maps","name_short":"lon-3","host":"lon-1.uk.uncletopia.com","port":27035,"enabled":true,"region":"eu","cc":"gb","latitude":51.509865,"longitude":-0.118092,"reserved":0,"last_update":"0001-01-01T00:00:00Z","name_a2s":"Uncletopia | London | 3 | All Maps","protocol":17,"map":"pl_borneo","folder":"tf","game":"Team Fortress","app_id":440,"player_count":24,"max_players":24,"Bots":0,"server_type":"Dedicated","server_os":"Linux","password":true,"vac":true,"version":"7757534","steam_id":85568392924510192,"keywords":["nocrits","nodmgspread","payload","uncletopia"],"game_id":440,"stv_port":27036,"stv_name":"Uncletopia | London | 3 | All Maps | STV","players":[{"user_id":91,"name":"Marley","steam_id":76561198045380078,"connected_time":1960000000000,"state":"active","ping":73},{"user_id":121,"name":"rat performance","steam_id":76561198065854668,"connected_time":840000000000,"state":"active","ping":42},{"user_id":122,"name":"techno","steam_id":76561198172101254,"connected_time":816000000000,"state":"active","ping":83},{"user_id":133,"name":"Sakura","steam_id":76561198892631275,"connected_time":379000000000,"state":"active","ping":42},{"user_id":129,"name":"Farum Teh Slowianski Grzyb","steam_id":76561197997638829,"connected_time":619000000000,"state":"active","ping":85},{"user_id":137,"name":"Varin","steam_id":76561198872319542,"connected_time":252000000000,"state":"active","ping":40},{"user_id":119,"name":"LeninPro1870","steam_id":76561199175688390,"connected_time":1179000000000,"state":"active","ping":80},{"user_id":145,"name":"300h scout chad","steam_id":76561198095179553,"connected_time":40000000000,"state":"active","ping":178},{"user_id":143,"name":"Z√°por√°k","steam_id":76561198207175503,"connected_time":84000000000,"state":"active","ping":62},{"user_id":131,"name":"Helios","steam_id":76561199260846464,"connected_time":533000000000,"state":"active","ping":66},{"user_id":124,"name":"Star in a pond","steam_id":76561198205501279,"connected_time":717000000000,"state":"active","ping":90},{"user_id":139,"name":"poliakov.noam","steam_id":76561199259322961,"connected_time":210000000000,"state":"active","ping":104},{"user_id":144,"name":"Xx_Tax_envasion_enjoyer_xX-","steam_id":76561199142802020,"connected_time":70000000000,"state":"active","ping":65},{"user_id":89,"name":"lark","steam_id":76561198091724522,"connected_time":2263000000000,"state":"active","ping":71},{"user_id":126,"name":"___","steam_id":76561198189529773,"connected_time":671000000000,"state":"active","ping":53},{"user_id":33,"name":"Economic crisis","steam_id":76561198063562843,"connected_time":5718000000000,"state":"active","ping":61},{"user_id":140,"name":"john fortress","steam_id":76561198202668788,"connected_time":209000000000,"state":"active","ping":67},{"user_id":136,"name":"Oak","steam_id":76561198067315672,"connected_time":264000000000,"state":"active","ping":45},{"user_id":141,"name":"Xbox live gold 12 month trial","steam_id":76561198393282808,"connected_time":208000000000,"state":"active","ping":120},{"user_id":88,"name":"MG TF 2004!","steam_id":76561198042975907,"connected_time":2281000000000,"state":"active","ping":57},{"user_id":109,"name":"Albert Einstein","steam_id":76561198351190006,"connected_time":1618000000000,"state":"active","ping":94},{"user_id":52,"name":"rigel_","steam_id":76561198148640847,"connected_time":5041000000000,"state":"active","ping":86},{"user_id":93,"name":"JOHN GAMING (based)","steam_id":76561199085822219,"connected_time":1940000000000,"state":"active","ping":82},{"user_id":104,"name":"Kahvi","steam_id":76561198723244199,"connected_time":1777000000000,"state":"active","ping":78}]},{"server_id":321,"name":"Uncletopia | London | 4 | All Maps","name_short":"lon-4","host":"lon-1.uk.uncletopia.com","port":27045,"enabled":true,"region":"eu","cc":"gb","latitude":51.509865,"longitude":-0.118092,"reserved":0,"last_update":"0001-01-01T00:00:00Z","name_a2s":"Uncletopia | London | 4 | All Maps","protocol":17,"map":"pl_badwater","folder":"tf","game":"Team Fortress","app_id":440,"player_count":0,"max_players":24,"Bots":0,"server_type":"Dedicated","server_os":"Linux","password":true,"vac":true,"version":"7757534","steam_id":85568392924510193,"keywords":["nocrits","nodmgspread","payload","uncletopia"],"game_id":440,"stv_port":27046,"stv_name":"Uncletopia | London | 4 | All Maps | STV","players":null},{"server_id":21,"name":"Uncletopia | London | 5 | All Maps","name_short":"lon-5","host":"lon-1.uk.uncletopia.com","port":27055,"enabled":true,"region":"eu","cc":"gb","latitude":51.509865,"longitude":-0.118092,"reserved":0,"last_update":"0001-01-01T00:00:00Z","name_a2s":"Uncletopia | London | 5 | All Maps","protocol":17,"map":"koth_lakeside_final","folder":"tf","game":"Team Fortress","app_id":440,"player_count":0,"max_players":24,"Bots":0,"server_type":"Dedicated","server_os":"Linux","password":true,"vac":true,"version":"7757534","steam_id":85568392924742829,"keywords":["cp","nocrits","nodmgspread","uncletopia"],"game_id":440,"stv_port":27056,"stv_name":"Uncletopia | London | 5 | All Maps | STV","players":null},{"server_id":22,"name":"Uncletopia | London | 6 | All Maps","name_short":"lon-6","host":"lon-1.uk.uncletopia.com","port":27065,"enabled":true,"region":"eu","cc":"gb","latitude":51.509865,"longitude":-0.118092,"reserved":0,"last_update":"0001-01-01T00:00:00Z","name_a2s":"Uncletopia | London | 6 | All Maps","protocol":17,"map":"koth_cascade","folder":"tf","game":"Team Fortress","app_id":440,"player_count":0,"max_players":24,"Bots":0,"server_type":"Dedicated","server_os":"Linux","password":true,"vac":true,"version":"7757534","steam_id":85568392924742830,"keywords":["cp","nocrits","nodmgspread","uncletopia"],"game_id":440,"stv_port":27066,"stv_name":"Uncletopia | London | 6 | All Maps | STV","players":null},{"server_id":40,"name":"Uncletopia | London | 7 | No Payload","name_short":"lon-7","host":"lon-1.uk.uncletopia.com","port":27075,"enabled":true,"region":"eu","cc":"gb","latitude":51.509865,"longitude":-0.118092,"reserved":0,"last_update":"0001-01-01T00:00:00Z","name_a2s":"Uncletopia | London | 7 | No Payload","protocol":17,"map":"koth_king","folder":"tf","game":"Team Fortress","app_id":440,"player_count":0,"max_players":24,"Bots":0,"server_type":"Dedicated","server_os":"Linux","password":true,"vac":true,"version":"7757534","steam_id":85568392924964314,"keywords":["cp","nocrits","nodmgspread","uncletopia"],"game_id":440,"stv_port":27076,"stv_name":"Uncletopia | London | 7 | No Payload | STV","players":null},{"server_id":41,"name":"Uncletopia | London | 8 | Community","name_short":"lon-8","host":"lon-1.uk.uncletopia.com","port":27085,"enabled":true,"region":"eu","cc":"gb","latitude":51.509865,"longitude":-0.118092,"reserved":0,"last_update":"0001-01-01T00:00:00Z","name_a2s":"Uncletopia | London | 8 | Community","protocol":17,"map":"workshop/cp_caldera_rc2.ugc2834196889","folder":"tf","game":"Team Fortress","app_id":440,"player_count":2,"max_players":24,"Bots":0,"server_type":"Dedicated","server_os":"Linux","password":true,"vac":true,"version":"7757534","steam_id":85568392924964315,"keywords":["cp","nocrits","nodmgspread","uncletopia"],"game_id":440,"stv_port":27086,"stv_name":"Uncletopia | London | 8 | Community | STV","players":[{"user_id":5,"name":"Fiddlah","steam_id":76561198077916925,"connected_time":1356000000000,"state":"active","ping":30},{"user_id":6,"name":"N√©odamode","steam_id":76561197968575924,"connected_time":1299000000000,"state":"active","ping":55}]},{"server_id":300,"name":"Uncletopia | Montr√©al | 1 | All Maps","name_short":"mtl-1","host":"mtl-1.ca.uncletopia.com","port":27015,"enabled":true,"region":"us-east","cc":"ca","latitude":45.50889,"longitude":-73.56167,"reserved":0,"last_update":"0001-01-01T00:00:00Z","name_a2s":"Uncletopia | Montr√©al | 1 | All Maps","protocol":17,"map":"koth_cascade","folder":"tf","game":"Team Fortress","app_id":440,"player_count":0,"max_players":24,"Bots":0,"server_type":"Dedicated","server_os":"Linux","password":true,"vac":true,"version":"7757534","steam_id":85568392924500087,"keywords":["cp","nocrits","nodmgspread","uncletopia"],"game_id":440,"stv_port":27016,"stv_name":"Uncletopia | Montr√©al | 1 | All Maps | STV","players":null},{"server_id":301,"name":"Uncletopia | Montr√©al | 2 | All Maps","name_short":"mtl-2","host":"mtl-1.ca.uncletopia.com","port":27025,"enabled":true,"region":"us-east","cc":"ca","latitude":45.50889,"longitude":-73.56167,"reserved":0,"last_update":"0001-01-01T00:00:00Z","name_a2s":"Uncletopia | Montr√©al | 2 | All Maps","protocol":17,"map":"pl_borneo","folder":"tf","game":"Team Fortress","app_id":440,"player_count":0,"max_players":24,"Bots":0,"server_type":"Dedicated","server_os":"Linux","password":true,"vac":true,"version":"7757534","steam_id":85568392924500088,"keywords":["nocrits","nodmgspread","payload","uncletopia"],"game_id":440,"stv_port":27026,"stv_name":"Uncletopia | Montr√©al | 2 | All Maps | STV","players":null},{"server_id":302,"name":"Uncletopia | Montr√©al | 3 | All Maps","name_short":"mtl-3","host":"mtl-1.ca.uncletopia.com","port":27035,"enabled":true,"region":"us-east","cc":"ca","latitude":45.50889,"longitude":-73.56167,"reserved":0,"last_update":"0001-01-01T00:00:00Z","name_a2s":"Uncletopia | Montr√©al | 3 | All Maps","protocol":17,"map":"cp_sunshine","folder":"tf","game":"Team Fortress","app_id":440,"player_count":0,"max_players":24,"Bots":0,"server_type":"Dedicated","server_os":"Linux","password":true,"vac":true,"version":"7757534","steam_id":85568392924500089,"keywords":["cp","nocrits","nodmgspread","uncletopia"],"game_id":440,"stv_port":27036,"stv_name":"Uncletopia | Montr√©al | 3 | All Maps | STV","players":null},{"server_id":303,"name":"Uncletopia | Montr√©al | 4 | No Payload","name_short":"mtl-4","host":"mtl-1.ca.uncletopia.com","port":27045,"enabled":true,"region":"us-east","cc":"ca","latitude":45.50889,"longitude":-73.56167,"reserved":0,"last_update":"0001-01-01T00:00:00Z","name_a2s":"Uncletopia | Montr√©al | 4 | No Payload","protocol":17,"map":"koth_lakeside_final","folder":"tf","game":"Team Fortress","app_id":440,"player_count":0,"max_players":24,"Bots":0,"server_type":"Dedicated","server_os":"Linux","password":true,"vac":true,"version":"7757534","steam_id":85568392924500090,"keywords":["cp","nocrits","nodmgspread","uncletopia"],"game_id":440,"stv_port":27046,"stv_name":"Uncletopia | Montr√©al | 4 | No Payload | STV","players":null},{"server_id":13,"name":"Uncletopia | New York City | 1 | All Maps","name_short":"nyc-1","host":"nyc-1.us.uncletopia.com","port":27015,"enabled":true,"region":"us-east","cc":"us","latitude":40.73061,"longitude":-73.93524,"reserved":0,"last_update":"0001-01-01T00:00:00Z","name_a2s":"Uncletopia | New York City | 1 | All Maps","protocol":17,"map":"pl_borneo","folder":"tf","game":"Team Fortress","app_id":440,"player_count":0,"max_players":24,"Bots":0,"server_type":"Dedicated","server_os":"Linux","password":true,"vac":true,"version":"7757534","steam_id":85568392924469993,"keywords":["nocrits","nodmgspread","payload","uncletopia"],"game_id":440,"stv_port":27016,"stv_name":"Uncletopia | New York City | 1 | All Maps | STV","players":null},{"server_id":14,"name":"Uncletopia | New York City | 2 | All Maps","name_short":"nyc-2","host":"nyc-1.us.uncletopia.com","port":27025,"enabled":true,"region":"us-east","cc":"us","latitude":40.73061,"longitude":-73.93524,"reserved":0,"last_update":"0001-01-01T00:00:00Z","name_a2s":"Uncletopia | New York City | 2 | All Maps","protocol":17,"map":"pl_snowycoast","folder":"tf","game":"Team Fortress","app_id":440,"player_count":0,"max_players":24,"Bots":0,"server_type":"Dedicated","server_os":"Linux","password":true,"vac":true,"version":"7757534","steam_id":85568392924469994,"keywords":["nocrits","nodmgspread","payload","uncletopia"],"game_id":440,"stv_port":27026,"stv_name":"Uncletopia | New York City | 2 | All Maps | STV","players":null},{"server_id":15,"name":"Uncletopia | New York City | 3 | Stopwatch Beta","name_short":"nyc-3","host":"nyc-1.us.uncletopia.com","port":27035,"enabled":true,"region":"us-east","cc":"us","latitude":40.73061,"longitude":-73.93524,"reserved":0,"last_update":"0001-01-01T00:00:00Z","name_a2s":"Uncletopia | New York City | 3 | Stopwatch Beta","protocol":17,"map":"koth_lakeside_final","folder":"tf","game":"Team Fortress","app_id":440,"player_count":0,"max_players":24,"Bots":0,"server_type":"Dedicated","server_os":"Linux","password":true,"vac":true,"version":"7757534","steam_id":85568392924742820,"keywords":["cp","nocrits","nodmgspread","uncletopia"],"game_id":440,"stv_port":27036,"stv_name":"Uncletopia | New York City | 3 | Stopwatch Beta | STV","players":null},{"server_id":16,"name":"Uncletopia | New York City | 4 | Community","name_short":"nyc-4","host":"nyc-1.us.uncletopia.com","port":27045,"enabled":true,"region":"us-east","cc":"us","latitude":40.73061,"longitude":-73.93524,"reserved":0,"last_update":"0001-01-01T00:00:00Z","name_a2s":"Uncletopia | New York City | 4 | Community","protocol":17,"map":"pl_borneo","folder":"tf","game":"Team Fortress","app_id":440,"player_count":0,"max_players":24,"Bots":0,"server_type":"Dedicated","server_os":"Linux","password":true,"vac":true,"version":"7757534","steam_id":85568392924742821,"keywords":["nocrits","nodmgspread","payload","uncletopia"],"game_id":440,"stv_port":27046,"stv_name":"Uncletopia | New York City | 4 | Community | STV","players":null},{"server_id":142,"name":"Uncletopia | S√£o Paulo | 1 | All Maps","name_short":"sao-1","host":"sao-1.br.uncletopia.com","port":27015,"enabled":true,"region":"sa","cc":"br","latitude":-23.533773,"longitude":-46.62529,"reserved":0,"last_update":"0001-01-01T00:00:00Z","name_a2s":"Uncletopia | S√£o Paulo | 1 | All Maps","protocol":17,"map":"pl_snowycoast","folder":"tf","game":"Team Fortress","app_id":440,"player_count":0,"max_players":24,"Bots":0,"server_type":"Dedicated","server_os":"Linux","password":true,"vac":true,"version":"7757534","steam_id":85568392924469996,"keywords":["nocrits","nodmgspread","payload","uncletopia"],"game_id":440,"stv_port":27016,"stv_name":"Uncletopia | S√£o Paulo | 1 | All Maps | STV","players":null},{"server_id":143,"name":"Uncletopia | S√£o Paulo | 2 | All Maps","name_short":"sao-2","host":"sao-2.br.uncletopia.com","port":27015,"enabled":true,"region":"sa","cc":"br","latitude":-23.533773,"longitude":-46.62529,"reserved":0,"last_update":"0001-01-01T00:00:00Z","name_a2s":"Uncletopia | S√£o Paulo | 2 | All Maps","protocol":17,"map":"pl_barnblitz","folder":"tf","game":"Team Fortress","app_id":440,"player_count":0,"max_players":24,"Bots":0,"server_type":"Dedicated","server_os":"Linux","password":true,"vac":true,"version":"7757534","steam_id":85568392924485349,"keywords":["nocrits","nodmgspread","payload","uncletopia"],"game_id":440,"stv_port":27016,"stv_name":"Uncletopia | S√£o Paulo | 2 | All Maps | STV","players":null},{"server_id":7,"name":"Uncletopia | Seattle | 1 | All Maps","name_short":"sea-1","host":"sea-1.us.uncletopia.com","port":27015,"enabled":true,"region":"us-west","cc":"us","latitude":47.608013,"longitude":-122.33517,"reserved":0,"last_update":"0001-01-01T00:00:00Z","name_a2s":"Uncletopia | Seattle | 1 | All Maps","protocol":17,"map":"pl_frontier_final","folder":"tf","game":"Team Fortress","app_id":440,"player_count":0,"max_players":24,"Bots":0,"server_type":"Dedicated","server_os":"Linux","password":true,"vac":true,"version":"7757534","steam_id":85568392924469997,"keywords":["nocrits","nodmgspread","payload","uncletopia"],"game_id":440,"stv_port":27016,"stv_name":"Uncletopia | Seattle | 1 | All Maps | STV","players":null},{"server_id":119,"name":"Uncletopia | Seattle | 2 | All Maps","name_short":"sea-2","host":"sea-1.us.uncletopia.com","port":27025,"enabled":true,"region":"us-west","cc":"us","latitude":47.608013,"longitude":-122.33517,"reserved":0,"last_update":"0001-01-01T00:00:00Z","name_a2s":"Uncletopia | Seattle | 2 | All Maps","protocol":17,"map":"pl_swiftwater_final1","folder":"tf","game":"Team Fortress","app_id":440,"player_count":0,"max_players":24,"Bots":0,"server_type":"Dedicated","server_os":"Linux","password":true,"vac":true,"version":"7757534","steam_id":85568392924469998,"keywords":["nocrits","nodmgspread","payload","uncletopia"],"game_id":440,"stv_port":27026,"stv_name":"Uncletopia | Seattle | 2 | All Maps | STV","players":null},{"server_id":406,"name":"Uncletopia | Seattle | 3 | Stopwatch Beta","name_short":"sea-3","host":"sea-1.us.uncletopia.com","port":27035,"enabled":true,"region":"us-west","cc":"us","latitude":47.608013,"longitude":-122.33517,"reserved":0,"last_update":"0001-01-01T00:00:00Z","name_a2s":"Uncletopia | Seattle | 3 | Stopwatch Beta","protocol":17,"map":"workshop/koth_clearcut_b15.ugc2107050255","folder":"tf","game":"Team Fortress","app_id":440,"player_count":0,"max_players":24,"Bots":0,"server_type":"Dedicated","server_os":"Linux","password":true,"vac":true,"version":"7757534","steam_id":85568392924515217,"keywords":["cp","nocrits","nodmgspread","uncletopia"],"game_id":440,"stv_port":27036,"stv_name":"Uncletopia | Seattle | 3 | Stopwatch Beta | STV","players":null},{"server_id":17,"name":"Uncletopia | San Francisco | 1 | All Maps","name_short":"sfo-1","host":"sfo-1.us.uncletopia.com","port":27015,"enabled":true,"region":"us-west","cc":"us","latitude":37.77397,"longitude":-122.4313,"reserved":0,"last_update":"0001-01-01T00:00:00Z","name_a2s":"Uncletopia | San Francisco | 1 | All Maps","protocol":17,"map":"cp_altitude","folder":"tf","game":"Team Fortress","app_id":440,"player_count":0,"max_players":24,"Bots":0,"server_type":"Dedicated","server_os":"Linux","password":true,"vac":true,"version":"7757534","steam_id":85568392924469999,"keywords":["cp","nocrits","nodmgspread","uncletopia"],"game_id":440,"stv_port":27016,"stv_name":"Uncletopia | San Francisco | 1 | All Maps | STV","players":null},{"server_id":18,"name":"Uncletopia | San Francisco | 2 | All Maps","name_short":"sfo-2","host":"sfo-1.us.uncletopia.com","port":27025,"enabled":true,"region":"us-west","cc":"us","latitude":37.77397,"longitude":-122.4313,"reserved":0,"last_update":"0001-01-01T00:00:00Z","name_a2s":"Uncletopia | San Francisco | 2 | All Maps","protocol":17,"map":"koth_cascade","folder":"tf","game":"Team Fortress","app_id":440,"player_count":0,"max_players":24,"Bots":0,"server_type":"Dedicated","server_os":"Linux","password":true,"vac":true,"version":"7757534","steam_id":85568392924470000,"keywords":["cp","nocrits","nodmgspread","uncletopia"],"game_id":440,"stv_port":27026,"stv_name":"Uncletopia | San Francisco | 2 | All Maps | STV","players":null},{"server_id":19,"name":"Uncletopia | San Francisco | 3 | Stopwatch Beta","name_short":"sfo-3","host":"sfo-1.us.uncletopia.com","port":27035,"enabled":true,"region":"us-west","cc":"us","latitude":37.77397,"longitude":-122.4313,"reserved":0,"last_update":"0001-01-01T00:00:00Z","name_a2s":"Uncletopia | San Francisco | 3 | Stopwatch Beta","protocol":17,"map":"koth_viaduct","folder":"tf","game":"Team Fortress","app_id":440,"player_count":0,"max_players":24,"Bots":0,"server_type":"Dedicated","server_os":"Linux","password":true,"vac":true,"version":"7757534","steam_id":85568392924742824,"keywords":["cp","nocrits","nodmgspread","uncletopia"],"game_id":440,"stv_port":27036,"stv_name":"Uncletopia | San Francisco | 3 | Stopwatch Beta | STV","players":null},{"server_id":20,"name":"Uncletopia | San Francisco | 4 | Community","name_short":"sfo-4","host":"sfo-1.us.uncletopia.com","port":27045,"enabled":true,"region":"us-west","cc":"us","latitude":37.77397,"longitude":-122.4313,"reserved":0,"last_update":"0001-01-01T00:00:00Z","name_a2s":"Uncletopia | San Francisco | 4 | Community","protocol":17,"map":"workshop/koth_bagel_rc5.ugc2514036946","folder":"tf","game":"Team Fortress","app_id":440,"player_count":0,"max_players":24,"Bots":0,"server_type":"Dedicated","server_os":"Linux","password":true,"vac":true,"version":"7757534","steam_id":85568392924742826,"keywords":["cp","nocrits","nodmgspread","uncletopia"],"game_id":440,"stv_port":27046,"stv_name":"Uncletopia | San Francisco | 4 | Community | STV","players":null},{"server_id":141,"name":"Uncletopia | Sydney | 1 | All Maps","name_short":"syd-1","host":"syd-1.au.uncletopia.com","port":27015,"enabled":true,"region":"au","cc":"au","latitude":-33.865143,"longitude":151.2099,"reserved":0,"last_update":"0001-01-01T00:00:00Z","name_a2s":"Uncletopia | Sydney | 1 | All Maps","protocol":17,"map":"pl_thundermountain","folder":"tf","game":"Team Fortress","app_id":440,"player_count":23,"max_players":24,"Bots":0,"server_type":"Dedicated","server_os":"Linux","password":true,"vac":true,"version":"7757534","steam_id":85568392924470001,"keywords":["nocrits","nodmgspread","payload","uncletopia"],"game_id":440,"stv_port":27016,"stv_name":"Uncletopia | Sydney | 1 | All Maps | STV","players":[{"user_id":554,"name":"A threat unbeknownst","steam_id":76561198293776102,"connected_time":1610000000000,"state":"active","ping":48},{"user_id":546,"name":"Zhappy","steam_id":76561199103153451,"connected_time":2426000000000,"state":"active","ping":181},{"user_id":551,"name":"zen","steam_id":76561198302670452,"connected_time":1736000000000,"state":"active","ping":53},{"user_id":479,"name":"Turbo_dip","steam_id":76561198446508846,"connected_time":6550000000000,"state":"active","ping":64},{"user_id":528,"name":"dispanzer","steam_id":76561198145743438,"connected_time":3505000000000,"state":"active","ping":46},{"user_id":561,"name":"dino mehmeda mujkiƒá","steam_id":76561198071907467,"connected_time":157000000000,"state":"active","ping":71},{"user_id":552,"name":"Pickled Cow","steam_id":76561198292517991,"connected_time":1721000000000,"state":"active","ping":45},{"user_id":555,"name":"whiteshaq","steam_id":76561198131988811,"connected_time":1599000000000,"state":"active","ping":76},{"user_id":560,"name":"electro599","steam_id":76561198058148858,"connected_time":181000000000,"state":"active","ping":54},{"user_id":562,"name":"guy","steam_id":76561198019294407,"connected_time":125000000000,"state":"active","ping":52},{"user_id":508,"name":"beth.cubitt","steam_id":76561198454733447,"connected_time":4418000000000,"state":"active","ping":85},{"user_id":550,"name":"SWAG DRAGON","steam_id":76561197960279341,"connected_time":1843000000000,"state":"active","ping":58},{"user_id":543,"name":"Raven","steam_id":76561198428025966,"connected_time":2900000000000,"state":"active","ping":65},{"user_id":532,"name":"Working Hero","steam_id":76561198338857002,"connected_time":3443000000000,"state":"active","ping":35},{"user_id":556,"name":"Funny Guy","steam_id":76561198410539382,"connected_time":1583000000000,"state":"active","ping":52},{"user_id":563,"name":"neptune","steam_id":76561198039920735,"connected_time":25000000000,"state":"spawning","ping":36},{"user_id":559,"name":"hobo","steam_id":76561199046481213,"connected_time":1023000000000,"state":"active","ping":68},{"user_id":533,"name":"ipod 4s","steam_id":76561198148181889,"connected_time":3433000000000,"state":"active","ping":45},{"user_id":547,"name":"toblue","steam_id":76561198189137465,"connected_time":2426000000000,"state":"active","ping":85},{"user_id":539,"name":"Consolidated Fart","steam_id":76561198924101909,"connected_time":3202000000000,"state":"active","ping":68},{"user_id":535,"name":"Bobby Bigman","steam_id":76561198044679656,"connected_time":3422000000000,"state":"active","ping":58},{"user_id":536,"name":"Tees","steam_id":76561199174602317,"connected_time":3416000000000,"state":"active","ping":74},{"user_id":456,"name":"Yeehaw","steam_id":76561198039684922,"connected_time":8065000000000,"state":"active","ping":55}]},{"server_id":123,"name":"Uncletopia | Sydney | 2 | All Maps","name_short":"syd-2","host":"syd-1.au.uncletopia.com","port":27025,"enabled":true,"region":"au","cc":"au","latitude":-33.865143,"longitude":151.2099,"reserved":0,"last_update":"0001-01-01T00:00:00Z","name_a2s":"Uncletopia | Sydney | 2 | All Maps","protocol":17,"map":"plr_pipeline","folder":"tf","game":"Team Fortress","app_id":440,"player_count":11,"max_players":24,"Bots":0,"server_type":"Dedicated","server_os":"Linux","password":true,"vac":true,"version":"7757534","steam_id":85568392924470002,"keywords":["nocrits","nodmgspread","payload","uncletopia"],"game_id":440,"stv_port":27026,"stv_name":"Uncletopia | Sydney | 2 | All Maps | STV","players":[{"user_id":238,"name":"Elorexes","steam_id":76561198120655652,"connected_time":3177000000000,"state":"active","ping":70},{"user_id":278,"name":"Slime the Protogen","steam_id":76561198070632295,"connected_time":302000000000,"state":"active","ping":61},{"user_id":262,"name":"Dr Crazii","steam_id":76561198067775226,"connected_time":1490000000000,"state":"active","ping":79},{"user_id":264,"name":"TheGoldenTerror","steam_id":76561198315446826,"connected_time":1247000000000,"state":"active","ping":94},{"user_id":267,"name":"amogus spy","steam_id":76561198435094510,"connected_time":981000000000,"state":"active","ping":219},{"user_id":268,"name":"Lincoln2603","steam_id":76561198170236666,"connected_time":917000000000,"state":"active","ping":30},{"user_id":270,"name":"ToastedShadows","steam_id":76561199096375285,"connected_time":700000000000,"state":"active","ping":56},{"user_id":261,"name":"TouchGrass","steam_id":76561198347693630,"connected_time":1810000000000,"state":"active","ping":75},{"user_id":274,"name":"monkeyman536","steam_id":76561197997717737,"connected_time":568000000000,"state":"active","ping":181},{"user_id":279,"name":"now","steam_id":76561198310131715,"connected_time":296000000000,"state":"active","ping":59},{"user_id":87,"name":"‡∏∏bifcheg","steam_id":76561198319806610,"connected_time":13187000000000,"state":"active","ping":68}]},{"server_id":395,"name":"Uncletopia | Sydney | 3 | All Maps","name_short":"syd-3","host":"syd-1.au.uncletopia.com","port":27035,"enabled":true,"region":"au","cc":"au","latitude":-33.865143,"longitude":151.2099,"reserved":0,"last_update":"0001-01-01T00:00:00Z","name_a2s":"Uncletopia | Sydney | 3 | All Maps","protocol":17,"map":"cp_snakewater_final1","folder":"tf","game":"Team Fortress","app_id":440,"player_count":0,"max_players":24,"Bots":0,"server_type":"Dedicated","server_os":"Linux","password":true,"vac":true,"version":"7757534","steam_id":85568392925194467,"keywords":["cp","nocrits","nodmgspread","uncletopia"],"game_id":440,"stv_port":27036,"stv_name":"Uncletopia | Sydney | 3 | All Maps | STV","players":null},{"server_id":396,"name":"Uncletopia | Sydney | 4 | All Maps","name_short":"syd-4","host":"syd-1.au.uncletopia.com","port":27045,"enabled":true,"region":"au","cc":"au","latitude":-33.865143,"longitude":151.2099,"reserved":0,"last_update":"0001-01-01T00:00:00Z","name_a2s":"Uncletopia | Sydney | 4 | All Maps","protocol":17,"map":"koth_cascade","folder":"tf","game":"Team Fortress","app_id":440,"player_count":0,"max_players":24,"Bots":0,"server_type":"Dedicated","server_os":"Linux","password":true,"vac":true,"version":"7757534","steam_id":85568392925397958,"keywords":["cp","nocrits","nodmgspread","uncletopia"],"game_id":440,"stv_port":27046,"stv_name":"Uncletopia | Sydney | 4 | All Maps | STV","players":null},{"server_id":58,"name":"Uncletopia | Sydney | 5 | Stopwatch Beta","name_short":"syd-5","host":"syd-1.au.uncletopia.com","port":27055,"enabled":true,"region":"au","cc":"au","latitude":-33.865143,"longitude":151.2099,"reserved":0,"last_update":"0001-01-01T00:00:00Z","name_a2s":"Uncletopia | Sydney | 5 | Stopwatch Beta","protocol":17,"map":"workshop/pl_barnblitz_pro7.ugc582280235","folder":"tf","game":"Team Fortress","app_id":440,"player_count":0,"max_players":24,"Bots":0,"server_type":"Dedicated","server_os":"Linux","password":true,"vac":true,"version":"7757534","steam_id":85568392925397959,"keywords":["nocrits","nodmgspread","payload","uncletopia"],"game_id":440,"stv_port":27056,"stv_name":"Uncletopia | Sydney | 5 | Stopwatch Beta | STV","players":null},{"server_id":59,"name":"Uncletopia | Sydney | 6 | Community","name_short":"syd-6","host":"syd-1.au.uncletopia.com","port":27065,"enabled":true,"region":"au","cc":"au","latitude":-33.865143,"longitude":151.2099,"reserved":0,"last_update":"0001-01-01T00:00:00Z","name_a2s":"Uncletopia | Sydney | 6 | Community","protocol":17,"map":"workshop/cp_caldera_rc2.ugc2834196889","folder":"tf","game":"Team Fortress","app_id":440,"player_count":0,"max_players":24,"Bots":0,"server_type":"Dedicated","server_os":"Linux","password":true,"vac":true,"version":"7757534","steam_id":85568392925397960,"keywords":["cp","nocrits","nodmgspread","uncletopia"],"game_id":440,"stv_port":27066,"stv_name":"Uncletopia | Sydney | 6 | Community | STV","players":null},{"server_id":49,"name":"Uncletopia | Warsaw | 1 | All Maps","name_short":"waw-1","host":"waw-1.pl.uncletopia.com","port":27015,"enabled":true,"region":"eu","cc":"pl","latitude":52.2297,"longitude":21.017532,"reserved":0,"last_update":"0001-01-01T00:00:00Z","name_a2s":"","protocol":0,"map":"","folder":"","game":"","app_id":0,"player_count":0,"max_players":0,"Bots":0,"server_type":"","server_os":"","password":false,"vac":false,"version":"","steam_id":0,"keywords":null,"game_id":0,"stv_port":0,"stv_name":"","players":null},{"server_id":50,"name":"Uncletopia | Warsaw | 2 | All Maps","name_short":"waw-2","host":"waw-1.pl.uncletopia.com","port":27025,"enabled":true,"region":"eu","cc":"pl","latitude":52.2297,"longitude":21.017532,"reserved":0,"last_update":"0001-01-01T00:00:00Z","name_a2s":"Uncletopia | Warsaw | 2 | All Maps","protocol":17,"map":"koth_viaduct","folder":"tf","game":"Team Fortress","app_id":440,"player_count":0,"max_players":24,"Bots":0,"server_type":"Dedicated","server_os":"Linux","password":true,"vac":true,"version":"7757534","steam_id":85568392925397851,"keywords":["cp","nocrits","nodmgspread","uncletopia"],"game_id":440,"stv_port":27026,"stv_name":"Uncletopia | Warsaw | 2 | All Maps | STV","players":null},{"server_id":51,"name":"Uncletopia | Warsaw | 3 | All Maps","name_short":"waw-3","host":"waw-1.pl.uncletopia.com","port":27035,"enabled":true,"region":"eu","cc":"pl","latitude":52.2297,"longitude":21.017532,"reserved":0,"last_update":"0001-01-01T00:00:00Z","name_a2s":"Uncletopia | Warsaw | 3 | All Maps","protocol":17,"map":"pl_borneo","folder":"tf","game":"Team Fortress","app_id":440,"player_count":0,"max_players":24,"Bots":0,"server_type":"Dedicated","server_os":"Linux","password":true,"vac":true,"version":"7757534","steam_id":85568392925397852,"keywords":["nocrits","nodmgspread","payload","uncletopia"],"game_id":440,"stv_port":27036,"stv_name":"Uncletopia | Warsaw | 3 | All Maps | STV","players":null},{"server_id":52,"name":"Uncletopia | Warsaw | 4 | All Maps","name_short":"waw-4","host":"waw-1.pl.uncletopia.com","port":27045,"enabled":true,"region":"eu","cc":"pl","latitude":52.2297,"longitude":21.017532,"reserved":0,"last_update":"0001-01-01T00:00:00Z","name_a2s":"Uncletopia | Warsaw | 4 | All Maps","protocol":17,"map":"pl_borneo","folder":"tf","game":"Team Fortress","app_id":440,"player_count":0,"max_players":24,"Bots":0,"server_type":"Dedicated","server_os":"Linux","password":true,"vac":true,"version":"7757534","steam_id":85568392925397853,"keywords":["nocrits","nodmgspread","payload","uncletopia"],"game_id":440,"stv_port":27046,"stv_name":"Uncletopia | Warsaw | 4 | All Maps | STV","players":null},{"server_id":53,"name":"Uncletopia | Warsaw | 5 | Stopwatch Beta","name_short":"waw-5","host":"waw-1.pl.uncletopia.com","port":27055,"enabled":true,"region":"eu","cc":"pl","latitude":52.2297,"longitude":21.017532,"reserved":0,"last_update":"0001-01-01T00:00:00Z","name_a2s":"Uncletopia | Warsaw | 5 | Stopwatch Beta","protocol":17,"map":"cp_process_final","folder":"tf","game":"Team Fortress","app_id":440,"player_count":2,"max_players":24,"Bots":0,"server_type":"Dedicated","server_os":"Linux","password":true,"vac":true,"version":"7757534","steam_id":85568392925397854,"keywords":["cp","nocrits","nodmgspread","uncletopia"],"game_id":440,"stv_port":27056,"stv_name":"Uncletopia | Warsaw | 5 | Stopwatch Beta | STV","players":[{"user_id":12,"name":"Arthropod Matriarch","steam_id":76561198824398526,"connected_time":1234000000000,"state":"active","ping":130},{"user_id":14,"name":"Notedgy0u0","steam_id":76561199067184738,"connected_time":1193000000000,"state":"active","ping":104}]},{"server_id":54,"name":"Uncletopia | Warsaw | 6 | Community","name_short":"waw-6","host":"waw-1.pl.uncletopia.com","port":27065,"enabled":true,"region":"eu","cc":"pl","latitude":52.2297,"longitude":21.017532,"reserved":0,"last_update":"0001-01-01T00:00:00Z","name_a2s":"Uncletopia | Warsaw | 6 | Community","protocol":17,"map":"pl_barnblitz","folder":"tf","game":"Team Fortress","app_id":440,"player_count":0,"max_players":24,"Bots":0,"server_type":"Dedicated","server_os":"Linux","password":true,"vac":true,"version":"7757534","steam_id":85568392925397856,"keywords":["nocrits","nodmgspread","payload","uncletopia"],"game_id":440,"stv_port":27066,"stv_name":"Uncletopia | Warsaw | 6 | Community | STV","players":null}]}