{"status":true,"message":"","result":[{"server_id":9,"name":"Uncletopia | Atlanta | 1 | All Maps","name_short":"atl-1","host":"atl-1.us.uncletopia.com","port":27015,"enabled":true,"region":"us-east","cc":"us","latitude":33.753746,"longitude":-84.38633,"reserved":0,"last_update":"0001-01-01T00:00:00Z","name_a2s":"Uncletopia | Atlanta | 1 | All Maps","protocol":17,"map":"pl_upward","folder":"tf","game":"Team Fortress","app_id":440,"player_count":24,"max_players":24,"Bots":0,"server_type":"Dedicated","server_os":"Linux","password":true,"vac":true,"version":"7757534","steam_id":85568392924469982,"keywords":["nocrits","nodmgspread","payload","uncletopia"],"game_id":440,"stv_port":27016,"stv_name":"Uncletopia | Atlanta | 1 | All Maps | STV","players":[{"user_id":454,"name":"melancholy","steam_id":76561198024301465,"connected_time":16475000000000,"state":"active","ping":44},{"user_id":597,"name":"Five","steam_id":76561198026640473,"connected_time":2744000000000,"state":"active","ping":93},{"user_id":606,"name":"Monster","steam_id":76561198189429665,"connected_time":1689000000000,"state":"active","ping":58},{"user_id":514,"name":"Dr.Zarann","steam_id":76561198163952958,"connected_time":12383000000000,"state":"active","ping":56},{"user_id":615,"name":"moe5x","steam_id":76561198316877833,"connected_time":984000000000,"state":"active","ping":112},{"user_id":538,"name":"Jin Gulilo","steam_id":76561198065151242,"connected_time":10244000000000,"state":"active","ping":76},{"user_id":600,"name":"mrcatman","steam_id":76561198358434883,"connected_time":2332000000000,"state":"active","ping":73},{"user_id":613,"name":"Lazulf","steam_id":76561198041410859,"connected_time":1178000000000,"state":"active","ping":107},{"user_id":578,"name":"Intro Bonito","steam_id":76561198119478838,"connected_time":5845000000000,"state":"active","ping":46},{"user_id":617,"name":"TrashMan","steam_id":76561198064860110,"connected_time":969000000000,"state":"active","ping":78},{"user_id":610,"name":"lil hog","steam_id":76561199230929836,"connected_time":1290000000000,"state":"active","ping":82},{"user_id":395,"name":"eish","steam_id":76561198089463603,"connected_time":21980000000000,"state":"active","ping":119},{"user_id":605,"name":"BIG HOG","steam_id":76561198079923652,"connected_time":1807000000000,"state":"active","ping":65},{"user_id":616,"name":"toho","steam_id":76561198117747254,"connected_time":981000000000,"state":"active","ping":58},{"user_id":585,"name":"Lost (15)","steam_id":76561198093713427,"connected_time":4284000000000,"state":"active","ping":76},{"user_id":622,"name":"Nash","steam_id":76561198044192734,"connected_time":197000000000,"state":"active","ping":45},{"user_id":618,"name":"TheTruthOfTheCessationOfDukkha","steam_id":76561198214370515,"connected_time":966000000000,"state":"active","ping":73},{"user_id":594,"name":"Onyx","steam_id":76561198275349640,"connected_time":3201000000000,"state":"active","ping":82},{"user_id":607,"name":"TheDieeg","steam_id":76561199443116996,"connected_time":1616000000000,"state":"active","ping":104},{"user_id":619,"name":"Cosmotzar","steam_id":76561198027505591,"connected_time":961000000000,"state":"active","ping":83},{"user_id":620,"name":"Kiphus","steam_id":76561198025289407,"connected_time":855000000000,"state":"active","ping":79},{"user_id":608,"name":"SMHTMFTTF","steam_id":76561199079614516,"connected_time":1485000000000,"state":"active","ping":92},{"user_id":467,"name":"ATL1 | Vee (very cool)","steam_id":76561198330432889,"connected_time":15790000000000,"state":"active","ping":73},{"user_id":611,"name":"Master Khoga","steam_id":76561199229538899,"connected_time":1290000000000,"state":"active","ping":81}]},{"server_id":400,"name":"Uncletopia | Atlanta | 3 | Community","name_short":"atl-3","host":"atl-1.us.uncletopia.com","port":27035,"enabled":true,"region":"us-east","cc":"us","latitude":33.753746,"longitude":-84.38633,"reserved":0,"last_update":"0001-01-01T00:00:00Z","name_a2s":"Uncletopia | Atlanta | 3 | Community","protocol":17,"map":"workshop/cp_croissant_final.ugc458840209","folder":"tf","game":"Team Fortress","app_id":440,"player_count":23,"max_players":24,"Bots":0,"server_type":"Dedicated","server_os":"Linux","password":true,"vac":true,"version":"7757534","steam_id":85568392924515187,"keywords":["cp","nocrits","nodmgspread","uncletopia"],"game_id":440,"stv_port":27036,"stv_name":"Uncletopia | Atlanta | 3 | Community | STV","players":[{"user_id":267,"name":"moono","steam_id":76561199113001836,"connected_time":764000000000,"state":"active","ping":84},{"user_id":76,"name":"ribbonborn","steam_id":76561198001195423,"connected_time":13198000000000,"state":"active","ping":70},{"user_id":228,"name":"Kohaku","steam_id":76561198358814557,"connected_time":3065000000000,"state":"active","ping":65},{"user_id":264,"name":"Space-E","steam_id":76561198799417313,"connected_time":881000000000,"state":"active","ping":91},{"user_id":272,"name":"I THINK COOLSVILLE SUCKS","steam_id":76561198066855998,"connected_time":475000000000,"state":"active","ping":119},{"user_id":261,"name":"NVM!!!","steam_id":76561198432721568,"connected_time":1126000000000,"state":"active","ping":121},{"user_id":224,"name":"Fermenting Kiwi","steam_id":76561198253303497,"connected_time":3242000000000,"state":"active","ping":87},{"user_id":273,"name":"Quietsharp","steam_id":76561198277968438,"connected_time":420000000000,"state":"active","ping":99},{"user_id":250,"name":"Stargriefer190","steam_id":76561198996425356,"connected_time":1576000000000,"state":"active","ping":84},{"user_id":159,"name":"potato pat","steam_id":76561198025489194,"connected_time":8098000000000,"state":"active","ping":74},{"user_id":226,"name":"Cat_Soldier #KillSaveTF2","steam_id":76561198799974610,"connected_time":3162000000000,"state":"active","ping":49},{"user_id":270,"name":"DarkLink909","steam_id":76561198084139172,"connected_time":565000000000,"state":"active","ping":72},{"user_id":266,"name":"WhatIsWASD","steam_id":76561198139844547,"connected_time":787000000000,"state":"active","ping":86},{"user_id":162,"name":"basil","steam_id":76561198075758026,"connected_time":7886000000000,"state":"active","ping":67},{"user_id":229,"name":"Kit kyat","steam_id":76561198235786296,"connected_time":3050000000000,"state":"active","ping":75},{"user_id":254,"name":"That One Guy","steam_id":76561198945646560,"connected_time":1517000000000,"state":"active","ping":105},{"user_id":209,"name":"A Box of Kobolds","steam_id":76561198057070883,"connected_time":4532000000000,"state":"active","ping":67},{"user_id":255,"name":"TF3 Moodyx","steam_id":76561198041849544,"connected_time":1510000000000,"state":"active","ping":87},{"user_id":265,"name":"Do Moose go Moo?","steam_id":76561198073550620,"connected_time":860000000000,"state":"active","ping":71},{"user_id":275,"name":"Scout","steam_id":76561198059165394,"connected_time":153000000000,"state":"active","ping":115},{"user_id":257,"name":"Notation","steam_id":76561198119509319,"connected_time":1409000000000,"state":"active","ping":45},{"user_id":271,"name":"Isopentyl Ethanoate","steam_id":76561198116389072,"connected_time":548000000000,"state":"active","ping":124},{"user_id":188,"name":"[shx]","steam_id":76561198070159233,"connected_time":6154000000000,"state":"active","ping":76}]},{"server_id":401,"name":"Uncletopia | Atlanta | 4 | No Payload","name_short":"atl-4","host":"atl-1.us.uncletopia.com","port":27045,"enabled":true,"region":"us-east","cc":"us","latitude":33.753746,"longitude":-84.38633,"reserved":0,"last_update":"0001-01-01T00:00:00Z","name_a2s":"","protocol":0,"map":"","folder":"","game":"","app_id":0,"player_count":0,"max_players":0,"Bots":0,"server_type":"","server_os":"","password":false,"vac":false,"version":"","steam_id":0,"keywords":null,"game_id":0,"stv_port":0,"stv_name":"","players":null},{"server_id":2,"name":"Uncletopia | Chicago | 1 | All Maps","name_short":"chi-1","host":"chi-1.us.uncletopia.com","port":27015,"enabled":true,"region":"us-central","cc":"us","latitude":41.881832,"longitude":-87.62318,"reserved":0,"last_update":"0001-01-01T00:00:00Z","name_a2s":"Uncletopia | Chicago | 1 | All Maps","protocol":17,"map":"cp_mercenarypark","folder":"tf","game":"Team Fortress","app_id":440,"player_count":24,"max_players":24,"Bots":0,"server_type":"Dedicated","server_os":"Linux","password":true,"vac":true,"version":"7757534","steam_id":85568392924469984,"keywords":["cp","nocrits","nodmgspread","uncletopia"],"game_id":440,"stv_port":27016,"stv_name":"Uncletopia | Chicago | 1 | All Maps | STV","players":[{"user_id":787,"name":"General Girthquake","steam_id":76561198124737840,"connected_time":6370000000000,"state":"active","ping":54},{"user_id":681,"name":"Ademar","steam_id":76561199391802581,"connected_time":14763000000000,"state":"active","ping":51},{"user_id":857,"name":"AnonymousCritter","steam_id":76561198864475187,"connected_time":248000000000,"state":"active","ping":49},{"user_id":858,"name":"Casual Crusader","steam_id":76561198153584395,"connected_time":242000000000,"state":"active","ping":78},{"user_id":842,"name":"God's Cutest Twink","steam_id":76561198053164901,"connected_time":1957000000000,"state":"active","ping":58},{"user_id":856,"name":"chulps","steam_id":76561198217058421,"connected_time":751000000000,"state":"active","ping":54},{"user_id":816,"name":"ShitsandGiggles‚Ñ¢","steam_id":76561198058708019,"connected_time":3501000000000,"state":"active","ping":54},{"user_id":821,"name":"The Drunk Clown","steam_id":76561197986850426,"connected_time":3374000000000,"state":"active","ping":75},{"user_id":865,"name":"Lore","steam_id":76561198098407538,"connected_time":101000000000,"state":"active","ping":46},{"user_id":855,"name":"bee","steam_id":76561198025553902,"connected_time":763000000000,"state":"active","ping":45},{"user_id":860,"name":"man of the hour","steam_id":76561198264601809,"connected_time":172000000000,"state":"active","ping":144},{"user_id":861,"name":"rE_d0","steam_id":76561198975450630,"connected_time":169000000000,"state":"active","ping":91},{"user_id":862,"name":"hermit wizard","steam_id":76561198015156743,"connected_time":167000000000,"state":"active","ping":87},{"user_id":864,"name":"Punished Shitster","steam_id":76561198150452857,"connected_time":108000000000,"state":"active","ping":66},{"user_id":853,"name":"erm categorie","steam_id":76561198272354852,"connected_time":1109000000000,"state":"active","ping":44},{"user_id":846,"name":"deech","steam_id":76561198066429444,"connected_time":1737000000000,"state":"active","ping":71},{"user_id":824,"name":"arachnakat","steam_id":76561198986095433,"connected_time":3237000000000,"state":"active","ping":88},{"user_id":847,"name":"The slattiator","steam_id":76561198084422657,"connected_time":1729000000000,"state":"active","ping":83},{"user_id":759,"name":"[ŸäŸáŸàÿØŸä] Bill Clinton [◊ê◊ú","steam_id":76561198163291190,"connected_time":9368000000000,"state":"active","ping":87},{"user_id":826,"name":"wolf_71","steam_id":76561198963570945,"connected_time":3189000000000,"state":"active","ping":65},{"user_id":831,"name":"the lesbianist pyroshark","steam_id":76561198374227766,"connected_time":3034000000000,"state":"active","ping":74},{"user_id":852,"name":"resplendent miniscule","steam_id":76561198091862137,"connected_time":1184000000000,"state":"active","ping":62},{"user_id":810,"name":"RURU","steam_id":76561198039758987,"connected_time":4311000000000,"state":"active","ping":102},{"user_id":866,"name":"Melon","steam_id":76561198150893860,"connected_time":59000000000,"state":"active","ping":151}]},{"server_id":106,"name":"Uncletopia | Chicago | 2 | All Maps","name_short":"chi-2","host":"chi-1.us.uncletopia.com","port":27025,"enabled":true,"region":"us-central","cc":"us","latitude":41.881832,"longitude":-87.62318,"reserved":0,"last_update":"0001-01-01T00:00:00Z","name_a2s":"Uncletopia | Chicago | 2 | All Maps","protocol":17,"map":"pl_barnblitz","folder":"tf","game":"Team Fortress","app_id":440,"player_count":24,"max_players":24,"Bots":0,"server_type":"Dedicated","server_os":"Linux","password":true,"vac":true,"version":"7757534","steam_id":85568392924469985,"keywords":["nocrits","nodmgspread","payload","uncletopia"],"game_id":440,"stv_port":27026,"stv_name":"Uncletopia | Chicago | 2 | All Maps | STV","players":[{"user_id":865,"name":"I am a mooshroom","steam_id":76561198104198295,"connected_time":961000000000,"state":"active","ping":84},{"user_id":884,"name":"rudy","steam_id":76561198088712799,"connected_time":570000000000,"state":"active","ping":75},{"user_id":888,"name":"wulri","steam_id":76561198042957779,"connected_time":486000000000,"state":"active","ping":74},{"user_id":885,"name":"A Shiny Meat Bicycle","steam_id":76561198358757709,"connected_time":565000000000,"state":"active","ping":97},{"user_id":856,"name":"CroMaLaka","steam_id":76561198380926090,"connected_time":1087000000000,"state":"active","ping":49},{"user_id":890,"name":"kametro4","steam_id":76561198835430429,"connected_time":469000000000,"state":"active","ping":81},{"user_id":808,"name":"üÖúüÖîüÖîüÖöüÖ¢üÖ£üÖî\ufffd\ufffd\ufffd","steam_id":76561197999748343,"connected_time":3909000000000,"state":"active","ping":69},{"user_id":891,"name":"wattle","steam_id":76561199091719249,"connected_time":412000000000,"state":"active","ping":150},{"user_id":872,"name":"Harrison","steam_id":76561198931423191,"connected_time":870000000000,"state":"active","ping":68},{"user_id":873,"name":"jakob","steam_id":76561198094859796,"connected_time":814000000000,"state":"active","ping":67},{"user_id":817,"name":"John Highlander","steam_id":76561198277163301,"connected_time":3707000000000,"state":"active","ping":69},{"user_id":874,"name":"Grim","steam_id":76561198158911860,"connected_time":792000000000,"state":"active","ping":112},{"user_id":794,"name":"1rhythm","steam_id":76561199159347310,"connected_time":5164000000000,"state":"active","ping":62},{"user_id":813,"name":"Drizzle","steam_id":76561198152143806,"connected_time":3738000000000,"state":"active","ping":50},{"user_id":882,"name":"Arcadletus","steam_id":76561198976009938,"connected_time":688000000000,"state":"active","ping":83},{"user_id":877,"name":"Interrobang","steam_id":76561198385044529,"connected_time":752000000000,"state":"active","ping":149},{"user_id":833,"name":"lucil3 on Bandcamp","steam_id":76561198149063013,"connected_time":2751000000000,"state":"active","ping":61},{"user_id":892,"name":"rice white","steam_id":76561198320732910,"connected_time":310000000000,"state":"active","ping":75},{"user_id":876,"name":"CreativeUsername","steam_id":76561198186045503,"connected_time":756000000000,"state":"active","ping":54},{"user_id":878,"name":"naki-","steam_id":76561198046792661,"connected_time":729000000000,"state":"active","ping":59},{"user_id":893,"name":"joe","steam_id":76561198332876604,"connected_time":76000000000,"state":"active","ping":68},{"user_id":886,"name":"Potassium!","steam_id":76561199082921723,"connected_time":562000000000,"state":"active","ping":95},{"user_id":880,"name":"Patisserie","steam_id":76561198239169752,"connected_time":723000000000,"state":"active","ping":49},{"user_id":889,"name":"Titar Industries","steam_id":76561198143078476,"connected_time":485000000000,"state":"active","ping":65}]},{"server_id":402,"name":"Uncletopia | Chicago | 3 | All Maps","name_short":"chi-3","host":"chi-1.us.uncletopia.com","port":27035,"enabled":true,"region":"us-central","cc":"us","latitude":41.881832,"longitude":-87.62318,"reserved":0,"last_update":"0001-01-01T00:00:00Z","name_a2s":"Uncletopia | Chicago | 3 | All Maps","protocol":17,"map":"cp_process_final","folder":"tf","game":"Team Fortress","app_id":440,"player_count":24,"max_players":24,"Bots":0,"server_type":"Dedicated","server_os":"Linux","password":true,"vac":true,"version":"7757534","steam_id":85568392924515191,"keywords":["cp","nocrits","nodmgspread","uncletopia"],"game_id":440,"stv_port":27036,"stv_name":"Uncletopia | Chicago | 3 | All Maps | STV","players":[{"user_id":840,"name":"sTAPler","steam_id":76561198394008714,"connected_time":89000000000,"state":"active","ping":118},{"user_id":793,"name":"Spoods","steam_id":76561198245568710,"connected_time":1665000000000,"state":"active","ping":72},{"user_id":807,"name":"*SHIKI ÂøóË≤¥","steam_id":76561198009208968,"connected_time":1295000000000,"state":"active","ping":48},{"user_id":732,"name":"JustATempest","steam_id":76561198185573363,"connected_time":4895000000000,"state":"active","ping":74},{"user_id":792,"name":"Cheeeeeeeen","steam_id":76561198986388085,"connected_time":1690000000000,"state":"active","ping":109},{"user_id":806,"name":"ReDiculous22","steam_id":76561198038391383,"connected_time":1383000000000,"state":"active","ping":61},{"user_id":833,"name":"GiraffeMan","steam_id":76561198042104084,"connected_time":633000000000,"state":"active","ping":76},{"user_id":838,"name":"Hifumi Togo","steam_id":76561198074930636,"connected_time":253000000000,"state":"active","ping":43},{"user_id":830,"name":"Gangsta Spongebob","steam_id":76561198011223438,"connected_time":646000000000,"state":"active","ping":64},{"user_id":839,"name":"TheHarmacist","steam_id":76561198068249096,"connected_time":114000000000,"state":"active","ping":48},{"user_id":837,"name":"daniel","steam_id":76561197991289254,"connected_time":567000000000,"state":"active","ping":92},{"user_id":832,"name":"Father Jon","steam_id":76561198324730919,"connected_time":642000000000,"state":"active","ping":93},{"user_id":758,"name":"TastesLikeTriangle","steam_id":76561198109705599,"connected_time":4104000000000,"state":"active","ping":84},{"user_id":764,"name":"illious","steam_id":76561198169925494,"connected_time":3539000000000,"state":"active","ping":70},{"user_id":795,"name":"threethree","steam_id":76561198177354155,"connected_time":1651000000000,"state":"active","ping":46},{"user_id":796,"name":"Real Demo Man TF2","steam_id":76561199073122406,"connected_time":1638000000000,"state":"active","ping":66},{"user_id":814,"name":"Merci?","steam_id":76561198096823118,"connected_time":1088000000000,"state":"active","ping":74},{"user_id":834,"name":"ThatWACK","steam_id":76561198995415153,"connected_time":608000000000,"state":"active","ping":108},{"user_id":835,"name":"ChunkWispy","steam_id":76561198799316908,"connected_time":578000000000,"state":"active","ping":106},{"user_id":736,"name":"Habitual Ass Abuser of Illinois","steam_id":76561198155865782,"connected_time":4849000000000,"state":"active","ping":60},{"user_id":836,"name":"GoEvan101New","steam_id":76561198355795303,"connected_time":575000000000,"state":"active","ping":99},{"user_id":702,"name":"Ghandi","steam_id":76561198046702733,"connected_time":6662000000000,"state":"active","ping":74},{"user_id":737,"name":"OWEENIE","steam_id":76561198083135927,"connected_time":4834000000000,"state":"active","ping":46},{"user_id":772,"name":"M@verick","steam_id":76561198006363519,"connected_time":3231000000000,"state":"active","ping":77}]},{"server_id":403,"name":"Uncletopia | Chicago | 4 | All Maps","name_short":"chi-4","host":"chi-1.us.uncletopia.com","port":27045,"enabled":true,"region":"us-central","cc":"us","latitude":41.881832,"longitude":-87.62318,"reserved":0,"last_update":"0001-01-01T00:00:00Z","name_a2s":"Uncletopia | Chicago | 4 | All Maps","protocol":17,"map":"koth_lakeside_final","folder":"tf","game":"Team Fortress","app_id":440,"player_count":0,"max_players":24,"Bots":0,"server_type":"Dedicated","server_os":"Linux","password":true,"vac":true,"version":"7757534","steam_id":85568392924515193,"keywords":["cp","nocrits","nodmgspread","uncletopia"],"game_id":440,"stv_port":27046,"stv_name":"Uncletopia | Chicago | 4 | All Maps | STV","players":null},{"server_id":36,"name":"Uncletopia | Chicago | 5 | All Maps","name_short":"chi-5","host":"chi-2.us.uncletopia.com","port":27015,"enabled":true,"region":"us-central","cc":"us","latitude":41.881832,"longitude":-87.62318,"reserved":0,"last_update":"0001-01-01T00:00:00Z","name_a2s":"Uncletopia | Chicago | 5 | All Maps","protocol":17,"map":"pl_upward","folder":"tf","game":"Team Fortress","app_id":440,"player_count":0,"max_players":24,"Bots":0,"server_type":"Dedicated","server_os":"Linux","password":true,"vac":true,"version":"7757534","steam_id":85568392924866362,"keywords":["nocrits","nodmgspread","payload","uncletopia"],"game_id":440,"stv_port":27016,"stv_name":"Uncletopia | Chicago | 5 | All Maps | STV","players":null},{"server_id":37,"name":"Uncletopia | Chicago | 6 | All Maps","name_short":"chi-6","host":"chi-2.us.uncletopia.com","port":27025,"enabled":true,"region":"us-central","cc":"us","latitude":41.881832,"longitude":-87.62318,"reserved":0,"last_update":"0001-01-01T00:00:00Z","name_a2s":"Uncletopia | Chicago | 6 | All Maps","protocol":17,"map":"cp_sunshine","folder":"tf","game":"Team Fortress","app_id":440,"player_count":24,"max_players":24,"Bots":0,"server_type":"Dedicated","server_os":"Linux","password":true,"vac":true,"version":"7757534","steam_id":85568392924866363,"keywords":["cp","nocrits","nodmgspread","uncletopia"],"game_id":440,"stv_port":27026,"stv_name":"Uncletopia | Chicago | 6 | All Maps | STV","players":[{"user_id":729,"name":"HumFreY","steam_id":76561198076639682,"connected_time":5459000000000,"state":"active","ping":68},{"user_id":812,"name":"FireQuiz","steam_id":76561198107357249,"connected_time":560000000000,"state":"active","ping":101},{"user_id":780,"name":"Vetrio","steam_id":76561198074561178,"connected_time":2152000000000,"state":"active","ping":60},{"user_id":822,"name":"quacks thesatanictemple.com","steam_id":76561198077934343,"connected_time":248000000000,"state":"active","ping":71},{"user_id":813,"name":"hehe","steam_id":76561198125913580,"connected_time":557000000000,"state":"active","ping":64},{"user_id":776,"name":"Catzs","steam_id":76561197996013572,"connected_time":2224000000000,"state":"active","ping":101},{"user_id":814,"name":"Jammer","steam_id":76561198435691014,"connected_time":521000000000,"state":"active","ping":84},{"user_id":815,"name":"CrystalClear","steam_id":76561198344276579,"connected_time":512000000000,"state":"active","ping":101},{"user_id":820,"name":"onion","steam_id":76561198242311084,"connected_time":338000000000,"state":"active","ping":68},{"user_id":807,"name":"Carbonated Knightquill","steam_id":76561198044362988,"connected_time":1509000000000,"state":"active","ping":61},{"user_id":792,"name":"THROAT HUGGER #Hateology","steam_id":76561198046870291,"connected_time":1853000000000,"state":"active","ping":71},{"user_id":805,"name":"dash23‚Ñ¢","steam_id":76561198314951185,"connected_time":1567000000000,"state":"active","ping":105},{"user_id":755,"name":"wiwi","steam_id":76561198046650995,"connected_time":3406000000000,"state":"active","ping":85},{"user_id":816,"name":"FoodzAreGoodz","steam_id":76561198309262052,"connected_time":499000000000,"state":"active","ping":104},{"user_id":821,"name":"hour long video essay","steam_id":76561198143132686,"connected_time":320000000000,"state":"active","ping":82},{"user_id":768,"name":"josh","steam_id":76561198092176972,"connected_time":2712000000000,"state":"active","ping":74},{"user_id":785,"name":"weeb_whacker#Jenius #Hateologis","steam_id":76561198187098041,"connected_time":2012000000000,"state":"active","ping":54},{"user_id":817,"name":"bodi","steam_id":76561199062396598,"connected_time":466000000000,"state":"active","ping":82},{"user_id":722,"name":"Cyclaw","steam_id":76561198076045689,"connected_time":5818000000000,"state":"active","ping":58},{"user_id":823,"name":"joyboy","steam_id":76561198400381132,"connected_time":243000000000,"state":"active","ping":67},{"user_id":824,"name":"rlty","steam_id":76561198009395055,"connected_time":80000000000,"state":"active","ping":71},{"user_id":730,"name":"jubattz","steam_id":76561198044874072,"connected_time":5449000000000,"state":"active","ping":64},{"user_id":819,"name":"Woozy","steam_id":76561198008220735,"connected_time":343000000000,"state":"active","ping":80},{"user_id":794,"name":"Ringo x Seiran","steam_id":76561198357437908,"connected_time":1850000000000,"state":"active","ping":64}]},{"server_id":38,"name":"Uncletopia | Chicago | 7 | Stopwatch Beta","name_short":"chi-7","host":"chi-2.us.uncletopia.com","port":27035,"enabled":true,"region":"us-central","cc":"us","latitude":41.881832,"longitude":-87.62318,"reserved":0,"last_update":"0001-01-01T00:00:00Z","name_a2s":"Uncletopia | Chicago | 7 | Stopwatch Beta","protocol":17,"map":"pl_swiftwater_final1","folder":"tf","game":"Team Fortress","app_id":440,"player_count":0,"max_players":24,"Bots":0,"server_type":"Dedicated","server_os":"Linux","password":true,"vac":true,"version":"7757534","steam_id":85568392924866364,"keywords":["nocrits","nodmgspread","payload","uncletopia"],"game_id":440,"stv_port":27036,"stv_name":"Uncletopia | Chicago | 7 | Stopwatch Beta | STV","players":null},{"server_id":39,"name":"Uncletopia | Chicago | 8 | Community","name_short":"chi-8","host":"chi-2.us.uncletopia.com","port":27045,"enabled":true,"region":"us-central","cc":"us","latitude":41.881832,"longitude":-87.62318,"reserved":0,"last_update":"0001-01-01T00:00:00Z","name_a2s":"Uncletopia | Chicago | 8 | Community","protocol":17,"map":"workshop/cp_kalinka_rc6a.ugc1272700588","folder":"tf","game":"Team Fortress","app_id":440,"player_count":0,"max_players":24,"Bots":0,"server_type":"Dedicated","server_os":"Linux","password":true,"vac":true,"version":"7757534","steam_id":85568392924866365,"keywords":["cp","nocrits","nodmgspread","uncletopia"],"game_id":440,"stv_port":27046,"stv_name":"Uncletopia | Chicago | 8 | Community | STV","players":null},{"server_id":8,"name":"Uncletopia | Dallas | 1 | All Maps","name_short":"dal-1","host":"dal-1.us.uncletopia.com","port":27015,"enabled":true,"region":"us-central","cc":"us","latitude":32.779167,"longitude":-96.80889,"reserved":0,"last_update":"0001-01-01T00:00:00Z","name_a2s":"Uncletopia | Dallas | 1 | All Maps","protocol":17,"map":"koth_harvest_final","folder":"tf","game":"Team Fortress","app_id":440,"player_count":24,"max_players":24,"Bots":0,"server_type":"Dedicated","server_os":"Linux","password":true,"vac":true,"version":"7757534","steam_id":85568392924469986,"keywords":["cp","nocrits","nodmgspread","uncletopia"],"game_id":440,"stv_port":27016,"stv_name":"Uncletopia | Dallas | 1 | All Maps | STV","players":[{"user_id":731,"name":"beE","steam_id":76561198122687173,"connected_time":1052000000000,"state":"active","ping":65},{"user_id":727,"name":"plink","steam_id":76561198057829889,"connected_time":1349000000000,"state":"active","ping":45},{"user_id":736,"name":"raya","steam_id":76561198051504581,"connected_time":227000000000,"state":"active","ping":43},{"user_id":733,"name":"Junior_198X","steam_id":76561198158596794,"connected_time":971000000000,"state":"active","ping":78},{"user_id":675,"name":"Ifrit","steam_id":76561198044730782,"connected_time":6132000000000,"state":"active","ping":61},{"user_id":728,"name":"blue","steam_id":76561198342449098,"connected_time":1296000000000,"state":"active","ping":50},{"user_id":580,"name":"Dr. Dynamo","steam_id":76561198114569365,"connected_time":12688000000000,"state":"active","ping":67},{"user_id":737,"name":"Alice Hiiragi","steam_id":76561198094078478,"connected_time":203000000000,"state":"active","ping":80},{"user_id":694,"name":"Zigadox","steam_id":76561198079813479,"connected_time":4496000000000,"state":"active","ping":89},{"user_id":738,"name":"Kreiser_VII","steam_id":76561198153832178,"connected_time":89000000000,"state":"active","ping":175},{"user_id":669,"name":"Jax_Y","steam_id":76561198436807464,"connected_time":6234000000000,"state":"active","ping":66},{"user_id":714,"name":"the smiling zombie","steam_id":76561199246231090,"connected_time":2702000000000,"state":"active","ping":86},{"user_id":718,"name":"BigBubble42","steam_id":76561198136286123,"connected_time":1924000000000,"state":"active","ping":28},{"user_id":650,"name":"2003 Honda Civic","steam_id":76561198401205345,"connected_time":7549000000000,"state":"active","ping":60},{"user_id":721,"name":"JC2","steam_id":76561198034235649,"connected_time":1730000000000,"state":"active","ping":67},{"user_id":719,"name":"Jeugh","steam_id":76561198073498865,"connected_time":1913000000000,"state":"active","ping":100},{"user_id":735,"name":"\u003c blank \u003e","steam_id":76561198012566503,"connected_time":574000000000,"state":"active","ping":104},{"user_id":739,"name":"Uno!","steam_id":76561198799400617,"connected_time":86000000000,"state":"active","ping":65},{"user_id":711,"name":"Iawen","steam_id":76561197984522405,"connected_time":3099000000000,"state":"active","ping":76},{"user_id":644,"name":"iluvtoust","steam_id":76561198869269207,"connected_time":7681000000000,"state":"active","ping":44},{"user_id":677,"name":"Emperor Dankatine","steam_id":76561198044741086,"connected_time":6112000000000,"state":"active","ping":86},{"user_id":723,"name":"Iron","steam_id":76561198247918478,"connected_time":1648000000000,"state":"active","ping":69},{"user_id":720,"name":"Rumpus Fugly","steam_id":76561198095118127,"connected_time":1909000000000,"state":"active","ping":57},{"user_id":704,"name":"HE‚ÄôS IN THE GODDAMN WALLS","steam_id":76561198363267009,"connected_time":3989000000000,"state":"active","ping":45}]},{"server_id":108,"name":"Uncletopia | Dallas | 2 | All Maps","name_short":"dal-2","host":"dal-1.us.uncletopia.com","port":27025,"enabled":true,"region":"us-central","cc":"us","latitude":32.779167,"longitude":-96.80889,"reserved":0,"last_update":"0001-01-01T00:00:00Z","name_a2s":"Uncletopia | Dallas | 2 | All Maps","protocol":17,"map":"pl_upward","folder":"tf","game":"Team Fortress","app_id":440,"player_count":1,"max_players":24,"Bots":0,"server_type":"Dedicated","server_os":"Linux","password":true,"vac":true,"version":"7757534","steam_id":85568392924469988,"keywords":["nocrits","nodmgspread","payload","uncletopia"],"game_id":440,"stv_port":27026,"stv_name":"Uncletopia | Dallas | 2 | All Maps | STV","players":[{"user_id":417,"name":"ErikG65USA","steam_id":76561199381735619,"connected_time":7000000000,"state":"spawning","ping":59}]},{"server_id":5,"name":"Uncletopia | Frankfurt | 1 | All Maps","name_short":"frk-1","host":"frk-1.de.uncletopia.com","port":27015,"enabled":true,"region":"eu","cc":"de","latitude":50.110924,"longitude":8.682127,"reserved":0,"last_update":"0001-01-01T00:00:00Z","name_a2s":"Uncletopia | Frankfurt | 1 | All Maps","protocol":17,"map":"cp_snakewater_final1","folder":"tf","game":"Team Fortress","app_id":440,"player_count":0,"max_players":24,"Bots":0,"server_type":"Dedicated","server_os":"Linux","password":true,"vac":true,"version":"7757534","steam_id":85568392924469989,"keywords":["cp","nocrits","nodmgspread","uncletopia"],"game_id":440,"stv_port":27016,"stv_name":"Uncletopia | Frankfurt | 1 | All Maps | STV","players":null},{"server_id":110,"name":"Uncletopia | Frankfurt | 2 | All Maps","name_short":"frk-2","host":"frk-1.de.uncletopia.com","port":27025,"enabled":true,"region":"eu","cc":"de","latitude":50.110924,"longitude":8.682127,"reserved":0,"last_update":"0001-01-01T00:00:00Z","name_a2s":"Uncletopia | Frankfurt | 2 | All Maps","protocol":17,"map":"cp_altitude","folder":"tf","game":"Team Fortress","app_id":440,"player_count":0,"max_players":24,"Bots":0,"server_type":"Dedicated","server_os":"Linux","password":true,"vac":true,"version":"7757534","steam_id":85568392924469990,"keywords":["cp","nocrits","nodmgspread","uncletopia"],"game_id":440,"stv_port":27026,"stv_name":"Uncletopia | Frankfurt | 2 | All Maps | STV","players":null},{"server_id":308,"name":"Uncletopia | Frankfurt | 3 | All Maps","name_short":"frk-3","host":"frk-1.de.uncletopia.com","port":27035,"enabled":true,"region":"eu","cc":"de","latitude":50.110924,"longitude":8.682127,"reserved":0,"last_update":"0001-01-01T00:00:00Z","name_a2s":"Uncletopia | Frankfurt | 3 | All Maps","protocol":17,"map":"pl_borneo","folder":"tf","game":"Team Fortress","app_id":440,"player_count":0,"max_players":24,"Bots":0,"server_type":"Dedicated","server_os":"Linux","password":true,"vac":true,"version":"7757534","steam_id":85568392924504274,"keywords":["nocrits","nodmgspread","payload","uncletopia"],"game_id":440,"stv_port":27036,"stv_name":"Uncletopia | Frankfurt | 3 | All Maps | STV","players":null},{"server_id":309,"name":"Uncletopia | Frankfurt | 4 | All Maps","name_short":"frk-4","host":"frk-1.de.uncletopia.com","port":27045,"enabled":true,"region":"eu","cc":"de","latitude":50.110924,"longitude":8.682127,"reserved":0,"last_update":"0001-01-01T00:00:00Z","name_a2s":"Uncletopia | Frankfurt | 4 | All Maps","protocol":17,"map":"pl_pier","folder":"tf","game":"Team Fortress","app_id":440,"player_count":0,"max_players":24,"Bots":0,"server_type":"Dedicated","server_os":"Linux","password":true,"vac":true,"version":"7757534","steam_id":85568392924504275,"keywords":["nocrits","nodmgspread","payload","uncletopia"],"game_id":440,"stv_port":27046,"stv_name":"Uncletopia | Frankfurt | 4 | All Maps | STV","players":null},{"server_id":310,"name":"Uncletopia | Frankfurt | 5 | All Maps","name_short":"frk-5","host":"frk-1.de.uncletopia.com","port":27055,"enabled":true,"region":"eu","cc":"de","latitude":50.110924,"longitude":8.682127,"reserved":0,"last_update":"0001-01-01T00:00:00Z","name_a2s":"Uncletopia | Frankfurt | 5 | All Maps","protocol":17,"map":"cp_altitude","folder":"tf","game":"Team Fortress","app_id":440,"player_count":0,"max_players":24,"Bots":0,"server_type":"Dedicated","server_os":"Linux","password":true,"vac":true,"version":"7757534","steam_id":85568392924504277,"keywords":["cp","nocrits","nodmgspread","uncletopia"],"game_id":440,"stv_port":27056,"stv_name":"Uncletopia | Frankfurt | 5 | All Maps | STV","players":null},{"server_id":311,"name":"Uncletopia | Frankfurt | 6 | All Maps","name_short":"frk-6","host":"frk-1.de.uncletopia.com","port":27065,"enabled":true,"region":"eu","cc":"de","latitude":50.110924,"longitude":8.682127,"reserved":0,"last_update":"0001-01-01T00:00:00Z","name_a2s":"Uncletopia | Frankfurt | 6 | All Maps","protocol":17,"map":"pl_barnblitz","folder":"tf","game":"Team Fortress","app_id":440,"player_count":0,"max_players":24,"Bots":0,"server_type":"Dedicated","server_os":"Linux","password":true,"vac":true,"version":"7757534","steam_id":85568392924504278,"keywords":["nocrits","nodmgspread","payload","uncletopia"],"game_id":440,"stv_port":27066,"stv_name":"Uncletopia | Frankfurt | 6 | All Maps | STV","players":null},{"server_id":23,"name":"Uncletopia | Frankfurt | 7 | Stopwatch Beta","name_short":"frk-7","host":"frk-1.de.uncletopia.com","port":27075,"enabled":true,"region":"eu","cc":"de","latitude":50.110924,"longitude":8.682127,"reserved":0,"last_update":"0001-01-01T00:00:00Z","name_a2s":"Uncletopia | Frankfurt | 7 | Stopwatch Beta","protocol":17,"map":"pl_borneo","folder":"tf","game":"Team Fortress","app_id":440,"player_count":0,"max_players":24,"Bots":0,"server_type":"Dedicated","server_os":"Linux","password":true,"vac":true,"version":"7757534","steam_id":85568392924742827,"keywords":["nocrits","nodmgspread","payload","uncletopia"],"game_id":440,"stv_port":27076,"stv_name":"Uncletopia | Frankfurt | 7 | Stopwatch Beta | STV","players":null},{"server_id":24,"name":"Uncletopia | Frankfurt | 8 | Community","name_short":"frk-8","host":"frk-1.de.uncletopia.com","port":27085,"enabled":true,"region":"eu","cc":"de","latitude":50.110924,"longitude":8.682127,"reserved":0,"last_update":"0001-01-01T00:00:00Z","name_a2s":"Uncletopia | Frankfurt | 8 | Community","protocol":17,"map":"koth_viaduct","folder":"tf","game":"Team Fortress","app_id":440,"player_count":0,"max_players":24,"Bots":0,"server_type":"Dedicated","server_os":"Linux","password":true,"vac":true,"version":"7757534","steam_id":85568392924742828,"keywords":["cp","nocrits","nodmgspread","uncletopia"],"game_id":440,"stv_port":27086,"stv_name":"Uncletopia | Frankfurt | 8 | Community | STV","players":null},{"server_id":202,"name":"Uncletopia | Hong Kong | 1 | All Maps","name_short":"hgk-1","host":"hgk-1.hk.uncletopia.com","port":27015,"enabled":true,"region":"asia","cc":"hk","latitude":22.302711,"longitude":114.177216,"reserved":0,"last_update":"0001-01-01T00:00:00Z","name_a2s":"Uncletopia | Hong Kong | 1 | All Maps","protocol":17,"map":"cp_egypt_final","folder":"tf","game":"Team Fortress","app_id":440,"player_count":24,"max_players":24,"Bots":0,"server_type":"Dedicated","server_os":"Linux","password":true,"vac":true,"version":"7757534","steam_id":85568392924494504,"keywords":["cp","nocrits","nodmgspread","uncletopia"],"game_id":440,"stv_port":27016,"stv_name":"Uncletopia | Hong Kong | 1 | All Maps | STV","players":[{"user_id":223,"name":"why6","steam_id":76561199126937183,"connected_time":1540000000000,"state":"active","ping":124},{"user_id":221,"name":"vintage","steam_id":76561198230213828,"connected_time":1587000000000,"state":"active","ping":61},{"user_id":212,"name":"buiminhquang1401","steam_id":76561199475974790,"connected_time":1800000000000,"state":"active","ping":80},{"user_id":115,"name":"ghuzik ate a femboy last night","steam_id":76561199107596818,"connected_time":9904000000000,"state":"active","ping":110},{"user_id":228,"name":"NOPE","steam_id":76561199244543572,"connected_time":394000000000,"state":"active","ping":72},{"user_id":176,"name":"Nonexistent","steam_id":76561198980563251,"connected_time":4755000000000,"state":"active","ping":81},{"user_id":189,"name":"Stupid B","steam_id":76561198131423270,"connected_time":3132000000000,"state":"active","ping":91},{"user_id":220,"name":"the snai;l","steam_id":76561198944322758,"connected_time":1646000000000,"state":"active","ping":178},{"user_id":161,"name":"thought crime hotline","steam_id":76561198054545683,"connected_time":5866000000000,"state":"active","ping":81},{"user_id":231,"name":"AmaiToxic","steam_id":76561199122491157,"connected_time":199000000000,"state":"active","ping":140},{"user_id":229,"name":"Dropout„ÇØ„Éû","steam_id":76561199092455646,"connected_time":272000000000,"state":"active","ping":76},{"user_id":213,"name":"+","steam_id":76561198121311286,"connected_time":1704000000000,"state":"active","ping":125},{"user_id":196,"name":"tiden2000","steam_id":76561198092969425,"connected_time":3081000000000,"state":"active","ping":100},{"user_id":158,"name":"bmbmbm","steam_id":76561198413116920,"connected_time":5888000000000,"state":"active","ping":104},{"user_id":61,"name":"‚úßBaKa BAzooKA‚úß(‚óï‚ñø‚óï )","steam_id":76561198061628689,"connected_time":12815000000000,"state":"active","ping":49},{"user_id":190,"name":"screaming sniper","steam_id":76561199085568674,"connected_time":3116000000000,"state":"active","ping":70},{"user_id":219,"name":"P","steam_id":76561198304514505,"connected_time":1664000000000,"state":"active","ping":72},{"user_id":197,"name":"Light Rainbow","steam_id":76561198118966673,"connected_time":2981000000000,"state":"active","ping":40},{"user_id":100,"name":"anemoia","steam_id":76561198074339034,"connected_time":10819000000000,"state":"active","ping":74},{"user_id":207,"name":"Cheesey","steam_id":76561198975684137,"connected_time":2339000000000,"state":"active","ping":105},{"user_id":222,"name":"ase","steam_id":76561198152588681,"connected_time":1546000000000,"state":"active","ping":82},{"user_id":214,"name":"silverhouse7","steam_id":76561198349634906,"connected_time":1699000000000,"state":"active","ping":99},{"user_id":226,"name":"Gehello","steam_id":76561199394603089,"connected_time":955000000000,"state":"active","ping":74},{"user_id":205,"name":"Batbob","steam_id":76561198999413123,"connected_time":2469000000000,"state":"active","ping":79}]},{"server_id":1,"name":"Uncletopia | Los Angeles | 1 | All Maps","name_short":"lax-1","host":"lax-1.us.uncletopia.com","port":27015,"enabled":true,"region":"us-west","cc":"us","latitude":33.94279,"longitude":-118.41004,"reserved":0,"last_update":"0001-01-01T00:00:00Z","name_a2s":"Uncletopia | Los Angeles | 1 | All Maps","protocol":17,"map":"pl_frontier_final","folder":"tf","game":"Team Fortress","app_id":440,"player_count":21,"max_players":24,"Bots":0,"server_type":"Dedicated","server_os":"Linux","password":true,"vac":true,"version":"7757534","steam_id":85568392924469991,"keywords":["nocrits","nodmgspread","payload","uncletopia"],"game_id":440,"stv_port":27016,"stv_name":"Uncletopia | Los Angeles | 1 | All Maps | STV","players":[{"user_id":482,"name":"Zeta","steam_id":76561198178693059,"connected_time":2150000000000,"state":"active","ping":91},{"user_id":483,"name":"TeCon","steam_id":76561198049127236,"connected_time":2106000000000,"state":"active","ping":60},{"user_id":501,"name":"johnman gooberguy","steam_id":76561199014859764,"connected_time":982000000000,"state":"active","ping":71},{"user_id":418,"name":"ice cream (ÂÜ∞Ê∑áÊ∑ã)","steam_id":76561198976530881,"connected_time":6035000000000,"state":"active","ping":44},{"user_id":510,"name":"watchfull","steam_id":76561198433266742,"connected_time":18000000000,"state":"spawning","ping":76},{"user_id":507,"name":"Schnitz","steam_id":76561198265484253,"connected_time":237000000000,"state":"active","ping":55},{"user_id":464,"name":"Aloa","steam_id":76561198850176807,"connected_time":3123000000000,"state":"active","ping":63},{"user_id":502,"name":"Erm... What the Deuce","steam_id":76561198418288939,"connected_time":934000000000,"state":"active","ping":67},{"user_id":494,"name":"Dop_Pop_Bop","steam_id":76561198803110941,"connected_time":1348000000000,"state":"active","ping":64},{"user_id":487,"name":"HomesliceHobbes","steam_id":76561198042770895,"connected_time":1837000000000,"state":"active","ping":73},{"user_id":489,"name":"R0hban","steam_id":76561198071163718,"connected_time":1726000000000,"state":"active","ping":45},{"user_id":492,"name":"RipHunter77","steam_id":76561198272973014,"connected_time":1430000000000,"state":"active","ping":86},{"user_id":363,"name":"Mom","steam_id":76561198207936000,"connected_time":11236000000000,"state":"active","ping":60},{"user_id":509,"name":"Pah-Wraith Gul Dukat","steam_id":76561198033918106,"connected_time":38000000000,"state":"active","ping":46},{"user_id":508,"name":"lawyerguy","steam_id":76561198070254583,"connected_time":85000000000,"state":"active","ping":67},{"user_id":499,"name":"AAAAAAAAAAAAAAAAAAAAAAAAAAAAAAA","steam_id":76561198125467937,"connected_time":1037000000000,"state":"active","ping":66},{"user_id":461,"name":"Stapler","steam_id":76561198099295077,"connected_time":3237000000000,"state":"active","ping":56},{"user_id":505,"name":"ahazz","steam_id":76561198138161605,"connected_time":321000000000,"state":"active","ping":53},{"user_id":490,"name":"Nimbus","steam_id":76561198326011529,"connected_time":1720000000000,"state":"active","ping":100},{"user_id":477,"name":"Altruisticailuridae","steam_id":76561198335295596,"connected_time":2628000000000,"state":"active","ping":54},{"user_id":400,"name":"heisenberg","steam_id":76561198075341060,"connected_time":8269000000000,"state":"active","ping":64}]},{"server_id":112,"name":"Uncletopia | Los Angeles | 2 | All Maps","name_short":"lax-2","host":"lax-1.us.uncletopia.com","port":27025,"enabled":true,"region":"us-west","cc":"us","latitude":33.94279,"longitude":-118.41004,"reserved":0,"last_update":"0001-01-01T00:00:00Z","name_a2s":"Uncletopia | Los Angeles | 2 | All Maps","protocol":17,"map":"pl_thundermountain","folder":"tf","game":"Team Fortress","app_id":440,"player_count":24,"max_players":24,"Bots":0,"server_type":"Dedicated","server_os":"Linux","password":true,"vac":true,"version":"7757534","steam_id":85568392924469992,"keywords":["nocrits","nodmgspread","payload","uncletopia"],"game_id":440,"stv_port":27026,"stv_name":"Uncletopia | Los Angeles | 2 | All Maps | STV","players":[{"user_id":516,"name":"BeeJ","steam_id":76561198059288391,"connected_time":740000000000,"state":"active","ping":159},{"user_id":497,"name":"Akkawi","steam_id":76561198203159952,"connected_time":2541000000000,"state":"active","ping":54},{"user_id":511,"name":"The Foolish Samurai","steam_id":76561198094494945,"connected_time":944000000000,"state":"active","ping":74},{"user_id":517,"name":"Da Bird","steam_id":76561198215677985,"connected_time":658000000000,"state":"active","ping":75},{"user_id":498,"name":"bad spy player","steam_id":76561198873699671,"connected_time":2038000000000,"state":"active","ping":79},{"user_id":469,"name":"24dustin1","steam_id":76561198059506390,"connected_time":5260000000000,"state":"active","ping":58},{"user_id":515,"name":"Pinder","steam_id":76561198176708643,"connected_time":785000000000,"state":"active","ping":84},{"user_id":487,"name":"Gundam Guy","steam_id":76561198178453993,"connected_time":3800000000000,"state":"active","ping":69},{"user_id":496,"name":"Can You Feel It Mr.Krabs","steam_id":76561198128302414,"connected_time":2812000000000,"state":"active","ping":52},{"user_id":505,"name":"HammerHead","steam_id":76561197975668646,"connected_time":1783000000000,"state":"active","ping":68},{"user_id":465,"name":"Haywood Jablowme","steam_id":76561198097721532,"connected_time":5455000000000,"state":"active","ping":49},{"user_id":470,"name":"MasterGoop","steam_id":76561198285594777,"connected_time":5256000000000,"state":"active","ping":60},{"user_id":500,"name":"Master Breather","steam_id":76561198077030391,"connected_time":1954000000000,"state":"active","ping":65},{"user_id":513,"name":"Cuno Doesn't Care!","steam_id":76561198007372782,"connected_time":872000000000,"state":"active","ping":63},{"user_id":467,"name":"Boing Boom Tschak","steam_id":76561198256553006,"connected_time":5390000000000,"state":"active","ping":59},{"user_id":471,"name":"Mainframe","steam_id":76561198097154599,"connected_time":5252000000000,"state":"active","ping":45},{"user_id":520,"name":"ur getting frog","steam_id":76561198880773196,"connected_time":126000000000,"state":"active","ping":87},{"user_id":519,"name":"frogburger","steam_id":76561198092004980,"connected_time":298000000000,"state":"active","ping":192},{"user_id":518,"name":"BBL Sponsor","steam_id":76561199093733603,"connected_time":632000000000,"state":"active","ping":56},{"user_id":506,"name":"Look a Bird","steam_id":76561198016294724,"connected_time":1716000000000,"state":"active","ping":56},{"user_id":512,"name":"Leidon","steam_id":76561198078386945,"connected_time":939000000000,"state":"active","ping":66},{"user_id":507,"name":"big car","steam_id":76561198067082350,"connected_time":1668000000000,"state":"active","ping":56},{"user_id":508,"name":"Agent Q","steam_id":76561198830829003,"connected_time":1628000000000,"state":"active","ping":64},{"user_id":480,"name":"Man","steam_id":76561198274547639,"connected_time":5043000000000,"state":"active","ping":48}]},{"server_id":324,"name":"Uncletopia | Los Angeles | 3 | All Maps","name_short":"lax-3","host":"lax-1.us.uncletopia.com","port":27035,"enabled":true,"region":"us-west","cc":"us","latitude":33.94279,"longitude":-118.41004,"reserved":0,"last_update":"0001-01-01T00:00:00Z","name_a2s":"Uncletopia | Los Angeles | 3 | All Maps","protocol":17,"map":"pl_swiftwater_final1","folder":"tf","game":"Team Fortress","app_id":440,"player_count":0,"max_players":24,"Bots":0,"server_type":"Dedicated","server_os":"Linux","password":true,"vac":true,"version":"7757534","steam_id":85568392924510198,"keywords":["nocrits","nodmgspread","payload","uncletopia"],"game_id":440,"stv_port":27036,"stv_name":"Uncletopia | Los Angeles | 3 | All Maps | STV","players":null},{"server_id":25,"name":"Uncletopia | Los Angeles | 4 | Stopwatch Beta","name_short":"lax-4","host":"lax-1.us.uncletopia.com","port":27045,"enabled":true,"region":"us-west","cc":"us","latitude":33.94279,"longitude":-118.41004,"reserved":0,"last_update":"0001-01-01T00:00:00Z","name_a2s":"Uncletopia | Los Angeles | 4 | Stopwatch Beta","protocol":17,"map":"pl_swiftwater_final1","folder":"tf","game":"Team Fortress","app_id":440,"player_count":0,"max_players":24,"Bots":0,"server_type":"Dedicated","server_os":"Linux","password":true,"vac":true,"version":"7757534","steam_id":85568392924510199,"keywords":["nocrits","nodmgspread","payload","uncletopia"],"game_id":440,"stv_port":27046,"stv_name":"Uncletopia | Los Angeles | 4 | Stopwatch Beta | STV","players":null},{"server_id":11,"name":"Uncletopia | London | 1 | All Maps","name_short":"lon-1","host":"lon-1.uk.uncletopia.com","port":27015,"enabled":true,"region":"eu","cc":"gb","latitude":51.509865,"longitude":-0.118092,"reserved":0,"last_update":"0001-01-01T00:00:00Z","name_a2s":"Uncletopia | London | 1 | All Maps","protocol":17,"map":"cp_altitude","folder":"tf","game":"Team Fortress","app_id":440,"player_count":0,"max_players":24,"Bots":0,"server_type":"Dedicated","server_os":"Linux","password":true,"vac":true,"version":"7757534","steam_id":85568392924367362,"keywords":["cp","nocrits","nodmgspread","uncletopia"],"game_id":440,"stv_port":27016,"stv_name":"Uncletopia | London | 1 | All Maps | STV","players":null},{"server_id":114,"name":"Uncletopia | London | 2 | All Maps","name_short":"lon-2","host":"lon-1.uk.uncletopia.com","port":27025,"enabled":true,"region":"eu","cc":"gb","latitude":51.509865,"longitude":-0.118092,"reserved":0,"last_update":"0001-01-01T00:00:00Z","name_a2s":"Uncletopia | London | 2 | All Maps","protocol":17,"map":"pl_frontier_final","folder":"tf","game":"Team Fortress","app_id":440,"player_count":24,"max_players":24,"Bots":0,"server_type":"Dedicated","server_os":"Linux","password":true,"vac":true,"version":"7757534","steam_id":85568392924470941,"keywords":["nocrits","nodmgspread","payload","uncletopia"],"game_id":440,"stv_port":27026,"stv_name":"Uncletopia | London | 2 | All Maps | STV","players":[{"user_id":38,"name":"ender45","steam_id":76561198840955715,"connected_time":968000000000,"state":"active","ping":32},{"user_id":37,"name":"Augustus","steam_id":76561198138526984,"connected_time":1090000000000,"state":"active","ping":66},{"user_id":35,"name":"Edla","steam_id":76561198062815315,"connected_time":1118000000000,"state":"active","ping":106},{"user_id":36,"name":"deflox","steam_id":76561198087450635,"connected_time":1112000000000,"state":"active","ping":53},{"user_id":39,"name":"Violett'Blossom","steam_id":76561198075582287,"connected_time":959000000000,"state":"active","ping":59},{"user_id":16,"name":"wide appreciator","steam_id":76561198083286511,"connected_time":3223000000000,"state":"active","ping":52},{"user_id":9,"name":"Pineapple Okan","steam_id":76561198069199449,"connected_time":3236000000000,"state":"active","ping":103},{"user_id":47,"name":"nemelex","steam_id":76561198958005865,"connected_time":380000000000,"state":"active","ping":54},{"user_id":11,"name":"murderwow","steam_id":76561198024566944,"connected_time":3232000000000,"state":"active","ping":105},{"user_id":40,"name":"OzKo","steam_id":76561198245355476,"connected_time":952000000000,"state":"active","ping":167},{"user_id":49,"name":"U1F","steam_id":76561198053700703,"connected_time":157000000000,"state":"active","ping":67},{"user_id":41,"name":"Keng0l","steam_id":76561199185184318,"connected_time":904000000000,"state":"active","ping":123},{"user_id":17,"name":"Rozen Baum","steam_id":76561197998834908,"connected_time":3222000000000,"state":"active","ping":135},{"user_id":18,"name":"Wallmount","steam_id":76561198002404416,"connected_time":3217000000000,"state":"active","ping":133},{"user_id":19,"name":"icedak47","steam_id":76561198159297690,"connected_time":3215000000000,"state":"active","ping":100},{"user_id":46,"name":"Vekkuli","steam_id":76561198107618679,"connected_time":553000000000,"state":"active","ping":73},{"user_id":21,"name":"anna banana :3","steam_id":76561197962534841,"connected_time":3203000000000,"state":"active","ping":76},{"user_id":22,"name":"Tails8521","steam_id":76561198051747164,"connected_time":3202000000000,"state":"active","ping":56},{"user_id":23,"name":"meow","steam_id":76561199216923710,"connected_time":3199000000000,"state":"active","ping":148},{"user_id":24,"name":"HurrpNana","steam_id":76561199102156562,"connected_time":3198000000000,"state":"active","ping":100},{"user_id":25,"name":"lowdash","steam_id":76561198327827635,"connected_time":3192000000000,"state":"active","ping":68},{"user_id":26,"name":"≈Åyku","steam_id":76561198299149372,"connected_time":3145000000000,"state":"active","ping":82},{"user_id":43,"name":"dude m8","steam_id":76561198155649280,"connected_time":798000000000,"state":"active","ping":64},{"user_id":31,"name":"‡πáÔøΩ cLAw","steam_id":76561198304478871,"connected_time":2101000000000,"state":"active","ping":101}]},{"server_id":320,"name":"Uncletopia | London | 3 | All Maps","name_short":"lon-3","host":"lon-1.uk.uncletopia.com","port":27035,"enabled":true,"region":"eu","cc":"gb","latitude":51.509865,"longitude":-0.118092,"reserved":0,"last_update":"0001-01-01T00:00:00Z","name_a2s":"Uncletopia | London | 3 | All Maps","protocol":17,"map":"pl_swiftwater_final1","folder":"tf","game":"Team Fortress","app_id":440,"player_count":0,"max_players":24,"Bots":0,"server_type":"Dedicated","server_os":"Linux","password":true,"vac":true,"version":"7757534","steam_id":85568392924510192,"keywords":["nocrits","nodmgspread","payload","uncletopia"],"game_id":440,"stv_port":27036,"stv_name":"Uncletopia | London | 3 | All Maps | STV","players":null},{"server_id":321,"name":"Uncletopia | London | 4 | All Maps","name_short":"lon-4","host":"lon-1.uk.uncletopia.com","port":27045,"enabled":true,"region":"eu","cc":"gb","latitude":51.509865,"longitude":-0.118092,"reserved":0,"last_update":"0001-01-01T00:00:00Z","name_a2s":"Uncletopia | London | 4 | All Maps","protocol":17,"map":"pl_barnblitz","folder":"tf","game":"Team Fortress","app_id":440,"player_count":0,"max_players":24,"Bots":0,"server_type":"Dedicated","server_os":"Linux","password":true,"vac":true,"version":"7757534","steam_id":85568392924510193,"keywords":["nocrits","nodmgspread","payload","uncletopia"],"game_id":440,"stv_port":27046,"stv_name":"Uncletopia | London | 4 | All Maps | STV","players":null},{"server_id":21,"name":"Uncletopia | London | 5 | All Maps","name_short":"lon-5","host":"lon-1.uk.uncletopia.com","port":27055,"enabled":true,"region":"eu","cc":"gb","latitude":51.509865,"longitude":-0.118092,"reserved":0,"last_update":"0001-01-01T00:00:00Z","name_a2s":"Uncletopia | London | 5 | All Maps","protocol":17,"map":"pl_pier","folder":"tf","game":"Team Fortress","app_id":440,"player_count":0,"max_players":24,"Bots":0,"server_type":"Dedicated","server_os":"Linux","password":true,"vac":true,"version":"7757534","steam_id":85568392924742829,"keywords":["nocrits","nodmgspread","payload","uncletopia"],"game_id":440,"stv_port":27056,"stv_name":"Uncletopia | London | 5 | All Maps | STV","players":null},{"server_id":22,"name":"Uncletopia | London | 6 | All Maps","name_short":"lon-6","host":"lon-1.uk.uncletopia.com","port":27065,"enabled":true,"region":"eu","cc":"gb","latitude":51.509865,"longitude":-0.118092,"reserved":0,"last_update":"0001-01-01T00:00:00Z","name_a2s":"Uncletopia | London | 6 | All Maps","protocol":17,"map":"koth_highpass","folder":"tf","game":"Team Fortress","app_id":440,"player_count":0,"max_players":24,"Bots":0,"server_type":"Dedicated","server_os":"Linux","password":true,"vac":true,"version":"7757534","steam_id":85568392924742830,"keywords":["cp","nocrits","nodmgspread","uncletopia"],"game_id":440,"stv_port":27066,"stv_name":"Uncletopia | London | 6 | All Maps | STV","players":null},{"server_id":40,"name":"Uncletopia | London | 7 | No Payload","name_short":"lon-7","host":"lon-1.uk.uncletopia.com","port":27075,"enabled":true,"region":"eu","cc":"gb","latitude":51.509865,"longitude":-0.118092,"reserved":0,"last_update":"0001-01-01T00:00:00Z","name_a2s":"Uncletopia | London | 7 | No Payload","protocol":17,"map":"koth_highpass","folder":"tf","game":"Team Fortress","app_id":440,"player_count":0,"max_players":24,"Bots":0,"server_type":"Dedicated","server_os":"Linux","password":true,"vac":true,"version":"7757534","steam_id":85568392924964314,"keywords":["cp","nocrits","nodmgspread","uncletopia"],"game_id":440,"stv_port":27076,"stv_name":"Uncletopia | London | 7 | No Payload | STV","players":null},{"server_id":41,"name":"Uncletopia | London | 8 | Community","name_short":"lon-8","host":"lon-1.uk.uncletopia.com","port":27085,"enabled":true,"region":"eu","cc":"gb","latitude":51.509865,"longitude":-0.118092,"reserved":0,"last_update":"0001-01-01T00:00:00Z","name_a2s":"Uncletopia | London | 8 | Community","protocol":17,"map":"cp_altitude","folder":"tf","game":"Team Fortress","app_id":440,"player_count":0,"max_players":24,"Bots":0,"server_type":"Dedicated","server_os":"Linux","password":true,"vac":true,"version":"7757534","steam_id":85568392924964315,"keywords":["cp","nocrits","nodmgspread","uncletopia"],"game_id":440,"stv_port":27086,"stv_name":"Uncletopia | London | 8 | Community | STV","players":null},{"server_id":300,"name":"Uncletopia | Montr√©al | 1 | All Maps","name_short":"mtl-1","host":"mtl-1.ca.uncletopia.com","port":27015,"enabled":true,"region":"us-east","cc":"ca","latitude":45.50889,"longitude":-73.56167,"reserved":0,"last_update":"0001-01-01T00:00:00Z","name_a2s":"Uncletopia | Montr√©al | 1 | All Maps","protocol":17,"map":"pl_pier","folder":"tf","game":"Team Fortress","app_id":440,"player_count":0,"max_players":24,"Bots":0,"server_type":"Dedicated","server_os":"Linux","password":true,"vac":true,"version":"7757534","steam_id":85568392924500087,"keywords":["nocrits","nodmgspread","payload","uncletopia"],"game_id":440,"stv_port":27016,"stv_name":"Uncletopia | Montr√©al | 1 | All Maps | STV","players":null},{"server_id":301,"name":"Uncletopia | Montr√©al | 2 | All Maps","name_short":"mtl-2","host":"mtl-1.ca.uncletopia.com","port":27025,"enabled":true,"region":"us-east","cc":"ca","latitude":45.50889,"longitude":-73.56167,"reserved":0,"last_update":"0001-01-01T00:00:00Z","name_a2s":"Uncletopia | Montr√©al | 2 | All Maps","protocol":17,"map":"koth_cascade","folder":"tf","game":"Team Fortress","app_id":440,"player_count":0,"max_players":24,"Bots":0,"server_type":"Dedicated","server_os":"Linux","password":true,"vac":true,"version":"7757534","steam_id":85568392924500088,"keywords":["cp","nocrits","nodmgspread","uncletopia"],"game_id":440,"stv_port":27026,"stv_name":"Uncletopia | Montr√©al | 2 | All Maps | STV","players":null},{"server_id":302,"name":"Uncletopia | Montr√©al | 3 | All Maps","name_short":"mtl-3","host":"mtl-1.ca.uncletopia.com","port":27035,"enabled":true,"region":"us-east","cc":"ca","latitude":45.50889,"longitude":-73.56167,"reserved":0,"last_update":"0001-01-01T00:00:00Z","name_a2s":"Uncletopia | Montr√©al | 3 | All Maps","protocol":17,"map":"pl_snowycoast","folder":"tf","game":"Team Fortress","app_id":440,"player_count":0,"max_players":24,"Bots":0,"server_type":"Dedicated","server_os":"Linux","password":true,"vac":true,"version":"7757534","steam_id":85568392924500089,"keywords":["nocrits","nodmgspread","payload","uncletopia"],"game_id":440,"stv_port":27036,"stv_name":"Uncletopia | Montr√©al | 3 | All Maps | STV","players":null},{"server_id":303,"name":"Uncletopia | Montr√©al | 4 | No Payload","name_short":"mtl-4","host":"mtl-1.ca.uncletopia.com","port":27045,"enabled":true,"region":"us-east","cc":"ca","latitude":45.50889,"longitude":-73.56167,"reserved":0,"last_update":"0001-01-01T00:00:00Z","name_a2s":"Uncletopia | Montr√©al | 4 | No Payload","protocol":17,"map":"koth_sawmill","folder":"tf","game":"Team Fortress","app_id":440,"player_count":0,"max_players":24,"Bots":0,"server_type":"Dedicated","server_os":"Linux","password":true,"vac":true,"version":"7757534","steam_id":85568392924500090,"keywords":["cp","nocrits","nodmgspread","uncletopia"],"game_id":440,"stv_port":27046,"stv_name":"Uncletopia | Montr√©al | 4 | No Payload | STV","players":null},{"server_id":13,"name":"Uncletopia | New York City | 1 | All Maps","name_short":"nyc-1","host":"nyc-1.us.uncletopia.com","port":27015,"enabled":true,"region":"us-east","cc":"us","latitude":40.73061,"longitude":-73.93524,"reserved":0,"last_update":"0001-01-01T00:00:00Z","name_a2s":"Uncletopia | New York City | 1 | All Maps","protocol":17,"map":"pl_borneo","folder":"tf","game":"Team Fortress","app_id":440,"player_count":24,"max_players":24,"Bots":0,"server_type":"Dedicated","server_os":"Linux","password":true,"vac":true,"version":"7757534","steam_id":85568392924469993,"keywords":["nocrits","nodmgspread","payload","uncletopia"],"game_id":440,"stv_port":27016,"stv_name":"Uncletopia | New York City | 1 | All Maps | STV","players":[{"user_id":1047,"name":"Krellah","steam_id":76561198287045069,"connected_time":2800000000000,"state":"active","ping":75},{"user_id":1017,"name":"Vivid Hut 64","steam_id":76561198170050059,"connected_time":3679000000000,"state":"active","ping":59},{"user_id":1105,"name":"thanks pfizer","steam_id":76561198881665250,"connected_time":214000000000,"state":"active","ping":110},{"user_id":1045,"name":"AISKA","steam_id":76561198287049660,"connected_time":2834000000000,"state":"active","ping":75},{"user_id":904,"name":"CRAZY engineer","steam_id":76561198887937902,"connected_time":9236000000000,"state":"active","ping":50},{"user_id":971,"name":"F_L Vision Spire","steam_id":76561198095923905,"connected_time":5615000000000,"state":"active","ping":74},{"user_id":1095,"name":"King Smegma","steam_id":76561198139389573,"connected_time":792000000000,"state":"active","ping":67},{"user_id":1048,"name":"sonic1394","steam_id":76561198054636788,"connected_time":2795000000000,"state":"active","ping":79},{"user_id":1093,"name":"ÂêçÁÑ°„Åó","steam_id":76561198053980844,"connected_time":854000000000,"state":"active","ping":69},{"user_id":1106,"name":"One Shot and A Miss","steam_id":76561198124269698,"connected_time":183000000000,"state":"active","ping":46},{"user_id":1087,"name":"Sprinklingmydoughnut","steam_id":76561198168009092,"connected_time":1053000000000,"state":"active","ping":86},{"user_id":1088,"name":"shephard","steam_id":76561198043367011,"connected_time":1033000000000,"state":"active","ping":74},{"user_id":1103,"name":"robsan","steam_id":76561198137375391,"connected_time":315000000000,"state":"active","ping":148},{"user_id":1004,"name":"Itch Foreskin","steam_id":76561198116710899,"connected_time":4031000000000,"state":"active","ping":45},{"user_id":1053,"name":"twitch.tv/Yoshi21 | TF2Pugs.com","steam_id":76561198002516729,"connected_time":2589000000000,"state":"active","ping":76},{"user_id":1055,"name":"User name here","steam_id":76561199007079402,"connected_time":2570000000000,"state":"active","ping":85},{"user_id":1100,"name":"Team Fartpiss Poo","steam_id":76561199163591880,"connected_time":635000000000,"state":"active","ping":98},{"user_id":1107,"name":"Leaf ‚ô•","steam_id":76561198348965524,"connected_time":125000000000,"state":"active","ping":73},{"user_id":990,"name":"Kensa Dynamo Roller","steam_id":76561198067317930,"connected_time":4557000000000,"state":"active","ping":55},{"user_id":1101,"name":"Grammer","steam_id":76561197977007845,"connected_time":499000000000,"state":"active","ping":109},{"user_id":1094,"name":"M00NM4DN355 || Buff The Speed","steam_id":76561198082775439,"connected_time":840000000000,"state":"active","ping":67},{"user_id":1097,"name":"Arrythmia","steam_id":76561198093748123,"connected_time":752000000000,"state":"active","ping":106},{"user_id":1098,"name":"Anthoneeee","steam_id":76561199209220671,"connected_time":689000000000,"state":"active","ping":124},{"user_id":1099,"name":"stellatheknave","steam_id":76561198264327844,"connected_time":670000000000,"state":"active","ping":122}]},{"server_id":14,"name":"Uncletopia | New York City | 2 | All Maps","name_short":"nyc-2","host":"nyc-1.us.uncletopia.com","port":27025,"enabled":true,"region":"us-east","cc":"us","latitude":40.73061,"longitude":-73.93524,"reserved":0,"last_update":"0001-01-01T00:00:00Z","name_a2s":"Uncletopia | New York City | 2 | All Maps","protocol":17,"map":"pl_swiftwater_final1","folder":"tf","game":"Team Fortress","app_id":440,"player_count":0,"max_players":24,"Bots":0,"server_type":"Dedicated","server_os":"Linux","password":true,"vac":true,"version":"7757534","steam_id":85568392924469994,"keywords":["nocrits","nodmgspread","payload","uncletopia"],"game_id":440,"stv_port":27026,"stv_name":"Uncletopia | New York City | 2 | All Maps | STV","players":null},{"server_id":15,"name":"Uncletopia | New York City | 3 | Stopwatch Beta","name_short":"nyc-3","host":"nyc-1.us.uncletopia.com","port":27035,"enabled":true,"region":"us-east","cc":"us","latitude":40.73061,"longitude":-73.93524,"reserved":0,"last_update":"0001-01-01T00:00:00Z","name_a2s":"Uncletopia | New York City | 3 | Stopwatch Beta","protocol":17,"map":"pl_upward","folder":"tf","game":"Team Fortress","app_id":440,"player_count":0,"max_players":24,"Bots":0,"server_type":"Dedicated","server_os":"Linux","password":true,"vac":true,"version":"7757534","steam_id":85568392924742820,"keywords":["nocrits","nodmgspread","payload","uncletopia"],"game_id":440,"stv_port":27036,"stv_name":"Uncletopia | New York City | 3 | Stopwatch Beta | STV","players":null},{"server_id":16,"name":"Uncletopia | New York City | 4 | Community","name_short":"nyc-4","host":"nyc-1.us.uncletopia.com","port":27045,"enabled":true,"region":"us-east","cc":"us","latitude":40.73061,"longitude":-73.93524,"reserved":0,"last_update":"0001-01-01T00:00:00Z","name_a2s":"Uncletopia | New York City | 4 | Community","protocol":17,"map":"workshop/pl_boundary_final1.ugc456799153","folder":"tf","game":"Team Fortress","app_id":440,"player_count":0,"max_players":24,"Bots":0,"server_type":"Dedicated","server_os":"Linux","password":true,"vac":true,"version":"7757534","steam_id":85568392924742821,"keywords":["nocrits","nodmgspread","payload","uncletopia"],"game_id":440,"stv_port":27046,"stv_name":"Uncletopia | New York City | 4 | Community | STV","players":null},{"server_id":142,"name":"Uncletopia | S√£o Paulo | 1 | All Maps","name_short":"sao-1","host":"sao-1.br.uncletopia.com","port":27015,"enabled":true,"region":"sa","cc":"br","latitude":-23.533773,"longitude":-46.62529,"reserved":0,"last_update":"0001-01-01T00:00:00Z","name_a2s":"Uncletopia | S√£o Paulo | 1 | All Maps","protocol":17,"map":"koth_highpass","folder":"tf","game":"Team Fortress","app_id":440,"player_count":0,"max_players":24,"Bots":0,"server_type":"Dedicated","server_os":"Linux","password":true,"vac":true,"version":"7757534","steam_id":85568392924469996,"keywords":["cp","nocrits","nodmgspread","uncletopia"],"game_id":440,"stv_port":27016,"stv_name":"Uncletopia | S√£o Paulo | 1 | All Maps | STV","players":null},{"server_id":143,"name":"Uncletopia | S√£o Paulo | 2 | All Maps","name_short":"sao-2","host":"sao-2.br.uncletopia.com","port":27015,"enabled":true,"region":"sa","cc":"br","latitude":-23.533773,"longitude":-46.62529,"reserved":0,"last_update":"0001-01-01T00:00:00Z","name_a2s":"Uncletopia | S√£o Paulo | 2 | All Maps","protocol":17,"map":"cp_altitude","folder":"tf","game":"Team Fortress","app_id":440,"player_count":0,"max_players":24,"Bots":0,"server_type":"Dedicated","server_os":"Linux","password":true,"vac":true,"version":"7757534","steam_id":85568392924485349,"keywords":["cp","nocrits","nodmgspread","uncletopia"],"game_id":440,"stv_port":27016,"stv_name":"Uncletopia | S√£o Paulo | 2 | All Maps | STV","players":null},{"server_id":7,"name":"Uncletopia | Seattle | 1 | All Maps","name_short":"sea-1","host":"sea-1.us.uncletopia.com","port":27015,"enabled":true,"region":"us-west","cc":"us","latitude":47.608013,"longitude":-122.33517,"reserved":0,"last_update":"0001-01-01T00:00:00Z","name_a2s":"Uncletopia | Seattle | 1 | All Maps","protocol":17,"map":"pl_frontier_final","folder":"tf","game":"Team Fortress","app_id":440,"player_count":24,"max_players":24,"Bots":0,"server_type":"Dedicated","server_os":"Linux","password":true,"vac":true,"version":"7757534","steam_id":85568392924469997,"keywords":["nocrits","nodmgspread","payload","uncletopia"],"game_id":440,"stv_port":27016,"stv_name":"Uncletopia | Seattle | 1 | All Maps | STV","players":[{"user_id":766,"name":"resh","steam_id":76561198239598834,"connected_time":111000000000,"state":"active","ping":136},{"user_id":761,"name":"pyrotechnic","steam_id":76561198043558709,"connected_time":133000000000,"state":"active","ping":56},{"user_id":763,"name":"kappatsukino","steam_id":76561199048323850,"connected_time":119000000000,"state":"active","ping":114},{"user_id":728,"name":"soup","steam_id":76561198043209046,"connected_time":4394000000000,"state":"active","ping":78},{"user_id":767,"name":"Steve","steam_id":76561198352805460,"connected_time":108000000000,"state":"active","ping":69},{"user_id":739,"name":"rat gets the cheese","steam_id":76561198031234032,"connected_time":2903000000000,"state":"active","ping":103},{"user_id":743,"name":"Attrition","steam_id":76561197969881916,"connected_time":2397000000000,"state":"active","ping":48},{"user_id":768,"name":"Gooner Witch","steam_id":76561198305488625,"connected_time":68000000000,"state":"active","ping":58},{"user_id":726,"name":"Arsonist Goose","steam_id":76561198147441830,"connected_time":4552000000000,"state":"active","ping":72},{"user_id":730,"name":"William P. Ennis","steam_id":76561198073464877,"connected_time":3897000000000,"state":"active","ping":90},{"user_id":744,"name":"mooney","steam_id":76561199110622484,"connected_time":2050000000000,"state":"active","ping":59},{"user_id":769,"name":"fwoov","steam_id":76561198129166260,"connected_time":65000000000,"state":"active","ping":79},{"user_id":762,"name":"Thanks Ants","steam_id":76561197966221018,"connected_time":124000000000,"state":"active","ping":55},{"user_id":725,"name":"Gary, 40, soul sucking 9-5","steam_id":76561198073812888,"connected_time":5093000000000,"state":"active","ping":35},{"user_id":757,"name":"Tulacot","steam_id":76561198069105397,"connected_time":847000000000,"state":"active","ping":89},{"user_id":764,"name":"sleepy","steam_id":76561198288663776,"connected_time":119000000000,"state":"active","ping":52},{"user_id":731,"name":"John Calibur","steam_id":76561197999986606,"connected_time":3530000000000,"state":"active","ping":76},{"user_id":755,"name":"autistic enby","steam_id":76561198440145948,"connected_time":1345000000000,"state":"active","ping":116},{"user_id":734,"name":"ITSPICE","steam_id":76561198173274042,"connected_time":3180000000000,"state":"active","ping":62},{"user_id":740,"name":"rorywashere /·ê† - Àï -„Éû ‚≥ä","steam_id":76561198065825165,"connected_time":2837000000000,"state":"active","ping":108},{"user_id":737,"name":"p9 jorts FULL of tea","steam_id":76561199041179985,"connected_time":3043000000000,"state":"active","ping":56},{"user_id":759,"name":"‚Ñ≥‚òØ‚óâ‚Ç≠‚Ç§Y‚Ñ≥‚òÆ‚òº","steam_id":76561198077870114,"connected_time":155000000000,"state":"active","ping":53},{"user_id":748,"name":"ice spice","steam_id":76561198169755734,"connected_time":2003000000000,"state":"active","ping":71},{"user_id":751,"name":"Redposting (she/her)","steam_id":76561199058928262,"connected_time":1975000000000,"state":"active","ping":81}]},{"server_id":119,"name":"Uncletopia | Seattle | 2 | All Maps","name_short":"sea-2","host":"sea-1.us.uncletopia.com","port":27025,"enabled":true,"region":"us-west","cc":"us","latitude":47.608013,"longitude":-122.33517,"reserved":0,"last_update":"0001-01-01T00:00:00Z","name_a2s":"Uncletopia | Seattle | 2 | All Maps","protocol":17,"map":"koth_lakeside_final","folder":"tf","game":"Team Fortress","app_id":440,"player_count":20,"max_players":24,"Bots":0,"server_type":"Dedicated","server_os":"Linux","password":true,"vac":true,"version":"7757534","steam_id":85568392924469998,"keywords":["cp","nocrits","nodmgspread","uncletopia"],"game_id":440,"stv_port":27026,"stv_name":"Uncletopia | Seattle | 2 | All Maps | STV","players":[{"user_id":678,"name":"Lambchop","steam_id":76561198043900363,"connected_time":2842000000000,"state":"spawning","ping":69},{"user_id":667,"name":"Odd Life","steam_id":76561198244979998,"connected_time":3057000000000,"state":"spawning","ping":84},{"user_id":692,"name":"StrangeMachine","steam_id":76561198046628064,"connected_time":1176000000000,"state":"spawning","ping":35},{"user_id":689,"name":"PeptobismolCorndog","steam_id":76561198080072237,"connected_time":1249000000000,"state":"spawning","ping":89},{"user_id":705,"name":"090-nsalih","steam_id":76561199467467873,"connected_time":29000000000,"state":"connecting","ping":149},{"user_id":703,"name":"kodynotcody","steam_id":76561198340685758,"connected_time":98000000000,"state":"spawning","ping":35},{"user_id":568,"name":"ChuChu","steam_id":76561199443647976,"connected_time":9998000000000,"state":"spawning","ping":85},{"user_id":706,"name":"doobie the hutt","steam_id":76561198088873640,"connected_time":11000000000,"state":"connecting","ping":53},{"user_id":701,"name":"i am weed","steam_id":76561198419896433,"connected_time":335000000000,"state":"spawning","ping":99},{"user_id":699,"name":"2 Point Tom","steam_id":76561198087617008,"connected_time":591000000000,"state":"spawning","ping":63},{"user_id":707,"name":"Scout","steam_id":76561198149172070,"connected_time":11000000000,"state":"connecting","ping":90},{"user_id":694,"name":"JTuu","steam_id":76561198030606396,"connected_time":1063000000000,"state":"spawning","ping":38},{"user_id":704,"name":"Strikerbolt","steam_id":76561199095622897,"connected_time":94000000000,"state":"spawning","ping":74},{"user_id":681,"name":"Ben_meistro","steam_id":76561198876356862,"connected_time":2276000000000,"state":"spawning","ping":78},{"user_id":683,"name":"Moth","steam_id":76561198170253694,"connected_time":1958000000000,"state":"spawning","ping":48},{"user_id":639,"name":"chaos","steam_id":76561198055462404,"connected_time":4482000000000,"state":"spawning","ping":82},{"user_id":698,"name":"munch","steam_id":76561198314221897,"connected_time":673000000000,"state":"spawning","ping":51},{"user_id":690,"name":"Willy Wonker","steam_id":76561198082944789,"connected_time":1206000000000,"state":"spawning","ping":63},{"user_id":653,"name":"Fire_box41238","steam_id":76561199185673650,"connected_time":3750000000000,"state":"spawning","ping":48},{"user_id":687,"name":"Tetra","steam_id":76561198145257468,"connected_time":1442000000000,"state":"spawning","ping":168}]},{"server_id":406,"name":"Uncletopia | Seattle | 3 | Stopwatch Beta","name_short":"sea-3","host":"sea-1.us.uncletopia.com","port":27035,"enabled":true,"region":"us-west","cc":"us","latitude":47.608013,"longitude":-122.33517,"reserved":0,"last_update":"0001-01-01T00:00:00Z","name_a2s":"Uncletopia | Seattle | 3 | Stopwatch Beta","protocol":17,"map":"workshop/koth_ashville_final.ugc2130459942","folder":"tf","game":"Team Fortress","app_id":440,"player_count":0,"max_players":24,"Bots":0,"server_type":"Dedicated","server_os":"Linux","password":true,"vac":true,"version":"7757534","steam_id":85568392924515217,"keywords":["cp","nocrits","nodmgspread","uncletopia"],"game_id":440,"stv_port":27036,"stv_name":"Uncletopia | Seattle | 3 | Stopwatch Beta | STV","players":null},{"server_id":17,"name":"Uncletopia | San Francisco | 1 | All Maps","name_short":"sfo-1","host":"sfo-1.us.uncletopia.com","port":27015,"enabled":true,"region":"us-west","cc":"us","latitude":37.77397,"longitude":-122.4313,"reserved":0,"last_update":"0001-01-01T00:00:00Z","name_a2s":"Uncletopia | San Francisco | 1 | All Maps","protocol":17,"map":"pl_pier","folder":"tf","game":"Team Fortress","app_id":440,"player_count":24,"max_players":24,"Bots":0,"server_type":"Dedicated","server_os":"Linux","password":true,"vac":true,"version":"7757534","steam_id":85568392924469999,"keywords":["nocrits","nodmgspread","payload","uncletopia"],"game_id":440,"stv_port":27016,"stv_name":"Uncletopia | San Francisco | 1 | All Maps | STV","players":[{"user_id":298,"name":"O bez","steam_id":76561198841579939,"connected_time":1749000000000,"state":"active","ping":70},{"user_id":275,"name":"Cinna Mon","steam_id":76561198005840633,"connected_time":3847000000000,"state":"active","ping":74},{"user_id":309,"name":"the great hatsune miku","steam_id":76561198228125224,"connected_time":1097000000000,"state":"active","ping":60},{"user_id":315,"name":"onisock","steam_id":76561198166589402,"connected_time":294000000000,"state":"active","ping":47},{"user_id":299,"name":"zaza2k","steam_id":76561198393760567,"connected_time":1682000000000,"state":"active","ping":70},{"user_id":294,"name":"isy","steam_id":76561198068017860,"connected_time":2430000000000,"state":"active","ping":82},{"user_id":307,"name":"Your Friendly Virus","steam_id":76561198259522128,"connected_time":1370000000000,"state":"active","ping":119},{"user_id":184,"name":"Soap","steam_id":76561197994893383,"connected_time":10308000000000,"state":"active","ping":72},{"user_id":289,"name":"ConiferCarver(#SaveTF2)","steam_id":76561198195875845,"connected_time":3339000000000,"state":"active","ping":47},{"user_id":313,"name":"Anna's slut","steam_id":76561199029201184,"connected_time":903000000000,"state":"active","ping":78},{"user_id":314,"name":"The Horselords and Animal Gods","steam_id":76561197975094050,"connected_time":873000000000,"state":"active","ping":63},{"user_id":277,"name":"landogg","steam_id":76561198049000586,"connected_time":3829000000000,"state":"active","ping":61},{"user_id":311,"name":"Livin' Like Larry","steam_id":76561198313360974,"connected_time":1066000000000,"state":"active","ping":38},{"user_id":280,"name":"Hamee333","steam_id":76561199388127663,"connected_time":3716000000000,"state":"active","ping":132},{"user_id":316,"name":"SpringIvan","steam_id":76561199133179509,"connected_time":293000000000,"state":"active","ping":46},{"user_id":312,"name":"ShredMaan","steam_id":76561198429982138,"connected_time":975000000000,"state":"active","ping":65},{"user_id":310,"name":"Flyingcat9000","steam_id":76561198179561797,"connected_time":1091000000000,"state":"active","ping":36},{"user_id":302,"name":"2j \u003c3","steam_id":76561198206752128,"connected_time":1641000000000,"state":"active","ping":171},{"user_id":117,"name":"Bobby Ray","steam_id":76561198044131188,"connected_time":14364000000000,"state":"active","ping":75},{"user_id":303,"name":"too old to order","steam_id":76561198874629405,"connected_time":1636000000000,"state":"active","ping":62},{"user_id":282,"name":"A UsedNom","steam_id":76561198402832756,"connected_time":3710000000000,"state":"active","ping":33},{"user_id":290,"name":"‚úømika‚úø","steam_id":76561198021771036,"connected_time":3154000000000,"state":"active","ping":117},{"user_id":245,"name":"chaplin","steam_id":76561198009349249,"connected_time":5970000000000,"state":"active","ping":97},{"user_id":306,"name":"Honored","steam_id":76561198451168478,"connected_time":1568000000000,"state":"active","ping":118}]},{"server_id":18,"name":"Uncletopia | San Francisco | 2 | All Maps","name_short":"sfo-2","host":"sfo-1.us.uncletopia.com","port":27025,"enabled":true,"region":"us-west","cc":"us","latitude":37.77397,"longitude":-122.4313,"reserved":0,"last_update":"0001-01-01T00:00:00Z","name_a2s":"Uncletopia | San Francisco | 2 | All Maps","protocol":17,"map":"pl_borneo","folder":"tf","game":"Team Fortress","app_id":440,"player_count":18,"max_players":24,"Bots":0,"server_type":"Dedicated","server_os":"Linux","password":true,"vac":true,"version":"7757534","steam_id":85568392924470000,"keywords":["nocrits","nodmgspread","payload","uncletopia"],"game_id":440,"stv_port":27026,"stv_name":"Uncletopia | San Francisco | 2 | All Maps | STV","players":[{"user_id":672,"name":"420blzItM8","steam_id":76561198137983285,"connected_time":51000000000,"state":"active","ping":95},{"user_id":633,"name":"frick man","steam_id":76561198144284901,"connected_time":3050000000000,"state":"active","ping":99},{"user_id":673,"name":"great1photo","steam_id":76561198085481933,"connected_time":35000000000,"state":"active","ping":114},{"user_id":621,"name":"Bolshenose","steam_id":76561198069857272,"connected_time":4484000000000,"state":"active","ping":128},{"user_id":675,"name":"Felipe Ramirez 2013","steam_id":76561198150497397,"connected_time":8000000000,"state":"active","ping":121},{"user_id":674,"name":"jeffus13","steam_id":76561199347238848,"connected_time":19000000000,"state":"active","ping":79},{"user_id":676,"name":"heng2x","steam_id":76561198140867611,"connected_time":4000000000,"state":"spawning","ping":65},{"user_id":626,"name":"Retrace","steam_id":76561198080620966,"connected_time":3931000000000,"state":"active","ping":72},{"user_id":627,"name":"minaMOTO BANZAAAAAAI","steam_id":76561198237213828,"connected_time":3842000000000,"state":"active","ping":41},{"user_id":592,"name":"Nicholas Deckolas","steam_id":76561198005301468,"connected_time":6256000000000,"state":"active","ping":114},{"user_id":651,"name":"Hsepirn","steam_id":76561198152395431,"connected_time":2191000000000,"state":"active","ping":60},{"user_id":594,"name":"._.","steam_id":76561198210196856,"connected_time":6253000000000,"state":"active","ping":52},{"user_id":606,"name":"BirdieNuke","steam_id":76561198244538150,"connected_time":5312000000000,"state":"active","ping":117},{"user_id":587,"name":"The_Skull_boy","steam_id":76561198227692664,"connected_time":6412000000000,"state":"active","ping":65},{"user_id":645,"name":"autumnal.messenger","steam_id":76561199345816635,"connected_time":2622000000000,"state":"active","ping":66},{"user_id":663,"name":"polly","steam_id":76561198116925554,"connected_time":804000000000,"state":"active","ping":74},{"user_id":656,"name":"Danzig","steam_id":76561198084766105,"connected_time":1595000000000,"state":"active","ping":100},{"user_id":630,"name":"squid","steam_id":76561198070236972,"connected_time":3772000000000,"state":"active","ping":72}]},{"server_id":19,"name":"Uncletopia | San Francisco | 3 | Stopwatch Beta","name_short":"sfo-3","host":"sfo-1.us.uncletopia.com","port":27035,"enabled":true,"region":"us-west","cc":"us","latitude":37.77397,"longitude":-122.4313,"reserved":0,"last_update":"0001-01-01T00:00:00Z","name_a2s":"Uncletopia | San Francisco | 3 | Stopwatch Beta","protocol":17,"map":"pl_borneo","folder":"tf","game":"Team Fortress","app_id":440,"player_count":0,"max_players":24,"Bots":0,"server_type":"Dedicated","server_os":"Linux","password":true,"vac":true,"version":"7757534","steam_id":85568392924742824,"keywords":["nocrits","nodmgspread","payload","uncletopia"],"game_id":440,"stv_port":27036,"stv_name":"Uncletopia | San Francisco | 3 | Stopwatch Beta | STV","players":null},{"server_id":20,"name":"Uncletopia | San Francisco | 4 | Community","name_short":"sfo-4","host":"sfo-1.us.uncletopia.com","port":27045,"enabled":true,"region":"us-west","cc":"us","latitude":37.77397,"longitude":-122.4313,"reserved":0,"last_update":"0001-01-01T00:00:00Z","name_a2s":"Uncletopia | San Francisco | 4 | Community","protocol":17,"map":"workshop/cp_alloy_rc3.ugc592805587","folder":"tf","game":"Team Fortress","app_id":440,"player_count":15,"max_players":24,"Bots":0,"server_type":"Dedicated","server_os":"Linux","password":true,"vac":true,"version":"7757534","steam_id":85568392924742826,"keywords":["cp","nocrits","nodmgspread","uncletopia"],"game_id":440,"stv_port":27046,"stv_name":"Uncletopia | San Francisco | 4 | Community | STV","players":[{"user_id":652,"name":"Papa Kaiser","steam_id":76561198114939370,"connected_time":1798000000000,"state":"active","ping":121},{"user_id":672,"name":"bonk man","steam_id":76561198386542309,"connected_time":48000000000,"state":"active","ping":95},{"user_id":673,"name":"Duncle Frazzle","steam_id":76561198145596626,"connected_time":39000000000,"state":"active","ping":48},{"user_id":642,"name":"MarcusDragon11","steam_id":76561198071836719,"connected_time":2360000000000,"state":"active","ping":91},{"user_id":643,"name":"chanoc","steam_id":76561198026734746,"connected_time":2315000000000,"state":"active","ping":37},{"user_id":664,"name":"town.midi","steam_id":76561198059041027,"connected_time":1014000000000,"state":"active","ping":70},{"user_id":626,"name":"Soap Man","steam_id":76561198000490235,"connected_time":3595000000000,"state":"active","ping":84},{"user_id":653,"name":"become part of wall","steam_id":76561198421913648,"connected_time":1776000000000,"state":"active","ping":67},{"user_id":590,"name":"Crylec","steam_id":76561198092755279,"connected_time":6048000000000,"state":"active","ping":115},{"user_id":659,"name":"cream team","steam_id":76561198139043953,"connected_time":1110000000000,"state":"active","ping":76},{"user_id":650,"name":"giura","steam_id":76561197986794525,"connected_time":1988000000000,"state":"active","ping":90},{"user_id":651,"name":"Da Wizard","steam_id":76561198842482031,"connected_time":1985000000000,"state":"active","ping":79},{"user_id":630,"name":"Puppeteer","steam_id":76561198159928108,"connected_time":3454000000000,"state":"spawning","ping":180},{"user_id":323,"name":"Phil Collins","steam_id":76561198068868644,"connected_time":23870000000000,"state":"active","ping":57},{"user_id":637,"name":"Kaluka","steam_id":76561198036861445,"connected_time":3033000000000,"state":"active","ping":111}]},{"server_id":141,"name":"Uncletopia | Sydney | 1 | All Maps","name_short":"syd-1","host":"syd-1.au.uncletopia.com","port":27015,"enabled":true,"region":"au","cc":"au","latitude":-33.865143,"longitude":151.2099,"reserved":0,"last_update":"0001-01-01T00:00:00Z","name_a2s":"Uncletopia | Sydney | 1 | All Maps","protocol":17,"map":"pl_snowycoast","folder":"tf","game":"Team Fortress","app_id":440,"player_count":24,"max_players":24,"Bots":0,"server_type":"Dedicated","server_os":"Linux","password":true,"vac":true,"version":"7757534","steam_id":85568392924470001,"keywords":["nocrits","nodmgspread","payload","uncletopia"],"game_id":440,"stv_port":27016,"stv_name":"Uncletopia | Sydney | 1 | All Maps | STV","players":[{"user_id":395,"name":"dog","steam_id":76561198073933737,"connected_time":357000000000,"state":"active","ping":38},{"user_id":380,"name":"Cheeseluvr","steam_id":76561198095940638,"connected_time":864000000000,"state":"active","ping":64},{"user_id":398,"name":"skidmark2000","steam_id":76561198446126519,"connected_time":39000000000,"state":"active","ping":45},{"user_id":344,"name":"Fixer","steam_id":76561199349854515,"connected_time":3061000000000,"state":"active","ping":54},{"user_id":367,"name":"Tantei Rotana","steam_id":76561198041204323,"connected_time":1266000000000,"state":"active","ping":61},{"user_id":375,"name":"Chrisy","steam_id":76561198092382473,"connected_time":1007000000000,"state":"active","ping":79},{"user_id":365,"name":"seiran","steam_id":76561198880907232,"connected_time":1423000000000,"state":"active","ping":99},{"user_id":397,"name":"Cyrome","steam_id":76561198049602369,"connected_time":184000000000,"state":"active","ping":63},{"user_id":376,"name":"TF2oi","steam_id":76561199073820836,"connected_time":962000000000,"state":"active","ping":75},{"user_id":318,"name":"SUSHIMAN","steam_id":76561199089989428,"connected_time":4541000000000,"state":"active","ping":83},{"user_id":392,"name":"Cup","steam_id":76561198038485845,"connected_time":532000000000,"state":"active","ping":33},{"user_id":389,"name":"michael","steam_id":76561198052848358,"connected_time":552000000000,"state":"active","ping":64},{"user_id":373,"name":"SaltierThanYou","steam_id":76561198444395188,"connected_time":1094000000000,"state":"active","ping":86},{"user_id":362,"name":"Captain Canadia","steam_id":76561198167967735,"connected_time":1548000000000,"state":"active","ping":49},{"user_id":394,"name":"soupy","steam_id":76561198073734936,"connected_time":391000000000,"state":"active","ping":87},{"user_id":343,"name":"U Sux1!!","steam_id":76561198163440773,"connected_time":3106000000000,"state":"active","ping":83},{"user_id":374,"name":"Squishy","steam_id":76561198985769205,"connected_time":1081000000000,"state":"active","ping":56},{"user_id":360,"name":"Daniel Plainview (no sound)","steam_id":76561197990817274,"connected_time":2029000000000,"state":"active","ping":64},{"user_id":348,"name":"DIY Miracle","steam_id":76561198046228152,"connected_time":2939000000000,"state":"active","ping":65},{"user_id":323,"name":"Legend27","steam_id":76561199475312777,"connected_time":4168000000000,"state":"active","ping":54},{"user_id":396,"name":"Abraham Lincoln","steam_id":76561198095292515,"connected_time":315000000000,"state":"active","ping":71},{"user_id":354,"name":"BLORZINGUS","steam_id":76561198063481761,"connected_time":2661000000000,"state":"active","ping":45},{"user_id":352,"name":"Genuline","steam_id":76561198126426787,"connected_time":2839000000000,"state":"active","ping":46},{"user_id":381,"name":"Pompadouraus","steam_id":76561198327530525,"connected_time":862000000000,"state":"active","ping":82}]},{"server_id":123,"name":"Uncletopia | Sydney | 2 | All Maps","name_short":"syd-2","host":"syd-1.au.uncletopia.com","port":27025,"enabled":true,"region":"au","cc":"au","latitude":-33.865143,"longitude":151.2099,"reserved":0,"last_update":"0001-01-01T00:00:00Z","name_a2s":"Uncletopia | Sydney | 2 | All Maps","protocol":17,"map":"koth_viaduct","folder":"tf","game":"Team Fortress","app_id":440,"player_count":0,"max_players":24,"Bots":0,"server_type":"Dedicated","server_os":"Linux","password":true,"vac":true,"version":"7757534","steam_id":85568392924470002,"keywords":["cp","nocrits","nodmgspread","uncletopia"],"game_id":440,"stv_port":27026,"stv_name":"Uncletopia | Sydney | 2 | All Maps | STV","players":null},{"server_id":395,"name":"Uncletopia | Sydney | 3 | All Maps","name_short":"syd-3","host":"syd-1.au.uncletopia.com","port":27035,"enabled":true,"region":"au","cc":"au","latitude":-33.865143,"longitude":151.2099,"reserved":0,"last_update":"0001-01-01T00:00:00Z","name_a2s":"Uncletopia | Sydney | 3 | All Maps","protocol":17,"map":"pl_frontier_final","folder":"tf","game":"Team Fortress","app_id":440,"player_count":22,"max_players":24,"Bots":0,"server_type":"Dedicated","server_os":"Linux","password":true,"vac":true,"version":"7757534","steam_id":85568392925194467,"keywords":["nocrits","nodmgspread","payload","uncletopia"],"game_id":440,"stv_port":27036,"stv_name":"Uncletopia | Sydney | 3 | All Maps | STV","players":[{"user_id":149,"name":"Bob Ross","steam_id":76561198081686896,"connected_time":4831000000000,"state":"active","ping":67},{"user_id":215,"name":"Squat Morrison (Real)","steam_id":76561199191313063,"connected_time":450000000000,"state":"active","ping":49},{"user_id":209,"name":"Nigel Homeless","steam_id":76561198207746773,"connected_time":533000000000,"state":"active","ping":54},{"user_id":208,"name":"Ginsu","steam_id":76561198005360359,"connected_time":543000000000,"state":"active","ping":60},{"user_id":219,"name":"Madg00ber","steam_id":76561198045267358,"connected_time":358000000000,"state":"active","ping":68},{"user_id":197,"name":"Nenguu","steam_id":76561198243952386,"connected_time":808000000000,"state":"active","ping":69},{"user_id":217,"name":"Zilvera","steam_id":76561198065801850,"connected_time":417000000000,"state":"active","ping":55},{"user_id":176,"name":"beans","steam_id":76561198202908888,"connected_time":2668000000000,"state":"active","ping":66},{"user_id":199,"name":"Numuhukumakiaki'aialunamor","steam_id":76561198154674411,"connected_time":783000000000,"state":"active","ping":44},{"user_id":223,"name":"Canyon","steam_id":76561198233329500,"connected_time":278000000000,"state":"active","ping":74},{"user_id":224,"name":"tall handsome man","steam_id":76561198310550094,"connected_time":260000000000,"state":"active","ping":53},{"user_id":206,"name":"Jauntyweb","steam_id":76561198814458512,"connected_time":577000000000,"state":"active","ping":81},{"user_id":179,"name":"john fitzgerald kennedy","steam_id":76561198998542066,"connected_time":2489000000000,"state":"active","ping":59},{"user_id":210,"name":"syl","steam_id":76561198049270541,"connected_time":533000000000,"state":"active","ping":40},{"user_id":211,"name":"Slowpoke","steam_id":76561198089176674,"connected_time":532000000000,"state":"active","ping":44},{"user_id":212,"name":"Catto","steam_id":76561197999111589,"connected_time":530000000000,"state":"active","ping":30},{"user_id":214,"name":"beth.cubitt","steam_id":76561198454733447,"connected_time":498000000000,"state":"active","ping":96},{"user_id":155,"name":"Top Ramen","steam_id":76561198028969833,"connected_time":4679000000000,"state":"active","ping":45},{"user_id":221,"name":"Hamdrew Tate","steam_id":76561199009619792,"connected_time":323000000000,"state":"active","ping":85},{"user_id":231,"name":"Bin","steam_id":76561199117653318,"connected_time":28000000000,"state":"active","ping":65},{"user_id":180,"name":"Kenos234","steam_id":76561199183803664,"connected_time":2360000000000,"state":"active","ping":176},{"user_id":228,"name":"Fzzzzzzzzzzzzzzzzzzzzzzzzzzzzzz","steam_id":76561198298584081,"connected_time":121000000000,"state":"active","ping":60}]},{"server_id":396,"name":"Uncletopia | Sydney | 4 | All Maps","name_short":"syd-4","host":"syd-1.au.uncletopia.com","port":27045,"enabled":true,"region":"au","cc":"au","latitude":-33.865143,"longitude":151.2099,"reserved":0,"last_update":"0001-01-01T00:00:00Z","name_a2s":"Uncletopia | Sydney | 4 | All Maps","protocol":17,"map":"pl_frontier_final","folder":"tf","game":"Team Fortress","app_id":440,"player_count":0,"max_players":24,"Bots":0,"server_type":"Dedicated","server_os":"Linux","password":true,"vac":true,"version":"7757534","steam_id":85568392925397958,"keywords":["nocrits","nodmgspread","payload","uncletopia"],"game_id":440,"stv_port":27046,"stv_name":"Uncletopia | Sydney | 4 | All Maps | STV","players":null},{"server_id":58,"name":"Uncletopia | Sydney | 5 | Stopwatch Beta","name_short":"syd-5","host":"syd-1.au.uncletopia.com","port":27055,"enabled":true,"region":"au","cc":"au","latitude":-33.865143,"longitude":151.2099,"reserved":0,"last_update":"0001-01-01T00:00:00Z","name_a2s":"Uncletopia | Sydney | 5 | Stopwatch Beta","protocol":17,"map":"cp_sunshine","folder":"tf","game":"Team Fortress","app_id":440,"player_count":0,"max_players":24,"Bots":0,"server_type":"Dedicated","server_os":"Linux","password":true,"vac":true,"version":"7757534","steam_id":85568392925397959,"keywords":["cp","nocrits","nodmgspread","uncletopia"],"game_id":440,"stv_port":27056,"stv_name":"Uncletopia | Sydney | 5 | Stopwatch Beta | STV","players":null},{"server_id":59,"name":"Uncletopia | Sydney | 6 | Community","name_short":"syd-6","host":"syd-1.au.uncletopia.com","port":27065,"enabled":true,"region":"au","cc":"au","latitude":-33.865143,"longitude":151.2099,"reserved":0,"last_update":"0001-01-01T00:00:00Z","name_a2s":"Uncletopia | Sydney | 6 | Community","protocol":17,"map":"workshop/pl_divulgence_b4b.ugc2884808746","folder":"tf","game":"Team Fortress","app_id":440,"player_count":0,"max_players":24,"Bots":0,"server_type":"Dedicated","server_os":"Linux","password":true,"vac":true,"version":"7757534","steam_id":85568392925397960,"keywords":["nocrits","nodmgspread","payload","uncletopia"],"game_id":440,"stv_port":27066,"stv_name":"Uncletopia | Sydney | 6 | Community | STV","players":null},{"server_id":49,"name":"Uncletopia | Warsaw | 1 | All Maps","name_short":"waw-1","host":"waw-1.pl.uncletopia.com","port":27015,"enabled":true,"region":"eu","cc":"pl","latitude":52.2297,"longitude":21.017532,"reserved":0,"last_update":"0001-01-01T00:00:00Z","name_a2s":"","protocol":0,"map":"","folder":"","game":"","app_id":0,"player_count":0,"max_players":0,"Bots":0,"server_type":"","server_os":"","password":false,"vac":false,"version":"","steam_id":0,"keywords":null,"game_id":0,"stv_port":0,"stv_name":"","players":null},{"server_id":50,"name":"Uncletopia | Warsaw | 2 | All Maps","name_short":"waw-2","host":"waw-1.pl.uncletopia.com","port":27025,"enabled":true,"region":"eu","cc":"pl","latitude":52.2297,"longitude":21.017532,"reserved":0,"last_update":"0001-01-01T00:00:00Z","name_a2s":"Uncletopia | Warsaw | 2 | All Maps","protocol":17,"map":"pl_upward","folder":"tf","game":"Team Fortress","app_id":440,"player_count":0,"max_players":24,"Bots":0,"server_type":"Dedicated","server_os":"Linux","password":true,"vac":true,"version":"7757534","steam_id":85568392925397851,"keywords":["nocrits","nodmgspread","payload","uncletopia"],"game_id":440,"stv_port":27026,"stv_name":"Uncletopia | Warsaw | 2 | All Maps | STV","players":null},{"server_id":51,"name":"Uncletopia | Warsaw | 3 | All Maps","name_short":"waw-3","host":"waw-1.pl.uncletopia.com","port":27035,"enabled":true,"region":"eu","cc":"pl","latitude":52.2297,"longitude":21.017532,"reserved":0,"last_update":"0001-01-01T00:00:00Z","name_a2s":"Uncletopia | Warsaw | 3 | All Maps","protocol":17,"map":"pl_barnblitz","folder":"tf","game":"Team Fortress","app_id":440,"player_count":0,"max_players":24,"Bots":0,"server_type":"Dedicated","server_os":"Linux","password":true,"vac":true,"version":"7757534","steam_id":85568392925397852,"keywords":["nocrits","nodmgspread","payload","uncletopia"],"game_id":440,"stv_port":27036,"stv_name":"Uncletopia | Warsaw | 3 | All Maps | STV","players":null},{"server_id":52,"name":"Uncletopia | Warsaw | 4 | All Maps","name_short":"waw-4","host":"waw-1.pl.uncletopia.com","port":27045,"enabled":true,"region":"eu","cc":"pl","latitude":52.2297,"longitude":21.017532,"reserved":0,"last_update":"0001-01-01T00:00:00Z","name_a2s":"Uncletopia | Warsaw | 4 | All Maps","protocol":17,"map":"koth_viaduct","folder":"tf","game":"Team Fortress","app_id":440,"player_count":0,"max_players":24,"Bots":0,"server_type":"Dedicated","server_os":"Linux","password":true,"vac":true,"version":"7757534","steam_id":85568392925397853,"keywords":["cp","nocrits","nodmgspread","uncletopia"],"game_id":440,"stv_port":27046,"stv_name":"Uncletopia | Warsaw | 4 | All Maps | STV","players":null},{"server_id":53,"name":"Uncletopia | Warsaw | 5 | Stopwatch Beta","name_short":"waw-5","host":"waw-1.pl.uncletopia.com","port":27055,"enabled":true,"region":"eu","cc":"pl","latitude":52.2297,"longitude":21.017532,"reserved":0,"last_update":"0001-01-01T00:00:00Z","name_a2s":"Uncletopia | Warsaw | 5 | Stopwatch Beta","protocol":17,"map":"pl_pier","folder":"tf","game":"Team Fortress","app_id":440,"player_count":0,"max_players":24,"Bots":0,"server_type":"Dedicated","server_os":"Linux","password":true,"vac":true,"version":"7757534","steam_id":85568392925397854,"keywords":["nocrits","nodmgspread","payload","uncletopia"],"game_id":440,"stv_port":27056,"stv_name":"Uncletopia | Warsaw | 5 | Stopwatch Beta | STV","players":null},{"server_id":54,"name":"Uncletopia | Warsaw | 6 | Community","name_short":"waw-6","host":"waw-1.pl.uncletopia.com","port":27065,"enabled":true,"region":"eu","cc":"pl","latitude":52.2297,"longitude":21.017532,"reserved":0,"last_update":"0001-01-01T00:00:00Z","name_a2s":"Uncletopia | Warsaw | 6 | Community","protocol":17,"map":"koth_highpass","folder":"tf","game":"Team Fortress","app_id":440,"player_count":0,"max_players":24,"Bots":0,"server_type":"Dedicated","server_os":"Linux","password":true,"vac":true,"version":"7757534","steam_id":85568392925397856,"keywords":["cp","nocrits","nodmgspread","uncletopia"],"game_id":440,"stv_port":27066,"stv_name":"Uncletopia | Warsaw | 6 | Community | STV","players":null}]}