{"status":true,"message":"","result":[{"server_id":9,"name":"Uncletopia | Atlanta | 1 | All Maps","name_short":"atl-1","host":"atl-1.us.uncletopia.com","port":27015,"enabled":true,"region":"us-east","cc":"us","latitude":33.753746,"longitude":-84.38633,"reserved":0,"last_update":"0001-01-01T00:00:00Z","name_a2s":"Uncletopia | Atlanta | 1 | All Maps","protocol":17,"map":"pl_swiftwater_final1","folder":"tf","game":"Team Fortress","app_id":440,"player_count":24,"max_players":24,"Bots":0,"server_type":"Dedicated","server_os":"Linux","password":true,"vac":true,"version":"7757534","steam_id":85568392924469982,"keywords":["nocrits","nodmgspread","payload","uncletopia"],"game_id":440,"stv_port":27016,"stv_name":"Uncletopia | Atlanta | 1 | All Maps | STV","players":[{"user_id":480,"name":"stinky (underground)","steam_id":76561198190323610,"connected_time":255000000000,"state":"active","ping":95},{"user_id":473,"name":"i love machine girl","steam_id":76561199187747394,"connected_time":532000000000,"state":"active","ping":70},{"user_id":475,"name":"Zenabie","steam_id":76561198088372680,"connected_time":394000000000,"state":"active","ping":92},{"user_id":455,"name":"MyamE","steam_id":76561198133278462,"connected_time":1790000000000,"state":"active","ping":72},{"user_id":442,"name":"shaderoses","steam_id":76561198070800500,"connected_time":3469000000000,"state":"active","ping":63},{"user_id":465,"name":"ash","steam_id":76561198127890645,"connected_time":1353000000000,"state":"active","ping":69},{"user_id":430,"name":"dairy","steam_id":76561198117033273,"connected_time":4784000000000,"state":"active","ping":142},{"user_id":476,"name":"Skinny Pete","steam_id":76561198801608576,"connected_time":353000000000,"state":"active","ping":69},{"user_id":414,"name":"Bali","steam_id":76561198038693845,"connected_time":6202000000000,"state":"active","ping":88},{"user_id":469,"name":"Sheep","steam_id":76561198122705864,"connected_time":1149000000000,"state":"active","ping":93},{"user_id":481,"name":"puppy boy","steam_id":76561198255639473,"connected_time":45000000000,"state":"active","ping":79},{"user_id":432,"name":"TheTiredMario","steam_id":76561199062425739,"connected_time":4761000000000,"state":"active","ping":56},{"user_id":446,"name":"Alabit","steam_id":76561198065578560,"connected_time":2574000000000,"state":"active","ping":93},{"user_id":461,"name":"atl1 Quality","steam_id":76561198361132101,"connected_time":1466000000000,"state":"active","ping":90},{"user_id":462,"name":"Inky (Coolest)","steam_id":76561198968337022,"connected_time":1442000000000,"state":"active","ping":56},{"user_id":369,"name":"The Sydney Sleeper Itself","steam_id":76561198180251763,"connected_time":9353000000000,"state":"active","ping":74},{"user_id":463,"name":"ATL1 | Pango","steam_id":76561198069811545,"connected_time":1400000000000,"state":"active","ping":39},{"user_id":423,"name":"BreadReceiver","steam_id":76561198862555841,"connected_time":5358000000000,"state":"active","ping":75},{"user_id":436,"name":"God's Sleepiest Puppy Girl","steam_id":76561198070315609,"connected_time":4223000000000,"state":"active","ping":49},{"user_id":437,"name":"Zave","steam_id":76561198031565082,"connected_time":4223000000000,"state":"active","ping":124},{"user_id":468,"name":"lil hog","steam_id":76561199230929836,"connected_time":1324000000000,"state":"active","ping":89},{"user_id":479,"name":"ceorr","steam_id":76561198079841014,"connected_time":299000000000,"state":"active","ping":85},{"user_id":453,"name":"Claire","steam_id":76561199363756376,"connected_time":2086000000000,"state":"active","ping":184},{"user_id":459,"name":"Frosty","steam_id":76561198133966219,"connected_time":1524000000000,"state":"active","ping":57}]},{"server_id":104,"name":"Uncletopia | Atlanta | 2 | All Maps","name_short":"atl-2","host":"atl-1.us.uncletopia.com","port":27025,"enabled":true,"region":"us-east","cc":"us","latitude":33.753746,"longitude":-84.38633,"reserved":0,"last_update":"0001-01-01T00:00:00Z","name_a2s":"Uncletopia | Atlanta | 2 | All Maps","protocol":17,"map":"pl_barnblitz","folder":"tf","game":"Team Fortress","app_id":440,"player_count":21,"max_players":24,"Bots":0,"server_type":"Dedicated","server_os":"Linux","password":true,"vac":true,"version":"7757534","steam_id":85568392924469983,"keywords":["nocrits","nodmgspread","payload","uncletopia"],"game_id":440,"stv_port":27026,"stv_name":"Uncletopia | Atlanta | 2 | All Maps | STV","players":[{"user_id":293,"name":"m-Seq","steam_id":76561198114922735,"connected_time":1089000000000,"state":"active","ping":65},{"user_id":277,"name":"No Step on Snek","steam_id":76561198296084765,"connected_time":2920000000000,"state":"active","ping":73},{"user_id":308,"name":"Azuknow","steam_id":76561199229518180,"connected_time":32000000000,"state":"active","ping":84},{"user_id":278,"name":"Rhutebeer","steam_id":76561198018302761,"connected_time":2914000000000,"state":"active","ping":77},{"user_id":301,"name":"Dreamzapp","steam_id":76561199084936632,"connected_time":876000000000,"state":"active","ping":114},{"user_id":291,"name":"rkp!","steam_id":76561199053070819,"connected_time":1107000000000,"state":"active","ping":63},{"user_id":304,"name":"Schmingus","steam_id":76561199476148332,"connected_time":583000000000,"state":"active","ping":106},{"user_id":266,"name":"Discourse","steam_id":76561198984286678,"connected_time":3568000000000,"state":"active","ping":71},{"user_id":294,"name":"Pig master","steam_id":76561199388075545,"connected_time":1082000000000,"state":"active","ping":119},{"user_id":282,"name":"Atlas","steam_id":76561198127975050,"connected_time":2784000000000,"state":"active","ping":49},{"user_id":280,"name":"MizukiFluffle","steam_id":76561198069559782,"connected_time":2823000000000,"state":"active","ping":97},{"user_id":307,"name":"Morshu","steam_id":76561198081617990,"connected_time":75000000000,"state":"active","ping":109},{"user_id":300,"name":"Shrumm_","steam_id":76561199112605047,"connected_time":965000000000,"state":"active","ping":119},{"user_id":288,"name":"Applesauce","steam_id":76561198049642811,"connected_time":1724000000000,"state":"active","ping":55},{"user_id":289,"name":"he's here for what?","steam_id":76561198139303045,"connected_time":1621000000000,"state":"active","ping":170},{"user_id":306,"name":"Otterguy","steam_id":76561198125819283,"connected_time":420000000000,"state":"active","ping":84},{"user_id":267,"name":"firetamer2","steam_id":76561198040886980,"connected_time":3411000000000,"state":"active","ping":58},{"user_id":290,"name":"Yoru","steam_id":76561198119698950,"connected_time":1504000000000,"state":"active","ping":117},{"user_id":303,"name":"beans","steam_id":76561199082781884,"connected_time":619000000000,"state":"active","ping":84},{"user_id":305,"name":"I THINK COOLSVILLE SUCKS","steam_id":76561198066855998,"connected_time":582000000000,"state":"active","ping":105},{"user_id":298,"name":"0","steam_id":76561198994761483,"connected_time":1041000000000,"state":"active","ping":129}]},{"server_id":400,"name":"Uncletopia | Atlanta | 3 | Community","name_short":"atl-3","host":"atl-1.us.uncletopia.com","port":27035,"enabled":true,"region":"us-east","cc":"us","latitude":33.753746,"longitude":-84.38633,"reserved":0,"last_update":"0001-01-01T00:00:00Z","name_a2s":"Uncletopia | Atlanta | 3 | Community","protocol":17,"map":"workshop/koth_product_final.ugc454272353","folder":"tf","game":"Team Fortress","app_id":440,"player_count":1,"max_players":24,"Bots":0,"server_type":"Dedicated","server_os":"Linux","password":true,"vac":true,"version":"7757534","steam_id":85568392924515187,"keywords":["cp","nocrits","nodmgspread","uncletopia"],"game_id":440,"stv_port":27036,"stv_name":"Uncletopia | Atlanta | 3 | Community | STV","players":[{"user_id":21,"name":"PFO_0876","steam_id":76561199438736082,"connected_time":15000000000,"state":"spawning","ping":110}]},{"server_id":401,"name":"Uncletopia | Atlanta | 4 | No Payload","name_short":"atl-4","host":"atl-1.us.uncletopia.com","port":27045,"enabled":true,"region":"us-east","cc":"us","latitude":33.753746,"longitude":-84.38633,"reserved":0,"last_update":"0001-01-01T00:00:00Z","name_a2s":"","protocol":0,"map":"","folder":"","game":"","app_id":0,"player_count":0,"max_players":0,"Bots":0,"server_type":"","server_os":"","password":false,"vac":false,"version":"","steam_id":0,"keywords":null,"game_id":0,"stv_port":0,"stv_name":"","players":null},{"server_id":2,"name":"Uncletopia | Chicago | 1 | All Maps","name_short":"chi-1","host":"chi-1.us.uncletopia.com","port":27015,"enabled":true,"region":"us-central","cc":"us","latitude":41.881832,"longitude":-87.62318,"reserved":0,"last_update":"0001-01-01T00:00:00Z","name_a2s":"Uncletopia | Chicago | 1 | All Maps","protocol":17,"map":"pl_pier","folder":"tf","game":"Team Fortress","app_id":440,"player_count":24,"max_players":24,"Bots":0,"server_type":"Dedicated","server_os":"Linux","password":true,"vac":true,"version":"7757534","steam_id":85568392924469984,"keywords":["nocrits","nodmgspread","payload","uncletopia"],"game_id":440,"stv_port":27016,"stv_name":"Uncletopia | Chicago | 1 | All Maps | STV","players":[{"user_id":464,"name":"Gary","steam_id":76561198133309753,"connected_time":446000000000,"state":"active","ping":70},{"user_id":438,"name":"HiFivr","steam_id":76561198285190162,"connected_time":2663000000000,"state":"active","ping":70},{"user_id":439,"name":"=Silver=","steam_id":76561198292307127,"connected_time":2648000000000,"state":"active","ping":90},{"user_id":465,"name":"North","steam_id":76561199173696836,"connected_time":429000000000,"state":"active","ping":85},{"user_id":457,"name":"BUNGER","steam_id":76561198131703086,"connected_time":1904000000000,"state":"active","ping":74},{"user_id":466,"name":"BasicPeaches","steam_id":76561198190890150,"connected_time":363000000000,"state":"active","ping":84},{"user_id":459,"name":"[GUT] RiDiK¬Æ","steam_id":76561197969756446,"connected_time":1608000000000,"state":"active","ping":55},{"user_id":468,"name":"bagel_man","steam_id":76561198164640460,"connected_time":320000000000,"state":"active","ping":108},{"user_id":460,"name":"Punished Kong","steam_id":76561198973620882,"connected_time":1582000000000,"state":"active","ping":74},{"user_id":428,"name":"TallBit","steam_id":76561199059748976,"connected_time":2824000000000,"state":"active","ping":51},{"user_id":417,"name":"MAXIMUM OVERDRIVE","steam_id":76561198113992547,"connected_time":4043000000000,"state":"active","ping":96},{"user_id":469,"name":"Thndr_","steam_id":76561198113242036,"connected_time":261000000000,"state":"active","ping":116},{"user_id":452,"name":".Mei (his princess)","steam_id":76561198133887117,"connected_time":2066000000000,"state":"active","ping":84},{"user_id":406,"name":"k3ramb1t","steam_id":76561198097880352,"connected_time":4977000000000,"state":"active","ping":77},{"user_id":463,"name":"mrcatman","steam_id":76561198358434883,"connected_time":940000000000,"state":"active","ping":78},{"user_id":412,"name":"Walter White","steam_id":76561199030987614,"connected_time":4131000000000,"state":"active","ping":86},{"user_id":470,"name":"uzr","steam_id":76561198799343084,"connected_time":259000000000,"state":"active","ping":106},{"user_id":456,"name":"Brokayo","steam_id":76561198053802723,"connected_time":1939000000000,"state":"active","ping":91},{"user_id":471,"name":"Sip of joe","steam_id":76561198153295874,"connected_time":228000000000,"state":"active","ping":115},{"user_id":458,"name":"alv√∂ru","steam_id":76561198273488925,"connected_time":1847000000000,"state":"active","ping":82},{"user_id":472,"name":"Tlaloc","steam_id":76561198375215983,"connected_time":196000000000,"state":"active","ping":154},{"user_id":437,"name":"Gaming","steam_id":76561198327632113,"connected_time":2699000000000,"state":"active","ping":91},{"user_id":462,"name":"mineblast99","steam_id":76561199065648954,"connected_time":1525000000000,"state":"active","ping":77},{"user_id":398,"name":"Lilac","steam_id":76561198977523626,"connected_time":5933000000000,"state":"active","ping":69}]},{"server_id":106,"name":"Uncletopia | Chicago | 2 | All Maps","name_short":"chi-2","host":"chi-1.us.uncletopia.com","port":27025,"enabled":true,"region":"us-central","cc":"us","latitude":41.881832,"longitude":-87.62318,"reserved":0,"last_update":"0001-01-01T00:00:00Z","name_a2s":"Uncletopia | Chicago | 2 | All Maps","protocol":17,"map":"pl_goldrush","folder":"tf","game":"Team Fortress","app_id":440,"player_count":24,"max_players":24,"Bots":0,"server_type":"Dedicated","server_os":"Linux","password":true,"vac":true,"version":"7757534","steam_id":85568392924469985,"keywords":["nocrits","nodmgspread","payload","uncletopia"],"game_id":440,"stv_port":27026,"stv_name":"Uncletopia | Chicago | 2 | All Maps | STV","players":[{"user_id":288,"name":"LEGACYYYYYYYYYYYYYYYYYYYYYY","steam_id":76561198172421881,"connected_time":3393000000000,"state":"active","ping":75},{"user_id":318,"name":"Pikaboy (Ham Mafia)","steam_id":76561199173623332,"connected_time":903000000000,"state":"active","ping":59},{"user_id":292,"name":"Stew Eater","steam_id":76561198978307159,"connected_time":2834000000000,"state":"active","ping":68},{"user_id":300,"name":"Tallyden","steam_id":76561197998572962,"connected_time":2519000000000,"state":"active","ping":61},{"user_id":293,"name":"Rornir","steam_id":76561198081829615,"connected_time":2801000000000,"state":"active","ping":33},{"user_id":294,"name":"Chiki","steam_id":76561198063590320,"connected_time":2773000000000,"state":"active","ping":76},{"user_id":307,"name":"1845kasp","steam_id":76561198263271697,"connected_time":1834000000000,"state":"active","ping":44},{"user_id":320,"name":"Barlon","steam_id":76561198023717515,"connected_time":405000000000,"state":"active","ping":74},{"user_id":319,"name":"lego star wars on the psp","steam_id":76561198148014773,"connected_time":599000000000,"state":"active","ping":72},{"user_id":295,"name":"Ejaculation Zach","steam_id":76561198203765200,"connected_time":2757000000000,"state":"active","ping":58},{"user_id":323,"name":"Swedish Crowbar","steam_id":76561199105488936,"connected_time":103000000000,"state":"active","ping":149},{"user_id":316,"name":"lauren/","steam_id":76561198048745798,"connected_time":1036000000000,"state":"active","ping":41},{"user_id":317,"name":"Gerald Jay Sussman","steam_id":76561198114515026,"connected_time":971000000000,"state":"active","ping":48},{"user_id":286,"name":"Killerkarate","steam_id":76561198067533929,"connected_time":3708000000000,"state":"active","ping":59},{"user_id":324,"name":"DoomoPelota","steam_id":76561198326462587,"connected_time":94000000000,"state":"active","ping":104},{"user_id":303,"name":"Rein","steam_id":76561198300340427,"connected_time":2466000000000,"state":"active","ping":63},{"user_id":322,"name":"Geloman","steam_id":76561198005501322,"connected_time":204000000000,"state":"active","ping":81},{"user_id":315,"name":"Hello I'm a Swedish Plumber","steam_id":76561199215811448,"connected_time":1148000000000,"state":"active","ping":87},{"user_id":325,"name":"Mecha","steam_id":76561198014927379,"connected_time":58000000000,"state":"active","ping":86},{"user_id":314,"name":"Hylic","steam_id":76561199051314589,"connected_time":1191000000000,"state":"active","ping":60},{"user_id":326,"name":"Copter_Boy","steam_id":76561198322921312,"connected_time":31000000000,"state":"active","ping":70},{"user_id":162,"name":"Vial of Throbb","steam_id":76561198348095996,"connected_time":12481000000000,"state":"active","ping":49},{"user_id":289,"name":"Fercho Mo","steam_id":76561198168935077,"connected_time":3237000000000,"state":"active","ping":106}]},{"server_id":402,"name":"Uncletopia | Chicago | 3 | All Maps","name_short":"chi-3","host":"chi-1.us.uncletopia.com","port":27035,"enabled":true,"region":"us-central","cc":"us","latitude":41.881832,"longitude":-87.62318,"reserved":0,"last_update":"0001-01-01T00:00:00Z","name_a2s":"Uncletopia | Chicago | 3 | All Maps","protocol":17,"map":"pl_badwater","folder":"tf","game":"Team Fortress","app_id":440,"player_count":24,"max_players":24,"Bots":0,"server_type":"Dedicated","server_os":"Linux","password":true,"vac":true,"version":"7757534","steam_id":85568392924515191,"keywords":["nocrits","nodmgspread","payload","uncletopia"],"game_id":440,"stv_port":27036,"stv_name":"Uncletopia | Chicago | 3 | All Maps | STV","players":[{"user_id":33,"name":"Nedrog the Lost","steam_id":76561198272270244,"connected_time":1044000000000,"state":"active","ping":76},{"user_id":32,"name":"TypicalGiftig","steam_id":76561198170372495,"connected_time":1080000000000,"state":"active","ping":69},{"user_id":34,"name":"Mug Moment Gaming","steam_id":76561198233098136,"connected_time":954000000000,"state":"active","ping":53},{"user_id":57,"name":"h","steam_id":76561198079603532,"connected_time":335000000000,"state":"active","ping":87},{"user_id":36,"name":"Nabiiru","steam_id":76561198324423653,"connected_time":770000000000,"state":"active","ping":86},{"user_id":60,"name":"girls on yo phone","steam_id":76561198406252824,"connected_time":30000000000,"state":"active","ping":100},{"user_id":38,"name":"Biosock Infiknit","steam_id":76561198072693794,"connected_time":760000000000,"state":"active","ping":49},{"user_id":39,"name":"Dead Seal","steam_id":76561198088835150,"connected_time":750000000000,"state":"active","ping":86},{"user_id":40,"name":"A Can of Arizona Green Tea","steam_id":76561198062481133,"connected_time":723000000000,"state":"active","ping":77},{"user_id":41,"name":"hack fraud","steam_id":76561198015036066,"connected_time":698000000000,"state":"active","ping":90},{"user_id":42,"name":"\u003ecm\u003c","steam_id":76561198103496593,"connected_time":675000000000,"state":"active","ping":60},{"user_id":43,"name":"The Last Thing","steam_id":76561198047192080,"connected_time":653000000000,"state":"active","ping":74},{"user_id":44,"name":"tacofever","steam_id":76561198010966507,"connected_time":614000000000,"state":"active","ping":101},{"user_id":45,"name":"The BallSmasher","steam_id":76561198107810115,"connected_time":613000000000,"state":"active","ping":68},{"user_id":46,"name":"ScrambledEggsNRamen","steam_id":76561198206475411,"connected_time":596000000000,"state":"active","ping":89},{"user_id":47,"name":"SneakySneak","steam_id":76561198064847921,"connected_time":575000000000,"state":"active","ping":87},{"user_id":48,"name":"chilis baby back ribs","steam_id":76561198813516435,"connected_time":571000000000,"state":"active","ping":93},{"user_id":49,"name":"creeeeeee","steam_id":76561198392539722,"connected_time":567000000000,"state":"active","ping":79},{"user_id":50,"name":"JerlBays","steam_id":76561198096773292,"connected_time":565000000000,"state":"active","ping":50},{"user_id":51,"name":"Nuwrox1","steam_id":76561198406951007,"connected_time":555000000000,"state":"active","ping":67},{"user_id":59,"name":"Reisen","steam_id":76561199174579733,"connected_time":124000000000,"state":"active","ping":292},{"user_id":54,"name":"natdan360","steam_id":76561198966662197,"connected_time":512000000000,"state":"active","ping":102},{"user_id":55,"name":"the nuisance","steam_id":76561198396326793,"connected_time":505000000000,"state":"active","ping":87},{"user_id":56,"name":"SC|Formuoli","steam_id":76561198254354595,"connected_time":505000000000,"state":"active","ping":39}]},{"server_id":403,"name":"Uncletopia | Chicago | 4 | All Maps","name_short":"chi-4","host":"chi-1.us.uncletopia.com","port":27045,"enabled":true,"region":"us-central","cc":"us","latitude":41.881832,"longitude":-87.62318,"reserved":0,"last_update":"0001-01-01T00:00:00Z","name_a2s":"Uncletopia | Chicago | 4 | All Maps","protocol":17,"map":"pl_badwater","folder":"tf","game":"Team Fortress","app_id":440,"player_count":24,"max_players":24,"Bots":0,"server_type":"Dedicated","server_os":"Linux","password":true,"vac":true,"version":"7757534","steam_id":85568392924515193,"keywords":["nocrits","nodmgspread","payload","uncletopia"],"game_id":440,"stv_port":27046,"stv_name":"Uncletopia | Chicago | 4 | All Maps | STV","players":[{"user_id":62,"name":"FUSION","steam_id":76561197972659738,"connected_time":1011000000000,"state":"active","ping":59},{"user_id":78,"name":"HydroPerc 60","steam_id":76561198141858576,"connected_time":200000000000,"state":"active","ping":88},{"user_id":21,"name":"Robo Intern","steam_id":76561199067098696,"connected_time":2349000000000,"state":"active","ping":87},{"user_id":64,"name":"Razz","steam_id":76561198158027533,"connected_time":821000000000,"state":"active","ping":43},{"user_id":22,"name":"orcluvr69","steam_id":76561198068712028,"connected_time":2183000000000,"state":"active","ping":69},{"user_id":57,"name":"Monster","steam_id":76561198189429665,"connected_time":1195000000000,"state":"active","ping":74},{"user_id":48,"name":"Beyblade is 10 out of 10","steam_id":76561199190216106,"connected_time":1373000000000,"state":"active","ping":73},{"user_id":51,"name":"Mu","steam_id":76561198144428317,"connected_time":1312000000000,"state":"active","ping":73},{"user_id":69,"name":"jimmyfnaf172198yay","steam_id":76561198311446636,"connected_time":689000000000,"state":"active","ping":58},{"user_id":54,"name":"N√©oGothiqueüïØ","steam_id":76561198003467269,"connected_time":1269000000000,"state":"active","ping":74},{"user_id":73,"name":"The local hobo","steam_id":76561198289650060,"connected_time":569000000000,"state":"active","ping":92},{"user_id":55,"name":"etoh","steam_id":76561198119093367,"connected_time":1264000000000,"state":"active","ping":90},{"user_id":77,"name":"canakblasteran","steam_id":76561199472518822,"connected_time":203000000000,"state":"active","ping":99},{"user_id":31,"name":"Dookie","steam_id":76561198354025894,"connected_time":1995000000000,"state":"active","ping":63},{"user_id":32,"name":"HeRBieToKeS420","steam_id":76561199061380038,"connected_time":1977000000000,"state":"active","ping":75},{"user_id":46,"name":"Lost","steam_id":76561198093713427,"connected_time":1608000000000,"state":"active","ping":66},{"user_id":79,"name":"B0otstrut beel","steam_id":76561198202457221,"connected_time":183000000000,"state":"active","ping":71},{"user_id":58,"name":"4 life","steam_id":76561198175961598,"connected_time":1184000000000,"state":"active","ping":119},{"user_id":75,"name":"Humper","steam_id":76561198272961376,"connected_time":415000000000,"state":"active","ping":85},{"user_id":83,"name":"bladees saddest, realest verse","steam_id":76561198098099826,"connected_time":29000000000,"state":"active","ping":88},{"user_id":84,"name":"Slurpsie","steam_id":76561199059342667,"connected_time":23000000000,"state":"active","ping":52},{"user_id":80,"name":"Kidzbopsicle","steam_id":76561198047660691,"connected_time":148000000000,"state":"active","ping":60},{"user_id":81,"name":"MrVegasAguitar","steam_id":76561198084466946,"connected_time":112000000000,"state":"active","ping":91},{"user_id":43,"name":"schmopp","steam_id":76561198076490954,"connected_time":1822000000000,"state":"active","ping":48}]},{"server_id":36,"name":"Uncletopia | Chicago | 5 | All Maps","name_short":"chi-5","host":"chi-2.us.uncletopia.com","port":27015,"enabled":true,"region":"us-central","cc":"us","latitude":41.881832,"longitude":-87.62318,"reserved":0,"last_update":"0001-01-01T00:00:00Z","name_a2s":"Uncletopia | Chicago | 5 | All Maps","protocol":17,"map":"cp_foundry","folder":"tf","game":"Team Fortress","app_id":440,"player_count":24,"max_players":24,"Bots":0,"server_type":"Dedicated","server_os":"Linux","password":true,"vac":true,"version":"7757534","steam_id":85568392924866362,"keywords":["cp","nocrits","nodmgspread","uncletopia"],"game_id":440,"stv_port":27016,"stv_name":"Uncletopia | Chicago | 5 | All Maps | STV","players":[{"user_id":366,"name":"Mustard Gaming","steam_id":76561198050393061,"connected_time":502000000000,"state":"active","ping":75},{"user_id":354,"name":"jorjor wells","steam_id":76561199073429082,"connected_time":1208000000000,"state":"active","ping":60},{"user_id":372,"name":"Mr Doctor","steam_id":76561199014497193,"connected_time":349000000000,"state":"active","ping":68},{"user_id":365,"name":"Roloman11","steam_id":76561198308927283,"connected_time":599000000000,"state":"active","ping":73},{"user_id":368,"name":"my opps are after me","steam_id":76561198328109873,"connected_time":476000000000,"state":"active","ping":72},{"user_id":310,"name":"JestinJester","steam_id":76561198411846094,"connected_time":3374000000000,"state":"active","ping":71},{"user_id":332,"name":"ThatGamingKiwi","steam_id":76561199170522237,"connected_time":2202000000000,"state":"active","ping":87},{"user_id":360,"name":"Ciela","steam_id":76561198799403828,"connected_time":903000000000,"state":"active","ping":52},{"user_id":342,"name":"Adam (Cursed Confetti Creature)","steam_id":76561198317690197,"connected_time":1876000000000,"state":"active","ping":45},{"user_id":348,"name":"anipe10","steam_id":76561199084698417,"connected_time":1519000000000,"state":"active","ping":97},{"user_id":369,"name":"Nugget","steam_id":76561198116697181,"connected_time":434000000000,"state":"active","ping":79},{"user_id":363,"name":"Ping","steam_id":76561199206514106,"connected_time":808000000000,"state":"active","ping":47},{"user_id":361,"name":"rat eater","steam_id":76561199216874750,"connected_time":897000000000,"state":"active","ping":55},{"user_id":308,"name":"Skullypoo","steam_id":76561198067912022,"connected_time":3823000000000,"state":"active","ping":66},{"user_id":370,"name":"G00D G00GLY M00GLY!!","steam_id":76561199177310566,"connected_time":423000000000,"state":"active","ping":86},{"user_id":339,"name":"The Bus Driver","steam_id":76561198044013623,"connected_time":2018000000000,"state":"active","ping":70},{"user_id":349,"name":".9 lg","steam_id":76561198092238353,"connected_time":1510000000000,"state":"active","ping":73},{"user_id":374,"name":"Kretim","steam_id":76561199204273483,"connected_time":332000000000,"state":"active","ping":73},{"user_id":376,"name":"Nen","steam_id":76561198893347370,"connected_time":214000000000,"state":"active","ping":116},{"user_id":336,"name":"threethree","steam_id":76561198177354155,"connected_time":2119000000000,"state":"active","ping":55},{"user_id":299,"name":"CeigeBirb","steam_id":76561198068538473,"connected_time":4655000000000,"state":"active","ping":76},{"user_id":375,"name":"Madd Maxx","steam_id":76561198339584998,"connected_time":318000000000,"state":"active","ping":88},{"user_id":301,"name":"Fluffeline","steam_id":76561198352909489,"connected_time":4648000000000,"state":"active","ping":147},{"user_id":364,"name":"Slugger01","steam_id":76561198975798014,"connected_time":806000000000,"state":"active","ping":55}]},{"server_id":37,"name":"Uncletopia | Chicago | 6 | All Maps","name_short":"chi-6","host":"chi-2.us.uncletopia.com","port":27025,"enabled":true,"region":"us-central","cc":"us","latitude":41.881832,"longitude":-87.62318,"reserved":0,"last_update":"0001-01-01T00:00:00Z","name_a2s":"Uncletopia | Chicago | 6 | All Maps","protocol":17,"map":"cp_dustbowl","folder":"tf","game":"Team Fortress","app_id":440,"player_count":15,"max_players":24,"Bots":0,"server_type":"Dedicated","server_os":"Linux","password":true,"vac":true,"version":"7757534","steam_id":85568392924866363,"keywords":["cp","nocrits","nodmgspread","uncletopia"],"game_id":440,"stv_port":27026,"stv_name":"Uncletopia | Chicago | 6 | All Maps | STV","players":[{"user_id":59,"name":"Cesar","steam_id":76561199244427790,"connected_time":1843000000000,"state":"spawning","ping":246},{"user_id":81,"name":"DB1","steam_id":76561199172642819,"connected_time":150000000000,"state":"spawning","ping":123},{"user_id":82,"name":"tin foil hat","steam_id":76561198083607304,"connected_time":87000000000,"state":"spawning","ping":175},{"user_id":83,"name":"Fallbourn","steam_id":76561197994851732,"connected_time":83000000000,"state":"spawning","ping":97},{"user_id":18,"name":"the headphones you lost","steam_id":76561199201098634,"connected_time":3484000000000,"state":"spawning","ping":73},{"user_id":44,"name":"willem dafoe basketball","steam_id":76561199161322235,"connected_time":2519000000000,"state":"spawning","ping":151},{"user_id":21,"name":"CJAIME01345","steam_id":76561199091599141,"connected_time":3434000000000,"state":"spawning","ping":204},{"user_id":23,"name":"Goober","steam_id":76561198988863807,"connected_time":3394000000000,"state":"spawning","ping":66},{"user_id":52,"name":"foot bag","steam_id":76561198070923665,"connected_time":2143000000000,"state":"spawning","ping":198},{"user_id":76,"name":"leroy","steam_id":76561199013064727,"connected_time":546000000000,"state":"spawning","ping":143},{"user_id":85,"name":"grate_fiter-232","steam_id":76561198073424589,"connected_time":56000000000,"state":"spawning","ping":144},{"user_id":60,"name":"meh","steam_id":76561198136808129,"connected_time":1758000000000,"state":"spawning","ping":203},{"user_id":84,"name":"Paul Blart","steam_id":76561198068110623,"connected_time":79000000000,"state":"spawning","ping":231},{"user_id":70,"name":"ZaChelbom","steam_id":76561198089343809,"connected_time":1406000000000,"state":"spawning","ping":113},{"user_id":71,"name":"Sparkk","steam_id":76561198060705509,"connected_time":1348000000000,"state":"spawning","ping":136}]},{"server_id":38,"name":"Uncletopia | Chicago | 7 | Stopwatch Beta","name_short":"chi-7","host":"chi-2.us.uncletopia.com","port":27035,"enabled":true,"region":"us-central","cc":"us","latitude":41.881832,"longitude":-87.62318,"reserved":0,"last_update":"0001-01-01T00:00:00Z","name_a2s":"Uncletopia | Chicago | 7 | Stopwatch Beta","protocol":17,"map":"koth_highpass","folder":"tf","game":"Team Fortress","app_id":440,"player_count":24,"max_players":24,"Bots":0,"server_type":"Dedicated","server_os":"Linux","password":true,"vac":true,"version":"7757534","steam_id":85568392924866364,"keywords":["cp","nocrits","nodmgspread","uncletopia"],"game_id":440,"stv_port":27036,"stv_name":"Uncletopia | Chicago | 7 | Stopwatch Beta | STV","players":[{"user_id":170,"name":"Tyler \"Ninja\" Blevins","steam_id":76561198373746754,"connected_time":1429000000000,"state":"active","ping":70},{"user_id":137,"name":"PoisonIvy","steam_id":76561198072384574,"connected_time":2642000000000,"state":"active","ping":56},{"user_id":138,"name":"cass","steam_id":76561198074502046,"connected_time":2618000000000,"state":"active","ping":72},{"user_id":194,"name":"PzVIIIMaus","steam_id":76561198346559365,"connected_time":128000000000,"state":"active","ping":48},{"user_id":155,"name":"Bull-Frog","steam_id":76561198260868601,"connected_time":2168000000000,"state":"active","ping":70},{"user_id":191,"name":"Junko","steam_id":76561198146089003,"connected_time":175000000000,"state":"active","ping":46},{"user_id":171,"name":"catrinaisahuman","steam_id":76561198281355729,"connected_time":1312000000000,"state":"active","ping":63},{"user_id":192,"name":"3848","steam_id":76561198109077451,"connected_time":172000000000,"state":"active","ping":56},{"user_id":172,"name":"mothsprings","steam_id":76561198928604937,"connected_time":1291000000000,"state":"active","ping":78},{"user_id":175,"name":"Pete The \"Plummer\"","steam_id":76561199097450685,"connected_time":1178000000000,"state":"active","ping":100},{"user_id":88,"name":"davescoz","steam_id":76561198860990381,"connected_time":6361000000000,"state":"active","ping":127},{"user_id":146,"name":"Brahan","steam_id":76561198024629210,"connected_time":2361000000000,"state":"active","ping":153},{"user_id":176,"name":"Dmonic Plays","steam_id":76561198006572380,"connected_time":1134000000000,"state":"active","ping":69},{"user_id":193,"name":"Maxwell the Dingus","steam_id":76561199057636193,"connected_time":153000000000,"state":"active","ping":48},{"user_id":177,"name":"Zhenaj","steam_id":76561199209016136,"connected_time":1081000000000,"state":"active","ping":61},{"user_id":165,"name":"Sprucelass","steam_id":76561197998391724,"connected_time":1784000000000,"state":"active","ping":48},{"user_id":179,"name":"Best Boy In Illinois","steam_id":76561198063876068,"connected_time":1040000000000,"state":"active","ping":56},{"user_id":154,"name":"Recursive Gamer","steam_id":76561198042102952,"connected_time":2216000000000,"state":"active","ping":65},{"user_id":186,"name":"Shadowstone67","steam_id":76561198199459430,"connected_time":832000000000,"state":"active","ping":65},{"user_id":160,"name":"wafflehamster2000","steam_id":76561198849161820,"connected_time":2091000000000,"state":"active","ping":77},{"user_id":195,"name":"Caruso","steam_id":76561198053340414,"connected_time":123000000000,"state":"active","ping":58},{"user_id":182,"name":"scarmiglione in the tardis","steam_id":76561198018761740,"connected_time":1002000000000,"state":"active","ping":81},{"user_id":196,"name":"–ü–ê–ú–ü–ï–†–°","steam_id":76561199329299682,"connected_time":107000000000,"state":"active","ping":162},{"user_id":183,"name":"Silliest Boywife","steam_id":76561198118123914,"connected_time":999000000000,"state":"active","ping":164}]},{"server_id":39,"name":"Uncletopia | Chicago | 8 | Community","name_short":"chi-8","host":"chi-2.us.uncletopia.com","port":27045,"enabled":true,"region":"us-central","cc":"us","latitude":41.881832,"longitude":-87.62318,"reserved":0,"last_update":"0001-01-01T00:00:00Z","name_a2s":"Uncletopia | Chicago | 8 | Community","protocol":17,"map":"koth_cascade","folder":"tf","game":"Team Fortress","app_id":440,"player_count":0,"max_players":24,"Bots":0,"server_type":"Dedicated","server_os":"Linux","password":true,"vac":true,"version":"7757534","steam_id":85568392924866365,"keywords":["cp","nocrits","nodmgspread","uncletopia"],"game_id":440,"stv_port":27046,"stv_name":"Uncletopia | Chicago | 8 | Community | STV","players":null},{"server_id":8,"name":"Uncletopia | Dallas | 1 | All Maps","name_short":"dal-1","host":"dal-1.us.uncletopia.com","port":27015,"enabled":true,"region":"us-central","cc":"us","latitude":32.779167,"longitude":-96.80889,"reserved":0,"last_update":"0001-01-01T00:00:00Z","name_a2s":"Uncletopia | Dallas | 1 | All Maps","protocol":17,"map":"koth_harvest_final","folder":"tf","game":"Team Fortress","app_id":440,"player_count":24,"max_players":24,"Bots":0,"server_type":"Dedicated","server_os":"Linux","password":true,"vac":true,"version":"7757534","steam_id":85568392924469986,"keywords":["cp","nocrits","nodmgspread","uncletopia"],"game_id":440,"stv_port":27016,"stv_name":"Uncletopia | Dallas | 1 | All Maps | STV","players":[{"user_id":184,"name":"A Gamer [F2P]","steam_id":76561198138712892,"connected_time":3555000000000,"state":"active","ping":41},{"user_id":192,"name":"Whopper Enjoyer","steam_id":76561199163263543,"connected_time":2947000000000,"state":"active","ping":101},{"user_id":241,"name":"willangpat","steam_id":76561199106970878,"connected_time":246000000000,"state":"active","ping":93},{"user_id":236,"name":"Bobby Ray","steam_id":76561198044131188,"connected_time":670000000000,"state":"active","ping":75},{"user_id":234,"name":"Alkimia","steam_id":76561198385763137,"connected_time":947000000000,"state":"active","ping":125},{"user_id":232,"name":"Fantastic Mr. Fox Appreciator","steam_id":76561198096306325,"connected_time":1019000000000,"state":"active","ping":89},{"user_id":102,"name":"=7Cav=SGT.Smith.V","steam_id":76561198104044042,"connected_time":10331000000000,"state":"active","ping":68},{"user_id":242,"name":"snby","steam_id":76561198868600487,"connected_time":177000000000,"state":"active","ping":89},{"user_id":230,"name":"Jailbreak","steam_id":76561198802085218,"connected_time":1182000000000,"state":"active","ping":58},{"user_id":215,"name":"superprogamerman2009","steam_id":76561199393831863,"connected_time":2019000000000,"state":"active","ping":136},{"user_id":239,"name":"Buswolley","steam_id":76561197995205571,"connected_time":417000000000,"state":"active","ping":85},{"user_id":207,"name":"NEOXTEE","steam_id":76561198362295930,"connected_time":2307000000000,"state":"active","ping":79},{"user_id":211,"name":"Tribrothers_2","steam_id":76561198143972134,"connected_time":2066000000000,"state":"active","ping":87},{"user_id":244,"name":"Ayyyy","steam_id":76561198121729211,"connected_time":97000000000,"state":"active","ping":73},{"user_id":217,"name":"John16Mark","steam_id":76561198119445407,"connected_time":2009000000000,"state":"active","ping":94},{"user_id":223,"name":"Woozy","steam_id":76561198008220735,"connected_time":1932000000000,"state":"active","ping":72},{"user_id":218,"name":"el muchacho","steam_id":76561198282632562,"connected_time":2006000000000,"state":"active","ping":60},{"user_id":245,"name":"Bigfoot ate my ass","steam_id":76561198071605190,"connected_time":61000000000,"state":"active","ping":83},{"user_id":219,"name":"Duk","steam_id":76561198450692568,"connected_time":1999000000000,"state":"active","ping":80},{"user_id":127,"name":"Fresh0c0","steam_id":76561198271933283,"connected_time":8480000000000,"state":"active","ping":77},{"user_id":235,"name":"scuttles","steam_id":76561199250039100,"connected_time":712000000000,"state":"active","ping":61},{"user_id":197,"name":"Sloth ‚ù¶","steam_id":76561197998378462,"connected_time":2858000000000,"state":"active","ping":102},{"user_id":226,"name":"Kanye West","steam_id":76561198083795458,"connected_time":1782000000000,"state":"active","ping":86},{"user_id":183,"name":"Picard","steam_id":76561197993530161,"connected_time":3586000000000,"state":"active","ping":66}]},{"server_id":108,"name":"Uncletopia | Dallas | 2 | All Maps","name_short":"dal-2","host":"dal-1.us.uncletopia.com","port":27025,"enabled":true,"region":"us-central","cc":"us","latitude":32.779167,"longitude":-96.80889,"reserved":0,"last_update":"0001-01-01T00:00:00Z","name_a2s":"Uncletopia | Dallas | 2 | All Maps","protocol":17,"map":"cp_dustbowl","folder":"tf","game":"Team Fortress","app_id":440,"player_count":24,"max_players":24,"Bots":0,"server_type":"Dedicated","server_os":"Linux","password":true,"vac":true,"version":"7757534","steam_id":85568392924469988,"keywords":["cp","nocrits","nodmgspread","uncletopia"],"game_id":440,"stv_port":27026,"stv_name":"Uncletopia | Dallas | 2 | All Maps | STV","players":[{"user_id":192,"name":"I Exist","steam_id":76561199229739789,"connected_time":1121000000000,"state":"active","ping":75},{"user_id":176,"name":"darktheif54","steam_id":76561198043650119,"connected_time":2673000000000,"state":"active","ping":73},{"user_id":193,"name":"Strawberry","steam_id":76561198973740497,"connected_time":1113000000000,"state":"active","ping":78},{"user_id":164,"name":"airballer \u003e:3","steam_id":76561198165899125,"connected_time":3275000000000,"state":"active","ping":88},{"user_id":178,"name":"Outlander","steam_id":76561197998995746,"connected_time":2350000000000,"state":"active","ping":66},{"user_id":197,"name":"SirLxnely","steam_id":76561199081096354,"connected_time":1022000000000,"state":"active","ping":83},{"user_id":210,"name":"Bluedot","steam_id":76561198019909639,"connected_time":660000000000,"state":"active","ping":76},{"user_id":202,"name":"Diamond Fries","steam_id":76561199086196600,"connected_time":879000000000,"state":"active","ping":86},{"user_id":194,"name":"Smiegle","steam_id":76561198073535516,"connected_time":1099000000000,"state":"active","ping":66},{"user_id":195,"name":"Fuulip","steam_id":76561199109275013,"connected_time":1098000000000,"state":"active","ping":82},{"user_id":158,"name":"girlboss","steam_id":76561197989019617,"connected_time":3815000000000,"state":"active","ping":63},{"user_id":153,"name":"Mogori","steam_id":76561198074060650,"connected_time":4408000000000,"state":"active","ping":68},{"user_id":211,"name":"Goblin Merchant (50 OFF)","steam_id":76561199323707429,"connected_time":353000000000,"state":"active","ping":70},{"user_id":185,"name":"jerma985","steam_id":76561198813590500,"connected_time":1694000000000,"state":"active","ping":55},{"user_id":198,"name":"YarnballWasHere","steam_id":76561198066796158,"connected_time":1011000000000,"state":"active","ping":80},{"user_id":205,"name":"The indomitable human spirit","steam_id":76561198282395338,"connected_time":838000000000,"state":"active","ping":89},{"user_id":161,"name":"Rare_Igor","steam_id":76561198329611355,"connected_time":3317000000000,"state":"active","ping":64},{"user_id":212,"name":"..","steam_id":76561199090287295,"connected_time":188000000000,"state":"active","ping":83},{"user_id":177,"name":"Shattered Glass","steam_id":76561198116835391,"connected_time":2661000000000,"state":"active","ping":98},{"user_id":145,"name":"Ghaeril","steam_id":76561198047880019,"connected_time":5092000000000,"state":"active","ping":60},{"user_id":209,"name":"Jack Celliers","steam_id":76561198060983357,"connected_time":680000000000,"state":"active","ping":59},{"user_id":206,"name":"Jambi","steam_id":76561198846091685,"connected_time":799000000000,"state":"active","ping":47},{"user_id":112,"name":"That Guy","steam_id":76561198798973444,"connected_time":8034000000000,"state":"active","ping":95},{"user_id":136,"name":"Cable_tz","steam_id":76561199078745117,"connected_time":5616000000000,"state":"active","ping":85}]},{"server_id":5,"name":"Uncletopia | Frankfurt | 1 | All Maps","name_short":"frk-1","host":"frk-1.de.uncletopia.com","port":27015,"enabled":true,"region":"eu","cc":"de","latitude":50.110924,"longitude":8.682127,"reserved":0,"last_update":"0001-01-01T00:00:00Z","name_a2s":"Uncletopia | Frankfurt | 1 | All Maps","protocol":17,"map":"cp_sunshine","folder":"tf","game":"Team Fortress","app_id":440,"player_count":13,"max_players":24,"Bots":0,"server_type":"Dedicated","server_os":"Linux","password":true,"vac":true,"version":"7757534","steam_id":85568392924469989,"keywords":["cp","nocrits","nodmgspread","uncletopia"],"game_id":440,"stv_port":27016,"stv_name":"Uncletopia | Frankfurt | 1 | All Maps | STV","players":[{"user_id":314,"name":"Ecton","steam_id":76561198025103720,"connected_time":1045000000000,"state":"active","ping":60},{"user_id":347,"name":"MRKARTOFAN","steam_id":76561198963889235,"connected_time":5000000000,"state":"spawning","ping":73},{"user_id":290,"name":"Cookies and Bakies","steam_id":76561198017442928,"connected_time":2706000000000,"state":"active","ping":58},{"user_id":337,"name":"a Regurar Barroon","steam_id":76561198834913692,"connected_time":152000000000,"state":"active","ping":60},{"user_id":328,"name":"the fact that this cat","steam_id":76561198065721483,"connected_time":463000000000,"state":"active","ping":70},{"user_id":339,"name":"infinitytrait","steam_id":76561199142721155,"connected_time":100000000000,"state":"active","ping":70},{"user_id":343,"name":"Spy Gaming","steam_id":76561198257225296,"connected_time":56000000000,"state":"active","ping":76},{"user_id":344,"name":"rodeybodey","steam_id":76561198165351355,"connected_time":54000000000,"state":"spawning","ping":104},{"user_id":316,"name":"Angelatine","steam_id":76561198101624996,"connected_time":1034000000000,"state":"active","ping":84},{"user_id":340,"name":"DayRocketZero","steam_id":76561198331999006,"connected_time":88000000000,"state":"active","ping":66},{"user_id":319,"name":"Snoucher","steam_id":76561198955323108,"connected_time":968000000000,"state":"active","ping":66},{"user_id":332,"name":"trustable","steam_id":76561198894574244,"connected_time":407000000000,"state":"active","ping":173},{"user_id":305,"name":"GANGSTALKING IS A CRIME","steam_id":76561198121224963,"connected_time":2188000000000,"state":"active","ping":95}]},{"server_id":110,"name":"Uncletopia | Frankfurt | 2 | All Maps","name_short":"frk-2","host":"frk-1.de.uncletopia.com","port":27025,"enabled":true,"region":"eu","cc":"de","latitude":50.110924,"longitude":8.682127,"reserved":0,"last_update":"0001-01-01T00:00:00Z","name_a2s":"Uncletopia | Frankfurt | 2 | All Maps","protocol":17,"map":"koth_king","folder":"tf","game":"Team Fortress","app_id":440,"player_count":0,"max_players":24,"Bots":0,"server_type":"Dedicated","server_os":"Linux","password":true,"vac":true,"version":"7757534","steam_id":85568392924469990,"keywords":["cp","nocrits","nodmgspread","uncletopia"],"game_id":440,"stv_port":27026,"stv_name":"Uncletopia | Frankfurt | 2 | All Maps | STV","players":null},{"server_id":308,"name":"Uncletopia | Frankfurt | 3 | All Maps","name_short":"frk-3","host":"frk-1.de.uncletopia.com","port":27035,"enabled":true,"region":"eu","cc":"de","latitude":50.110924,"longitude":8.682127,"reserved":0,"last_update":"0001-01-01T00:00:00Z","name_a2s":"Uncletopia | Frankfurt | 3 | All Maps","protocol":17,"map":"cp_granary","folder":"tf","game":"Team Fortress","app_id":440,"player_count":0,"max_players":24,"Bots":0,"server_type":"Dedicated","server_os":"Linux","password":true,"vac":true,"version":"7757534","steam_id":85568392924504274,"keywords":["cp","nocrits","nodmgspread","uncletopia"],"game_id":440,"stv_port":27036,"stv_name":"Uncletopia | Frankfurt | 3 | All Maps | STV","players":null},{"server_id":309,"name":"Uncletopia | Frankfurt | 4 | All Maps","name_short":"frk-4","host":"frk-1.de.uncletopia.com","port":27045,"enabled":true,"region":"eu","cc":"de","latitude":50.110924,"longitude":8.682127,"reserved":0,"last_update":"0001-01-01T00:00:00Z","name_a2s":"Uncletopia | Frankfurt | 4 | All Maps","protocol":17,"map":"koth_lakeside_final","folder":"tf","game":"Team Fortress","app_id":440,"player_count":0,"max_players":24,"Bots":0,"server_type":"Dedicated","server_os":"Linux","password":true,"vac":true,"version":"7757534","steam_id":85568392924504275,"keywords":["cp","nocrits","nodmgspread","uncletopia"],"game_id":440,"stv_port":27046,"stv_name":"Uncletopia | Frankfurt | 4 | All Maps | STV","players":null},{"server_id":310,"name":"Uncletopia | Frankfurt | 5 | All Maps","name_short":"frk-5","host":"frk-1.de.uncletopia.com","port":27055,"enabled":true,"region":"eu","cc":"de","latitude":50.110924,"longitude":8.682127,"reserved":0,"last_update":"0001-01-01T00:00:00Z","name_a2s":"Uncletopia | Frankfurt | 5 | All Maps","protocol":17,"map":"koth_lakeside_final","folder":"tf","game":"Team Fortress","app_id":440,"player_count":0,"max_players":24,"Bots":0,"server_type":"Dedicated","server_os":"Linux","password":true,"vac":true,"version":"7757534","steam_id":85568392924504277,"keywords":["cp","nocrits","nodmgspread","uncletopia"],"game_id":440,"stv_port":27056,"stv_name":"Uncletopia | Frankfurt | 5 | All Maps | STV","players":null},{"server_id":311,"name":"Uncletopia | Frankfurt | 6 | All Maps","name_short":"frk-6","host":"frk-1.de.uncletopia.com","port":27065,"enabled":true,"region":"eu","cc":"de","latitude":50.110924,"longitude":8.682127,"reserved":0,"last_update":"0001-01-01T00:00:00Z","name_a2s":"Uncletopia | Frankfurt | 6 | All Maps","protocol":17,"map":"koth_suijin","folder":"tf","game":"Team Fortress","app_id":440,"player_count":3,"max_players":24,"Bots":0,"server_type":"Dedicated","server_os":"Linux","password":true,"vac":true,"version":"7757534","steam_id":85568392924504278,"keywords":["cp","nocrits","nodmgspread","uncletopia"],"game_id":440,"stv_port":27066,"stv_name":"Uncletopia | Frankfurt | 6 | All Maps | STV","players":[{"user_id":499,"name":"roblan11","steam_id":76561198066839258,"connected_time":4592000000000,"state":"active","ping":40},{"user_id":546,"name":"KingofCubes","steam_id":76561198258037513,"connected_time":1916000000000,"state":"active","ping":74},{"user_id":553,"name":"K.V. #RemoveRandomCrits","steam_id":76561197994832993,"connected_time":1131000000000,"state":"active","ping":72}]},{"server_id":23,"name":"Uncletopia | Frankfurt | 7 | Stopwatch Beta","name_short":"frk-7","host":"frk-1.de.uncletopia.com","port":27075,"enabled":true,"region":"eu","cc":"de","latitude":50.110924,"longitude":8.682127,"reserved":0,"last_update":"0001-01-01T00:00:00Z","name_a2s":"Uncletopia | Frankfurt | 7 | Stopwatch Beta","protocol":17,"map":"workshop/cp_process_f12.ugc2302948105","folder":"tf","game":"Team Fortress","app_id":440,"player_count":6,"max_players":24,"Bots":0,"server_type":"Dedicated","server_os":"Linux","password":true,"vac":true,"version":"7757534","steam_id":85568392924742827,"keywords":["cp","nocrits","nodmgspread","uncletopia"],"game_id":440,"stv_port":27076,"stv_name":"Uncletopia | Frankfurt | 7 | Stopwatch Beta | STV","players":[{"user_id":490,"name":"GAJtheSPY","steam_id":76561198256080023,"connected_time":413000000000,"state":"active","ping":60},{"user_id":464,"name":"zigosikcz","steam_id":76561198411180720,"connected_time":3992000000000,"state":"active","ping":63},{"user_id":491,"name":"F","steam_id":76561199149462792,"connected_time":366000000000,"state":"active","ping":57},{"user_id":492,"name":"Egor Pomidor","steam_id":76561199175688390,"connected_time":39000000000,"state":"active","ping":75},{"user_id":467,"name":"Jonathan","steam_id":76561198087988880,"connected_time":3504000000000,"state":"active","ping":42},{"user_id":384,"name":"Fat Pigeon","steam_id":76561198817940142,"connected_time":9410000000000,"state":"active","ping":45}]},{"server_id":24,"name":"Uncletopia | Frankfurt | 8 | Community","name_short":"frk-8","host":"frk-1.de.uncletopia.com","port":27085,"enabled":true,"region":"eu","cc":"de","latitude":50.110924,"longitude":8.682127,"reserved":0,"last_update":"0001-01-01T00:00:00Z","name_a2s":"Uncletopia | Frankfurt | 8 | Community","protocol":17,"map":"workshop/koth_kemptown_rc1.ugc767410655","folder":"tf","game":"Team Fortress","app_id":440,"player_count":0,"max_players":24,"Bots":0,"server_type":"Dedicated","server_os":"Linux","password":true,"vac":true,"version":"7757534","steam_id":85568392924742828,"keywords":["cp","nocrits","nodmgspread","uncletopia"],"game_id":440,"stv_port":27086,"stv_name":"Uncletopia | Frankfurt | 8 | Community | STV","players":null},{"server_id":202,"name":"Uncletopia | Hong Kong | 1 | All Maps","name_short":"hgk-1","host":"hgk-1.hk.uncletopia.com","port":27015,"enabled":true,"region":"asia","cc":"hk","latitude":22.302711,"longitude":114.177216,"reserved":0,"last_update":"0001-01-01T00:00:00Z","name_a2s":"Uncletopia | Hong Kong | 1 | All Maps","protocol":17,"map":"koth_cascade","folder":"tf","game":"Team Fortress","app_id":440,"player_count":0,"max_players":24,"Bots":0,"server_type":"Dedicated","server_os":"Linux","password":true,"vac":true,"version":"7757534","steam_id":85568392924494504,"keywords":["cp","nocrits","nodmgspread","uncletopia"],"game_id":440,"stv_port":27016,"stv_name":"Uncletopia | Hong Kong | 1 | All Maps | STV","players":null},{"server_id":1,"name":"Uncletopia | Los Angeles | 1 | All Maps","name_short":"lax-1","host":"lax-1.us.uncletopia.com","port":27015,"enabled":true,"region":"us-west","cc":"us","latitude":33.94279,"longitude":-118.41004,"reserved":0,"last_update":"0001-01-01T00:00:00Z","name_a2s":"Uncletopia | Los Angeles | 1 | All Maps","protocol":17,"map":"koth_lakeside_final","folder":"tf","game":"Team Fortress","app_id":440,"player_count":1,"max_players":24,"Bots":0,"server_type":"Dedicated","server_os":"Linux","password":true,"vac":true,"version":"7757534","steam_id":85568392924469991,"keywords":["cp","nocrits","nodmgspread","uncletopia"],"game_id":440,"stv_port":27016,"stv_name":"Uncletopia | Los Angeles | 1 | All Maps | STV","players":[{"user_id":5,"name":"Hoodie Deku","steam_id":76561199123163113,"connected_time":4000000000,"state":"spawning","ping":46}]},{"server_id":112,"name":"Uncletopia | Los Angeles | 2 | All Maps","name_short":"lax-2","host":"lax-1.us.uncletopia.com","port":27025,"enabled":true,"region":"us-west","cc":"us","latitude":33.94279,"longitude":-118.41004,"reserved":0,"last_update":"0001-01-01T00:00:00Z","name_a2s":"Uncletopia | Los Angeles | 2 | All Maps","protocol":17,"map":"pl_badwater","folder":"tf","game":"Team Fortress","app_id":440,"player_count":25,"max_players":24,"Bots":0,"server_type":"Dedicated","server_os":"Linux","password":true,"vac":true,"version":"7757534","steam_id":85568392924469992,"keywords":["nocrits","nodmgspread","payload","uncletopia"],"game_id":440,"stv_port":27026,"stv_name":"Uncletopia | Los Angeles | 2 | All Maps | STV","players":[{"user_id":62,"name":"John Wick's puppy","steam_id":76561198064662875,"connected_time":4593000000000,"state":"active","ping":58},{"user_id":105,"name":"Mickmissi√≥n","steam_id":76561199133527421,"connected_time":909000000000,"state":"active","ping":58},{"user_id":111,"name":"LogicalFurret","steam_id":76561198350604657,"connected_time":267000000000,"state":"active","ping":47},{"user_id":73,"name":"flo rida","steam_id":76561198226169704,"connected_time":3638000000000,"state":"active","ping":56},{"user_id":106,"name":"BBL Sponsor","steam_id":76561199093733603,"connected_time":906000000000,"state":"active","ping":46},{"user_id":107,"name":"will","steam_id":76561198134923092,"connected_time":900000000000,"state":"active","ping":45},{"user_id":89,"name":"LWebb","steam_id":76561199162936929,"connected_time":2358000000000,"state":"active","ping":109},{"user_id":80,"name":"ScoutSecoTF2","steam_id":76561198366212156,"connected_time":3443000000000,"state":"active","ping":100},{"user_id":102,"name":"snub","steam_id":76561198312106312,"connected_time":966000000000,"state":"active","ping":92},{"user_id":92,"name":"mu","steam_id":76561197997530228,"connected_time":2200000000000,"state":"active","ping":85},{"user_id":66,"name":"HeroOfTime","steam_id":76561199096218001,"connected_time":4183000000000,"state":"active","ping":53},{"user_id":30,"name":"Psychobanana","steam_id":76561199142143339,"connected_time":5717000000000,"state":"active","ping":68},{"user_id":108,"name":"zpalmtree","steam_id":76561198134307620,"connected_time":900000000000,"state":"active","ping":107},{"user_id":81,"name":"DemoLiberTF2","steam_id":76561198095378689,"connected_time":3431000000000,"state":"active","ping":80},{"user_id":82,"name":"El Grando Smokio","steam_id":76561198265117422,"connected_time":3427000000000,"state":"active","ping":92},{"user_id":93,"name":"Obvious131","steam_id":76561198874065644,"connected_time":2168000000000,"state":"active","ping":64},{"user_id":114,"name":"seaempee","steam_id":76561199050173679,"connected_time":49000000000,"state":"active","ping":84},{"user_id":101,"name":"tf3aflyingmouse","steam_id":76561198058134934,"connected_time":1136000000000,"state":"active","ping":68},{"user_id":112,"name":"hosewater","steam_id":76561198023383126,"connected_time":177000000000,"state":"active","ping":75},{"user_id":98,"name":"Chad the Sex Haver","steam_id":76561198058236528,"connected_time":1539000000000,"state":"active","ping":47},{"user_id":56,"name":"Vintage TV","steam_id":76561198800334545,"connected_time":4970000000000,"state":"active","ping":46},{"user_id":113,"name":"MinusSoup918","steam_id":76561198060902773,"connected_time":121000000000,"state":"active","ping":71},{"user_id":110,"name":"Isopentyl Ethanoate","steam_id":76561198116389072,"connected_time":769000000000,"state":"active","ping":86},{"user_id":65,"name":"Maid 'n' China","steam_id":76561198423392976,"connected_time":4450000000000,"state":"active","ping":61},{"user_id":115,"name":"Mufalito","steam_id":76561198951889482,"connected_time":12000000000,"state":"spawning","ping":190}]},{"server_id":324,"name":"Uncletopia | Los Angeles | 3 | All Maps","name_short":"lax-3","host":"lax-1.us.uncletopia.com","port":27035,"enabled":true,"region":"us-west","cc":"us","latitude":33.94279,"longitude":-118.41004,"reserved":0,"last_update":"0001-01-01T00:00:00Z","name_a2s":"Uncletopia | Los Angeles | 3 | All Maps","protocol":17,"map":"cp_mountainlab","folder":"tf","game":"Team Fortress","app_id":440,"player_count":0,"max_players":24,"Bots":0,"server_type":"Dedicated","server_os":"Linux","password":true,"vac":true,"version":"7757534","steam_id":85568392924510198,"keywords":["cp","nocrits","nodmgspread","uncletopia"],"game_id":440,"stv_port":27036,"stv_name":"Uncletopia | Los Angeles | 3 | All Maps | STV","players":null},{"server_id":25,"name":"Uncletopia | Los Angeles | 4 | Stopwatch Beta","name_short":"lax-4","host":"lax-1.us.uncletopia.com","port":27045,"enabled":true,"region":"us-west","cc":"us","latitude":33.94279,"longitude":-118.41004,"reserved":0,"last_update":"0001-01-01T00:00:00Z","name_a2s":"Uncletopia | Los Angeles | 4 | Stopwatch Beta","protocol":17,"map":"pl_swiftwater_final1","folder":"tf","game":"Team Fortress","app_id":440,"player_count":0,"max_players":24,"Bots":0,"server_type":"Dedicated","server_os":"Linux","password":true,"vac":true,"version":"7757534","steam_id":85568392924510199,"keywords":["nocrits","nodmgspread","payload","uncletopia"],"game_id":440,"stv_port":27046,"stv_name":"Uncletopia | Los Angeles | 4 | Stopwatch Beta | STV","players":null},{"server_id":11,"name":"Uncletopia | London | 1 | All Maps","name_short":"lon-1","host":"lon-1.uk.uncletopia.com","port":27015,"enabled":true,"region":"eu","cc":"gb","latitude":51.509865,"longitude":-0.118092,"reserved":0,"last_update":"0001-01-01T00:00:00Z","name_a2s":"Uncletopia | London | 1 | All Maps","protocol":17,"map":"cp_dustbowl","folder":"tf","game":"Team Fortress","app_id":440,"player_count":24,"max_players":24,"Bots":0,"server_type":"Dedicated","server_os":"Linux","password":true,"vac":true,"version":"7757534","steam_id":85568392924367362,"keywords":["cp","nocrits","nodmgspread","uncletopia"],"game_id":440,"stv_port":27016,"stv_name":"Uncletopia | London | 1 | All Maps | STV","players":[{"user_id":635,"name":"Mango-Man.","steam_id":76561198840558687,"connected_time":1665000000000,"state":"active","ping":68},{"user_id":675,"name":"Knapka","steam_id":76561198090422767,"connected_time":222000000000,"state":"active","ping":64},{"user_id":642,"name":"SaltyCupcakes","steam_id":76561198256386417,"connected_time":1342000000000,"state":"active","ping":47},{"user_id":602,"name":"Piox","steam_id":76561198125689157,"connected_time":3255000000000,"state":"active","ping":77},{"user_id":681,"name":"insert epic music","steam_id":76561198095560087,"connected_time":137000000000,"state":"active","ping":78},{"user_id":619,"name":"Djinnkinn","steam_id":76561198029913860,"connected_time":1910000000000,"state":"active","ping":68},{"user_id":667,"name":"AWildTamim","steam_id":76561198048060652,"connected_time":621000000000,"state":"active","ping":47},{"user_id":659,"name":"üåº HugeE","steam_id":76561198245495152,"connected_time":751000000000,"state":"active","ping":61},{"user_id":670,"name":"Myrmodion","steam_id":76561198054746247,"connected_time":461000000000,"state":"active","ping":71},{"user_id":660,"name":"homeinvasion$","steam_id":76561199111905021,"connected_time":743000000000,"state":"active","ping":116},{"user_id":661,"name":"The","steam_id":76561198359311605,"connected_time":739000000000,"state":"active","ping":112},{"user_id":679,"name":"Zeppelin","steam_id":76561198154867991,"connected_time":197000000000,"state":"active","ping":58},{"user_id":672,"name":"Reult","steam_id":76561199444524084,"connected_time":344000000000,"state":"active","ping":66},{"user_id":367,"name":"dec","steam_id":76561198009660168,"connected_time":13745000000000,"state":"active","ping":59},{"user_id":617,"name":"Aaron","steam_id":76561197990046953,"connected_time":1930000000000,"state":"active","ping":72},{"user_id":663,"name":"lebron","steam_id":76561198027033926,"connected_time":727000000000,"state":"active","ping":55},{"user_id":682,"name":"JohkupohkuXD","steam_id":76561198391108762,"connected_time":14000000000,"state":"spawning","ping":184},{"user_id":464,"name":"nyanezt","steam_id":76561198253734265,"connected_time":7738000000000,"state":"active","ping":111},{"user_id":645,"name":"heavy sings (real)","steam_id":76561199023804405,"connected_time":1249000000000,"state":"active","ping":81},{"user_id":654,"name":"beep!","steam_id":76561198111674607,"connected_time":868000000000,"state":"active","ping":52},{"user_id":668,"name":"hananamanna","steam_id":76561198006570285,"connected_time":618000000000,"state":"active","ping":122},{"user_id":680,"name":"Oyu","steam_id":76561198113997772,"connected_time":162000000000,"state":"active","ping":85},{"user_id":610,"name":"KPhii","steam_id":76561198970587061,"connected_time":3048000000000,"state":"active","ping":75},{"user_id":666,"name":"miau","steam_id":76561198053919062,"connected_time":716000000000,"state":"active","ping":85}]},{"server_id":114,"name":"Uncletopia | London | 2 | All Maps","name_short":"lon-2","host":"lon-1.uk.uncletopia.com","port":27025,"enabled":true,"region":"eu","cc":"gb","latitude":51.509865,"longitude":-0.118092,"reserved":0,"last_update":"0001-01-01T00:00:00Z","name_a2s":"Uncletopia | London | 2 | All Maps","protocol":17,"map":"pl_borneo","folder":"tf","game":"Team Fortress","app_id":440,"player_count":24,"max_players":24,"Bots":0,"server_type":"Dedicated","server_os":"Linux","password":true,"vac":true,"version":"7757534","steam_id":85568392924470941,"keywords":["nocrits","nodmgspread","payload","uncletopia"],"game_id":440,"stv_port":27026,"stv_name":"Uncletopia | London | 2 | All Maps | STV","players":[{"user_id":567,"name":"KenPendersOfficial","steam_id":76561198065112022,"connected_time":4604000000000,"state":"active","ping":90},{"user_id":618,"name":"Sensei","steam_id":76561198383582429,"connected_time":426000000000,"state":"active","ping":92},{"user_id":627,"name":"The FBI","steam_id":76561198037398104,"connected_time":240000000000,"state":"active","ping":55},{"user_id":540,"name":"Magic","steam_id":76561198401602586,"connected_time":6374000000000,"state":"active","ping":86},{"user_id":623,"name":"leonardini.w","steam_id":76561199097963071,"connected_time":284000000000,"state":"active","ping":90},{"user_id":624,"name":"Joseph Stalin","steam_id":76561198033199746,"connected_time":282000000000,"state":"active","ping":56},{"user_id":610,"name":"fume.","steam_id":76561197960476801,"connected_time":1078000000000,"state":"active","ping":58},{"user_id":613,"name":"akakez","steam_id":76561198095432821,"connected_time":667000000000,"state":"active","ping":111},{"user_id":581,"name":"Gleart","steam_id":76561199149403194,"connected_time":4093000000000,"state":"active","ping":83},{"user_id":621,"name":"ruskie (fake)","steam_id":76561199106215999,"connected_time":311000000000,"state":"active","ping":133},{"user_id":614,"name":"Saken","steam_id":76561198049075295,"connected_time":662000000000,"state":"active","ping":64},{"user_id":620,"name":"Syd","steam_id":76561198020515027,"connected_time":332000000000,"state":"active","ping":72},{"user_id":628,"name":"Axord","steam_id":76561199289652176,"connected_time":45000000000,"state":"active","ping":49},{"user_id":589,"name":"Ed","steam_id":76561198135081318,"connected_time":2506000000000,"state":"active","ping":54},{"user_id":461,"name":"Apathy","steam_id":76561199308784371,"connected_time":11633000000000,"state":"active","ping":57},{"user_id":556,"name":"kojitori","steam_id":76561198838072150,"connected_time":5698000000000,"state":"active","ping":44},{"user_id":615,"name":"jonbob","steam_id":76561197963506620,"connected_time":536000000000,"state":"active","ping":51},{"user_id":611,"name":"all mute","steam_id":76561198105739516,"connected_time":957000000000,"state":"active","ping":50},{"user_id":565,"name":"Creature from the piss drawer","steam_id":76561198055949151,"connected_time":4908000000000,"state":"active","ping":46},{"user_id":625,"name":"‚ô• Cirno ‚ô•","steam_id":76561198834982738,"connected_time":281000000000,"state":"active","ping":69},{"user_id":579,"name":"Tymu","steam_id":76561198093318988,"connected_time":4112000000000,"state":"active","ping":114},{"user_id":600,"name":"max","steam_id":76561198059206184,"connected_time":1669000000000,"state":"active","ping":59},{"user_id":603,"name":"Tsamuki","steam_id":76561198811256020,"connected_time":1569000000000,"state":"active","ping":57},{"user_id":626,"name":"Syppy","steam_id":76561198078273095,"connected_time":280000000000,"state":"active","ping":82}]},{"server_id":320,"name":"Uncletopia | London | 3 | All Maps","name_short":"lon-3","host":"lon-1.uk.uncletopia.com","port":27035,"enabled":true,"region":"eu","cc":"gb","latitude":51.509865,"longitude":-0.118092,"reserved":0,"last_update":"0001-01-01T00:00:00Z","name_a2s":"Uncletopia | London | 3 | All Maps","protocol":17,"map":"pl_badwater","folder":"tf","game":"Team Fortress","app_id":440,"player_count":24,"max_players":24,"Bots":0,"server_type":"Dedicated","server_os":"Linux","password":true,"vac":true,"version":"7757534","steam_id":85568392924510192,"keywords":["nocrits","nodmgspread","payload","uncletopia"],"game_id":440,"stv_port":27036,"stv_name":"Uncletopia | London | 3 | All Maps | STV","players":[{"user_id":374,"name":"please do not die","steam_id":76561198112125142,"connected_time":3335000000000,"state":"active","ping":67},{"user_id":400,"name":"MLG Peridot","steam_id":76561198069780233,"connected_time":1397000000000,"state":"active","ping":52},{"user_id":415,"name":"astigmatic","steam_id":76561199103959197,"connected_time":547000000000,"state":"active","ping":100},{"user_id":406,"name":"AWJ ÀÜ-ÀÜ","steam_id":76561198053628243,"connected_time":1258000000000,"state":"active","ping":47},{"user_id":421,"name":"hero","steam_id":76561198338943416,"connected_time":229000000000,"state":"active","ping":45},{"user_id":313,"name":"Pacanaz","steam_id":76561198011514552,"connected_time":6779000000000,"state":"active","ping":90},{"user_id":404,"name":"finbar","steam_id":76561198056812396,"connected_time":1288000000000,"state":"active","ping":90},{"user_id":366,"name":"Ixsus\u003c3","steam_id":76561198094756869,"connected_time":3624000000000,"state":"active","ping":68},{"user_id":425,"name":"Zogg","steam_id":76561198352683491,"connected_time":160000000000,"state":"active","ping":40},{"user_id":416,"name":"Dag!","steam_id":76561198030147941,"connected_time":546000000000,"state":"active","ping":72},{"user_id":395,"name":"The_Jaystone","steam_id":76561198126280691,"connected_time":1911000000000,"state":"active","ping":39},{"user_id":422,"name":"boofing prozac","steam_id":76561198851157897,"connected_time":226000000000,"state":"active","ping":65},{"user_id":417,"name":"powej","steam_id":76561198056381418,"connected_time":531000000000,"state":"active","ping":39},{"user_id":396,"name":"LuCroGi","steam_id":76561198057283891,"connected_time":1804000000000,"state":"active","ping":64},{"user_id":407,"name":"Pancakes","steam_id":76561198196259989,"connected_time":1246000000000,"state":"active","ping":51},{"user_id":389,"name":"Meff","steam_id":76561197970610839,"connected_time":2419000000000,"state":"active","ping":54},{"user_id":426,"name":"Waffle","steam_id":76561198054258390,"connected_time":142000000000,"state":"active","ping":103},{"user_id":399,"name":"FoOzTV","steam_id":76561197998636728,"connected_time":1654000000000,"state":"active","ping":71},{"user_id":390,"name":"piping hot","steam_id":76561198011692496,"connected_time":2412000000000,"state":"active","ping":71},{"user_id":424,"name":"Claw","steam_id":76561198060985181,"connected_time":175000000000,"state":"active","ping":50},{"user_id":333,"name":"Will or Mole","steam_id":76561198046415938,"connected_time":6031000000000,"state":"active","ping":65},{"user_id":428,"name":"Janitor","steam_id":76561198418538887,"connected_time":49000000000,"state":"active","ping":103},{"user_id":364,"name":"baro.ricky","steam_id":76561198172204039,"connected_time":3997000000000,"state":"active","ping":81},{"user_id":420,"name":"DigyB","steam_id":76561198014442345,"connected_time":369000000000,"state":"active","ping":54}]},{"server_id":321,"name":"Uncletopia | London | 4 | All Maps","name_short":"lon-4","host":"lon-1.uk.uncletopia.com","port":27045,"enabled":true,"region":"eu","cc":"gb","latitude":51.509865,"longitude":-0.118092,"reserved":0,"last_update":"0001-01-01T00:00:00Z","name_a2s":"Uncletopia | London | 4 | All Maps","protocol":17,"map":"koth_lakeside_final","folder":"tf","game":"Team Fortress","app_id":440,"player_count":21,"max_players":24,"Bots":0,"server_type":"Dedicated","server_os":"Linux","password":true,"vac":true,"version":"7757534","steam_id":85568392924510193,"keywords":["cp","nocrits","nodmgspread","uncletopia"],"game_id":440,"stv_port":27046,"stv_name":"Uncletopia | London | 4 | All Maps | STV","players":[{"user_id":479,"name":"i am bread","steam_id":76561199180277321,"connected_time":30000000000,"state":"connecting","ping":47},{"user_id":475,"name":"Droy","steam_id":76561198065854668,"connected_time":690000000000,"state":"active","ping":37},{"user_id":471,"name":"Bernardez","steam_id":76561197998751142,"connected_time":771000000000,"state":"active","ping":34},{"user_id":480,"name":"LemonLeCitron","steam_id":76561198215545267,"connected_time":29000000000,"state":"active","ping":97},{"user_id":458,"name":"Lennox","steam_id":76561198069063554,"connected_time":1179000000000,"state":"active","ping":41},{"user_id":476,"name":"elio","steam_id":76561198142662131,"connected_time":514000000000,"state":"active","ping":64},{"user_id":485,"name":"duchess abigail","steam_id":76561198166953966,"connected_time":2000000000,"state":"spawning","ping":47},{"user_id":470,"name":"Zephalo","steam_id":76561198021346474,"connected_time":951000000000,"state":"active","ping":52},{"user_id":483,"name":"Raldow","steam_id":76561198021389301,"connected_time":20000000000,"state":"active","ping":47},{"user_id":460,"name":"The Business Man","steam_id":76561198059907124,"connected_time":1154000000000,"state":"active","ping":146},{"user_id":449,"name":"Tyzone‚ô•","steam_id":76561198024844539,"connected_time":2506000000000,"state":"active","ping":44},{"user_id":463,"name":"SKFBoge","steam_id":76561198269038278,"connected_time":1135000000000,"state":"active","ping":84},{"user_id":484,"name":"zak","steam_id":76561197998895428,"connected_time":12000000000,"state":"spawning","ping":118},{"user_id":447,"name":"Auburn | CivilNetworks.net","steam_id":76561198132236975,"connected_time":2538000000000,"state":"active","ping":67},{"user_id":440,"name":"Lyncurion","steam_id":76561199260022725,"connected_time":3822000000000,"state":"active","ping":86},{"user_id":426,"name":"MedicMania","steam_id":76561199013190566,"connected_time":4720000000000,"state":"spawning","ping":22},{"user_id":478,"name":"V-Hades","steam_id":76561198351193229,"connected_time":90000000000,"state":"active","ping":492},{"user_id":472,"name":"Zepta","steam_id":76561199001659666,"connected_time":769000000000,"state":"active","ping":101},{"user_id":454,"name":"FluffWuff | civilnetworks.net","steam_id":76561198971523563,"connected_time":1373000000000,"state":"active","ping":64},{"user_id":464,"name":"skill","steam_id":76561198106012909,"connected_time":1134000000000,"state":"active","ping":73},{"user_id":468,"name":"Aaron","steam_id":76561198324775476,"connected_time":1070000000000,"state":"active","ping":51}]},{"server_id":21,"name":"Uncletopia | London | 5 | All Maps","name_short":"lon-5","host":"lon-1.uk.uncletopia.com","port":27055,"enabled":true,"region":"eu","cc":"gb","latitude":51.509865,"longitude":-0.118092,"reserved":0,"last_update":"0001-01-01T00:00:00Z","name_a2s":"Uncletopia | London | 5 | All Maps","protocol":17,"map":"pl_frontier_final","folder":"tf","game":"Team Fortress","app_id":440,"player_count":24,"max_players":24,"Bots":0,"server_type":"Dedicated","server_os":"Linux","password":true,"vac":true,"version":"7757534","steam_id":85568392924742829,"keywords":["nocrits","nodmgspread","payload","uncletopia"],"game_id":440,"stv_port":27056,"stv_name":"Uncletopia | London | 5 | All Maps | STV","players":[{"user_id":649,"name":"panakid","steam_id":76561198364121077,"connected_time":1225000000000,"state":"active","ping":91},{"user_id":668,"name":".::[SerafeTTiN]::.","steam_id":76561198009471724,"connected_time":15000000000,"state":"spawning","ping":131},{"user_id":636,"name":"How did I not die?","steam_id":76561198274105878,"connected_time":2602000000000,"state":"active","ping":99},{"user_id":635,"name":"pfear","steam_id":76561197999207328,"connected_time":3222000000000,"state":"active","ping":81},{"user_id":660,"name":"Enforcer02","steam_id":76561197966045944,"connected_time":146000000000,"state":"active","ping":61},{"user_id":598,"name":"R8N - Obismal","steam_id":76561198007482714,"connected_time":5247000000000,"state":"active","ping":79},{"user_id":641,"name":"DumDum","steam_id":76561198836275186,"connected_time":2071000000000,"state":"active","ping":90},{"user_id":650,"name":"mustachio cheap","steam_id":76561198334042273,"connected_time":1224000000000,"state":"active","ping":96},{"user_id":593,"name":"fregaropa","steam_id":76561198150806166,"connected_time":5330000000000,"state":"active","ping":86},{"user_id":590,"name":"GamliRaudur1","steam_id":76561199179181105,"connected_time":5483000000000,"state":"active","ping":86},{"user_id":664,"name":"Hamza Gaming","steam_id":76561198150448445,"connected_time":102000000000,"state":"active","ping":70},{"user_id":666,"name":"Tywhip","steam_id":76561199207545191,"connected_time":63000000000,"state":"active","ping":55},{"user_id":662,"name":"SynthBox3","steam_id":76561199094075745,"connected_time":112000000000,"state":"active","ping":107},{"user_id":659,"name":"epicgamerfb42","steam_id":76561198057046524,"connected_time":182000000000,"state":"active","ping":92},{"user_id":663,"name":"General Petrov","steam_id":76561198027204104,"connected_time":109000000000,"state":"active","ping":80},{"user_id":653,"name":"K'aax Itzam","steam_id":76561198044024509,"connected_time":1174000000000,"state":"active","ping":75},{"user_id":648,"name":"Jara.","steam_id":76561197992207165,"connected_time":1337000000000,"state":"active","ping":101},{"user_id":612,"name":"Macci - Obismal","steam_id":76561198050485404,"connected_time":4918000000000,"state":"active","ping":85},{"user_id":619,"name":"s a i","steam_id":76561197970379754,"connected_time":4418000000000,"state":"active","ping":60},{"user_id":665,"name":"Circular","steam_id":76561198001536710,"connected_time":78000000000,"state":"active","ping":45},{"user_id":639,"name":"Officer Butter","steam_id":76561198137647398,"connected_time":2150000000000,"state":"active","ping":142},{"user_id":667,"name":"Amon Gus","steam_id":76561199094540960,"connected_time":53000000000,"state":"active","ping":73},{"user_id":657,"name":"Mad_Doge","steam_id":76561198055373907,"connected_time":1077000000000,"state":"active","ping":73},{"user_id":656,"name":"Husk","steam_id":76561198271808519,"connected_time":1138000000000,"state":"active","ping":73}]},{"server_id":22,"name":"Uncletopia | London | 6 | All Maps","name_short":"lon-6","host":"lon-1.uk.uncletopia.com","port":27065,"enabled":true,"region":"eu","cc":"gb","latitude":51.509865,"longitude":-0.118092,"reserved":0,"last_update":"0001-01-01T00:00:00Z","name_a2s":"Uncletopia | London | 6 | All Maps","protocol":17,"map":"pl_snowycoast","folder":"tf","game":"Team Fortress","app_id":440,"player_count":24,"max_players":24,"Bots":0,"server_type":"Dedicated","server_os":"Linux","password":true,"vac":true,"version":"7757534","steam_id":85568392924742830,"keywords":["nocrits","nodmgspread","payload","uncletopia"],"game_id":440,"stv_port":27066,"stv_name":"Uncletopia | London | 6 | All Maps | STV","players":[{"user_id":358,"name":"ghenios","steam_id":76561198030011207,"connected_time":1822000000000,"state":"active","ping":90},{"user_id":370,"name":"GreenCube","steam_id":76561199082242017,"connected_time":1371000000000,"state":"active","ping":76},{"user_id":389,"name":"‚ò© Knightz ‚ò©","steam_id":76561198040936414,"connected_time":325000000000,"state":"active","ping":107},{"user_id":271,"name":"dotdotdot","steam_id":76561198057628751,"connected_time":5829000000000,"state":"active","ping":63},{"user_id":324,"name":"Pi'erre","steam_id":76561198214173279,"connected_time":2475000000000,"state":"active","ping":82},{"user_id":292,"name":"bawner","steam_id":76561198130131932,"connected_time":4205000000000,"state":"active","ping":49},{"user_id":329,"name":"eeeeee","steam_id":76561198017786875,"connected_time":2338000000000,"state":"active","ping":67},{"user_id":391,"name":"MAKENTAKEN","steam_id":76561199127359587,"connected_time":126000000000,"state":"active","ping":104},{"user_id":383,"name":"Over here saw bones","steam_id":76561198320506848,"connected_time":1100000000000,"state":"active","ping":90},{"user_id":319,"name":"Anonymous47007","steam_id":76561199005211417,"connected_time":2984000000000,"state":"active","ping":82},{"user_id":369,"name":"Tomfool","steam_id":76561197993256481,"connected_time":1383000000000,"state":"active","ping":90},{"user_id":385,"name":"Harmless Potato","steam_id":76561198039048236,"connected_time":1040000000000,"state":"active","ping":106},{"user_id":386,"name":"cult","steam_id":76561198188647690,"connected_time":998000000000,"state":"active","ping":80},{"user_id":331,"name":"(‚ó£_‚ó¢)","steam_id":76561198093123552,"connected_time":2311000000000,"state":"active","ping":64},{"user_id":366,"name":"babel","steam_id":76561198118412910,"connected_time":1466000000000,"state":"active","ping":65},{"user_id":364,"name":"L1nuS050","steam_id":76561199017922842,"connected_time":1583000000000,"state":"active","ping":91},{"user_id":332,"name":"Carrotcracker","steam_id":76561198034862396,"connected_time":2310000000000,"state":"active","ping":87},{"user_id":392,"name":"SlwoF√∏","steam_id":76561198049663931,"connected_time":64000000000,"state":"active","ping":58},{"user_id":388,"name":"Allah","steam_id":76561198126613292,"connected_time":660000000000,"state":"active","ping":65},{"user_id":333,"name":"tek-9","steam_id":76561198107220903,"connected_time":2251000000000,"state":"active","ping":60},{"user_id":373,"name":"Le Temps des Temp√™tes Audebile","steam_id":76561198819871606,"connected_time":1314000000000,"state":"active","ping":108},{"user_id":335,"name":"Davey","steam_id":76561198256879107,"connected_time":2188000000000,"state":"active","ping":74},{"user_id":380,"name":"Cliff Barnes","steam_id":76561198032213783,"connected_time":1165000000000,"state":"active","ping":75},{"user_id":357,"name":"Zeklyn","steam_id":76561198144122654,"connected_time":1881000000000,"state":"active","ping":60}]},{"server_id":40,"name":"Uncletopia | London | 7 | No Payload","name_short":"lon-7","host":"lon-1.uk.uncletopia.com","port":27075,"enabled":true,"region":"eu","cc":"gb","latitude":51.509865,"longitude":-0.118092,"reserved":0,"last_update":"0001-01-01T00:00:00Z","name_a2s":"Uncletopia | London | 7 | No Payload","protocol":17,"map":"koth_king","folder":"tf","game":"Team Fortress","app_id":440,"player_count":4,"max_players":24,"Bots":0,"server_type":"Dedicated","server_os":"Linux","password":true,"vac":true,"version":"7757534","steam_id":85568392924964314,"keywords":["cp","nocrits","nodmgspread","uncletopia"],"game_id":440,"stv_port":27076,"stv_name":"Uncletopia | London | 7 | No Payload | STV","players":[{"user_id":23,"name":"Dor_atar","steam_id":76561198973980542,"connected_time":737000000000,"state":"active","ping":81},{"user_id":24,"name":"Clipsy","steam_id":76561199141525902,"connected_time":645000000000,"state":"active","ping":69},{"user_id":25,"name":"ratajskisamuele","steam_id":76561199133414901,"connected_time":526000000000,"state":"active","ping":66},{"user_id":26,"name":"loser","steam_id":76561198204630835,"connected_time":242000000000,"state":"active","ping":78}]},{"server_id":41,"name":"Uncletopia | London | 8 | Community","name_short":"lon-8","host":"lon-1.uk.uncletopia.com","port":27085,"enabled":true,"region":"eu","cc":"gb","latitude":51.509865,"longitude":-0.118092,"reserved":0,"last_update":"0001-01-01T00:00:00Z","name_a2s":"Uncletopia | London | 8 | Community","protocol":17,"map":"workshop/pl_badwater_pro_v12.ugc2142942074","folder":"tf","game":"Team Fortress","app_id":440,"player_count":24,"max_players":24,"Bots":0,"server_type":"Dedicated","server_os":"Linux","password":true,"vac":true,"version":"7757534","steam_id":85568392924964315,"keywords":["nocrits","nodmgspread","payload","uncletopia"],"game_id":440,"stv_port":27086,"stv_name":"Uncletopia | London | 8 | Community | STV","players":[{"user_id":102,"name":"blade","steam_id":76561198235739036,"connected_time":482000000000,"state":"active","ping":78},{"user_id":72,"name":"Ork","steam_id":76561197968575924,"connected_time":2703000000000,"state":"active","ping":51},{"user_id":95,"name":"Jon","steam_id":76561198148858397,"connected_time":1217000000000,"state":"active","ping":60},{"user_id":66,"name":"FunnyCool","steam_id":76561198029843142,"connected_time":2851000000000,"state":"active","ping":58},{"user_id":80,"name":"LVIXX","steam_id":76561198188767928,"connected_time":2086000000000,"state":"active","ping":66},{"user_id":101,"name":"Cheekus Breekus","steam_id":76561198188310329,"connected_time":1154000000000,"state":"active","ping":94},{"user_id":52,"name":"Looking for new amigos","steam_id":76561198039602539,"connected_time":3402000000000,"state":"active","ping":75},{"user_id":69,"name":"jm","steam_id":76561197996774870,"connected_time":2787000000000,"state":"active","ping":142},{"user_id":71,"name":"dr. coom","steam_id":76561198172193711,"connected_time":2721000000000,"state":"active","ping":38},{"user_id":77,"name":"Spetse","steam_id":76561197990649972,"connected_time":2543000000000,"state":"active","ping":93},{"user_id":86,"name":"mEch114","steam_id":76561198236936060,"connected_time":1604000000000,"state":"active","ping":149},{"user_id":78,"name":"JOK'R","steam_id":76561198140741944,"connected_time":2405000000000,"state":"active","ping":139},{"user_id":96,"name":"xavier","steam_id":76561198076494034,"connected_time":1209000000000,"state":"active","ping":51},{"user_id":61,"name":"Toa LightMakuta","steam_id":76561198212178104,"connected_time":3027000000000,"state":"active","ping":64},{"user_id":79,"name":"Beans","steam_id":76561199277021796,"connected_time":2368000000000,"state":"active","ping":113},{"user_id":85,"name":"Setiago","steam_id":76561198060770498,"connected_time":1818000000000,"state":"active","ping":67},{"user_id":87,"name":"Borat","steam_id":76561198122226417,"connected_time":1588000000000,"state":"active","ping":38},{"user_id":104,"name":"Avoonix","steam_id":76561198186954897,"connected_time":30000000000,"state":"active","ping":75},{"user_id":103,"name":"Kvicha Kvaratskhelia","steam_id":76561198179339326,"connected_time":275000000000,"state":"active","ping":75},{"user_id":99,"name":"„Ç≠„Ç¶„Ç§È≥•","steam_id":76561199054383513,"connected_time":1161000000000,"state":"active","ping":60},{"user_id":88,"name":"player","steam_id":76561198054474684,"connected_time":1565000000000,"state":"active","ping":75},{"user_id":93,"name":"cinny","steam_id":76561198832112629,"connected_time":1300000000000,"state":"active","ping":90},{"user_id":94,"name":"Vershal Smershal","steam_id":76561198116223995,"connected_time":1242000000000,"state":"active","ping":53},{"user_id":100,"name":"alice","steam_id":76561198180361759,"connected_time":1161000000000,"state":"active","ping":44}]},{"server_id":300,"name":"Uncletopia | Montr√©al | 1 | All Maps","name_short":"mtl-1","host":"mtl-1.ca.uncletopia.com","port":27015,"enabled":true,"region":"us-east","cc":"ca","latitude":45.50889,"longitude":-73.56167,"reserved":0,"last_update":"0001-01-01T00:00:00Z","name_a2s":"Uncletopia | Montr√©al | 1 | All Maps","protocol":17,"map":"pl_upward","folder":"tf","game":"Team Fortress","app_id":440,"player_count":0,"max_players":24,"Bots":0,"server_type":"Dedicated","server_os":"Linux","password":true,"vac":true,"version":"7757534","steam_id":85568392924500087,"keywords":["nocrits","nodmgspread","payload","uncletopia"],"game_id":440,"stv_port":27016,"stv_name":"Uncletopia | Montr√©al | 1 | All Maps | STV","players":null},{"server_id":301,"name":"Uncletopia | Montr√©al | 2 | All Maps","name_short":"mtl-2","host":"mtl-1.ca.uncletopia.com","port":27025,"enabled":true,"region":"us-east","cc":"ca","latitude":45.50889,"longitude":-73.56167,"reserved":0,"last_update":"0001-01-01T00:00:00Z","name_a2s":"Uncletopia | Montr√©al | 2 | All Maps","protocol":17,"map":"pl_pier","folder":"tf","game":"Team Fortress","app_id":440,"player_count":0,"max_players":24,"Bots":0,"server_type":"Dedicated","server_os":"Linux","password":true,"vac":true,"version":"7757534","steam_id":85568392924500088,"keywords":["nocrits","nodmgspread","payload","uncletopia"],"game_id":440,"stv_port":27026,"stv_name":"Uncletopia | Montr√©al | 2 | All Maps | STV","players":null},{"server_id":302,"name":"Uncletopia | Montr√©al | 3 | All Maps","name_short":"mtl-3","host":"mtl-1.ca.uncletopia.com","port":27035,"enabled":true,"region":"us-east","cc":"ca","latitude":45.50889,"longitude":-73.56167,"reserved":0,"last_update":"0001-01-01T00:00:00Z","name_a2s":"Uncletopia | Montr√©al | 3 | All Maps","protocol":17,"map":"pl_upward","folder":"tf","game":"Team Fortress","app_id":440,"player_count":0,"max_players":24,"Bots":0,"server_type":"Dedicated","server_os":"Linux","password":true,"vac":true,"version":"7757534","steam_id":85568392924500089,"keywords":["nocrits","nodmgspread","payload","uncletopia"],"game_id":440,"stv_port":27036,"stv_name":"Uncletopia | Montr√©al | 3 | All Maps | STV","players":null},{"server_id":303,"name":"Uncletopia | Montr√©al | 4 | No Payload","name_short":"mtl-4","host":"mtl-1.ca.uncletopia.com","port":27045,"enabled":true,"region":"us-east","cc":"ca","latitude":45.50889,"longitude":-73.56167,"reserved":0,"last_update":"0001-01-01T00:00:00Z","name_a2s":"Uncletopia | Montr√©al | 4 | No Payload","protocol":17,"map":"cp_junction_final","folder":"tf","game":"Team Fortress","app_id":440,"player_count":0,"max_players":24,"Bots":0,"server_type":"Dedicated","server_os":"Linux","password":true,"vac":true,"version":"7757534","steam_id":85568392924500090,"keywords":["cp","nocrits","nodmgspread","uncletopia"],"game_id":440,"stv_port":27046,"stv_name":"Uncletopia | Montr√©al | 4 | No Payload | STV","players":null},{"server_id":13,"name":"Uncletopia | New York City | 1 | All Maps","name_short":"nyc-1","host":"nyc-1.us.uncletopia.com","port":27015,"enabled":true,"region":"us-east","cc":"us","latitude":40.73061,"longitude":-73.93524,"reserved":0,"last_update":"0001-01-01T00:00:00Z","name_a2s":"Uncletopia | New York City | 1 | All Maps","protocol":17,"map":"pl_snowycoast","folder":"tf","game":"Team Fortress","app_id":440,"player_count":24,"max_players":24,"Bots":0,"server_type":"Dedicated","server_os":"Linux","password":true,"vac":true,"version":"7757534","steam_id":85568392924469993,"keywords":["nocrits","nodmgspread","payload","uncletopia"],"game_id":440,"stv_port":27016,"stv_name":"Uncletopia | New York City | 1 | All Maps | STV","players":[{"user_id":199,"name":"Hoofuyu","steam_id":76561199022142345,"connected_time":2648000000000,"state":"active","ping":88},{"user_id":212,"name":"kentucky senator mitch mcconnel","steam_id":76561198264806909,"connected_time":1080000000000,"state":"active","ping":66},{"user_id":219,"name":"JacripspyVulcano","steam_id":76561198966980576,"connected_time":491000000000,"state":"active","ping":42},{"user_id":191,"name":"Phillip Jeffries","steam_id":76561198064052174,"connected_time":3301000000000,"state":"active","ping":52},{"user_id":214,"name":"aiden","steam_id":76561198449527009,"connected_time":870000000000,"state":"active","ping":61},{"user_id":193,"name":"PaC","steam_id":76561198081053203,"connected_time":3267000000000,"state":"active","ping":132},{"user_id":215,"name":"caberknight tf2","steam_id":76561199273882768,"connected_time":853000000000,"state":"active","ping":60},{"user_id":205,"name":"LocaKola","steam_id":76561198173435430,"connected_time":1902000000000,"state":"active","ping":65},{"user_id":216,"name":"PARTITION(A,p,q)","steam_id":76561198050398028,"connected_time":839000000000,"state":"active","ping":79},{"user_id":194,"name":"Weerk","steam_id":76561199209543551,"connected_time":3266000000000,"state":"active","ping":80},{"user_id":187,"name":"demoknight tf2","steam_id":76561198936412406,"connected_time":4011000000000,"state":"active","ping":88},{"user_id":221,"name":"catboy phroliax","steam_id":76561198207075529,"connected_time":102000000000,"state":"active","ping":81},{"user_id":190,"name":"Egpta","steam_id":76561198237840238,"connected_time":3684000000000,"state":"active","ping":58},{"user_id":211,"name":"nhbiker","steam_id":76561198081277675,"connected_time":1117000000000,"state":"active","ping":57},{"user_id":207,"name":"dwight schrute","steam_id":76561198001237877,"connected_time":1895000000000,"state":"active","ping":74},{"user_id":182,"name":"GummybearKillr","steam_id":76561198031235750,"connected_time":4254000000000,"state":"active","ping":61},{"user_id":220,"name":"Nice21","steam_id":76561199427548141,"connected_time":226000000000,"state":"active","ping":70},{"user_id":202,"name":"TheGhostThatWas","steam_id":76561198055836483,"connected_time":2451000000000,"state":"active","ping":53},{"user_id":217,"name":"Walka","steam_id":76561198074325951,"connected_time":826000000000,"state":"active","ping":107},{"user_id":198,"name":"yeyoi","steam_id":76561198069821885,"connected_time":2938000000000,"state":"active","ping":67},{"user_id":162,"name":"I dont wipe","steam_id":76561198825563040,"connected_time":6505000000000,"state":"active","ping":111},{"user_id":218,"name":"The Dokkan Dance","steam_id":76561198855935442,"connected_time":825000000000,"state":"active","ping":98},{"user_id":175,"name":"JuJu The Human","steam_id":76561198152895619,"connected_time":5528000000000,"state":"active","ping":43},{"user_id":132,"name":"Kxmi","steam_id":76561198192730827,"connected_time":8395000000000,"state":"active","ping":86}]},{"server_id":14,"name":"Uncletopia | New York City | 2 | All Maps","name_short":"nyc-2","host":"nyc-1.us.uncletopia.com","port":27025,"enabled":true,"region":"us-east","cc":"us","latitude":40.73061,"longitude":-73.93524,"reserved":0,"last_update":"0001-01-01T00:00:00Z","name_a2s":"Uncletopia | New York City | 2 | All Maps","protocol":17,"map":"cp_sunshine","folder":"tf","game":"Team Fortress","app_id":440,"player_count":24,"max_players":24,"Bots":0,"server_type":"Dedicated","server_os":"Linux","password":true,"vac":true,"version":"7757534","steam_id":85568392924469994,"keywords":["cp","nocrits","nodmgspread","uncletopia"],"game_id":440,"stv_port":27026,"stv_name":"Uncletopia | New York City | 2 | All Maps | STV","players":[{"user_id":442,"name":"cellogamer","steam_id":76561198016937098,"connected_time":1430000000000,"state":"active","ping":52},{"user_id":430,"name":"Zaid","steam_id":76561199058810772,"connected_time":2234000000000,"state":"active","ping":59},{"user_id":433,"name":"LerN","steam_id":76561198083463877,"connected_time":1863000000000,"state":"active","ping":70},{"user_id":434,"name":"Fantastibad","steam_id":76561199087329262,"connected_time":1652000000000,"state":"active","ping":73},{"user_id":459,"name":"fish","steam_id":76561198229957260,"connected_time":12000000000,"state":"active","ping":60},{"user_id":460,"name":"newwmi","steam_id":76561198108685037,"connected_time":6000000000,"state":"spawning","ping":408},{"user_id":440,"name":"deskmedic","steam_id":76561198295640486,"connected_time":1471000000000,"state":"active","ping":116},{"user_id":446,"name":"fox","steam_id":76561198079646701,"connected_time":1352000000000,"state":"active","ping":125},{"user_id":438,"name":"Huevo Frito","steam_id":76561198896811394,"connected_time":1492000000000,"state":"active","ping":38},{"user_id":451,"name":"Makina","steam_id":76561198057475567,"connected_time":951000000000,"state":"active","ping":96},{"user_id":417,"name":"D'Glester Hardunkichud","steam_id":76561198023777839,"connected_time":2869000000000,"state":"active","ping":89},{"user_id":443,"name":"Only One Jhakobi","steam_id":76561197993641141,"connected_time":1407000000000,"state":"active","ping":91},{"user_id":403,"name":"Moody","steam_id":76561199013442105,"connected_time":4076000000000,"state":"active","ping":55},{"user_id":445,"name":"LuBzEur0b3ats","steam_id":76561199041041574,"connected_time":1374000000000,"state":"active","ping":60},{"user_id":454,"name":"Tomplaysgames","steam_id":76561198936527316,"connected_time":571000000000,"state":"active","ping":131},{"user_id":424,"name":"sock","steam_id":76561199117597830,"connected_time":2608000000000,"state":"active","ping":53},{"user_id":456,"name":"Wyodu","steam_id":76561198406237593,"connected_time":461000000000,"state":"active","ping":135},{"user_id":449,"name":"Pizza","steam_id":76561198118748364,"connected_time":1085000000000,"state":"active","ping":79},{"user_id":447,"name":"Mer Mer","steam_id":76561197967143665,"connected_time":1346000000000,"state":"active","ping":106},{"user_id":450,"name":"Romo","steam_id":76561198243101572,"connected_time":1075000000000,"state":"active","ping":83},{"user_id":429,"name":"apricity_a","steam_id":76561198202273263,"connected_time":2273000000000,"state":"active","ping":60},{"user_id":455,"name":"MILF Gaming","steam_id":76561198155378170,"connected_time":542000000000,"state":"active","ping":44},{"user_id":431,"name":"jimbo","steam_id":76561198046059770,"connected_time":2138000000000,"state":"active","ping":47},{"user_id":413,"name":"gghfgfgfg","steam_id":76561198064823861,"connected_time":3393000000000,"state":"active","ping":56}]},{"server_id":15,"name":"Uncletopia | New York City | 3 | Stopwatch Beta","name_short":"nyc-3","host":"nyc-1.us.uncletopia.com","port":27035,"enabled":true,"region":"us-east","cc":"us","latitude":40.73061,"longitude":-73.93524,"reserved":0,"last_update":"0001-01-01T00:00:00Z","name_a2s":"Uncletopia | New York City | 3 | Stopwatch Beta","protocol":17,"map":"workshop/koth_ashville_final.ugc2130459942","folder":"tf","game":"Team Fortress","app_id":440,"player_count":0,"max_players":24,"Bots":0,"server_type":"Dedicated","server_os":"Linux","password":true,"vac":true,"version":"7757534","steam_id":85568392924742820,"keywords":["cp","nocrits","nodmgspread","uncletopia"],"game_id":440,"stv_port":27036,"stv_name":"Uncletopia | New York City | 3 | Stopwatch Beta | STV","players":null},{"server_id":16,"name":"Uncletopia | New York City | 4 | Community","name_short":"nyc-4","host":"nyc-1.us.uncletopia.com","port":27045,"enabled":true,"region":"us-east","cc":"us","latitude":40.73061,"longitude":-73.93524,"reserved":0,"last_update":"0001-01-01T00:00:00Z","name_a2s":"Uncletopia | New York City | 4 | Community","protocol":17,"map":"workshop/koth_kemptown_rc1.ugc767410655","folder":"tf","game":"Team Fortress","app_id":440,"player_count":0,"max_players":24,"Bots":0,"server_type":"Dedicated","server_os":"Linux","password":true,"vac":true,"version":"7757534","steam_id":85568392924742821,"keywords":["cp","nocrits","nodmgspread","uncletopia"],"game_id":440,"stv_port":27046,"stv_name":"Uncletopia | New York City | 4 | Community | STV","players":null},{"server_id":142,"name":"Uncletopia | S√£o Paulo | 1 | All Maps","name_short":"sao-1","host":"sao-1.br.uncletopia.com","port":27015,"enabled":true,"region":"sa","cc":"br","latitude":-23.533773,"longitude":-46.62529,"reserved":0,"last_update":"0001-01-01T00:00:00Z","name_a2s":"Uncletopia | S√£o Paulo | 1 | All Maps","protocol":17,"map":"koth_cascade","folder":"tf","game":"Team Fortress","app_id":440,"player_count":6,"max_players":24,"Bots":0,"server_type":"Dedicated","server_os":"Linux","password":true,"vac":true,"version":"7757534","steam_id":85568392924469996,"keywords":["cp","nocrits","nodmgspread","uncletopia"],"game_id":440,"stv_port":27016,"stv_name":"Uncletopia | S√£o Paulo | 1 | All Maps | STV","players":[{"user_id":52,"name":"Kaboob","steam_id":76561199121870665,"connected_time":17000000000,"state":"spawning","ping":203},{"user_id":48,"name":"ADUARTENOG","steam_id":76561198365237392,"connected_time":1019000000000,"state":"active","ping":64},{"user_id":30,"name":"√çris","steam_id":76561199045746516,"connected_time":3200000000000,"state":"active","ping":108},{"user_id":31,"name":"Entsu_","steam_id":76561199011635370,"connected_time":3054000000000,"state":"active","ping":92},{"user_id":47,"name":"Tanajura","steam_id":76561198836327108,"connected_time":1136000000000,"state":"active","ping":86},{"user_id":39,"name":"Darkvd1","steam_id":76561198021572880,"connected_time":2144000000000,"state":"active","ping":40}]},{"server_id":143,"name":"Uncletopia | S√£o Paulo | 2 | All Maps","name_short":"sao-2","host":"sao-2.br.uncletopia.com","port":27015,"enabled":true,"region":"sa","cc":"br","latitude":-23.533773,"longitude":-46.62529,"reserved":0,"last_update":"0001-01-01T00:00:00Z","name_a2s":"Uncletopia | S√£o Paulo | 2 | All Maps","protocol":17,"map":"pl_upward","folder":"tf","game":"Team Fortress","app_id":440,"player_count":0,"max_players":24,"Bots":0,"server_type":"Dedicated","server_os":"Linux","password":true,"vac":true,"version":"7757534","steam_id":85568392924485349,"keywords":["nocrits","nodmgspread","payload","uncletopia"],"game_id":440,"stv_port":27016,"stv_name":"Uncletopia | S√£o Paulo | 2 | All Maps | STV","players":null},{"server_id":7,"name":"Uncletopia | Seattle | 1 | All Maps","name_short":"sea-1","host":"sea-1.us.uncletopia.com","port":27015,"enabled":true,"region":"us-west","cc":"us","latitude":47.608013,"longitude":-122.33517,"reserved":0,"last_update":"0001-01-01T00:00:00Z","name_a2s":"Uncletopia | Seattle | 1 | All Maps","protocol":17,"map":"pl_frontier_final","folder":"tf","game":"Team Fortress","app_id":440,"player_count":24,"max_players":24,"Bots":0,"server_type":"Dedicated","server_os":"Linux","password":true,"vac":true,"version":"7757534","steam_id":85568392924469997,"keywords":["nocrits","nodmgspread","payload","uncletopia"],"game_id":440,"stv_port":27016,"stv_name":"Uncletopia | Seattle | 1 | All Maps | STV","players":[{"user_id":341,"name":"EEBIGAA","steam_id":76561198056535988,"connected_time":1913000000000,"state":"active","ping":71},{"user_id":322,"name":"ejschild745","steam_id":76561199013388867,"connected_time":3316000000000,"state":"active","ping":69},{"user_id":361,"name":"Scion of Art (She/Her)","steam_id":76561198064410968,"connected_time":484000000000,"state":"active","ping":87},{"user_id":339,"name":"we300men","steam_id":76561198060549722,"connected_time":2036000000000,"state":"active","ping":72},{"user_id":331,"name":"nh67","steam_id":76561198452232778,"connected_time":2801000000000,"state":"active","ping":54},{"user_id":303,"name":"BasedGod","steam_id":76561198061177973,"connected_time":4176000000000,"state":"active","ping":61},{"user_id":353,"name":"Dirt Mammal","steam_id":76561198040781653,"connected_time":1174000000000,"state":"active","ping":56},{"user_id":332,"name":"CheeseRocket3658","steam_id":76561198126390613,"connected_time":2779000000000,"state":"active","ping":134},{"user_id":348,"name":"Splinter352","steam_id":76561198152434422,"connected_time":1380000000000,"state":"active","ping":76},{"user_id":330,"name":"Mico (ENA Enthusiast)","steam_id":76561198125462953,"connected_time":2848000000000,"state":"active","ping":54},{"user_id":351,"name":"exephur","steam_id":76561198135763234,"connected_time":1360000000000,"state":"active","ping":67},{"user_id":359,"name":"jayeskae","steam_id":76561198144220801,"connected_time":619000000000,"state":"active","ping":49},{"user_id":312,"name":"Optimore","steam_id":76561198047662990,"connected_time":3743000000000,"state":"active","ping":79},{"user_id":352,"name":"Clump","steam_id":76561198049690860,"connected_time":1356000000000,"state":"active","ping":56},{"user_id":269,"name":"Username","steam_id":76561198855586261,"connected_time":6254000000000,"state":"active","ping":64},{"user_id":340,"name":"[BBC] myr","steam_id":76561198200786939,"connected_time":1975000000000,"state":"active","ping":38},{"user_id":357,"name":"Xbox Live 30-Day Free Trial","steam_id":76561199231369792,"connected_time":713000000000,"state":"active","ping":119},{"user_id":364,"name":"NightBelt323286","steam_id":76561198955547094,"connected_time":172000000000,"state":"active","ping":62},{"user_id":328,"name":"Mignyanne :3","steam_id":76561198048754056,"connected_time":3019000000000,"state":"active","ping":63},{"user_id":333,"name":"josie","steam_id":76561198170848553,"connected_time":2759000000000,"state":"active","ping":45},{"user_id":358,"name":"HaphazardHazel","steam_id":76561198316812693,"connected_time":643000000000,"state":"active","ping":137},{"user_id":338,"name":"i cant aim","steam_id":76561198065873462,"connected_time":2106000000000,"state":"active","ping":76},{"user_id":354,"name":"WastefulTrash","steam_id":76561198119003597,"connected_time":1153000000000,"state":"active","ping":102},{"user_id":363,"name":"Ellis","steam_id":76561198993634489,"connected_time":208000000000,"state":"active","ping":82}]},{"server_id":119,"name":"Uncletopia | Seattle | 2 | All Maps","name_short":"sea-2","host":"sea-1.us.uncletopia.com","port":27025,"enabled":true,"region":"us-west","cc":"us","latitude":47.608013,"longitude":-122.33517,"reserved":0,"last_update":"0001-01-01T00:00:00Z","name_a2s":"Uncletopia | Seattle | 2 | All Maps","protocol":17,"map":"pl_frontier_final","folder":"tf","game":"Team Fortress","app_id":440,"player_count":24,"max_players":24,"Bots":0,"server_type":"Dedicated","server_os":"Linux","password":true,"vac":true,"version":"7757534","steam_id":85568392924469998,"keywords":["nocrits","nodmgspread","payload","uncletopia"],"game_id":440,"stv_port":27026,"stv_name":"Uncletopia | Seattle | 2 | All Maps | STV","players":[{"user_id":253,"name":"trnl","steam_id":76561198141001638,"connected_time":9000000000,"state":"spawning","ping":235},{"user_id":181,"name":"MisterManne","steam_id":76561198106598600,"connected_time":5765000000000,"state":"active","ping":55},{"user_id":215,"name":"HDI","steam_id":76561199062715724,"connected_time":3275000000000,"state":"active","ping":58},{"user_id":248,"name":"DORK","steam_id":76561198037384555,"connected_time":627000000000,"state":"active","ping":75},{"user_id":126,"name":"toodles","steam_id":76561198025463883,"connected_time":9266000000000,"state":"active","ping":47},{"user_id":236,"name":"SaltyFlump","steam_id":76561199379601288,"connected_time":1819000000000,"state":"active","ping":63},{"user_id":233,"name":"magic","steam_id":76561198031957385,"connected_time":2313000000000,"state":"active","ping":62},{"user_id":242,"name":"HOG RIDER","steam_id":76561198298589502,"connected_time":1148000000000,"state":"active","ping":79},{"user_id":244,"name":"PageBoiSkull","steam_id":76561198237353578,"connected_time":1137000000000,"state":"active","ping":82},{"user_id":249,"name":"Saddam","steam_id":76561197985725267,"connected_time":384000000000,"state":"active","ping":68},{"user_id":174,"name":"Combustionaut","steam_id":76561198164877813,"connected_time":6074000000000,"state":"active","ping":52},{"user_id":240,"name":"merkure","steam_id":76561198213385439,"connected_time":1162000000000,"state":"active","ping":71},{"user_id":199,"name":"Licensed Rizzicist","steam_id":76561199019693549,"connected_time":5057000000000,"state":"active","ping":57},{"user_id":235,"name":"ZAZA Enjoyer","steam_id":76561198094426099,"connected_time":1908000000000,"state":"active","ping":81},{"user_id":237,"name":"BER","steam_id":76561198187124250,"connected_time":1637000000000,"state":"active","ping":73},{"user_id":247,"name":"Dimmerswitch","steam_id":76561198034782177,"connected_time":1034000000000,"state":"active","ping":59},{"user_id":250,"name":"purple‚Ñ¢","steam_id":76561198057459725,"connected_time":358000000000,"state":"active","ping":52},{"user_id":245,"name":"steelmonkey","steam_id":76561198144924704,"connected_time":1133000000000,"state":"active","ping":46},{"user_id":222,"name":"Marcy\u003c3","steam_id":76561199132170268,"connected_time":3002000000000,"state":"active","ping":60},{"user_id":241,"name":"grugposter","steam_id":76561198035805348,"connected_time":1160000000000,"state":"active","ping":44},{"user_id":224,"name":"liftin'","steam_id":76561199089515791,"connected_time":2946000000000,"state":"active","ping":80},{"user_id":234,"name":"Xida","steam_id":76561198273471095,"connected_time":2209000000000,"state":"active","ping":46},{"user_id":251,"name":"Vv","steam_id":76561199052196750,"connected_time":280000000000,"state":"active","ping":107},{"user_id":197,"name":"Lesbian Futa Mommy","steam_id":76561198130479030,"connected_time":5172000000000,"state":"active","ping":56}]},{"server_id":406,"name":"Uncletopia | Seattle | 3 | Stopwatch Beta","name_short":"sea-3","host":"sea-1.us.uncletopia.com","port":27035,"enabled":true,"region":"us-west","cc":"us","latitude":47.608013,"longitude":-122.33517,"reserved":0,"last_update":"0001-01-01T00:00:00Z","name_a2s":"Uncletopia | Seattle | 3 | Stopwatch Beta","protocol":17,"map":"workshop/koth_ramjam_rc1.ugc459778887","folder":"tf","game":"Team Fortress","app_id":440,"player_count":0,"max_players":24,"Bots":0,"server_type":"Dedicated","server_os":"Linux","password":true,"vac":true,"version":"7757534","steam_id":85568392924515217,"keywords":["cp","nocrits","nodmgspread","uncletopia"],"game_id":440,"stv_port":27036,"stv_name":"Uncletopia | Seattle | 3 | Stopwatch Beta | STV","players":null},{"server_id":17,"name":"Uncletopia | San Francisco | 1 | All Maps","name_short":"sfo-1","host":"sfo-1.us.uncletopia.com","port":27015,"enabled":true,"region":"us-west","cc":"us","latitude":37.77397,"longitude":-122.4313,"reserved":0,"last_update":"0001-01-01T00:00:00Z","name_a2s":"Uncletopia | San Francisco | 1 | All Maps","protocol":17,"map":"pl_upward","folder":"tf","game":"Team Fortress","app_id":440,"player_count":24,"max_players":24,"Bots":0,"server_type":"Dedicated","server_os":"Linux","password":true,"vac":true,"version":"7757534","steam_id":85568392924469999,"keywords":["nocrits","nodmgspread","payload","uncletopia"],"game_id":440,"stv_port":27016,"stv_name":"Uncletopia | San Francisco | 1 | All Maps | STV","players":[{"user_id":352,"name":"DotA Psychologist","steam_id":76561198052171640,"connected_time":117000000000,"state":"active","ping":72},{"user_id":350,"name":"bottom pride burger","steam_id":76561198322247602,"connected_time":138000000000,"state":"active","ping":56},{"user_id":356,"name":"Aux","steam_id":76561199091651065,"connected_time":4000000000,"state":"spawning","ping":97},{"user_id":281,"name":"Tricky","steam_id":76561198287908105,"connected_time":4435000000000,"state":"active","ping":68},{"user_id":330,"name":"takeshi_","steam_id":76561198148797456,"connected_time":1943000000000,"state":"active","ping":45},{"user_id":355,"name":"coobs","steam_id":76561198118591226,"connected_time":68000000000,"state":"active","ping":44},{"user_id":339,"name":"JawnyMac","steam_id":76561198179529599,"connected_time":947000000000,"state":"active","ping":48},{"user_id":335,"name":"urdead","steam_id":76561198309760791,"connected_time":1682000000000,"state":"active","ping":117},{"user_id":325,"name":"YouAreReadingThis","steam_id":76561198367831600,"connected_time":2110000000000,"state":"active","ping":71},{"user_id":331,"name":"Bad Namesman","steam_id":76561198027205470,"connected_time":1940000000000,"state":"active","ping":72},{"user_id":326,"name":"‚ùÑ Alice ‚ô•","steam_id":76561198869945051,"connected_time":2009000000000,"state":"active","ping":106},{"user_id":345,"name":"GLXy","steam_id":76561198207551544,"connected_time":375000000000,"state":"active","ping":87},{"user_id":344,"name":"Interrobang","steam_id":76561198385044529,"connected_time":606000000000,"state":"active","ping":102},{"user_id":321,"name":"propeller rat","steam_id":76561198339195930,"connected_time":2443000000000,"state":"active","ping":61},{"user_id":286,"name":"b3afy","steam_id":76561198084208649,"connected_time":4261000000000,"state":"active","ping":75},{"user_id":301,"name":"trashbro","steam_id":76561199417993197,"connected_time":3780000000000,"state":"active","ping":59},{"user_id":328,"name":"sockgobblin","steam_id":76561198853494675,"connected_time":1971000000000,"state":"active","ping":60},{"user_id":333,"name":"Holo","steam_id":76561198330505786,"connected_time":1917000000000,"state":"active","ping":56},{"user_id":346,"name":"Sailor","steam_id":76561199081983517,"connected_time":323000000000,"state":"active","ping":90},{"user_id":351,"name":"Tort boi","steam_id":76561198125327110,"connected_time":131000000000,"state":"active","ping":86},{"user_id":334,"name":"perc 10","steam_id":76561198116471653,"connected_time":1892000000000,"state":"active","ping":77},{"user_id":241,"name":"Aryze #SaveTF2","steam_id":76561198119561581,"connected_time":7663000000000,"state":"active","ping":43},{"user_id":343,"name":"azureglxy","steam_id":76561198861388315,"connected_time":669000000000,"state":"active","ping":45},{"user_id":349,"name":"potatofox98","steam_id":76561198083721201,"connected_time":200000000000,"state":"active","ping":60}]},{"server_id":18,"name":"Uncletopia | San Francisco | 2 | All Maps","name_short":"sfo-2","host":"sfo-1.us.uncletopia.com","port":27025,"enabled":true,"region":"us-west","cc":"us","latitude":37.77397,"longitude":-122.4313,"reserved":0,"last_update":"0001-01-01T00:00:00Z","name_a2s":"Uncletopia | San Francisco | 2 | All Maps","protocol":17,"map":"koth_highpass","folder":"tf","game":"Team Fortress","app_id":440,"player_count":0,"max_players":24,"Bots":0,"server_type":"Dedicated","server_os":"Linux","password":true,"vac":true,"version":"7757534","steam_id":85568392924470000,"keywords":["cp","nocrits","nodmgspread","uncletopia"],"game_id":440,"stv_port":27026,"stv_name":"Uncletopia | San Francisco | 2 | All Maps | STV","players":null},{"server_id":19,"name":"Uncletopia | San Francisco | 3 | Stopwatch Beta","name_short":"sfo-3","host":"sfo-1.us.uncletopia.com","port":27035,"enabled":true,"region":"us-west","cc":"us","latitude":37.77397,"longitude":-122.4313,"reserved":0,"last_update":"0001-01-01T00:00:00Z","name_a2s":"Uncletopia | San Francisco | 3 | Stopwatch Beta","protocol":17,"map":"koth_lakeside_final","folder":"tf","game":"Team Fortress","app_id":440,"player_count":0,"max_players":24,"Bots":0,"server_type":"Dedicated","server_os":"Linux","password":true,"vac":true,"version":"7757534","steam_id":85568392924742824,"keywords":["cp","nocrits","nodmgspread","uncletopia"],"game_id":440,"stv_port":27036,"stv_name":"Uncletopia | San Francisco | 3 | Stopwatch Beta | STV","players":null},{"server_id":20,"name":"Uncletopia | San Francisco | 4 | Community","name_short":"sfo-4","host":"sfo-1.us.uncletopia.com","port":27045,"enabled":true,"region":"us-west","cc":"us","latitude":37.77397,"longitude":-122.4313,"reserved":0,"last_update":"0001-01-01T00:00:00Z","name_a2s":"Uncletopia | San Francisco | 4 | Community","protocol":17,"map":"workshop/cp_mannbase_rc2a.ugc1900737467","folder":"tf","game":"Team Fortress","app_id":440,"player_count":0,"max_players":24,"Bots":0,"server_type":"Dedicated","server_os":"Linux","password":true,"vac":true,"version":"7757534","steam_id":85568392924742826,"keywords":["cp","nocrits","nodmgspread","uncletopia"],"game_id":440,"stv_port":27046,"stv_name":"Uncletopia | San Francisco | 4 | Community | STV","players":null},{"server_id":141,"name":"Uncletopia | Sydney | 1 | All Maps","name_short":"syd-1","host":"syd-1.au.uncletopia.com","port":27015,"enabled":true,"region":"au","cc":"au","latitude":-33.865143,"longitude":151.2099,"reserved":0,"last_update":"0001-01-01T00:00:00Z","name_a2s":"Uncletopia | Sydney | 1 | All Maps","protocol":17,"map":"koth_viaduct","folder":"tf","game":"Team Fortress","app_id":440,"player_count":0,"max_players":24,"Bots":0,"server_type":"Dedicated","server_os":"Linux","password":true,"vac":true,"version":"7757534","steam_id":85568392924470001,"keywords":["cp","nocrits","nodmgspread","uncletopia"],"game_id":440,"stv_port":27016,"stv_name":"Uncletopia | Sydney | 1 | All Maps | STV","players":null},{"server_id":123,"name":"Uncletopia | Sydney | 2 | All Maps","name_short":"syd-2","host":"syd-1.au.uncletopia.com","port":27025,"enabled":true,"region":"au","cc":"au","latitude":-33.865143,"longitude":151.2099,"reserved":0,"last_update":"0001-01-01T00:00:00Z","name_a2s":"Uncletopia | Sydney | 2 | All Maps","protocol":17,"map":"cp_process_final","folder":"tf","game":"Team Fortress","app_id":440,"player_count":0,"max_players":24,"Bots":0,"server_type":"Dedicated","server_os":"Linux","password":true,"vac":true,"version":"7757534","steam_id":85568392924470002,"keywords":["cp","nocrits","nodmgspread","uncletopia"],"game_id":440,"stv_port":27026,"stv_name":"Uncletopia | Sydney | 2 | All Maps | STV","players":null},{"server_id":395,"name":"Uncletopia | Sydney | 3 | All Maps","name_short":"syd-3","host":"syd-1.au.uncletopia.com","port":27035,"enabled":true,"region":"au","cc":"au","latitude":-33.865143,"longitude":151.2099,"reserved":0,"last_update":"0001-01-01T00:00:00Z","name_a2s":"Uncletopia | Sydney | 3 | All Maps","protocol":17,"map":"pl_swiftwater_final1","folder":"tf","game":"Team Fortress","app_id":440,"player_count":0,"max_players":24,"Bots":0,"server_type":"Dedicated","server_os":"Linux","password":true,"vac":true,"version":"7757534","steam_id":85568392925194467,"keywords":["nocrits","nodmgspread","payload","uncletopia"],"game_id":440,"stv_port":27036,"stv_name":"Uncletopia | Sydney | 3 | All Maps | STV","players":null},{"server_id":396,"name":"Uncletopia | Sydney | 4 | All Maps","name_short":"syd-4","host":"syd-1.au.uncletopia.com","port":27045,"enabled":true,"region":"au","cc":"au","latitude":-33.865143,"longitude":151.2099,"reserved":0,"last_update":"0001-01-01T00:00:00Z","name_a2s":"Uncletopia | Sydney | 4 | All Maps","protocol":17,"map":"koth_highpass","folder":"tf","game":"Team Fortress","app_id":440,"player_count":0,"max_players":24,"Bots":0,"server_type":"Dedicated","server_os":"Linux","password":true,"vac":true,"version":"7757534","steam_id":85568392925397958,"keywords":["cp","nocrits","nodmgspread","uncletopia"],"game_id":440,"stv_port":27046,"stv_name":"Uncletopia | Sydney | 4 | All Maps | STV","players":null},{"server_id":58,"name":"Uncletopia | Sydney | 5 | Stopwatch Beta","name_short":"syd-5","host":"syd-1.au.uncletopia.com","port":27055,"enabled":true,"region":"au","cc":"au","latitude":-33.865143,"longitude":151.2099,"reserved":0,"last_update":"0001-01-01T00:00:00Z","name_a2s":"Uncletopia | Sydney | 5 | Stopwatch Beta","protocol":17,"map":"koth_cascade","folder":"tf","game":"Team Fortress","app_id":440,"player_count":0,"max_players":24,"Bots":0,"server_type":"Dedicated","server_os":"Linux","password":true,"vac":true,"version":"7757534","steam_id":85568392925397959,"keywords":["cp","nocrits","nodmgspread","uncletopia"],"game_id":440,"stv_port":27056,"stv_name":"Uncletopia | Sydney | 5 | Stopwatch Beta | STV","players":null},{"server_id":59,"name":"Uncletopia | Sydney | 6 | Community","name_short":"syd-6","host":"syd-1.au.uncletopia.com","port":27065,"enabled":true,"region":"au","cc":"au","latitude":-33.865143,"longitude":151.2099,"reserved":0,"last_update":"0001-01-01T00:00:00Z","name_a2s":"Uncletopia | Sydney | 6 | Community","protocol":17,"map":"cp_snakewater_final1","folder":"tf","game":"Team Fortress","app_id":440,"player_count":0,"max_players":24,"Bots":0,"server_type":"Dedicated","server_os":"Linux","password":true,"vac":true,"version":"7757534","steam_id":85568392925397960,"keywords":["cp","nocrits","nodmgspread","uncletopia"],"game_id":440,"stv_port":27066,"stv_name":"Uncletopia | Sydney | 6 | Community | STV","players":null},{"server_id":49,"name":"Uncletopia | Warsaw | 1 | All Maps","name_short":"waw-1","host":"waw-1.pl.uncletopia.com","port":27015,"enabled":true,"region":"eu","cc":"pl","latitude":52.2297,"longitude":21.017532,"reserved":0,"last_update":"0001-01-01T00:00:00Z","name_a2s":"","protocol":0,"map":"","folder":"","game":"","app_id":0,"player_count":0,"max_players":0,"Bots":0,"server_type":"","server_os":"","password":false,"vac":false,"version":"","steam_id":0,"keywords":null,"game_id":0,"stv_port":0,"stv_name":"","players":null},{"server_id":50,"name":"Uncletopia | Warsaw | 2 | All Maps","name_short":"waw-2","host":"waw-1.pl.uncletopia.com","port":27025,"enabled":true,"region":"eu","cc":"pl","latitude":52.2297,"longitude":21.017532,"reserved":0,"last_update":"0001-01-01T00:00:00Z","name_a2s":"Uncletopia | Warsaw | 2 | All Maps","protocol":17,"map":"koth_viaduct","folder":"tf","game":"Team Fortress","app_id":440,"player_count":0,"max_players":24,"Bots":0,"server_type":"Dedicated","server_os":"Linux","password":true,"vac":true,"version":"7757534","steam_id":85568392925397851,"keywords":["cp","nocrits","nodmgspread","uncletopia"],"game_id":440,"stv_port":27026,"stv_name":"Uncletopia | Warsaw | 2 | All Maps | STV","players":null},{"server_id":51,"name":"Uncletopia | Warsaw | 3 | All Maps","name_short":"waw-3","host":"waw-1.pl.uncletopia.com","port":27035,"enabled":true,"region":"eu","cc":"pl","latitude":52.2297,"longitude":21.017532,"reserved":0,"last_update":"0001-01-01T00:00:00Z","name_a2s":"Uncletopia | Warsaw | 3 | All Maps","protocol":17,"map":"koth_viaduct","folder":"tf","game":"Team Fortress","app_id":440,"player_count":0,"max_players":24,"Bots":0,"server_type":"Dedicated","server_os":"Linux","password":true,"vac":true,"version":"7757534","steam_id":85568392925397852,"keywords":["cp","nocrits","nodmgspread","uncletopia"],"game_id":440,"stv_port":27036,"stv_name":"Uncletopia | Warsaw | 3 | All Maps | STV","players":null},{"server_id":52,"name":"Uncletopia | Warsaw | 4 | All Maps","name_short":"waw-4","host":"waw-1.pl.uncletopia.com","port":27045,"enabled":true,"region":"eu","cc":"pl","latitude":52.2297,"longitude":21.017532,"reserved":0,"last_update":"0001-01-01T00:00:00Z","name_a2s":"Uncletopia | Warsaw | 4 | All Maps","protocol":17,"map":"koth_lakeside_final","folder":"tf","game":"Team Fortress","app_id":440,"player_count":0,"max_players":24,"Bots":0,"server_type":"Dedicated","server_os":"Linux","password":true,"vac":true,"version":"7757534","steam_id":85568392925397853,"keywords":["cp","nocrits","nodmgspread","uncletopia"],"game_id":440,"stv_port":27046,"stv_name":"Uncletopia | Warsaw | 4 | All Maps | STV","players":null},{"server_id":53,"name":"Uncletopia | Warsaw | 5 | Stopwatch Beta","name_short":"waw-5","host":"waw-1.pl.uncletopia.com","port":27055,"enabled":true,"region":"eu","cc":"pl","latitude":52.2297,"longitude":21.017532,"reserved":0,"last_update":"0001-01-01T00:00:00Z","name_a2s":"Uncletopia | Warsaw | 5 | Stopwatch Beta","protocol":17,"map":"pl_borneo","folder":"tf","game":"Team Fortress","app_id":440,"player_count":0,"max_players":24,"Bots":0,"server_type":"Dedicated","server_os":"Linux","password":true,"vac":true,"version":"7757534","steam_id":85568392925397854,"keywords":["nocrits","nodmgspread","payload","uncletopia"],"game_id":440,"stv_port":27056,"stv_name":"Uncletopia | Warsaw | 5 | Stopwatch Beta | STV","players":null},{"server_id":54,"name":"Uncletopia | Warsaw | 6 | Community","name_short":"waw-6","host":"waw-1.pl.uncletopia.com","port":27065,"enabled":true,"region":"eu","cc":"pl","latitude":52.2297,"longitude":21.017532,"reserved":0,"last_update":"0001-01-01T00:00:00Z","name_a2s":"Uncletopia | Warsaw | 6 | Community","protocol":17,"map":"koth_lakeside_final","folder":"tf","game":"Team Fortress","app_id":440,"player_count":0,"max_players":24,"Bots":0,"server_type":"Dedicated","server_os":"Linux","password":true,"vac":true,"version":"7757534","steam_id":85568392925397856,"keywords":["cp","nocrits","nodmgspread","uncletopia"],"game_id":440,"stv_port":27066,"stv_name":"Uncletopia | Warsaw | 6 | Community | STV","players":null}]}