{"status":true,"message":"","result":[{"server_id":9,"name":"Uncletopia | Atlanta | 1 | All Maps","name_short":"atl-1","host":"atl-1.us.uncletopia.com","port":27015,"enabled":true,"region":"us-east","cc":"us","latitude":33.753746,"longitude":-84.38633,"reserved":0,"last_update":"0001-01-01T00:00:00Z","name_a2s":"Uncletopia | Atlanta | 1 | All Maps","protocol":17,"map":"cp_snakewater_final1","folder":"tf","game":"Team Fortress","app_id":440,"player_count":25,"max_players":24,"Bots":0,"server_type":"Dedicated","server_os":"Linux","password":true,"vac":true,"version":"7708610","steam_id":85568392924469982,"keywords":["cp","nocrits","nodmgspread","uncletopia"],"game_id":440,"stv_port":27016,"stv_name":"Uncletopia | Atlanta | 1 | All Maps | STV","players":[{"user_id":104,"name":"Dramatic","steam_id":76561199012990268,"connected_time":1331000000000,"state":"active","ping":57},{"user_id":129,"name":"max","steam_id":76561198953695435,"connected_time":546000000000,"state":"active","ping":106},{"user_id":130,"name":"Quansen","steam_id":76561198151594550,"connected_time":543000000000,"state":"active","ping":75},{"user_id":144,"name":"robot knight","steam_id":76561198262513714,"connected_time":48000000000,"state":"active","ping":151},{"user_id":128,"name":"Pandamonia","steam_id":76561198237125154,"connected_time":561000000000,"state":"active","ping":78},{"user_id":42,"name":"Spicy Duck","steam_id":76561198065905730,"connected_time":4486000000000,"state":"active","ping":79},{"user_id":131,"name":".I.","steam_id":76561199062908141,"connected_time":524000000000,"state":"active","ping":82},{"user_id":126,"name":"comet sooicidy","steam_id":76561198025173479,"connected_time":625000000000,"state":"active","ping":76},{"user_id":118,"name":"respectdapj","steam_id":76561199368356346,"connected_time":868000000000,"state":"active","ping":81},{"user_id":133,"name":"Very Merry Toaster","steam_id":76561198110748463,"connected_time":520000000000,"state":"active","ping":97},{"user_id":141,"name":"ash","steam_id":76561198127890645,"connected_time":156000000000,"state":"active","ping":61},{"user_id":134,"name":"havarti gaming","steam_id":76561198069895678,"connected_time":510000000000,"state":"active","ping":158},{"user_id":142,"name":"You Want Me","steam_id":76561198135492119,"connected_time":105000000000,"state":"active","ping":66},{"user_id":136,"name":"Squiliam","steam_id":76561198025278006,"connected_time":480000000000,"state":"active","ping":67},{"user_id":138,"name":"TH-1","steam_id":76561197993467034,"connected_time":429000000000,"state":"active","ping":105},{"user_id":140,"name":"OneTrueCorvid","steam_id":76561199012953221,"connected_time":318000000000,"state":"active","ping":99},{"user_id":143,"name":"The BeamNG Mattress","steam_id":76561198026640869,"connected_time":103000000000,"state":"active","ping":71},{"user_id":146,"name":"SuperJagops","steam_id":76561198034689716,"connected_time":0,"state":"spawning","ping":18},{"user_id":88,"name":"Horsey Chobunso","steam_id":76561198044668050,"connected_time":2418000000000,"state":"active","ping":50},{"user_id":147,"name":"Nico","steam_id":76561198125701869,"connected_time":0,"state":"spawning","ping":0},{"user_id":102,"name":"‚ô•Takamaki‚ô•","steam_id":76561198348199088,"connected_time":1466000000000,"state":"active","ping":112},{"user_id":77,"name":"THE GIGGLER","steam_id":76561199275294643,"connected_time":3026000000000,"state":"active","ping":78},{"user_id":116,"name":"Boggeroni","steam_id":76561198111417325,"connected_time":884000000000,"state":"active","ping":62},{"user_id":80,"name":"Â∞è‰æø„É≠„Ç±„ÉÉ„Éà","steam_id":76561198241667354,"connected_time":2994000000000,"state":"active","ping":45},{"user_id":109,"name":"toastman","steam_id":76561198207073088,"connected_time":1218000000000,"state":"active","ping":91}]},{"server_id":400,"name":"Uncletopia | Atlanta | 3 | All Maps","name_short":"atl-3","host":"atl-1.us.uncletopia.com","port":27035,"enabled":true,"region":"us-east","cc":"us","latitude":33.753746,"longitude":-84.38633,"reserved":0,"last_update":"0001-01-01T00:00:00Z","name_a2s":"Uncletopia | Atlanta | 3 | All Maps","protocol":17,"map":"koth_highpass","folder":"tf","game":"Team Fortress","app_id":440,"player_count":0,"max_players":24,"Bots":0,"server_type":"Dedicated","server_os":"Linux","password":true,"vac":true,"version":"7708610","steam_id":85568392924515187,"keywords":["cp","nocrits","nodmgspread","uncletopia"],"game_id":440,"stv_port":27036,"stv_name":"Uncletopia | Atlanta | 3 | All Maps | STV","players":null},{"server_id":401,"name":"Uncletopia | Atlanta | 4 | No Payload","name_short":"atl-4","host":"atl-1.us.uncletopia.com","port":27045,"enabled":true,"region":"us-east","cc":"us","latitude":33.753746,"longitude":-84.38633,"reserved":0,"last_update":"0001-01-01T00:00:00Z","name_a2s":"Uncletopia | Atlanta | 4 | No Payload","protocol":17,"map":"cp_altitude","folder":"tf","game":"Team Fortress","app_id":440,"player_count":0,"max_players":24,"Bots":0,"server_type":"Dedicated","server_os":"Linux","password":true,"vac":true,"version":"7708610","steam_id":85568392924515188,"keywords":["cp","nocrits","nodmgspread","uncletopia"],"game_id":440,"stv_port":27046,"stv_name":"Uncletopia | Atlanta | 4 | No Payload | STV","players":null},{"server_id":2,"name":"Uncletopia | Chicago | 1 | All Maps","name_short":"chi-1","host":"chi-1.us.uncletopia.com","port":27015,"enabled":true,"region":"us-central","cc":"us","latitude":41.881832,"longitude":-87.62318,"reserved":0,"last_update":"0001-01-01T00:00:00Z","name_a2s":"Uncletopia | Chicago | 1 | All Maps","protocol":17,"map":"cp_5gorge","folder":"tf","game":"Team Fortress","app_id":440,"player_count":24,"max_players":24,"Bots":0,"server_type":"Dedicated","server_os":"Linux","password":true,"vac":true,"version":"7708610","steam_id":85568392924469984,"keywords":["cp","nocrits","nodmgspread","uncletopia"],"game_id":440,"stv_port":27016,"stv_name":"Uncletopia | Chicago | 1 | All Maps | STV","players":[{"user_id":167,"name":"Chode Mode","steam_id":76561198353840477,"connected_time":8379000000000,"state":"active","ping":45},{"user_id":249,"name":"Jerry Bondle","steam_id":76561198337512213,"connected_time":2066000000000,"state":"active","ping":62},{"user_id":221,"name":"Overduecat","steam_id":76561198092452824,"connected_time":3635000000000,"state":"active","ping":59},{"user_id":283,"name":"Female Gamer","steam_id":76561199366482682,"connected_time":568000000000,"state":"active","ping":92},{"user_id":215,"name":"GuyGoom","steam_id":76561198254522178,"connected_time":4152000000000,"state":"active","ping":46},{"user_id":271,"name":"SubWay #SaveTf2","steam_id":76561198336722096,"connected_time":1799000000000,"state":"active","ping":90},{"user_id":269,"name":"yitz","steam_id":76561198375575841,"connected_time":1912000000000,"state":"active","ping":55},{"user_id":132,"name":"Scorpie Doodle","steam_id":76561198021845763,"connected_time":10774000000000,"state":"active","ping":53},{"user_id":282,"name":"Skeleton Hotel","steam_id":76561198041704727,"connected_time":584000000000,"state":"active","ping":56},{"user_id":288,"name":"MiniKilla","steam_id":76561199155162892,"connected_time":131000000000,"state":"active","ping":84},{"user_id":275,"name":"Ripheart","steam_id":76561198089661561,"connected_time":1450000000000,"state":"active","ping":38},{"user_id":286,"name":"A tree","steam_id":76561198309065247,"connected_time":294000000000,"state":"active","ping":58},{"user_id":276,"name":"recycle","steam_id":76561198819562111,"connected_time":1446000000000,"state":"active","ping":55},{"user_id":232,"name":"richard clock","steam_id":76561198048455671,"connected_time":3341000000000,"state":"active","ping":55},{"user_id":280,"name":"themankeys","steam_id":76561198149339536,"connected_time":1271000000000,"state":"active","ping":63},{"user_id":287,"name":"The Row, THe back","steam_id":76561198066450438,"connected_time":157000000000,"state":"active","ping":83},{"user_id":278,"name":"Hylic","steam_id":76561199051314589,"connected_time":1316000000000,"state":"active","ping":69},{"user_id":236,"name":"Tony Montana","steam_id":76561198103493818,"connected_time":2737000000000,"state":"active","ping":79},{"user_id":255,"name":"[slug]","steam_id":76561197989592178,"connected_time":2013000000000,"state":"active","ping":62},{"user_id":253,"name":"BOBELMATAPLAGAS \u003e:)","steam_id":76561199133432828,"connected_time":2021000000000,"state":"active","ping":84},{"user_id":285,"name":"Woke Bush","steam_id":76561198047994501,"connected_time":433000000000,"state":"active","ping":56},{"user_id":218,"name":"amagicowl","steam_id":76561199060487814,"connected_time":4028000000000,"state":"active","ping":78},{"user_id":274,"name":"Boiling Oil","steam_id":76561199238964574,"connected_time":1458000000000,"state":"active","ping":71},{"user_id":238,"name":"Catboy Potemkin","steam_id":76561198078474420,"connected_time":2655000000000,"state":"active","ping":64}]},{"server_id":106,"name":"Uncletopia | Chicago | 2 | All Maps","name_short":"chi-2","host":"chi-1.us.uncletopia.com","port":27025,"enabled":true,"region":"us-central","cc":"us","latitude":41.881832,"longitude":-87.62318,"reserved":0,"last_update":"0001-01-01T00:00:00Z","name_a2s":"Uncletopia | Chicago | 2 | All Maps","protocol":17,"map":"pl_borneo","folder":"tf","game":"Team Fortress","app_id":440,"player_count":1,"max_players":24,"Bots":0,"server_type":"Dedicated","server_os":"Linux","password":true,"vac":true,"version":"7708610","steam_id":85568392924469985,"keywords":["nocrits","nodmgspread","payload","uncletopia"],"game_id":440,"stv_port":27026,"stv_name":"Uncletopia | Chicago | 2 | All Maps | STV","players":[{"user_id":9,"name":"Dert","steam_id":76561198883014990,"connected_time":486000000000,"state":"active","ping":82}]},{"server_id":402,"name":"Uncletopia | Chicago | 3 | All Maps","name_short":"chi-3","host":"chi-1.us.uncletopia.com","port":27035,"enabled":true,"region":"us-central","cc":"us","latitude":41.881832,"longitude":-87.62318,"reserved":0,"last_update":"0001-01-01T00:00:00Z","name_a2s":"Uncletopia | Chicago | 3 | All Maps","protocol":17,"map":"pl_badwater","folder":"tf","game":"Team Fortress","app_id":440,"player_count":0,"max_players":24,"Bots":0,"server_type":"Dedicated","server_os":"Linux","password":true,"vac":true,"version":"7708610","steam_id":85568392924515191,"keywords":["nocrits","nodmgspread","payload","uncletopia"],"game_id":440,"stv_port":27036,"stv_name":"Uncletopia | Chicago | 3 | All Maps | STV","players":null},{"server_id":403,"name":"Uncletopia | Chicago | 4 | All Maps","name_short":"chi-4","host":"chi-1.us.uncletopia.com","port":27045,"enabled":true,"region":"us-central","cc":"us","latitude":41.881832,"longitude":-87.62318,"reserved":0,"last_update":"0001-01-01T00:00:00Z","name_a2s":"Uncletopia | Chicago | 4 | All Maps","protocol":17,"map":"koth_lakeside_final","folder":"tf","game":"Team Fortress","app_id":440,"player_count":0,"max_players":24,"Bots":0,"server_type":"Dedicated","server_os":"Linux","password":true,"vac":true,"version":"7708610","steam_id":85568392924515193,"keywords":["cp","nocrits","nodmgspread","uncletopia"],"game_id":440,"stv_port":27046,"stv_name":"Uncletopia | Chicago | 4 | All Maps | STV","players":null},{"server_id":36,"name":"Uncletopia | Chicago | 5 | All Maps","name_short":"chi-5","host":"chi-2.us.uncletopia.com","port":27015,"enabled":true,"region":"us-central","cc":"us","latitude":41.881832,"longitude":-87.62318,"reserved":0,"last_update":"0001-01-01T00:00:00Z","name_a2s":"Uncletopia | Chicago | 5 | All Maps","protocol":17,"map":"cp_snakewater_final1","folder":"tf","game":"Team Fortress","app_id":440,"player_count":0,"max_players":24,"Bots":0,"server_type":"Dedicated","server_os":"Linux","password":true,"vac":true,"version":"7708610","steam_id":85568392924866362,"keywords":["cp","nocrits","nodmgspread","uncletopia"],"game_id":440,"stv_port":0,"stv_name":"","players":null},{"server_id":37,"name":"Uncletopia | Chicago | 6 | All Maps","name_short":"chi-6","host":"chi-2.us.uncletopia.com","port":27025,"enabled":true,"region":"us-central","cc":"us","latitude":41.881832,"longitude":-87.62318,"reserved":0,"last_update":"0001-01-01T00:00:00Z","name_a2s":"Uncletopia | Chicago | 6 | All Maps","protocol":17,"map":"koth_cascade","folder":"tf","game":"Team Fortress","app_id":440,"player_count":0,"max_players":24,"Bots":0,"server_type":"Dedicated","server_os":"Linux","password":true,"vac":true,"version":"7708610","steam_id":85568392924866363,"keywords":["cp","nocrits","nodmgspread","uncletopia"],"game_id":440,"stv_port":0,"stv_name":"","players":null},{"server_id":38,"name":"Uncletopia | Chicago | 7 | No Payload","name_short":"chi-7","host":"chi-2.us.uncletopia.com","port":27035,"enabled":true,"region":"us-central","cc":"us","latitude":41.881832,"longitude":-87.62318,"reserved":0,"last_update":"0001-01-01T00:00:00Z","name_a2s":"Uncletopia | Chicago | 7 | No Payload","protocol":17,"map":"koth_viaduct","folder":"tf","game":"Team Fortress","app_id":440,"player_count":0,"max_players":24,"Bots":0,"server_type":"Dedicated","server_os":"Linux","password":true,"vac":true,"version":"7708610","steam_id":85568392924866364,"keywords":["cp","nocrits","nodmgspread","uncletopia"],"game_id":440,"stv_port":0,"stv_name":"","players":null},{"server_id":39,"name":"Uncletopia | Chicago | 8 | Community","name_short":"chi-8","host":"chi-2.us.uncletopia.com","port":27045,"enabled":true,"region":"us-central","cc":"us","latitude":41.881832,"longitude":-87.62318,"reserved":0,"last_update":"0001-01-01T00:00:00Z","name_a2s":"Uncletopia | Chicago | 8 | Community","protocol":17,"map":"pl_pier","folder":"tf","game":"Team Fortress","app_id":440,"player_count":0,"max_players":24,"Bots":0,"server_type":"Dedicated","server_os":"Linux","password":true,"vac":true,"version":"7708610","steam_id":85568392924866365,"keywords":["nocrits","nodmgspread","payload","uncletopia"],"game_id":440,"stv_port":0,"stv_name":"","players":null},{"server_id":8,"name":"Uncletopia | Dallas | 1 | All Maps","name_short":"dal-1","host":"dal-1.us.uncletopia.com","port":27015,"enabled":true,"region":"us-central","cc":"us","latitude":32.779167,"longitude":-96.80889,"reserved":0,"last_update":"0001-01-01T00:00:00Z","name_a2s":"Uncletopia | Dallas | 1 | All Maps","protocol":17,"map":"pl_swiftwater_final1","folder":"tf","game":"Team Fortress","app_id":440,"player_count":23,"max_players":24,"Bots":0,"server_type":"Dedicated","server_os":"Linux","password":true,"vac":true,"version":"7708610","steam_id":85568392924469986,"keywords":["nocrits","nodmgspread","payload","uncletopia"],"game_id":440,"stv_port":27016,"stv_name":"Uncletopia | Dallas | 1 | All Maps | STV","players":[{"user_id":125,"name":"Emma","steam_id":76561198318093783,"connected_time":52000000000,"state":"active","ping":61},{"user_id":127,"name":"‡πá","steam_id":76561198039763676,"connected_time":34000000000,"state":"active","ping":85},{"user_id":96,"name":"Lolxdloldx","steam_id":76561198136887125,"connected_time":3668000000000,"state":"active","ping":405},{"user_id":111,"name":"roln","steam_id":76561198041066271,"connected_time":1879000000000,"state":"active","ping":62},{"user_id":66,"name":"Tyler\u0026Fingers","steam_id":76561198085154485,"connected_time":5607000000000,"state":"active","ping":94},{"user_id":112,"name":"Logamuffin","steam_id":76561198074557448,"connected_time":1875000000000,"state":"active","ping":78},{"user_id":99,"name":"Eightyy  Fourr","steam_id":76561197960374225,"connected_time":2913000000000,"state":"active","ping":36},{"user_id":129,"name":"Spleen","steam_id":76561198024379401,"connected_time":11000000000,"state":"spawning","ping":108},{"user_id":109,"name":"buddyboby","steam_id":76561198388617046,"connected_time":2198000000000,"state":"active","ping":111},{"user_id":78,"name":"There must be those who remembe","steam_id":76561198286792807,"connected_time":5364000000000,"state":"active","ping":100},{"user_id":126,"name":"Whoa","steam_id":76561197970353496,"connected_time":46000000000,"state":"active","ping":77},{"user_id":130,"name":"ansoonii","steam_id":76561198092494136,"connected_time":10000000000,"state":"active","ping":66},{"user_id":121,"name":"The Figgler","steam_id":76561198168295944,"connected_time":1017000000000,"state":"active","ping":66},{"user_id":118,"name":"SeniorPigu","steam_id":76561198072001437,"connected_time":1270000000000,"state":"active","ping":112},{"user_id":113,"name":"FRANKY!!!","steam_id":76561199211305343,"connected_time":1872000000000,"state":"active","ping":85},{"user_id":97,"name":"urban legend","steam_id":76561198069188276,"connected_time":3465000000000,"state":"active","ping":84},{"user_id":68,"name":"MissRaptor","steam_id":76561198105613110,"connected_time":5596000000000,"state":"active","ping":81},{"user_id":116,"name":"motherfucker 2.0","steam_id":76561198141189209,"connected_time":1840000000000,"state":"active","ping":29},{"user_id":107,"name":"Jolly evil little man","steam_id":76561198311053471,"connected_time":2316000000000,"state":"active","ping":36},{"user_id":110,"name":"Ginger Powder","steam_id":76561198082650449,"connected_time":2078000000000,"state":"active","ping":76},{"user_id":108,"name":"[]{}#^*+=","steam_id":76561198127039453,"connected_time":2303000000000,"state":"active","ping":78},{"user_id":114,"name":"uzr","steam_id":76561198799343084,"connected_time":1871000000000,"state":"active","ping":77},{"user_id":124,"name":"harry","steam_id":76561198263271697,"connected_time":421000000000,"state":"active","ping":66}]},{"server_id":108,"name":"Uncletopia | Dallas | 2 | All Maps","name_short":"dal-2","host":"dal-1.us.uncletopia.com","port":27025,"enabled":true,"region":"us-central","cc":"us","latitude":32.779167,"longitude":-96.80889,"reserved":0,"last_update":"0001-01-01T00:00:00Z","name_a2s":"Uncletopia | Dallas | 2 | All Maps","protocol":17,"map":"pl_barnblitz","folder":"tf","game":"Team Fortress","app_id":440,"player_count":0,"max_players":24,"Bots":0,"server_type":"Dedicated","server_os":"Linux","password":true,"vac":true,"version":"7708610","steam_id":85568392924469988,"keywords":["nocrits","nodmgspread","payload","uncletopia"],"game_id":440,"stv_port":0,"stv_name":"","players":null},{"server_id":5,"name":"Uncletopia | Frankfurt | 1 | All Maps","name_short":"frk-1","host":"frk-1.de.uncletopia.com","port":27015,"enabled":true,"region":"eu","cc":"de","latitude":50.110924,"longitude":8.682127,"reserved":0,"last_update":"0001-01-01T00:00:00Z","name_a2s":"Uncletopia | Frankfurt | 1 | All Maps","protocol":17,"map":"pl_borneo","folder":"tf","game":"Team Fortress","app_id":440,"player_count":24,"max_players":24,"Bots":0,"server_type":"Dedicated","server_os":"Linux","password":true,"vac":true,"version":"7708610","steam_id":85568392924469989,"keywords":["nocrits","nodmgspread","payload","uncletopia"],"game_id":440,"stv_port":27016,"stv_name":"Uncletopia | Frankfurt | 1 | All Maps | STV","players":[{"user_id":312,"name":"caf√®","steam_id":76561198037938833,"connected_time":424000000000,"state":"spawning","ping":287},{"user_id":278,"name":"AFon","steam_id":76561198080783287,"connected_time":2283000000000,"state":"active","ping":108},{"user_id":305,"name":"x.d3lev.x","steam_id":76561198375700057,"connected_time":829000000000,"state":"spawning","ping":100},{"user_id":317,"name":"Marty‚Ñ¢","steam_id":76561198060073673,"connected_time":27000000000,"state":"connecting","ping":59},{"user_id":217,"name":"Fekeks |Potato Industries|","steam_id":76561198152536563,"connected_time":5725000000000,"state":"active","ping":54},{"user_id":299,"name":"DeLoira","steam_id":76561198213606569,"connected_time":1499000000000,"state":"active","ping":108},{"user_id":318,"name":"roffy","steam_id":76561198008869402,"connected_time":11000000000,"state":"spawning","ping":64},{"user_id":319,"name":"RIFT","steam_id":76561198991622379,"connected_time":9000000000,"state":"active","ping":115},{"user_id":311,"name":"glyph","steam_id":76561197980736364,"connected_time":554000000000,"state":"active","ping":78},{"user_id":314,"name":"retard","steam_id":76561198087547692,"connected_time":39000000000,"state":"active","ping":62},{"user_id":320,"name":"The 4th Doctor","steam_id":76561198191516706,"connected_time":4000000000,"state":"spawning","ping":59},{"user_id":284,"name":"Gunto","steam_id":76561199046992205,"connected_time":2131000000000,"state":"active","ping":61},{"user_id":246,"name":"Salabombo","steam_id":76561198127765356,"connected_time":3460000000000,"state":"active","ping":93},{"user_id":229,"name":"BarrackOmaha","steam_id":76561198027922724,"connected_time":4492000000000,"state":"active","ping":60},{"user_id":302,"name":"7crack","steam_id":76561198078928120,"connected_time":1234000000000,"state":"active","ping":71},{"user_id":304,"name":"Denialman (Muted)","steam_id":76561198309182092,"connected_time":895000000000,"state":"spawning","ping":61},{"user_id":293,"name":"Rex Z'Beq","steam_id":76561199300590000,"connected_time":1805000000000,"state":"active","ping":65},{"user_id":315,"name":"Who else but Quagmire?","steam_id":76561198358275344,"connected_time":38000000000,"state":"connecting","ping":66},{"user_id":136,"name":"AleXandriX","steam_id":76561198035203950,"connected_time":11922000000000,"state":"active","ping":61},{"user_id":308,"name":"Intheweb33","steam_id":76561198082873786,"connected_time":807000000000,"state":"active","ping":100},{"user_id":290,"name":"Fales","steam_id":76561198126124929,"connected_time":1971000000000,"state":"active","ping":68},{"user_id":313,"name":"gus","steam_id":76561198318564932,"connected_time":389000000000,"state":"active","ping":64},{"user_id":316,"name":"Makeways","steam_id":76561198274466477,"connected_time":38000000000,"state":"active","ping":72},{"user_id":269,"name":"–ù–µ—á—É–π-–õ–µ–≤–∏—Ü—å–∫–∏–π","steam_id":76561198870926865,"connected_time":2627000000000,"state":"active","ping":61}]},{"server_id":110,"name":"Uncletopia | Frankfurt | 2 | All Maps","name_short":"frk-2","host":"frk-1.de.uncletopia.com","port":27025,"enabled":true,"region":"eu","cc":"de","latitude":50.110924,"longitude":8.682127,"reserved":0,"last_update":"0001-01-01T00:00:00Z","name_a2s":"Uncletopia | Frankfurt | 2 | All Maps","protocol":17,"map":"cp_mountainlab","folder":"tf","game":"Team Fortress","app_id":440,"player_count":9,"max_players":24,"Bots":0,"server_type":"Dedicated","server_os":"Linux","password":true,"vac":true,"version":"7708610","steam_id":85568392924469990,"keywords":["cp","nocrits","nodmgspread","uncletopia"],"game_id":440,"stv_port":27026,"stv_name":"Uncletopia | Frankfurt | 2 | All Maps | STV","players":[{"user_id":295,"name":"Klonky","steam_id":76561199068329886,"connected_time":50000000000,"state":"active","ping":65},{"user_id":208,"name":"amogus","steam_id":76561198119439177,"connected_time":6971000000000,"state":"active","ping":59},{"user_id":293,"name":"possiblename","steam_id":76561199064350902,"connected_time":116000000000,"state":"active","ping":99},{"user_id":232,"name":"L√∂ys√§ Masa","steam_id":76561198343396172,"connected_time":3914000000000,"state":"active","ping":86},{"user_id":288,"name":"Danipp","steam_id":76561198027147377,"connected_time":479000000000,"state":"active","ping":66},{"user_id":248,"name":"Caliban","steam_id":76561197999696839,"connected_time":2375000000000,"state":"active","ping":96},{"user_id":287,"name":"Stepoface","steam_id":76561198091569863,"connected_time":517000000000,"state":"active","ping":51},{"user_id":252,"name":"Bromoneto","steam_id":76561198876695014,"connected_time":2334000000000,"state":"active","ping":59},{"user_id":238,"name":"Grenelef","steam_id":76561198047617144,"connected_time":3476000000000,"state":"active","ping":77}]},{"server_id":308,"name":"Uncletopia | Frankfurt | 3 | All Maps","name_short":"frk-3","host":"frk-1.de.uncletopia.com","port":27035,"enabled":true,"region":"eu","cc":"de","latitude":50.110924,"longitude":8.682127,"reserved":0,"last_update":"0001-01-01T00:00:00Z","name_a2s":"Uncletopia | Frankfurt | 3 | All Maps","protocol":17,"map":"koth_cascade","folder":"tf","game":"Team Fortress","app_id":440,"player_count":0,"max_players":24,"Bots":0,"server_type":"Dedicated","server_os":"Linux","password":true,"vac":true,"version":"7708610","steam_id":85568392924504274,"keywords":["cp","nocrits","nodmgspread","uncletopia"],"game_id":440,"stv_port":0,"stv_name":"","players":null},{"server_id":309,"name":"Uncletopia | Frankfurt | 4 | All Maps","name_short":"frk-4","host":"frk-1.de.uncletopia.com","port":27045,"enabled":true,"region":"eu","cc":"de","latitude":50.110924,"longitude":8.682127,"reserved":0,"last_update":"0001-01-01T00:00:00Z","name_a2s":"Uncletopia | Frankfurt | 4 | All Maps","protocol":17,"map":"koth_highpass","folder":"tf","game":"Team Fortress","app_id":440,"player_count":1,"max_players":24,"Bots":0,"server_type":"Dedicated","server_os":"Linux","password":true,"vac":true,"version":"7708610","steam_id":85568392924504275,"keywords":["cp","nocrits","nodmgspread","uncletopia"],"game_id":440,"stv_port":27046,"stv_name":"Uncletopia | Frankfurt | 4 | All Maps | STV","players":[{"user_id":13,"name":"fried","steam_id":76561198307522022,"connected_time":108000000000,"state":"active","ping":48}]},{"server_id":310,"name":"Uncletopia | Frankfurt | 5 | All Maps","name_short":"frk-5","host":"frk-1.de.uncletopia.com","port":27055,"enabled":true,"region":"eu","cc":"de","latitude":50.110924,"longitude":8.682127,"reserved":0,"last_update":"0001-01-01T00:00:00Z","name_a2s":"Uncletopia | Frankfurt | 5 | All Maps","protocol":17,"map":"koth_cascade","folder":"tf","game":"Team Fortress","app_id":440,"player_count":0,"max_players":24,"Bots":0,"server_type":"Dedicated","server_os":"Linux","password":true,"vac":true,"version":"7708610","steam_id":85568392924504277,"keywords":["cp","nocrits","nodmgspread","uncletopia"],"game_id":440,"stv_port":0,"stv_name":"","players":null},{"server_id":311,"name":"Uncletopia | Frankfurt | 6 | All Maps","name_short":"frk-6","host":"frk-1.de.uncletopia.com","port":27065,"enabled":true,"region":"eu","cc":"de","latitude":50.110924,"longitude":8.682127,"reserved":0,"last_update":"0001-01-01T00:00:00Z","name_a2s":"Uncletopia | Frankfurt | 6 | All Maps","protocol":17,"map":"pl_pier","folder":"tf","game":"Team Fortress","app_id":440,"player_count":24,"max_players":24,"Bots":0,"server_type":"Dedicated","server_os":"Linux","password":true,"vac":true,"version":"7708610","steam_id":85568392924504278,"keywords":["nocrits","nodmgspread","payload","uncletopia"],"game_id":440,"stv_port":27066,"stv_name":"Uncletopia | Frankfurt | 6 | All Maps | STV","players":[{"user_id":413,"name":"SaltyCupcakes","steam_id":76561198256386417,"connected_time":402000000000,"state":"active","ping":60},{"user_id":279,"name":"Noob_with_source","steam_id":76561198870362103,"connected_time":6705000000000,"state":"active","ping":60},{"user_id":397,"name":"trexwithlasereyes ü•ö","steam_id":76561198417276908,"connected_time":1225000000000,"state":"active","ping":66},{"user_id":356,"name":"H1SM43L","steam_id":76561198133168564,"connected_time":3068000000000,"state":"active","ping":50},{"user_id":414,"name":"dafydd","steam_id":76561198052200325,"connected_time":65000000000,"state":"active","ping":78},{"user_id":358,"name":"Greed","steam_id":76561198034264020,"connected_time":3021000000000,"state":"active","ping":113},{"user_id":361,"name":"Jim \"John\" Van Winkle","steam_id":76561198055788070,"connected_time":2925000000000,"state":"active","ping":65},{"user_id":406,"name":"Numbe","steam_id":76561198269614930,"connected_time":743000000000,"state":"active","ping":72},{"user_id":390,"name":"R!not","steam_id":76561197986328786,"connected_time":1401000000000,"state":"active","ping":58},{"user_id":394,"name":"Combat Wombat","steam_id":76561197994720068,"connected_time":1236000000000,"state":"active","ping":72},{"user_id":392,"name":"chocolate flavoured femboy","steam_id":76561198819353867,"connected_time":1333000000000,"state":"active","ping":54},{"user_id":396,"name":"Redmailbox","steam_id":76561198042930322,"connected_time":1234000000000,"state":"active","ping":62},{"user_id":362,"name":"The Funny Cat Èù¢ÁôΩ„ÅÑÁå´","steam_id":76561198439978112,"connected_time":2905000000000,"state":"active","ping":102},{"user_id":401,"name":"Chocofrolik","steam_id":76561198454779847,"connected_time":977000000000,"state":"active","ping":71},{"user_id":398,"name":"Him","steam_id":76561198155314925,"connected_time":1211000000000,"state":"active","ping":72},{"user_id":408,"name":"MohamedExplodat","steam_id":76561199111527399,"connected_time":640000000000,"state":"active","ping":73},{"user_id":403,"name":"Salih","steam_id":76561198287934839,"connected_time":884000000000,"state":"active","ping":48},{"user_id":405,"name":"Zuki","steam_id":76561198131865070,"connected_time":743000000000,"state":"active","ping":63},{"user_id":380,"name":"s a i","steam_id":76561197970379754,"connected_time":1880000000000,"state":"active","ping":57},{"user_id":412,"name":"Apox","steam_id":76561198008005377,"connected_time":416000000000,"state":"active","ping":60},{"user_id":381,"name":"Big Gamer (real)","steam_id":76561198160114532,"connected_time":1874000000000,"state":"active","ping":57},{"user_id":387,"name":"david","steam_id":76561198412873102,"connected_time":1575000000000,"state":"active","ping":74},{"user_id":407,"name":"weed fairy","steam_id":76561197998843096,"connected_time":716000000000,"state":"active","ping":83},{"user_id":410,"name":"ff:ff:ff:ff:ff:ff","steam_id":76561198072122983,"connected_time":477000000000,"state":"active","ping":61}]},{"server_id":23,"name":"Uncletopia | Frankfurt | 7 | No Payload","name_short":"frk-7","host":"frk-1.de.uncletopia.com","port":27075,"enabled":true,"region":"eu","cc":"de","latitude":50.110924,"longitude":8.682127,"reserved":0,"last_update":"0001-01-01T00:00:00Z","name_a2s":"Uncletopia | Frankfurt | 7 | No Payload","protocol":17,"map":"cp_steel","folder":"tf","game":"Team Fortress","app_id":440,"player_count":22,"max_players":24,"Bots":0,"server_type":"Dedicated","server_os":"Linux","password":true,"vac":true,"version":"7708610","steam_id":85568392924742827,"keywords":["cp","nocrits","nodmgspread","uncletopia"],"game_id":440,"stv_port":27076,"stv_name":"Uncletopia | Frankfurt | 7 | No Payload | STV","players":[{"user_id":121,"name":"...","steam_id":76561198969234594,"connected_time":6378000000000,"state":"active","ping":59},{"user_id":217,"name":"Saul Goodman","steam_id":76561198890023348,"connected_time":801000000000,"state":"active","ping":88},{"user_id":221,"name":"Ghozt","steam_id":76561198289838374,"connected_time":490000000000,"state":"active","ping":61},{"user_id":244,"name":"xiiski","steam_id":76561198152387747,"connected_time":2000000000,"state":"spawning","ping":79},{"user_id":210,"name":"Ork","steam_id":76561197968575924,"connected_time":1458000000000,"state":"active","ping":66},{"user_id":218,"name":"Jovy Kujoh","steam_id":76561198410598772,"connected_time":764000000000,"state":"active","ping":44},{"user_id":225,"name":"Rarity ‚ú®","steam_id":76561198820981057,"connected_time":279000000000,"state":"active","ping":104},{"user_id":140,"name":"Rudebwoyyy","steam_id":76561199387956486,"connected_time":5404000000000,"state":"active","ping":47},{"user_id":220,"name":"Rob Rotten","steam_id":76561198170543542,"connected_time":677000000000,"state":"active","ping":152},{"user_id":222,"name":"FinkeFonken","steam_id":76561198101327173,"connected_time":399000000000,"state":"active","ping":115},{"user_id":223,"name":"Fish","steam_id":76561198351227560,"connected_time":385000000000,"state":"active","ping":59},{"user_id":224,"name":"tori_spring #savetf2","steam_id":76561199375975842,"connected_time":344000000000,"state":"active","ping":55},{"user_id":226,"name":"Bits\u0026Peices","steam_id":76561199225453607,"connected_time":233000000000,"state":"active","ping":151},{"user_id":227,"name":"ablexx","steam_id":76561199112671611,"connected_time":229000000000,"state":"active","ping":82},{"user_id":240,"name":"DVD i want a life","steam_id":76561198338129578,"connected_time":138000000000,"state":"active","ping":60},{"user_id":229,"name":"Sniper, no sniping!","steam_id":76561198148074472,"connected_time":219000000000,"state":"active","ping":44},{"user_id":242,"name":"Brick Samson","steam_id":76561198019076104,"connected_time":95000000000,"state":"active","ping":92},{"user_id":235,"name":"apt-moo","steam_id":76561198878529006,"connected_time":211000000000,"state":"active","ping":60},{"user_id":236,"name":"a great color","steam_id":76561198147277460,"connected_time":211000000000,"state":"active","ping":55},{"user_id":237,"name":"clems17","steam_id":76561199420685482,"connected_time":209000000000,"state":"active","ping":45},{"user_id":177,"name":"!raven","steam_id":76561198320336543,"connected_time":3146000000000,"state":"active","ping":92},{"user_id":243,"name":"New","steam_id":76561198402195911,"connected_time":59000000000,"state":"active","ping":117}]},{"server_id":24,"name":"Uncletopia | Frankfurt | 8 | Community","name_short":"frk-8","host":"frk-1.de.uncletopia.com","port":27085,"enabled":true,"region":"eu","cc":"de","latitude":50.110924,"longitude":8.682127,"reserved":0,"last_update":"0001-01-01T00:00:00Z","name_a2s":"Uncletopia | Frankfurt | 8 | Community","protocol":17,"map":"workshop/pl_cactuscanyon_redux_rc4b.ugc2579644293","folder":"tf","game":"Team Fortress","app_id":440,"player_count":0,"max_players":24,"Bots":0,"server_type":"Dedicated","server_os":"Linux","password":true,"vac":true,"version":"7708610","steam_id":85568392924742828,"keywords":["nocrits","nodmgspread","payload","uncletopia"],"game_id":440,"stv_port":27086,"stv_name":"Uncletopia | Frankfurt | 8 | Community | STV","players":null},{"server_id":202,"name":"Uncletopia | Hong Kong | 1 | All Maps","name_short":"hgk-1","host":"hgk-1.hk.uncletopia.com","port":27015,"enabled":true,"region":"asia","cc":"hk","latitude":22.302711,"longitude":114.177216,"reserved":0,"last_update":"0001-01-01T00:00:00Z","name_a2s":"Uncletopia | Hong Kong | 1 | All Maps","protocol":17,"map":"cp_dustbowl","folder":"tf","game":"Team Fortress","app_id":440,"player_count":0,"max_players":24,"Bots":0,"server_type":"Dedicated","server_os":"Linux","password":true,"vac":true,"version":"7708610","steam_id":85568392924494504,"keywords":["cp","nocrits","nodmgspread","uncletopia"],"game_id":440,"stv_port":27016,"stv_name":"Uncletopia | Hong Kong | 1 | All Maps | STV","players":null},{"server_id":1,"name":"Uncletopia | Los Angeles | 1 | All Maps","name_short":"lax-1","host":"lax-1.us.uncletopia.com","port":27015,"enabled":true,"region":"us-west","cc":"us","latitude":33.94279,"longitude":-118.41004,"reserved":0,"last_update":"0001-01-01T00:00:00Z","name_a2s":"Uncletopia | Los Angeles | 1 | All Maps","protocol":17,"map":"cp_snakewater_final1","folder":"tf","game":"Team Fortress","app_id":440,"player_count":0,"max_players":24,"Bots":0,"server_type":"Dedicated","server_os":"Linux","password":true,"vac":true,"version":"7708610","steam_id":85568392924469991,"keywords":["cp","nocrits","nodmgspread","uncletopia"],"game_id":440,"stv_port":27016,"stv_name":"Uncletopia | Los Angeles | 1 | All Maps | STV","players":null},{"server_id":112,"name":"Uncletopia | Los Angeles | 2 | All Maps","name_short":"lax-2","host":"lax-1.us.uncletopia.com","port":27025,"enabled":true,"region":"us-west","cc":"us","latitude":33.94279,"longitude":-118.41004,"reserved":0,"last_update":"0001-01-01T00:00:00Z","name_a2s":"Uncletopia | Los Angeles | 2 | All Maps","protocol":17,"map":"pl_wutville_event","folder":"tf","game":"Team Fortress","app_id":440,"player_count":5,"max_players":24,"Bots":0,"server_type":"Dedicated","server_os":"Linux","password":true,"vac":true,"version":"7708610","steam_id":85568392924469992,"keywords":["nocrits","nodmgspread","payload","uncletopia"],"game_id":440,"stv_port":27026,"stv_name":"Uncletopia | Los Angeles | 2 | All Maps | STV","players":[{"user_id":2,"name":"The Potato Romancer","steam_id":76561198204197648,"connected_time":2380000000000,"state":"active","ping":49},{"user_id":11,"name":"Tortuah","steam_id":76561198074328293,"connected_time":14000000000,"state":"spawning","ping":70},{"user_id":10,"name":"pepsi.","steam_id":76561198433756009,"connected_time":478000000000,"state":"active","ping":83},{"user_id":6,"name":"BKM","steam_id":76561198122781612,"connected_time":2165000000000,"state":"active","ping":65},{"user_id":8,"name":"Ghosty","steam_id":76561199229629421,"connected_time":1798000000000,"state":"active","ping":145}]},{"server_id":324,"name":"Uncletopia | Los Angeles | 3 | All Maps","name_short":"lax-3","host":"lax-1.us.uncletopia.com","port":27035,"enabled":true,"region":"us-west","cc":"us","latitude":33.94279,"longitude":-118.41004,"reserved":0,"last_update":"0001-01-01T00:00:00Z","name_a2s":"Uncletopia | Los Angeles | 3 | All Maps","protocol":17,"map":"cp_altitude","folder":"tf","game":"Team Fortress","app_id":440,"player_count":0,"max_players":24,"Bots":0,"server_type":"Dedicated","server_os":"Linux","password":true,"vac":true,"version":"7708610","steam_id":85568392924510198,"keywords":["cp","nocrits","nodmgspread","uncletopia"],"game_id":440,"stv_port":0,"stv_name":"","players":null},{"server_id":25,"name":"Uncletopia | Los Angeles | 4 | No Payload","name_short":"lax-4","host":"lax-1.us.uncletopia.com","port":27045,"enabled":true,"region":"us-west","cc":"us","latitude":33.94279,"longitude":-118.41004,"reserved":0,"last_update":"0001-01-01T00:00:00Z","name_a2s":"Uncletopia | Los Angeles | 4 | No Payload","protocol":17,"map":"pl_upward","folder":"tf","game":"Team Fortress","app_id":440,"player_count":0,"max_players":24,"Bots":0,"server_type":"Dedicated","server_os":"Linux","password":true,"vac":true,"version":"7708610","steam_id":85568392924510199,"keywords":["nocrits","nodmgspread","payload","uncletopia"],"game_id":440,"stv_port":0,"stv_name":"","players":null},{"server_id":11,"name":"Uncletopia | London | 1 | All Maps","name_short":"lon-1","host":"lon-1.uk.uncletopia.com","port":27015,"enabled":true,"region":"eu","cc":"gb","latitude":51.509865,"longitude":-0.118092,"reserved":0,"last_update":"0001-01-01T00:00:00Z","name_a2s":"Uncletopia | London | 1 | All Maps","protocol":17,"map":"cp_dustbowl","folder":"tf","game":"Team Fortress","app_id":440,"player_count":0,"max_players":24,"Bots":0,"server_type":"Dedicated","server_os":"Linux","password":true,"vac":true,"version":"7708610","steam_id":85568392924367362,"keywords":["cp","nocrits","nodmgspread","uncletopia"],"game_id":440,"stv_port":27016,"stv_name":"Uncletopia | London | 1 | All Maps | STV","players":null},{"server_id":114,"name":"Uncletopia | London | 2 | All Maps","name_short":"lon-2","host":"lon-1.uk.uncletopia.com","port":27025,"enabled":true,"region":"eu","cc":"gb","latitude":51.509865,"longitude":-0.118092,"reserved":0,"last_update":"0001-01-01T00:00:00Z","name_a2s":"Uncletopia | London | 2 | All Maps","protocol":17,"map":"koth_cascade","folder":"tf","game":"Team Fortress","app_id":440,"player_count":0,"max_players":24,"Bots":0,"server_type":"Dedicated","server_os":"Linux","password":true,"vac":true,"version":"7708610","steam_id":85568392924470941,"keywords":["cp","nocrits","nodmgspread","uncletopia"],"game_id":440,"stv_port":27026,"stv_name":"Uncletopia | London | 2 | All Maps | STV","players":null},{"server_id":320,"name":"Uncletopia | London | 3 | All Maps","name_short":"lon-3","host":"lon-1.uk.uncletopia.com","port":27035,"enabled":true,"region":"eu","cc":"gb","latitude":51.509865,"longitude":-0.118092,"reserved":0,"last_update":"0001-01-01T00:00:00Z","name_a2s":"Uncletopia | London | 3 | All Maps","protocol":17,"map":"koth_viaduct","folder":"tf","game":"Team Fortress","app_id":440,"player_count":23,"max_players":24,"Bots":0,"server_type":"Dedicated","server_os":"Linux","password":true,"vac":true,"version":"7708610","steam_id":85568392924510192,"keywords":["cp","nocrits","nodmgspread","uncletopia"],"game_id":440,"stv_port":27036,"stv_name":"Uncletopia | London | 3 | All Maps | STV","players":[{"user_id":171,"name":"christmas eve","steam_id":76561197973182789,"connected_time":480000000000,"state":"active","ping":55},{"user_id":176,"name":"beurgeur","steam_id":76561198872426314,"connected_time":432000000000,"state":"active","ping":43},{"user_id":177,"name":"Blacksheep","steam_id":76561198019621063,"connected_time":417000000000,"state":"active","ping":43},{"user_id":153,"name":"Team Dim Sun Grunt","steam_id":76561198393596975,"connected_time":2221000000000,"state":"active","ping":53},{"user_id":164,"name":"Laxslow","steam_id":76561198065361846,"connected_time":1247000000000,"state":"active","ping":63},{"user_id":166,"name":"DismantleMines","steam_id":76561198148011426,"connected_time":1039000000000,"state":"active","ping":71},{"user_id":190,"name":"big naked bruh","steam_id":76561199179040672,"connected_time":175000000000,"state":"active","ping":53},{"user_id":187,"name":"category 5 tummy event","steam_id":76561198072892783,"connected_time":219000000000,"state":"active","ping":69},{"user_id":194,"name":"kachow","steam_id":76561198202990635,"connected_time":86000000000,"state":"active","ping":73},{"user_id":188,"name":"tete","steam_id":76561198045222850,"connected_time":212000000000,"state":"active","ping":67},{"user_id":155,"name":"Circular","steam_id":76561198001536710,"connected_time":2203000000000,"state":"active","ping":43},{"user_id":139,"name":"JOHN GAMING (based)","steam_id":76561199085822219,"connected_time":3451000000000,"state":"active","ping":87},{"user_id":183,"name":"Puro ‚ô•","steam_id":76561198039016765,"connected_time":284000000000,"state":"active","ping":98},{"user_id":181,"name":"presidentialAIDS","steam_id":76561199257284077,"connected_time":381000000000,"state":"active","ping":137},{"user_id":137,"name":"MrFumble","steam_id":76561198000555490,"connected_time":3512000000000,"state":"active","ping":91},{"user_id":159,"name":"Gavum","steam_id":76561198996889761,"connected_time":1921000000000,"state":"active","ping":45},{"user_id":156,"name":"sigma female","steam_id":76561198298576765,"connected_time":2203000000000,"state":"active","ping":62},{"user_id":161,"name":"Vanadis","steam_id":76561198255557997,"connected_time":1399000000000,"state":"active","ping":73},{"user_id":182,"name":"Lods of Emone","steam_id":76561198188642265,"connected_time":368000000000,"state":"active","ping":45},{"user_id":191,"name":"Transgender E-girl","steam_id":76561198168589809,"connected_time":153000000000,"state":"active","ping":72},{"user_id":169,"name":"Knoxx","steam_id":76561198260692541,"connected_time":885000000000,"state":"active","ping":51},{"user_id":163,"name":"gion","steam_id":76561199065121816,"connected_time":1336000000000,"state":"active","ping":86},{"user_id":192,"name":"Mr. Huntsman","steam_id":76561197981910397,"connected_time":152000000000,"state":"active","ping":65}]},{"server_id":321,"name":"Uncletopia | London | 4 | All Maps","name_short":"lon-4","host":"lon-1.uk.uncletopia.com","port":27045,"enabled":true,"region":"eu","cc":"gb","latitude":51.509865,"longitude":-0.118092,"reserved":0,"last_update":"0001-01-01T00:00:00Z","name_a2s":"Uncletopia | London | 4 | All Maps","protocol":17,"map":"koth_cascade","folder":"tf","game":"Team Fortress","app_id":440,"player_count":0,"max_players":24,"Bots":0,"server_type":"Dedicated","server_os":"Linux","password":true,"vac":true,"version":"7708610","steam_id":85568392924510193,"keywords":["cp","nocrits","nodmgspread","uncletopia"],"game_id":440,"stv_port":27046,"stv_name":"Uncletopia | London | 4 | All Maps | STV","players":null},{"server_id":21,"name":"Uncletopia | London | 5 | All Maps","name_short":"lon-5","host":"lon-1.uk.uncletopia.com","port":27055,"enabled":true,"region":"eu","cc":"gb","latitude":51.509865,"longitude":-0.118092,"reserved":0,"last_update":"0001-01-01T00:00:00Z","name_a2s":"Uncletopia | London | 5 | All Maps","protocol":17,"map":"pl_swiftwater_final1","folder":"tf","game":"Team Fortress","app_id":440,"player_count":24,"max_players":24,"Bots":0,"server_type":"Dedicated","server_os":"Linux","password":true,"vac":true,"version":"7708610","steam_id":85568392924742829,"keywords":["nocrits","nodmgspread","payload","uncletopia"],"game_id":440,"stv_port":27056,"stv_name":"Uncletopia | London | 5 | All Maps | STV","players":[{"user_id":228,"name":"NALA","steam_id":76561198039806469,"connected_time":414000000000,"state":"active","ping":74},{"user_id":210,"name":"obuDev","steam_id":76561199305428573,"connected_time":1769000000000,"state":"active","ping":42},{"user_id":213,"name":"Gardvord","steam_id":76561198120715753,"connected_time":1634000000000,"state":"active","ping":70},{"user_id":183,"name":"Rubi","steam_id":76561198139410003,"connected_time":4905000000000,"state":"active","ping":76},{"user_id":214,"name":"Femboy Lilli","steam_id":76561198090146457,"connected_time":1593000000000,"state":"active","ping":37},{"user_id":130,"name":"After8","steam_id":76561198090750865,"connected_time":8166000000000,"state":"active","ping":75},{"user_id":226,"name":"Kira","steam_id":76561198204168909,"connected_time":617000000000,"state":"active","ping":119},{"user_id":224,"name":"ELON MUSK","steam_id":76561198132788284,"connected_time":1138000000000,"state":"active","ping":77},{"user_id":205,"name":"WiiSportKing","steam_id":76561198114139081,"connected_time":2267000000000,"state":"active","ping":52},{"user_id":229,"name":"kubasirus","steam_id":76561198216313280,"connected_time":186000000000,"state":"active","ping":67},{"user_id":148,"name":"Mr.killer","steam_id":76561198290584189,"connected_time":6455000000000,"state":"active","ping":109},{"user_id":188,"name":"C√©l√©rio le ch√™ne centenaire","steam_id":76561198798803845,"connected_time":4180000000000,"state":"active","ping":47},{"user_id":230,"name":"Magglet","steam_id":76561198076061300,"connected_time":145000000000,"state":"active","ping":47},{"user_id":234,"name":"swueuws","steam_id":76561198020716743,"connected_time":71000000000,"state":"active","ping":62},{"user_id":225,"name":"restloud","steam_id":76561198265722644,"connected_time":1105000000000,"state":"active","ping":86},{"user_id":206,"name":"kai","steam_id":76561199134165142,"connected_time":2154000000000,"state":"active","ping":82},{"user_id":219,"name":"jp-karam","steam_id":76561198048947685,"connected_time":1253000000000,"state":"active","ping":48},{"user_id":179,"name":"7hero","steam_id":76561198118829945,"connected_time":4965000000000,"state":"active","ping":89},{"user_id":235,"name":"jaime8D","steam_id":76561197980590671,"connected_time":58000000000,"state":"active","ping":89},{"user_id":189,"name":"SIGMA BALLS","steam_id":76561198302623594,"connected_time":3944000000000,"state":"active","ping":100},{"user_id":231,"name":"\u003e:3","steam_id":76561198368312026,"connected_time":138000000000,"state":"active","ping":60},{"user_id":217,"name":"Dr. Heinz Doofenshmirtz","steam_id":76561198154962908,"connected_time":1529000000000,"state":"active","ping":50},{"user_id":156,"name":"Saul Goodsex","steam_id":76561198173218318,"connected_time":6233000000000,"state":"active","ping":50},{"user_id":233,"name":"1.99$ crippin","steam_id":76561198325760411,"connected_time":106000000000,"state":"active","ping":93}]},{"server_id":22,"name":"Uncletopia | London | 6 | All Maps","name_short":"lon-6","host":"lon-1.uk.uncletopia.com","port":27065,"enabled":true,"region":"eu","cc":"gb","latitude":51.509865,"longitude":-0.118092,"reserved":0,"last_update":"0001-01-01T00:00:00Z","name_a2s":"Uncletopia | London | 6 | All Maps","protocol":17,"map":"ctf_doublecross","folder":"tf","game":"Team Fortress","app_id":440,"player_count":24,"max_players":24,"Bots":0,"server_type":"Dedicated","server_os":"Linux","password":true,"vac":true,"version":"7708610","steam_id":85568392924742830,"keywords":["ctf","nocrits","nodmgspread","uncletopia"],"game_id":440,"stv_port":27066,"stv_name":"Uncletopia | London | 6 | All Maps | STV","players":[{"user_id":564,"name":"Kutuzov","steam_id":76561198060988694,"connected_time":2389000000000,"state":"active","ping":110},{"user_id":595,"name":"IEatBananaStrings","steam_id":76561198158203877,"connected_time":847000000000,"state":"active","ping":69},{"user_id":550,"name":"washed up","steam_id":76561198275742101,"connected_time":2784000000000,"state":"active","ping":71},{"user_id":590,"name":"Cool Dakota - Lesbian Supreme","steam_id":76561198094892479,"connected_time":1025000000000,"state":"active","ping":119},{"user_id":591,"name":"An Agent of Chaos","steam_id":76561198972766717,"connected_time":1008000000000,"state":"active","ping":50},{"user_id":593,"name":"Lego","steam_id":76561198064536870,"connected_time":898000000000,"state":"active","ping":99},{"user_id":600,"name":"Sunkerdink","steam_id":76561197996757446,"connected_time":646000000000,"state":"active","ping":60},{"user_id":594,"name":"Kokos","steam_id":76561198085501501,"connected_time":877000000000,"state":"active","ping":90},{"user_id":606,"name":"player","steam_id":76561198054474684,"connected_time":19000000000,"state":"active","ping":87},{"user_id":542,"name":"WHO","steam_id":76561198380484033,"connected_time":2936000000000,"state":"active","ping":48},{"user_id":561,"name":"festive jones","steam_id":76561198073975078,"connected_time":2551000000000,"state":"active","ping":43},{"user_id":604,"name":"DEFENDOR62","steam_id":76561199386703896,"connected_time":234000000000,"state":"active","ping":39},{"user_id":582,"name":"The brown part of the banana","steam_id":76561198323425034,"connected_time":1487000000000,"state":"active","ping":78},{"user_id":601,"name":"Michelin Starred Chilli Pete","steam_id":76561197996149548,"connected_time":631000000000,"state":"active","ping":52},{"user_id":587,"name":"Fish (laggy)","steam_id":76561199133635066,"connected_time":1292000000000,"state":"active","ping":95},{"user_id":578,"name":"axxturel_fan_2009","steam_id":76561198289343488,"connected_time":1674000000000,"state":"active","ping":48},{"user_id":545,"name":"agsd37","steam_id":76561199064567309,"connected_time":2910000000000,"state":"active","ping":54},{"user_id":605,"name":".bAruch","steam_id":76561198046673026,"connected_time":61000000000,"state":"active","ping":91},{"user_id":599,"name":"DeCypher","steam_id":76561198171992619,"connected_time":736000000000,"state":"active","ping":67},{"user_id":603,"name":"Zateske","steam_id":76561198047446276,"connected_time":382000000000,"state":"active","ping":70},{"user_id":598,"name":"cowboy carl","steam_id":76561198057829900,"connected_time":804000000000,"state":"active","ping":75},{"user_id":584,"name":"Nobaddy","steam_id":76561198037871007,"connected_time":1478000000000,"state":"active","ping":65},{"user_id":589,"name":"Andreus","steam_id":76561199403926001,"connected_time":1263000000000,"state":"active","ping":70},{"user_id":602,"name":"Warpzel65","steam_id":76561198799303596,"connected_time":618000000000,"state":"active","ping":130}]},{"server_id":40,"name":"Uncletopia | London | 7 | No Payload","name_short":"lon-7","host":"lon-1.uk.uncletopia.com","port":27075,"enabled":true,"region":"eu","cc":"gb","latitude":51.509865,"longitude":-0.118092,"reserved":0,"last_update":"0001-01-01T00:00:00Z","name_a2s":"Uncletopia | London | 7 | No Payload","protocol":17,"map":"koth_harvest_final","folder":"tf","game":"Team Fortress","app_id":440,"player_count":22,"max_players":24,"Bots":0,"server_type":"Dedicated","server_os":"Linux","password":true,"vac":true,"version":"7708610","steam_id":85568392924964314,"keywords":["cp","nocrits","nodmgspread","uncletopia"],"game_id":440,"stv_port":27076,"stv_name":"Uncletopia | London | 7 | No Payload | STV","players":[{"user_id":41,"name":"Archie","steam_id":76561199061232100,"connected_time":1842000000000,"state":"active","ping":64},{"user_id":59,"name":"Gay_Brazil_From","steam_id":76561198360946437,"connected_time":1037000000000,"state":"active","ping":118},{"user_id":78,"name":"biohazard","steam_id":76561198162873354,"connected_time":249000000000,"state":"active","ping":155},{"user_id":76,"name":"the tornado.","steam_id":76561198223003236,"connected_time":282000000000,"state":"active","ping":32},{"user_id":77,"name":"waffle toaster","steam_id":76561198799089628,"connected_time":278000000000,"state":"active","ping":52},{"user_id":83,"name":"do i give a darn","steam_id":76561199412527837,"connected_time":91000000000,"state":"active","ping":30},{"user_id":73,"name":"fallingpencil","steam_id":76561199230233148,"connected_time":591000000000,"state":"active","ping":60},{"user_id":80,"name":"Johnny Wick","steam_id":76561198260285179,"connected_time":149000000000,"state":"active","ping":99},{"user_id":85,"name":"p1dgeon „Ç∑","steam_id":76561199109713313,"connected_time":12000000000,"state":"spawning","ping":58},{"user_id":69,"name":"Sir_LewdCow","steam_id":76561198200079686,"connected_time":813000000000,"state":"active","ping":55},{"user_id":81,"name":"commie_egg3033","steam_id":76561199227946871,"connected_time":121000000000,"state":"active","ping":42},{"user_id":82,"name":"padillacampos","steam_id":76561198161923970,"connected_time":97000000000,"state":"active","ping":70},{"user_id":51,"name":"matthiasderbaer","steam_id":76561199202206676,"connected_time":1247000000000,"state":"active","ping":54},{"user_id":58,"name":"BucketCollector2","steam_id":76561199121944862,"connected_time":1105000000000,"state":"active","ping":32},{"user_id":37,"name":"johncenx","steam_id":76561198366703672,"connected_time":2231000000000,"state":"active","ping":66},{"user_id":75,"name":"stonebum","steam_id":76561198057004606,"connected_time":430000000000,"state":"active","ping":53},{"user_id":74,"name":"Raymus","steam_id":76561198021330407,"connected_time":535000000000,"state":"active","ping":53},{"user_id":84,"name":"Maze","steam_id":76561198324478233,"connected_time":84000000000,"state":"active","ping":43},{"user_id":71,"name":"Equinox","steam_id":76561199055592635,"connected_time":762000000000,"state":"active","ping":49},{"user_id":64,"name":"Pan W","steam_id":76561198384111099,"connected_time":884000000000,"state":"active","ping":76},{"user_id":66,"name":"SuntanPikachu","steam_id":76561198121242476,"connected_time":847000000000,"state":"active","ping":65},{"user_id":67,"name":"ZachChase","steam_id":76561198086057112,"connected_time":846000000000,"state":"active","ping":174}]},{"server_id":41,"name":"Uncletopia | London | 8 | Community","name_short":"lon-8","host":"lon-1.uk.uncletopia.com","port":27085,"enabled":true,"region":"eu","cc":"gb","latitude":51.509865,"longitude":-0.118092,"reserved":0,"last_update":"0001-01-01T00:00:00Z","name_a2s":"Uncletopia | London | 8 | Community","protocol":17,"map":"cp_snakewater_final1","folder":"tf","game":"Team Fortress","app_id":440,"player_count":0,"max_players":24,"Bots":0,"server_type":"Dedicated","server_os":"Linux","password":true,"vac":true,"version":"7708610","steam_id":85568392924964315,"keywords":["cp","nocrits","nodmgspread","uncletopia"],"game_id":440,"stv_port":0,"stv_name":"","players":null},{"server_id":300,"name":"Uncletopia | Montr√©al | 1 | All Maps","name_short":"mtl-1","host":"mtl-1.ca.uncletopia.com","port":27015,"enabled":true,"region":"us-east","cc":"ca","latitude":45.50889,"longitude":-73.56167,"reserved":0,"last_update":"0001-01-01T00:00:00Z","name_a2s":"Uncletopia | Montr√©al | 1 | All Maps","protocol":17,"map":"koth_cascade","folder":"tf","game":"Team Fortress","app_id":440,"player_count":0,"max_players":24,"Bots":0,"server_type":"Dedicated","server_os":"Linux","password":true,"vac":true,"version":"7708610","steam_id":85568392924500087,"keywords":["cp","nocrits","nodmgspread","uncletopia"],"game_id":440,"stv_port":27016,"stv_name":"Uncletopia | Montr√©al | 1 | All Maps | STV","players":null},{"server_id":301,"name":"Uncletopia | Montr√©al | 2 | All Maps","name_short":"mtl-2","host":"mtl-1.ca.uncletopia.com","port":27025,"enabled":true,"region":"us-east","cc":"ca","latitude":45.50889,"longitude":-73.56167,"reserved":0,"last_update":"0001-01-01T00:00:00Z","name_a2s":"Uncletopia | Montr√©al | 2 | All Maps","protocol":17,"map":"pl_frontier_final","folder":"tf","game":"Team Fortress","app_id":440,"player_count":0,"max_players":24,"Bots":0,"server_type":"Dedicated","server_os":"Linux","password":true,"vac":true,"version":"7708610","steam_id":85568392924500088,"keywords":["nocrits","nodmgspread","payload","uncletopia"],"game_id":440,"stv_port":0,"stv_name":"","players":null},{"server_id":302,"name":"Uncletopia | Montr√©al | 3 | All Maps","name_short":"mtl-3","host":"mtl-1.ca.uncletopia.com","port":27035,"enabled":true,"region":"us-east","cc":"ca","latitude":45.50889,"longitude":-73.56167,"reserved":0,"last_update":"0001-01-01T00:00:00Z","name_a2s":"Uncletopia | Montr√©al | 3 | All Maps","protocol":17,"map":"pl_snowycoast","folder":"tf","game":"Team Fortress","app_id":440,"player_count":0,"max_players":24,"Bots":0,"server_type":"Dedicated","server_os":"Linux","password":true,"vac":true,"version":"7708610","steam_id":85568392924500089,"keywords":["nocrits","nodmgspread","payload","uncletopia"],"game_id":440,"stv_port":0,"stv_name":"","players":null},{"server_id":303,"name":"Uncletopia | Montr√©al | 4 | No Payload","name_short":"mtl-4","host":"mtl-1.ca.uncletopia.com","port":27045,"enabled":true,"region":"us-east","cc":"ca","latitude":45.50889,"longitude":-73.56167,"reserved":0,"last_update":"0001-01-01T00:00:00Z","name_a2s":"Uncletopia | Montr√©al | 4 | No Payload","protocol":17,"map":"pl_frontier_final","folder":"tf","game":"Team Fortress","app_id":440,"player_count":0,"max_players":24,"Bots":0,"server_type":"Dedicated","server_os":"Linux","password":true,"vac":true,"version":"7708610","steam_id":85568392924500090,"keywords":["nocrits","nodmgspread","payload","uncletopia"],"game_id":440,"stv_port":0,"stv_name":"","players":null},{"server_id":13,"name":"Uncletopia | New York City | 1 | All Maps","name_short":"nyc-1","host":"nyc-1.us.uncletopia.com","port":27015,"enabled":true,"region":"us-east","cc":"us","latitude":40.73061,"longitude":-73.93524,"reserved":0,"last_update":"0001-01-01T00:00:00Z","name_a2s":"Uncletopia | New York City | 1 | All Maps","protocol":17,"map":"pl_upward","folder":"tf","game":"Team Fortress","app_id":440,"player_count":8,"max_players":24,"Bots":0,"server_type":"Dedicated","server_os":"Linux","password":true,"vac":true,"version":"7708610","steam_id":85568392924469993,"keywords":["nocrits","nodmgspread","payload","uncletopia"],"game_id":440,"stv_port":27016,"stv_name":"Uncletopia | New York City | 1 | All Maps | STV","players":[{"user_id":36,"name":"Henk_de_Patatman","steam_id":76561198070103191,"connected_time":612000000000,"state":"active","ping":119},{"user_id":37,"name":"Balerion the Black Dread","steam_id":76561198003728369,"connected_time":596000000000,"state":"active","ping":74},{"user_id":38,"name":"FigBaguette","steam_id":76561198076596803,"connected_time":537000000000,"state":"active","ping":85},{"user_id":41,"name":"turntechCathead","steam_id":76561198351249088,"connected_time":362000000000,"state":"active","ping":132},{"user_id":40,"name":"FunnyUsernameWow","steam_id":76561198324177635,"connected_time":395000000000,"state":"active","ping":54},{"user_id":42,"name":"wennext_gaming","steam_id":76561198023109594,"connected_time":336000000000,"state":"active","ping":61},{"user_id":43,"name":"TheGhostThatWas","steam_id":76561198055836483,"connected_time":256000000000,"state":"active","ping":36},{"user_id":46,"name":"swan","steam_id":76561198012569200,"connected_time":37000000000,"state":"active","ping":52}]},{"server_id":14,"name":"Uncletopia | New York City | 2 | All Maps","name_short":"nyc-2","host":"nyc-1.us.uncletopia.com","port":27025,"enabled":true,"region":"us-east","cc":"us","latitude":40.73061,"longitude":-73.93524,"reserved":0,"last_update":"0001-01-01T00:00:00Z","name_a2s":"Uncletopia | New York City | 2 | All Maps","protocol":17,"map":"pl_pier","folder":"tf","game":"Team Fortress","app_id":440,"player_count":0,"max_players":24,"Bots":0,"server_type":"Dedicated","server_os":"Linux","password":true,"vac":true,"version":"7708610","steam_id":85568392924469994,"keywords":["nocrits","nodmgspread","payload","uncletopia"],"game_id":440,"stv_port":27026,"stv_name":"Uncletopia | New York City | 2 | All Maps | STV","players":null},{"server_id":15,"name":"Uncletopia | New York City | 3 | All Maps","name_short":"nyc-3","host":"nyc-1.us.uncletopia.com","port":27035,"enabled":true,"region":"us-east","cc":"us","latitude":40.73061,"longitude":-73.93524,"reserved":0,"last_update":"0001-01-01T00:00:00Z","name_a2s":"Uncletopia | New York City | 3 | All Maps","protocol":17,"map":"cp_sunshine","folder":"tf","game":"Team Fortress","app_id":440,"player_count":0,"max_players":24,"Bots":0,"server_type":"Dedicated","server_os":"Linux","password":true,"vac":true,"version":"7708610","steam_id":85568392924742820,"keywords":["cp","nocrits","nodmgspread","uncletopia"],"game_id":440,"stv_port":0,"stv_name":"","players":null},{"server_id":16,"name":"Uncletopia | New York City | 4 | Community","name_short":"nyc-4","host":"nyc-1.us.uncletopia.com","port":27045,"enabled":true,"region":"us-east","cc":"us","latitude":40.73061,"longitude":-73.93524,"reserved":0,"last_update":"0001-01-01T00:00:00Z","name_a2s":"Uncletopia | New York City | 4 | Community","protocol":17,"map":"workshop/koth_bagel_rc5.ugc2514036946","folder":"tf","game":"Team Fortress","app_id":440,"player_count":0,"max_players":24,"Bots":0,"server_type":"Dedicated","server_os":"Linux","password":true,"vac":true,"version":"7708610","steam_id":85568392924742821,"keywords":["cp","nocrits","nodmgspread","uncletopia"],"game_id":440,"stv_port":27046,"stv_name":"Uncletopia | New York City | 4 | Community | STV","players":null},{"server_id":142,"name":"Uncletopia | S√£o Paulo | 1 | All Maps","name_short":"sao-1","host":"sao-1.br.uncletopia.com","port":27015,"enabled":true,"region":"sa","cc":"br","latitude":-23.533773,"longitude":-46.62529,"reserved":0,"last_update":"0001-01-01T00:00:00Z","name_a2s":"Uncletopia | S√£o Paulo | 1 | All Maps","protocol":17,"map":"cp_steel","folder":"tf","game":"Team Fortress","app_id":440,"player_count":16,"max_players":24,"Bots":0,"server_type":"Dedicated","server_os":"Linux","password":true,"vac":true,"version":"7708610","steam_id":85568392924469996,"keywords":["cp","nocrits","nodmgspread","uncletopia"],"game_id":440,"stv_port":27016,"stv_name":"Uncletopia | S√£o Paulo | 1 | All Maps | STV","players":[{"user_id":108,"name":"3fu23141wv6fn46y","steam_id":76561199383789041,"connected_time":1062000000000,"state":"active","ping":39},{"user_id":99,"name":"PrÈÄö„Çä„ÅÆ‰ºùË™¨","steam_id":76561198976110673,"connected_time":2757000000000,"state":"active","ping":67},{"user_id":102,"name":"jr_rusty","steam_id":76561198313937899,"connected_time":2164000000000,"state":"active","ping":43},{"user_id":101,"name":"‚ô•nott‚ô•","steam_id":76561198289358663,"connected_time":2231000000000,"state":"active","ping":51},{"user_id":111,"name":"Sanches","steam_id":76561198006932156,"connected_time":367000000000,"state":"active","ping":80},{"user_id":104,"name":"brunotakeo12","steam_id":76561198449353746,"connected_time":1657000000000,"state":"active","ping":35},{"user_id":106,"name":"Matheus Alves(Youtube)","steam_id":76561198163920834,"connected_time":1534000000000,"state":"active","ping":50},{"user_id":109,"name":"SENHOR MR M","steam_id":76561199171383361,"connected_time":1015000000000,"state":"active","ping":37},{"user_id":110,"name":"Jeizones","steam_id":76561199273735517,"connected_time":662000000000,"state":"active","ping":47},{"user_id":112,"name":"vinisaurus","steam_id":76561198112127509,"connected_time":266000000000,"state":"active","ping":65},{"user_id":113,"name":"Emisu","steam_id":76561198278086794,"connected_time":213000000000,"state":"active","ping":68},{"user_id":41,"name":"Casas Bahia","steam_id":76561198144739151,"connected_time":9206000000000,"state":"active","ping":36},{"user_id":114,"name":"Sylvester","steam_id":76561199417175031,"connected_time":134000000000,"state":"active","ping":63},{"user_id":115,"name":"Yes","steam_id":76561198240191132,"connected_time":69000000000,"state":"active","ping":44},{"user_id":116,"name":"PHIKILL","steam_id":76561198261514412,"connected_time":46000000000,"state":"active","ping":64},{"user_id":117,"name":"CJAIME01345","steam_id":76561199091599141,"connected_time":20000000000,"state":"spawning","ping":89}]},{"server_id":143,"name":"Uncletopia | S√£o Paulo | 2 | All Maps","name_short":"sao-2","host":"sao-2.br.uncletopia.com","port":27015,"enabled":true,"region":"sa","cc":"br","latitude":-23.533773,"longitude":-46.62529,"reserved":0,"last_update":"0001-01-01T00:00:00Z","name_a2s":"Uncletopia | S√£o Paulo | 2 | All Maps","protocol":17,"map":"koth_viaduct","folder":"tf","game":"Team Fortress","app_id":440,"player_count":0,"max_players":24,"Bots":0,"server_type":"Dedicated","server_os":"Linux","password":true,"vac":true,"version":"7708610","steam_id":85568392924485349,"keywords":["cp","nocrits","nodmgspread","uncletopia"],"game_id":440,"stv_port":27016,"stv_name":"Uncletopia | S√£o Paulo | 2 | All Maps | STV","players":null},{"server_id":7,"name":"Uncletopia | Seattle | 1 | All Maps","name_short":"sea-1","host":"sea-1.us.uncletopia.com","port":27015,"enabled":true,"region":"us-west","cc":"us","latitude":47.608013,"longitude":-122.33517,"reserved":0,"last_update":"0001-01-01T00:00:00Z","name_a2s":"Uncletopia | Seattle | 1 | All Maps","protocol":17,"map":"koth_cascade","folder":"tf","game":"Team Fortress","app_id":440,"player_count":0,"max_players":24,"Bots":0,"server_type":"Dedicated","server_os":"Linux","password":true,"vac":true,"version":"7708610","steam_id":85568392924469997,"keywords":["cp","nocrits","nodmgspread","uncletopia"],"game_id":440,"stv_port":0,"stv_name":"","players":null},{"server_id":119,"name":"Uncletopia | Seattle | 2 | All Maps","name_short":"sea-2","host":"sea-1.us.uncletopia.com","port":27025,"enabled":true,"region":"us-west","cc":"us","latitude":47.608013,"longitude":-122.33517,"reserved":0,"last_update":"0001-01-01T00:00:00Z","name_a2s":"Uncletopia | Seattle | 2 | All Maps","protocol":17,"map":"koth_cascade","folder":"tf","game":"Team Fortress","app_id":440,"player_count":0,"max_players":24,"Bots":0,"server_type":"Dedicated","server_os":"Linux","password":true,"vac":true,"version":"7708610","steam_id":85568392924469998,"keywords":["cp","nocrits","nodmgspread","uncletopia"],"game_id":440,"stv_port":27026,"stv_name":"Uncletopia | Seattle | 2 | All Maps | STV","players":null},{"server_id":17,"name":"Uncletopia | San Francisco | 1 | All Maps","name_short":"sfo-1","host":"sfo-1.us.uncletopia.com","port":27015,"enabled":true,"region":"us-west","cc":"us","latitude":37.77397,"longitude":-122.4313,"reserved":0,"last_update":"0001-01-01T00:00:00Z","name_a2s":"Uncletopia | San Francisco | 1 | All Maps","protocol":17,"map":"cp_sunshine","folder":"tf","game":"Team Fortress","app_id":440,"player_count":0,"max_players":24,"Bots":0,"server_type":"Dedicated","server_os":"Linux","password":true,"vac":true,"version":"7708610","steam_id":85568392924469999,"keywords":["cp","nocrits","nodmgspread","uncletopia"],"game_id":440,"stv_port":0,"stv_name":"","players":null},{"server_id":18,"name":"Uncletopia | San Francisco | 2 | All Maps","name_short":"sfo-2","host":"sfo-1.us.uncletopia.com","port":27025,"enabled":true,"region":"us-west","cc":"us","latitude":37.77397,"longitude":-122.4313,"reserved":0,"last_update":"0001-01-01T00:00:00Z","name_a2s":"Uncletopia | San Francisco | 2 | All Maps","protocol":17,"map":"koth_cascade","folder":"tf","game":"Team Fortress","app_id":440,"player_count":0,"max_players":24,"Bots":0,"server_type":"Dedicated","server_os":"Linux","password":true,"vac":true,"version":"7708610","steam_id":85568392924470000,"keywords":["cp","nocrits","nodmgspread","uncletopia"],"game_id":440,"stv_port":0,"stv_name":"","players":null},{"server_id":19,"name":"Uncletopia | San Francisco | 3 | No Payload","name_short":"sfo-3","host":"sfo-1.us.uncletopia.com","port":27035,"enabled":true,"region":"us-west","cc":"us","latitude":37.77397,"longitude":-122.4313,"reserved":0,"last_update":"0001-01-01T00:00:00Z","name_a2s":"Uncletopia | San Francisco | 3 | No Payload","protocol":17,"map":"cp_snakewater_final1","folder":"tf","game":"Team Fortress","app_id":440,"player_count":0,"max_players":24,"Bots":0,"server_type":"Dedicated","server_os":"Linux","password":true,"vac":true,"version":"7708610","steam_id":85568392924742824,"keywords":["cp","nocrits","nodmgspread","uncletopia"],"game_id":440,"stv_port":0,"stv_name":"","players":null},{"server_id":20,"name":"Uncletopia | San Francisco | 4 | Community","name_short":"sfo-4","host":"sfo-1.us.uncletopia.com","port":27045,"enabled":true,"region":"us-west","cc":"us","latitude":37.77397,"longitude":-122.4313,"reserved":0,"last_update":"0001-01-01T00:00:00Z","name_a2s":"Uncletopia | San Francisco | 4 | Community","protocol":17,"map":"workshop/pl_barnblitz_pro7.ugc582280235","folder":"tf","game":"Team Fortress","app_id":440,"player_count":0,"max_players":24,"Bots":0,"server_type":"Dedicated","server_os":"Linux","password":true,"vac":true,"version":"7708610","steam_id":85568392924742826,"keywords":["nocrits","nodmgspread","payload","uncletopia"],"game_id":440,"stv_port":27046,"stv_name":"Uncletopia | San Francisco | 4 | Community | STV","players":null},{"server_id":141,"name":"Uncletopia | Sydney | 1 | All Maps","name_short":"syd-1","host":"syd-1.au.uncletopia.com","port":27015,"enabled":true,"region":"au","cc":"au","latitude":-33.865143,"longitude":151.2099,"reserved":0,"last_update":"0001-01-01T00:00:00Z","name_a2s":"Uncletopia | Sydney | 1 | All Maps","protocol":17,"map":"cp_altitude","folder":"tf","game":"Team Fortress","app_id":440,"player_count":0,"max_players":24,"Bots":0,"server_type":"Dedicated","server_os":"Linux","password":true,"vac":true,"version":"7708610","steam_id":85568392924470001,"keywords":["cp","nocrits","nodmgspread","uncletopia"],"game_id":440,"stv_port":27016,"stv_name":"Uncletopia | Sydney | 1 | All Maps | STV","players":null},{"server_id":123,"name":"Uncletopia | Sydney | 2 | All Maps","name_short":"syd-2","host":"syd-1.au.uncletopia.com","port":27025,"enabled":true,"region":"au","cc":"au","latitude":-33.865143,"longitude":151.2099,"reserved":0,"last_update":"0001-01-01T00:00:00Z","name_a2s":"Uncletopia | Sydney | 2 | All Maps","protocol":17,"map":"koth_cascade","folder":"tf","game":"Team Fortress","app_id":440,"player_count":0,"max_players":24,"Bots":0,"server_type":"Dedicated","server_os":"Linux","password":true,"vac":true,"version":"7708610","steam_id":85568392924470002,"keywords":["cp","nocrits","nodmgspread","uncletopia"],"game_id":440,"stv_port":27026,"stv_name":"Uncletopia | Sydney | 2 | All Maps | STV","players":null},{"server_id":395,"name":"Uncletopia | Sydney | 3 | All Maps","name_short":"syd-3","host":"syd-1.au.uncletopia.com","port":27035,"enabled":true,"region":"au","cc":"au","latitude":-33.865143,"longitude":151.2099,"reserved":0,"last_update":"0001-01-01T00:00:00Z","name_a2s":"Uncletopia | Sydney | 3 | All Maps","protocol":17,"map":"pl_barnblitz","folder":"tf","game":"Team Fortress","app_id":440,"player_count":0,"max_players":24,"Bots":0,"server_type":"Dedicated","server_os":"Linux","password":true,"vac":true,"version":"7708610","steam_id":85568392925194467,"keywords":["nocrits","nodmgspread","payload","uncletopia"],"game_id":440,"stv_port":27036,"stv_name":"Uncletopia | Sydney | 3 | All Maps | STV","players":null},{"server_id":396,"name":"Uncletopia | Sydney | 4 | All Maps","name_short":"syd-4","host":"syd-1.au.uncletopia.com","port":27045,"enabled":true,"region":"au","cc":"au","latitude":-33.865143,"longitude":151.2099,"reserved":0,"last_update":"0001-01-01T00:00:00Z","name_a2s":"Uncletopia | Sydney | 4 | All Maps","protocol":17,"map":"koth_cascade","folder":"tf","game":"Team Fortress","app_id":440,"player_count":0,"max_players":24,"Bots":0,"server_type":"Dedicated","server_os":"Linux","password":true,"vac":true,"version":"7708610","steam_id":85568392925397958,"keywords":["cp","nocrits","nodmgspread","uncletopia"],"game_id":440,"stv_port":27046,"stv_name":"Uncletopia | Sydney | 4 | All Maps | STV","players":null},{"server_id":58,"name":"Uncletopia | Sydney | 5 | No Payload","name_short":"syd-5","host":"syd-1.au.uncletopia.com","port":27055,"enabled":true,"region":"au","cc":"au","latitude":-33.865143,"longitude":151.2099,"reserved":0,"last_update":"0001-01-01T00:00:00Z","name_a2s":"Uncletopia | Sydney | 5 | No Payload","protocol":17,"map":"koth_cascade","folder":"tf","game":"Team Fortress","app_id":440,"player_count":0,"max_players":24,"Bots":0,"server_type":"Dedicated","server_os":"Linux","password":true,"vac":true,"version":"7708610","steam_id":85568392925397959,"keywords":["cp","nocrits","nodmgspread","uncletopia"],"game_id":440,"stv_port":0,"stv_name":"","players":null},{"server_id":59,"name":"Uncletopia | Sydney | 6 | Community","name_short":"syd-6","host":"syd-1.au.uncletopia.com","port":27065,"enabled":true,"region":"au","cc":"au","latitude":-33.865143,"longitude":151.2099,"reserved":0,"last_update":"0001-01-01T00:00:00Z","name_a2s":"Uncletopia | Sydney | 6 | Community","protocol":17,"map":"workshop/rd_asteroid_redux_rc9.ugc2154902912","folder":"tf","game":"Team Fortress","app_id":440,"player_count":0,"max_players":24,"Bots":0,"server_type":"Dedicated","server_os":"Linux","password":true,"vac":true,"version":"7708610","steam_id":85568392925397960,"keywords":["beta","nocrits","nodmgspread","rd","uncletopia"],"game_id":440,"stv_port":27066,"stv_name":"Uncletopia | Sydney | 6 | Community | STV","players":null},{"server_id":49,"name":"Uncletopia | Warsaw | 1 | All Maps","name_short":"waw-1","host":"waw-1.pl.uncletopia.com","port":27015,"enabled":true,"region":"eu","cc":"pl","latitude":52.2297,"longitude":21.017532,"reserved":0,"last_update":"0001-01-01T00:00:00Z","name_a2s":"Uncletopia | Warsaw | 1 | All Maps","protocol":17,"map":"pl_barnblitz","folder":"tf","game":"Team Fortress","app_id":440,"player_count":21,"max_players":24,"Bots":0,"server_type":"Dedicated","server_os":"Linux","password":true,"vac":true,"version":"7708610","steam_id":85568392925397850,"keywords":["nocrits","nodmgspread","payload","uncletopia"],"game_id":440,"stv_port":27016,"stv_name":"Uncletopia | Warsaw | 1 | All Maps | STV","players":[{"user_id":83,"name":"feadras","steam_id":76561199098499873,"connected_time":396000000000,"state":"active","ping":80},{"user_id":80,"name":"wew","steam_id":76561198880897930,"connected_time":502000000000,"state":"active","ping":63},{"user_id":70,"name":"Shawty","steam_id":76561198256704286,"connected_time":989000000000,"state":"active","ping":73},{"user_id":29,"name":"twitch.tv/biofun_","steam_id":76561198170609049,"connected_time":2949000000000,"state":"active","ping":79},{"user_id":50,"name":"Tides","steam_id":76561198257383813,"connected_time":2276000000000,"state":"active","ping":56},{"user_id":17,"name":"Simping for Pizza-san","steam_id":76561198067204908,"connected_time":3698000000000,"state":"active","ping":83},{"user_id":84,"name":"Laax","steam_id":76561198938409558,"connected_time":382000000000,"state":"active","ping":67},{"user_id":85,"name":"Millero15","steam_id":76561198143105719,"connected_time":302000000000,"state":"active","ping":121},{"user_id":26,"name":"soopeli","steam_id":76561198003350251,"connected_time":3029000000000,"state":"active","ping":81},{"user_id":39,"name":"Benzo Fury","steam_id":76561198025259336,"connected_time":2651000000000,"state":"active","ping":73},{"user_id":87,"name":"Monke Gaming","steam_id":76561199122133427,"connected_time":280000000000,"state":"active","ping":151},{"user_id":31,"name":"maika","steam_id":76561198027172275,"connected_time":2915000000000,"state":"active","ping":79},{"user_id":71,"name":"Amon Gus","steam_id":76561199094540960,"connected_time":929000000000,"state":"active","ping":73},{"user_id":82,"name":"blurst of times","steam_id":76561197972325640,"connected_time":475000000000,"state":"active","ping":71},{"user_id":93,"name":"muppi","steam_id":76561198067765324,"connected_time":93000000000,"state":"active","ping":96},{"user_id":69,"name":"BELADIT","steam_id":76561198011911501,"connected_time":1083000000000,"state":"active","ping":90},{"user_id":95,"name":"Muppburg","steam_id":76561198031070682,"connected_time":56000000000,"state":"active","ping":77},{"user_id":58,"name":"slimak47.cz","steam_id":76561198857396812,"connected_time":1811000000000,"state":"active","ping":46},{"user_id":91,"name":"Maxwell Gaming","steam_id":76561199114568070,"connected_time":215000000000,"state":"active","ping":114},{"user_id":94,"name":"loonies in the hall","steam_id":76561198216544293,"connected_time":85000000000,"state":"active","ping":97},{"user_id":96,"name":"Vlad","steam_id":76561198083974543,"connected_time":53000000000,"state":"active","ping":63}]},{"server_id":50,"name":"Uncletopia | Warsaw | 2 | All Maps","name_short":"waw-2","host":"waw-1.pl.uncletopia.com","port":27025,"enabled":true,"region":"eu","cc":"pl","latitude":52.2297,"longitude":21.017532,"reserved":0,"last_update":"0001-01-01T00:00:00Z","name_a2s":"Uncletopia | Warsaw | 2 | All Maps","protocol":17,"map":"pl_frontier_final","folder":"tf","game":"Team Fortress","app_id":440,"player_count":0,"max_players":24,"Bots":0,"server_type":"Dedicated","server_os":"Linux","password":true,"vac":true,"version":"7708610","steam_id":85568392925397851,"keywords":["nocrits","nodmgspread","payload","uncletopia"],"game_id":440,"stv_port":27026,"stv_name":"Uncletopia | Warsaw | 2 | All Maps | STV","players":null},{"server_id":51,"name":"Uncletopia | Warsaw | 3 | All Maps","name_short":"waw-3","host":"waw-1.pl.uncletopia.com","port":27035,"enabled":true,"region":"eu","cc":"pl","latitude":52.2297,"longitude":21.017532,"reserved":0,"last_update":"0001-01-01T00:00:00Z","name_a2s":"Uncletopia | Warsaw | 3 | All Maps","protocol":17,"map":"koth_cascade","folder":"tf","game":"Team Fortress","app_id":440,"player_count":0,"max_players":24,"Bots":0,"server_type":"Dedicated","server_os":"Linux","password":true,"vac":true,"version":"7708610","steam_id":85568392925397852,"keywords":["cp","nocrits","nodmgspread","uncletopia"],"game_id":440,"stv_port":0,"stv_name":"","players":null},{"server_id":52,"name":"Uncletopia | Warsaw | 4 | All Maps","name_short":"waw-4","host":"waw-1.pl.uncletopia.com","port":27045,"enabled":true,"region":"eu","cc":"pl","latitude":52.2297,"longitude":21.017532,"reserved":0,"last_update":"0001-01-01T00:00:00Z","name_a2s":"Uncletopia | Warsaw | 4 | All Maps","protocol":17,"map":"cp_process_final","folder":"tf","game":"Team Fortress","app_id":440,"player_count":0,"max_players":24,"Bots":0,"server_type":"Dedicated","server_os":"Linux","password":true,"vac":true,"version":"7708610","steam_id":85568392925397853,"keywords":["cp","nocrits","nodmgspread","uncletopia"],"game_id":440,"stv_port":27046,"stv_name":"Uncletopia | Warsaw | 4 | All Maps | STV","players":null},{"server_id":53,"name":"Uncletopia | Warsaw | 5 | No Payload","name_short":"waw-5","host":"waw-1.pl.uncletopia.com","port":27055,"enabled":true,"region":"eu","cc":"pl","latitude":52.2297,"longitude":21.017532,"reserved":0,"last_update":"0001-01-01T00:00:00Z","name_a2s":"Uncletopia | Warsaw | 5 | No Payload","protocol":17,"map":"cp_dustbowl","folder":"tf","game":"Team Fortress","app_id":440,"player_count":2,"max_players":24,"Bots":0,"server_type":"Dedicated","server_os":"Linux","password":true,"vac":true,"version":"7708610","steam_id":85568392925397854,"keywords":["cp","nocrits","nodmgspread","uncletopia"],"game_id":440,"stv_port":0,"stv_name":"","players":[{"user_id":2,"name":"ruler of everything","steam_id":76561198113918904,"connected_time":2336000000000,"state":"active","ping":35},{"user_id":3,"name":"Vatykaniak","steam_id":76561198214232276,"connected_time":2324000000000,"state":"active","ping":57}]},{"server_id":54,"name":"Uncletopia | Warsaw | 6 | Community","name_short":"waw-6","host":"waw-1.pl.uncletopia.com","port":27065,"enabled":true,"region":"eu","cc":"pl","latitude":52.2297,"longitude":21.017532,"reserved":0,"last_update":"0001-01-01T00:00:00Z","name_a2s":"Uncletopia | Warsaw | 6 | Community","protocol":17,"map":"koth_highpass","folder":"tf","game":"Team Fortress","app_id":440,"player_count":0,"max_players":24,"Bots":0,"server_type":"Dedicated","server_os":"Linux","password":true,"vac":true,"version":"7708610","steam_id":85568392925397856,"keywords":["cp","nocrits","nodmgspread","uncletopia"],"game_id":440,"stv_port":0,"stv_name":"","players":null}]}