{"status":true,"message":"","result":[{"server_id":9,"name":"Uncletopia | Atlanta | 1 | All Maps","name_short":"atl-1","host":"atl-1.us.uncletopia.com","port":27015,"enabled":true,"region":"us-east","cc":"us","latitude":33.753746,"longitude":-84.38633,"reserved":0,"last_update":"0001-01-01T00:00:00Z","name_a2s":"Uncletopia | Atlanta | 1 | All Maps","protocol":17,"map":"pl_upward","folder":"tf","game":"Team Fortress","app_id":440,"player_count":24,"max_players":24,"Bots":0,"server_type":"Dedicated","server_os":"Linux","password":true,"vac":true,"version":"7757534","steam_id":85568392924469982,"keywords":["nocrits","nodmgspread","payload","uncletopia"],"game_id":440,"stv_port":27016,"stv_name":"Uncletopia | Atlanta | 1 | All Maps | STV","players":[{"user_id":825,"name":"ATL1 | Psionic Box","steam_id":76561198151019322,"connected_time":7272000000000,"state":"active","ping":60},{"user_id":831,"name":"tacofever","steam_id":76561198010966507,"connected_time":6431000000000,"state":"active","ping":108},{"user_id":853,"name":"0","steam_id":76561199481428061,"connected_time":2976000000000,"state":"active","ping":60},{"user_id":866,"name":"ATL1 | on my hunting trip","steam_id":76561198315341646,"connected_time":61000000000,"state":"active","ping":75},{"user_id":780,"name":"Crystron","steam_id":76561198880437428,"connected_time":11891000000000,"state":"active","ping":81},{"user_id":838,"name":"Toonice","steam_id":76561198402994885,"connected_time":4745000000000,"state":"active","ping":79},{"user_id":862,"name":"yomo","steam_id":76561198063175935,"connected_time":800000000000,"state":"active","ping":59},{"user_id":865,"name":"hidden_games","steam_id":76561198149683392,"connected_time":290000000000,"state":"active","ping":59},{"user_id":864,"name":"Rafl","steam_id":76561198055222756,"connected_time":325000000000,"state":"active","ping":65},{"user_id":854,"name":"raya","steam_id":76561198051504581,"connected_time":2679000000000,"state":"active","ping":63},{"user_id":841,"name":"BIG HOG","steam_id":76561198079923652,"connected_time":3885000000000,"state":"active","ping":63},{"user_id":802,"name":"David De Bergerac","steam_id":76561198010306294,"connected_time":9597000000000,"state":"active","ping":87},{"user_id":861,"name":"Crasson","steam_id":76561198034967708,"connected_time":880000000000,"state":"active","ping":85},{"user_id":856,"name":"IZISOO","steam_id":76561198970380577,"connected_time":1969000000000,"state":"active","ping":71},{"user_id":830,"name":"Epifiny","steam_id":76561198027958086,"connected_time":6486000000000,"state":"active","ping":91},{"user_id":826,"name":"Lemonade Juice","steam_id":76561198402892608,"connected_time":7190000000000,"state":"active","ping":103},{"user_id":843,"name":"Goyslop","steam_id":76561198142949496,"connected_time":3272000000000,"state":"active","ping":65},{"user_id":789,"name":"nft airshotter","steam_id":76561198158137522,"connected_time":11193000000000,"state":"active","ping":34},{"user_id":852,"name":"spoon","steam_id":76561198927517471,"connected_time":3007000000000,"state":"active","ping":61},{"user_id":844,"name":"ATL 1 | Save your wifi","steam_id":76561198286147372,"connected_time":3272000000000,"state":"active","ping":59},{"user_id":863,"name":"Wren","steam_id":76561198071109787,"connected_time":333000000000,"state":"active","ping":87},{"user_id":846,"name":"Raine","steam_id":76561198098860903,"connected_time":3266000000000,"state":"active","ping":148},{"user_id":851,"name":"oakaokokakaokoa","steam_id":76561198092135570,"connected_time":3200000000000,"state":"active","ping":60},{"user_id":331,"name":"lil hog","steam_id":76561199230929836,"connected_time":40762000000000,"state":"active","ping":87}]},{"server_id":104,"name":"Uncletopia | Atlanta | 2 | All Maps","name_short":"atl-2","host":"atl-1.us.uncletopia.com","port":27025,"enabled":true,"region":"us-east","cc":"us","latitude":33.753746,"longitude":-84.38633,"reserved":0,"last_update":"0001-01-01T00:00:00Z","name_a2s":"Uncletopia | Atlanta | 2 | All Maps","protocol":17,"map":"pl_upward","folder":"tf","game":"Team Fortress","app_id":440,"player_count":8,"max_players":24,"Bots":0,"server_type":"Dedicated","server_os":"Linux","password":true,"vac":true,"version":"7757534","steam_id":85568392924469983,"keywords":["nocrits","nodmgspread","payload","uncletopia"],"game_id":440,"stv_port":27026,"stv_name":"Uncletopia | Atlanta | 2 | All Maps | STV","players":[{"user_id":619,"name":"galunga","steam_id":76561198027184320,"connected_time":2873000000000,"state":"active","ping":115},{"user_id":604,"name":"Average Caber Fan","steam_id":76561199451299044,"connected_time":4035000000000,"state":"active","ping":56},{"user_id":650,"name":"Chestnut","steam_id":76561198078198968,"connected_time":1176000000000,"state":"active","ping":82},{"user_id":633,"name":"Maurix6","steam_id":76561198066634370,"connected_time":2477000000000,"state":"active","ping":86},{"user_id":636,"name":"TTV.silverfan420","steam_id":76561198013873028,"connected_time":2417000000000,"state":"active","ping":85},{"user_id":646,"name":"Gaz","steam_id":76561198112838904,"connected_time":1642000000000,"state":"active","ping":101},{"user_id":577,"name":"shitass","steam_id":76561198355094896,"connected_time":6447000000000,"state":"active","ping":54},{"user_id":655,"name":"Lamb","steam_id":76561199406964877,"connected_time":689000000000,"state":"active","ping":116}]},{"server_id":400,"name":"Uncletopia | Atlanta | 3 | Community","name_short":"atl-3","host":"atl-1.us.uncletopia.com","port":27035,"enabled":true,"region":"us-east","cc":"us","latitude":33.753746,"longitude":-84.38633,"reserved":0,"last_update":"0001-01-01T00:00:00Z","name_a2s":"Uncletopia | Atlanta | 3 | Community","protocol":17,"map":"cp_snakewater_final1","folder":"tf","game":"Team Fortress","app_id":440,"player_count":0,"max_players":24,"Bots":0,"server_type":"Dedicated","server_os":"Linux","password":true,"vac":true,"version":"7757534","steam_id":85568392924515187,"keywords":["cp","nocrits","nodmgspread","uncletopia"],"game_id":440,"stv_port":27036,"stv_name":"Uncletopia | Atlanta | 3 | Community | STV","players":null},{"server_id":401,"name":"Uncletopia | Atlanta | 4 | No Payload","name_short":"atl-4","host":"atl-1.us.uncletopia.com","port":27045,"enabled":true,"region":"us-east","cc":"us","latitude":33.753746,"longitude":-84.38633,"reserved":0,"last_update":"0001-01-01T00:00:00Z","name_a2s":"","protocol":0,"map":"","folder":"","game":"","app_id":0,"player_count":0,"max_players":0,"Bots":0,"server_type":"","server_os":"","password":false,"vac":false,"version":"","steam_id":0,"keywords":null,"game_id":0,"stv_port":0,"stv_name":"","players":null},{"server_id":2,"name":"Uncletopia | Chicago | 1 | All Maps","name_short":"chi-1","host":"chi-1.us.uncletopia.com","port":27015,"enabled":true,"region":"us-central","cc":"us","latitude":41.881832,"longitude":-87.62318,"reserved":0,"last_update":"0001-01-01T00:00:00Z","name_a2s":"Uncletopia | Chicago | 1 | All Maps","protocol":17,"map":"pl_borneo","folder":"tf","game":"Team Fortress","app_id":440,"player_count":24,"max_players":24,"Bots":0,"server_type":"Dedicated","server_os":"Linux","password":true,"vac":true,"version":"7757534","steam_id":85568392924469984,"keywords":["nocrits","nodmgspread","payload","uncletopia"],"game_id":440,"stv_port":27016,"stv_name":"Uncletopia | Chicago | 1 | All Maps | STV","players":[{"user_id":884,"name":"tucemiux","steam_id":76561198034779070,"connected_time":231000000000,"state":"active","ping":60},{"user_id":869,"name":"INDEX","steam_id":76561198330917111,"connected_time":1536000000000,"state":"active","ping":79},{"user_id":852,"name":"Cutie","steam_id":76561198126686695,"connected_time":2462000000000,"state":"active","ping":47},{"user_id":879,"name":"schizophrenic Stack stan","steam_id":76561198214370515,"connected_time":336000000000,"state":"active","ping":66},{"user_id":849,"name":"the biggest bird","steam_id":76561198361999761,"connected_time":2623000000000,"state":"active","ping":106},{"user_id":848,"name":"Psych","steam_id":76561198138727311,"connected_time":2624000000000,"state":"active","ping":60},{"user_id":851,"name":"bucket'o'racoons","steam_id":76561199086234004,"connected_time":2521000000000,"state":"active","ping":105},{"user_id":817,"name":"ciro12lori","steam_id":76561198300790534,"connected_time":5704000000000,"state":"active","ping":85},{"user_id":850,"name":"Caj","steam_id":76561198007055853,"connected_time":2573000000000,"state":"active","ping":102},{"user_id":856,"name":"Raccoon.Of.Waffle.House","steam_id":76561199018770554,"connected_time":2202000000000,"state":"active","ping":82},{"user_id":857,"name":"Deacon","steam_id":76561197998532724,"connected_time":2181000000000,"state":"active","ping":103},{"user_id":844,"name":"upside down cat","steam_id":76561198028288349,"connected_time":3178000000000,"state":"active","ping":86},{"user_id":864,"name":"TheGuysMan","steam_id":76561198163677812,"connected_time":2012000000000,"state":"active","ping":79},{"user_id":865,"name":"LTG","steam_id":76561198186856187,"connected_time":1975000000000,"state":"active","ping":90},{"user_id":870,"name":"Two Thin Coats","steam_id":76561198018449200,"connected_time":1499000000000,"state":"active","ping":67},{"user_id":860,"name":"AkimboAoki","steam_id":76561198158323058,"connected_time":2127000000000,"state":"active","ping":95},{"user_id":881,"name":"Lore","steam_id":76561198098407538,"connected_time":325000000000,"state":"active","ping":45},{"user_id":862,"name":"BrokenHalo83","steam_id":76561197996592808,"connected_time":2061000000000,"state":"active","ping":100},{"user_id":863,"name":"Ice Man","steam_id":76561198073249999,"connected_time":2019000000000,"state":"active","ping":89},{"user_id":837,"name":"Acehay14","steam_id":76561198052373291,"connected_time":3892000000000,"state":"active","ping":65},{"user_id":882,"name":"LatinRhythms","steam_id":76561198025110751,"connected_time":323000000000,"state":"active","ping":132},{"user_id":841,"name":"Captain S. Forrest","steam_id":76561198062463029,"connected_time":3442000000000,"state":"active","ping":57},{"user_id":871,"name":"rice white","steam_id":76561198320732910,"connected_time":1481000000000,"state":"active","ping":74},{"user_id":883,"name":"Laybox","steam_id":76561198160275551,"connected_time":323000000000,"state":"active","ping":163}]},{"server_id":106,"name":"Uncletopia | Chicago | 2 | All Maps","name_short":"chi-2","host":"chi-1.us.uncletopia.com","port":27025,"enabled":true,"region":"us-central","cc":"us","latitude":41.881832,"longitude":-87.62318,"reserved":0,"last_update":"0001-01-01T00:00:00Z","name_a2s":"Uncletopia | Chicago | 2 | All Maps","protocol":17,"map":"pl_frontier_final","folder":"tf","game":"Team Fortress","app_id":440,"player_count":21,"max_players":24,"Bots":0,"server_type":"Dedicated","server_os":"Linux","password":true,"vac":true,"version":"7757534","steam_id":85568392924469985,"keywords":["nocrits","nodmgspread","payload","uncletopia"],"game_id":440,"stv_port":27026,"stv_name":"Uncletopia | Chicago | 2 | All Maps | STV","players":[{"user_id":705,"name":"Bahakid59","steam_id":76561199176991488,"connected_time":199000000000,"state":"active","ping":99},{"user_id":700,"name":"RapidXenophage","steam_id":76561198175149973,"connected_time":386000000000,"state":"active","ping":97},{"user_id":706,"name":"Tanuki in your attic.","steam_id":76561198027487285,"connected_time":46000000000,"state":"spawning","ping":122},{"user_id":676,"name":"bungo","steam_id":76561198065145850,"connected_time":2177000000000,"state":"active","ping":85},{"user_id":619,"name":"Kanbaru Suruga","steam_id":76561198164782653,"connected_time":6349000000000,"state":"active","ping":60},{"user_id":618,"name":"gerg","steam_id":76561197997127387,"connected_time":6359000000000,"state":"active","ping":90},{"user_id":707,"name":"porz","steam_id":76561198195711453,"connected_time":8000000000,"state":"spawning","ping":58},{"user_id":689,"name":"Lucario","steam_id":76561199013895890,"connected_time":872000000000,"state":"active","ping":109},{"user_id":690,"name":"bill","steam_id":76561199142779872,"connected_time":854000000000,"state":"active","ping":60},{"user_id":647,"name":"Mr.Hour's 24 Hour Island Challe","steam_id":76561198018995498,"connected_time":4962000000000,"state":"active","ping":45},{"user_id":693,"name":"gt","steam_id":76561198033033884,"connected_time":774000000000,"state":"active","ping":63},{"user_id":702,"name":"whathashit69","steam_id":76561199013105760,"connected_time":348000000000,"state":"active","ping":144},{"user_id":703,"name":"Poppet","steam_id":76561198012301951,"connected_time":334000000000,"state":"active","ping":60},{"user_id":674,"name":"♡ ironterrortrain ♡","steam_id":76561198046460418,"connected_time":2325000000000,"state":"active","ping":104},{"user_id":658,"name":"Tamalito109","steam_id":76561198310531554,"connected_time":3169000000000,"state":"active","ping":87},{"user_id":684,"name":"The Muffin Man","steam_id":76561199088286427,"connected_time":1684000000000,"state":"active","ping":86},{"user_id":650,"name":"ATL 1 | POOP DRINKER","steam_id":76561198132372435,"connected_time":4799000000000,"state":"active","ping":75},{"user_id":694,"name":"playguy carter","steam_id":76561198080679337,"connected_time":717000000000,"state":"active","ping":47},{"user_id":687,"name":"dmdr1969","steam_id":76561198080469611,"connected_time":1504000000000,"state":"active","ping":62},{"user_id":649,"name":"doughboy","steam_id":76561198219012928,"connected_time":4860000000000,"state":"active","ping":98},{"user_id":645,"name":"Rock and Stone","steam_id":76561198057374871,"connected_time":5235000000000,"state":"active","ping":45}]},{"server_id":402,"name":"Uncletopia | Chicago | 3 | All Maps","name_short":"chi-3","host":"chi-1.us.uncletopia.com","port":27035,"enabled":true,"region":"us-central","cc":"us","latitude":41.881832,"longitude":-87.62318,"reserved":0,"last_update":"0001-01-01T00:00:00Z","name_a2s":"Uncletopia | Chicago | 3 | All Maps","protocol":17,"map":"koth_lakeside_final","folder":"tf","game":"Team Fortress","app_id":440,"player_count":22,"max_players":24,"Bots":0,"server_type":"Dedicated","server_os":"Linux","password":true,"vac":true,"version":"7757534","steam_id":85568392924515191,"keywords":["cp","nocrits","nodmgspread","uncletopia"],"game_id":440,"stv_port":27036,"stv_name":"Uncletopia | Chicago | 3 | All Maps | STV","players":[{"user_id":727,"name":"carch1222","steam_id":76561198111665597,"connected_time":5103000000000,"state":"active","ping":82},{"user_id":768,"name":"caption cool","steam_id":76561197990612056,"connected_time":2226000000000,"state":"active","ping":45},{"user_id":787,"name":"Dask","steam_id":76561198043385839,"connected_time":213000000000,"state":"active","ping":52},{"user_id":771,"name":"Jezzus","steam_id":76561199289676387,"connected_time":1977000000000,"state":"active","ping":72},{"user_id":777,"name":"Flooder","steam_id":76561198043792818,"connected_time":1249000000000,"state":"active","ping":86},{"user_id":783,"name":"Grass","steam_id":76561199079022418,"connected_time":279000000000,"state":"active","ping":112},{"user_id":745,"name":"knu7x","steam_id":76561198035475805,"connected_time":3177000000000,"state":"active","ping":85},{"user_id":788,"name":"Jel1440","steam_id":76561198179045366,"connected_time":111000000000,"state":"active","ping":53},{"user_id":784,"name":"The Ghost of Jay Leno","steam_id":76561198058938897,"connected_time":245000000000,"state":"active","ping":74},{"user_id":734,"name":"Conrad Murray","steam_id":76561198141682876,"connected_time":4558000000000,"state":"active","ping":87},{"user_id":789,"name":"Puptid","steam_id":76561198285438152,"connected_time":104000000000,"state":"active","ping":69},{"user_id":746,"name":"Vetenigga","steam_id":76561198129546803,"connected_time":3148000000000,"state":"active","ping":96},{"user_id":747,"name":"jalen","steam_id":76561198065205306,"connected_time":3143000000000,"state":"active","ping":78},{"user_id":761,"name":"i WILL ego peek","steam_id":76561199013337543,"connected_time":2585000000000,"state":"active","ping":71},{"user_id":711,"name":"MEGATRON","steam_id":76561198820480684,"connected_time":6885000000000,"state":"active","ping":60},{"user_id":766,"name":"_Ati","steam_id":76561198339777801,"connected_time":2264000000000,"state":"active","ping":108},{"user_id":772,"name":"Serbian Stalker","steam_id":76561199182959265,"connected_time":1889000000000,"state":"active","ping":70},{"user_id":790,"name":"Sozeash","steam_id":76561198207795512,"connected_time":41000000000,"state":"active","ping":65},{"user_id":737,"name":"Fiendish Frog","steam_id":76561198029478821,"connected_time":4435000000000,"state":"active","ping":67},{"user_id":773,"name":"justapikmin","steam_id":76561199023650282,"connected_time":1883000000000,"state":"active","ping":71},{"user_id":780,"name":"shitass","steam_id":76561198210572481,"connected_time":732000000000,"state":"active","ping":75},{"user_id":715,"name":"Hashyterps Visioncs.de","steam_id":76561198110563958,"connected_time":6839000000000,"state":"active","ping":89}]},{"server_id":403,"name":"Uncletopia | Chicago | 4 | All Maps","name_short":"chi-4","host":"chi-1.us.uncletopia.com","port":27045,"enabled":true,"region":"us-central","cc":"us","latitude":41.881832,"longitude":-87.62318,"reserved":0,"last_update":"0001-01-01T00:00:00Z","name_a2s":"Uncletopia | Chicago | 4 | All Maps","protocol":17,"map":"cp_snakewater_final1","folder":"tf","game":"Team Fortress","app_id":440,"player_count":23,"max_players":24,"Bots":0,"server_type":"Dedicated","server_os":"Linux","password":true,"vac":true,"version":"7757534","steam_id":85568392924515193,"keywords":["cp","nocrits","nodmgspread","uncletopia"],"game_id":440,"stv_port":27046,"stv_name":"Uncletopia | Chicago | 4 | All Maps | STV","players":[{"user_id":560,"name":"Tranq","steam_id":76561197967250757,"connected_time":4250000000000,"state":"active","ping":57},{"user_id":538,"name":"Professionally Braindead ツ","steam_id":76561198276714220,"connected_time":6294000000000,"state":"active","ping":54},{"user_id":561,"name":"Rain","steam_id":76561198346977332,"connected_time":4065000000000,"state":"active","ping":45},{"user_id":614,"name":"puppy :3","steam_id":76561198011196264,"connected_time":403000000000,"state":"active","ping":54},{"user_id":619,"name":"Quaddy","steam_id":76561198044772310,"connected_time":243000000000,"state":"active","ping":90},{"user_id":546,"name":"ultralisk52","steam_id":76561198051666604,"connected_time":5711000000000,"state":"active","ping":61},{"user_id":583,"name":"[S]Mr. X [No Monitor]","steam_id":76561197963746035,"connected_time":2754000000000,"state":"active","ping":119},{"user_id":616,"name":"antlers","steam_id":76561198072515851,"connected_time":286000000000,"state":"active","ping":108},{"user_id":618,"name":"Bored Barred Owl","steam_id":76561198263895597,"connected_time":263000000000,"state":"active","ping":73},{"user_id":602,"name":"Maxxycat","steam_id":76561198194062681,"connected_time":1416000000000,"state":"active","ping":51},{"user_id":590,"name":"krwax","steam_id":76561198272053849,"connected_time":2498000000000,"state":"active","ping":52},{"user_id":564,"name":"Crafty Butcher","steam_id":76561197993426667,"connected_time":3850000000000,"state":"active","ping":53},{"user_id":579,"name":"Spike","steam_id":76561198141356571,"connected_time":3055000000000,"state":"active","ping":58},{"user_id":617,"name":"Aristotle Voulton","steam_id":76561198100174923,"connected_time":281000000000,"state":"active","ping":91},{"user_id":620,"name":"profile name","steam_id":76561198032625036,"connected_time":200000000000,"state":"active","ping":75},{"user_id":606,"name":"Acto","steam_id":76561198043025164,"connected_time":1001000000000,"state":"active","ping":107},{"user_id":599,"name":"GOON","steam_id":76561198327993003,"connected_time":1890000000000,"state":"active","ping":119},{"user_id":607,"name":"Stoney Goblin","steam_id":76561198141215376,"connected_time":989000000000,"state":"active","ping":62},{"user_id":597,"name":"Bananadu","steam_id":76561198078062042,"connected_time":2079000000000,"state":"active","ping":63},{"user_id":608,"name":"Mikeonut","steam_id":76561198305752102,"connected_time":987000000000,"state":"active","ping":100},{"user_id":621,"name":"Phaze (Human PLUS)","steam_id":76561198025267071,"connected_time":166000000000,"state":"active","ping":63},{"user_id":609,"name":"Floaty","steam_id":76561198100029503,"connected_time":985000000000,"state":"active","ping":107},{"user_id":592,"name":"GUINNESS ANYONE?","steam_id":76561197985970131,"connected_time":2487000000000,"state":"active","ping":62}]},{"server_id":36,"name":"Uncletopia | Chicago | 5 | All Maps","name_short":"chi-5","host":"chi-2.us.uncletopia.com","port":27015,"enabled":true,"region":"us-central","cc":"us","latitude":41.881832,"longitude":-87.62318,"reserved":0,"last_update":"0001-01-01T00:00:00Z","name_a2s":"Uncletopia | Chicago | 5 | All Maps","protocol":17,"map":"pl_borneo","folder":"tf","game":"Team Fortress","app_id":440,"player_count":0,"max_players":24,"Bots":0,"server_type":"Dedicated","server_os":"Linux","password":true,"vac":true,"version":"7757534","steam_id":85568392924866362,"keywords":["nocrits","nodmgspread","payload","uncletopia"],"game_id":440,"stv_port":27016,"stv_name":"Uncletopia | Chicago | 5 | All Maps | STV","players":null},{"server_id":37,"name":"Uncletopia | Chicago | 6 | All Maps","name_short":"chi-6","host":"chi-2.us.uncletopia.com","port":27025,"enabled":true,"region":"us-central","cc":"us","latitude":41.881832,"longitude":-87.62318,"reserved":0,"last_update":"0001-01-01T00:00:00Z","name_a2s":"Uncletopia | Chicago | 6 | All Maps","protocol":17,"map":"koth_lakeside_final","folder":"tf","game":"Team Fortress","app_id":440,"player_count":0,"max_players":24,"Bots":0,"server_type":"Dedicated","server_os":"Linux","password":true,"vac":true,"version":"7757534","steam_id":85568392924866363,"keywords":["cp","nocrits","nodmgspread","uncletopia"],"game_id":440,"stv_port":27026,"stv_name":"Uncletopia | Chicago | 6 | All Maps | STV","players":null},{"server_id":38,"name":"Uncletopia | Chicago | 7 | Stopwatch Beta","name_short":"chi-7","host":"chi-2.us.uncletopia.com","port":27035,"enabled":true,"region":"us-central","cc":"us","latitude":41.881832,"longitude":-87.62318,"reserved":0,"last_update":"0001-01-01T00:00:00Z","name_a2s":"Uncletopia | Chicago | 7 | Stopwatch Beta","protocol":17,"map":"pl_barnblitz","folder":"tf","game":"Team Fortress","app_id":440,"player_count":0,"max_players":24,"Bots":0,"server_type":"Dedicated","server_os":"Linux","password":true,"vac":true,"version":"7757534","steam_id":85568392924866364,"keywords":["nocrits","nodmgspread","payload","uncletopia"],"game_id":440,"stv_port":27036,"stv_name":"Uncletopia | Chicago | 7 | Stopwatch Beta | STV","players":null},{"server_id":39,"name":"Uncletopia | Chicago | 8 | Community","name_short":"chi-8","host":"chi-2.us.uncletopia.com","port":27045,"enabled":true,"region":"us-central","cc":"us","latitude":41.881832,"longitude":-87.62318,"reserved":0,"last_update":"0001-01-01T00:00:00Z","name_a2s":"Uncletopia | Chicago | 8 | Community","protocol":17,"map":"workshop/koth_ramjam_rc1.ugc459778887","folder":"tf","game":"Team Fortress","app_id":440,"player_count":21,"max_players":24,"Bots":0,"server_type":"Dedicated","server_os":"Linux","password":true,"vac":true,"version":"7757534","steam_id":85568392924866365,"keywords":["cp","nocrits","nodmgspread","uncletopia"],"game_id":440,"stv_port":27046,"stv_name":"Uncletopia | Chicago | 8 | Community | STV","players":[{"user_id":499,"name":"Trollege.","steam_id":76561199019557971,"connected_time":1650000000000,"state":"active","ping":93},{"user_id":509,"name":"shaw","steam_id":76561198874120857,"connected_time":626000000000,"state":"active","ping":45},{"user_id":510,"name":"CherryPieRed2023","steam_id":76561198998007496,"connected_time":326000000000,"state":"active","ping":87},{"user_id":508,"name":"carotdotpdf","steam_id":76561198293333921,"connected_time":846000000000,"state":"active","ping":70},{"user_id":492,"name":"Casluksopson","steam_id":76561198799615204,"connected_time":1973000000000,"state":"active","ping":90},{"user_id":466,"name":"redzach","steam_id":76561198444094359,"connected_time":4468000000000,"state":"active","ping":52},{"user_id":490,"name":"Mighty","steam_id":76561198096569755,"connected_time":2264000000000,"state":"active","ping":96},{"user_id":513,"name":"Mayxaroni","steam_id":76561198170642041,"connected_time":142000000000,"state":"active","ping":93},{"user_id":428,"name":"I'm so full of stem cells","steam_id":76561198329087915,"connected_time":7237000000000,"state":"active","ping":103},{"user_id":501,"name":"Benson","steam_id":76561198110704686,"connected_time":1508000000000,"state":"active","ping":46},{"user_id":468,"name":"DeckofDragons","steam_id":76561198057398213,"connected_time":4166000000000,"state":"active","ping":75},{"user_id":505,"name":"I have a boner","steam_id":76561198128156322,"connected_time":1322000000000,"state":"active","ping":63},{"user_id":502,"name":"Nitro","steam_id":76561198258121396,"connected_time":1454000000000,"state":"active","ping":85},{"user_id":471,"name":"[DEEP] Danmar33","steam_id":76561198056453091,"connected_time":3889000000000,"state":"active","ping":45},{"user_id":488,"name":"The Notorious T.A.F.T.","steam_id":76561198073012352,"connected_time":2347000000000,"state":"active","ping":77},{"user_id":489,"name":"weenie warrior","steam_id":76561199037067957,"connected_time":2308000000000,"state":"active","ping":60},{"user_id":494,"name":"magickxanadu","steam_id":76561199117360103,"connected_time":1810000000000,"state":"active","ping":84},{"user_id":495,"name":"Clockwick","steam_id":76561198047292719,"connected_time":1806000000000,"state":"active","ping":73},{"user_id":496,"name":"speakers #4jammies","steam_id":76561198138221795,"connected_time":1800000000000,"state":"active","ping":75},{"user_id":506,"name":"Swifgz","steam_id":76561198162875756,"connected_time":1147000000000,"state":"active","ping":58},{"user_id":432,"name":"Infinitytacos","steam_id":76561198884260211,"connected_time":7205000000000,"state":"active","ping":45}]},{"server_id":8,"name":"Uncletopia | Dallas | 1 | All Maps","name_short":"dal-1","host":"dal-1.us.uncletopia.com","port":27015,"enabled":true,"region":"us-central","cc":"us","latitude":32.779167,"longitude":-96.80889,"reserved":0,"last_update":"0001-01-01T00:00:00Z","name_a2s":"Uncletopia | Dallas | 1 | All Maps","protocol":17,"map":"pl_upward","folder":"tf","game":"Team Fortress","app_id":440,"player_count":24,"max_players":24,"Bots":0,"server_type":"Dedicated","server_os":"Linux","password":true,"vac":true,"version":"7757534","steam_id":85568392924469986,"keywords":["nocrits","nodmgspread","payload","uncletopia"],"game_id":440,"stv_port":27016,"stv_name":"Uncletopia | Dallas | 1 | All Maps | STV","players":[{"user_id":892,"name":"joelygoat","steam_id":76561198949565555,"connected_time":594000000000,"state":"active","ping":112},{"user_id":879,"name":"Ninjegeabey","steam_id":76561198217717789,"connected_time":1311000000000,"state":"active","ping":65},{"user_id":828,"name":"naur","steam_id":76561198103496593,"connected_time":5735000000000,"state":"active","ping":61},{"user_id":880,"name":"LovingKindne2z","steam_id":76561199064932372,"connected_time":1300000000000,"state":"active","ping":75},{"user_id":881,"name":"ecb_crunchylemon","steam_id":76561198112972842,"connected_time":1285000000000,"state":"active","ping":163},{"user_id":882,"name":"radicalPolio","steam_id":76561197961561855,"connected_time":1270000000000,"state":"active","ping":45},{"user_id":878,"name":"A Straw","steam_id":76561199367935846,"connected_time":1418000000000,"state":"active","ping":70},{"user_id":872,"name":"bunny girl bimbo!","steam_id":76561198122027532,"connected_time":2012000000000,"state":"active","ping":75},{"user_id":876,"name":"NaruKon","steam_id":76561198272413139,"connected_time":1498000000000,"state":"active","ping":75},{"user_id":890,"name":"guy","steam_id":76561198967158026,"connected_time":823000000000,"state":"active","ping":71},{"user_id":860,"name":"『Hazon』","steam_id":76561198119852107,"connected_time":2836000000000,"state":"active","ping":80},{"user_id":857,"name":"River Rat","steam_id":76561198116383976,"connected_time":3206000000000,"state":"active","ping":127},{"user_id":884,"name":"jumbi","steam_id":76561198353456379,"connected_time":1208000000000,"state":"active","ping":61},{"user_id":896,"name":"BattleBit Enjoyer","steam_id":76561198046775182,"connected_time":269000000000,"state":"active","ping":93},{"user_id":851,"name":"Creeperlad 33","steam_id":76561199027120873,"connected_time":3342000000000,"state":"active","ping":123},{"user_id":885,"name":"Greasy Guavas","steam_id":76561198089650428,"connected_time":963000000000,"state":"active","ping":65},{"user_id":886,"name":"Cheetose Intolerant","steam_id":76561198013399809,"connected_time":958000000000,"state":"active","ping":60},{"user_id":897,"name":"PTR","steam_id":76561198237253772,"connected_time":263000000000,"state":"active","ping":46},{"user_id":894,"name":"Vonny","steam_id":76561198126741957,"connected_time":431000000000,"state":"active","ping":119},{"user_id":898,"name":"BOTBOT","steam_id":76561198271928618,"connected_time":216000000000,"state":"active","ping":100},{"user_id":874,"name":"Blagoni","steam_id":76561198079134230,"connected_time":1983000000000,"state":"active","ping":79},{"user_id":891,"name":"Space_Cowboy","steam_id":76561198202240772,"connected_time":806000000000,"state":"active","ping":62},{"user_id":877,"name":"Soozy420","steam_id":76561198809074422,"connected_time":1497000000000,"state":"active","ping":68},{"user_id":895,"name":"Lemon Pine-Sol","steam_id":76561198068326695,"connected_time":338000000000,"state":"active","ping":60}]},{"server_id":108,"name":"Uncletopia | Dallas | 2 | All Maps","name_short":"dal-2","host":"dal-1.us.uncletopia.com","port":27025,"enabled":true,"region":"us-central","cc":"us","latitude":32.779167,"longitude":-96.80889,"reserved":0,"last_update":"0001-01-01T00:00:00Z","name_a2s":"Uncletopia | Dallas | 2 | All Maps","protocol":17,"map":"pl_borneo","folder":"tf","game":"Team Fortress","app_id":440,"player_count":9,"max_players":24,"Bots":0,"server_type":"Dedicated","server_os":"Linux","password":true,"vac":true,"version":"7757534","steam_id":85568392924469988,"keywords":["nocrits","nodmgspread","payload","uncletopia"],"game_id":440,"stv_port":27026,"stv_name":"Uncletopia | Dallas | 2 | All Maps | STV","players":[{"user_id":842,"name":"bog","steam_id":76561198086008437,"connected_time":327000000000,"state":"active","ping":47},{"user_id":818,"name":"Faust main","steam_id":76561198971799149,"connected_time":1856000000000,"state":"active","ping":61},{"user_id":819,"name":"MFShroom","steam_id":76561198305836153,"connected_time":1854000000000,"state":"active","ping":67},{"user_id":847,"name":"MiKE","steam_id":76561198115112269,"connected_time":84000000000,"state":"active","ping":54},{"user_id":811,"name":"HeroProc","steam_id":76561197993296892,"connected_time":2992000000000,"state":"active","ping":62},{"user_id":844,"name":"Your Local Rez Dogs","steam_id":76561199259072545,"connected_time":180000000000,"state":"active","ping":71},{"user_id":812,"name":"Turudo","steam_id":76561197997648031,"connected_time":2714000000000,"state":"active","ping":46},{"user_id":846,"name":"JohnnyDev","steam_id":76561198210288963,"connected_time":98000000000,"state":"active","ping":90},{"user_id":829,"name":"SirJameston","steam_id":76561198035674306,"connected_time":1492000000000,"state":"active","ping":78}]},{"server_id":5,"name":"Uncletopia | Frankfurt | 1 | All Maps","name_short":"frk-1","host":"frk-1.de.uncletopia.com","port":27015,"enabled":true,"region":"eu","cc":"de","latitude":50.110924,"longitude":8.682127,"reserved":0,"last_update":"0001-01-01T00:00:00Z","name_a2s":"Uncletopia | Frankfurt | 1 | All Maps","protocol":17,"map":"pl_snowycoast","folder":"tf","game":"Team Fortress","app_id":440,"player_count":3,"max_players":24,"Bots":0,"server_type":"Dedicated","server_os":"Linux","password":true,"vac":true,"version":"7757534","steam_id":85568392924469989,"keywords":["nocrits","nodmgspread","payload","uncletopia"],"game_id":440,"stv_port":27016,"stv_name":"Uncletopia | Frankfurt | 1 | All Maps | STV","players":[{"user_id":7,"name":"Waluigi","steam_id":76561199070474380,"connected_time":527000000000,"state":"active","ping":83},{"user_id":6,"name":"Shi 死","steam_id":76561199214163032,"connected_time":606000000000,"state":"active","ping":81},{"user_id":8,"name":"iIMOFIi","steam_id":76561199000483925,"connected_time":481000000000,"state":"active","ping":166}]},{"server_id":110,"name":"Uncletopia | Frankfurt | 2 | All Maps","name_short":"frk-2","host":"frk-1.de.uncletopia.com","port":27025,"enabled":true,"region":"eu","cc":"de","latitude":50.110924,"longitude":8.682127,"reserved":0,"last_update":"0001-01-01T00:00:00Z","name_a2s":"Uncletopia | Frankfurt | 2 | All Maps","protocol":17,"map":"cp_snakewater_final1","folder":"tf","game":"Team Fortress","app_id":440,"player_count":0,"max_players":24,"Bots":0,"server_type":"Dedicated","server_os":"Linux","password":true,"vac":true,"version":"7757534","steam_id":85568392924469990,"keywords":["cp","nocrits","nodmgspread","uncletopia"],"game_id":440,"stv_port":27026,"stv_name":"Uncletopia | Frankfurt | 2 | All Maps | STV","players":null},{"server_id":308,"name":"Uncletopia | Frankfurt | 3 | All Maps","name_short":"frk-3","host":"frk-1.de.uncletopia.com","port":27035,"enabled":true,"region":"eu","cc":"de","latitude":50.110924,"longitude":8.682127,"reserved":0,"last_update":"0001-01-01T00:00:00Z","name_a2s":"Uncletopia | Frankfurt | 3 | All Maps","protocol":17,"map":"pl_swiftwater_final1","folder":"tf","game":"Team Fortress","app_id":440,"player_count":0,"max_players":24,"Bots":0,"server_type":"Dedicated","server_os":"Linux","password":true,"vac":true,"version":"7757534","steam_id":85568392924504274,"keywords":["nocrits","nodmgspread","payload","uncletopia"],"game_id":440,"stv_port":27036,"stv_name":"Uncletopia | Frankfurt | 3 | All Maps | STV","players":null},{"server_id":309,"name":"Uncletopia | Frankfurt | 4 | All Maps","name_short":"frk-4","host":"frk-1.de.uncletopia.com","port":27045,"enabled":true,"region":"eu","cc":"de","latitude":50.110924,"longitude":8.682127,"reserved":0,"last_update":"0001-01-01T00:00:00Z","name_a2s":"Uncletopia | Frankfurt | 4 | All Maps","protocol":17,"map":"koth_viaduct","folder":"tf","game":"Team Fortress","app_id":440,"player_count":0,"max_players":24,"Bots":0,"server_type":"Dedicated","server_os":"Linux","password":true,"vac":true,"version":"7757534","steam_id":85568392924504275,"keywords":["cp","nocrits","nodmgspread","uncletopia"],"game_id":440,"stv_port":27046,"stv_name":"Uncletopia | Frankfurt | 4 | All Maps | STV","players":null},{"server_id":310,"name":"Uncletopia | Frankfurt | 5 | All Maps","name_short":"frk-5","host":"frk-1.de.uncletopia.com","port":27055,"enabled":true,"region":"eu","cc":"de","latitude":50.110924,"longitude":8.682127,"reserved":0,"last_update":"0001-01-01T00:00:00Z","name_a2s":"Uncletopia | Frankfurt | 5 | All Maps","protocol":17,"map":"koth_lakeside_final","folder":"tf","game":"Team Fortress","app_id":440,"player_count":0,"max_players":24,"Bots":0,"server_type":"Dedicated","server_os":"Linux","password":true,"vac":true,"version":"7757534","steam_id":85568392924504277,"keywords":["cp","nocrits","nodmgspread","uncletopia"],"game_id":440,"stv_port":27056,"stv_name":"Uncletopia | Frankfurt | 5 | All Maps | STV","players":null},{"server_id":311,"name":"Uncletopia | Frankfurt | 6 | All Maps","name_short":"frk-6","host":"frk-1.de.uncletopia.com","port":27065,"enabled":true,"region":"eu","cc":"de","latitude":50.110924,"longitude":8.682127,"reserved":0,"last_update":"0001-01-01T00:00:00Z","name_a2s":"Uncletopia | Frankfurt | 6 | All Maps","protocol":17,"map":"cp_altitude","folder":"tf","game":"Team Fortress","app_id":440,"player_count":0,"max_players":24,"Bots":0,"server_type":"Dedicated","server_os":"Linux","password":true,"vac":true,"version":"7757534","steam_id":85568392924504278,"keywords":["cp","nocrits","nodmgspread","uncletopia"],"game_id":440,"stv_port":27066,"stv_name":"Uncletopia | Frankfurt | 6 | All Maps | STV","players":null},{"server_id":23,"name":"Uncletopia | Frankfurt | 7 | Stopwatch Beta","name_short":"frk-7","host":"frk-1.de.uncletopia.com","port":27075,"enabled":true,"region":"eu","cc":"de","latitude":50.110924,"longitude":8.682127,"reserved":0,"last_update":"0001-01-01T00:00:00Z","name_a2s":"Uncletopia | Frankfurt | 7 | Stopwatch Beta","protocol":17,"map":"cp_sunshine","folder":"tf","game":"Team Fortress","app_id":440,"player_count":0,"max_players":24,"Bots":0,"server_type":"Dedicated","server_os":"Linux","password":true,"vac":true,"version":"7757534","steam_id":85568392924742827,"keywords":["cp","nocrits","nodmgspread","uncletopia"],"game_id":440,"stv_port":27076,"stv_name":"Uncletopia | Frankfurt | 7 | Stopwatch Beta | STV","players":null},{"server_id":24,"name":"Uncletopia | Frankfurt | 8 | Community","name_short":"frk-8","host":"frk-1.de.uncletopia.com","port":27085,"enabled":true,"region":"eu","cc":"de","latitude":50.110924,"longitude":8.682127,"reserved":0,"last_update":"0001-01-01T00:00:00Z","name_a2s":"Uncletopia | Frankfurt | 8 | Community","protocol":17,"map":"koth_lakeside_final","folder":"tf","game":"Team Fortress","app_id":440,"player_count":0,"max_players":24,"Bots":0,"server_type":"Dedicated","server_os":"Linux","password":true,"vac":true,"version":"7757534","steam_id":85568392924742828,"keywords":["cp","nocrits","nodmgspread","uncletopia"],"game_id":440,"stv_port":27086,"stv_name":"Uncletopia | Frankfurt | 8 | Community | STV","players":null},{"server_id":202,"name":"Uncletopia | Hong Kong | 1 | All Maps","name_short":"hgk-1","host":"hgk-1.hk.uncletopia.com","port":27015,"enabled":true,"region":"asia","cc":"hk","latitude":22.302711,"longitude":114.177216,"reserved":0,"last_update":"0001-01-01T00:00:00Z","name_a2s":"Uncletopia | Hong Kong | 1 | All Maps","protocol":17,"map":"koth_sawmill","folder":"tf","game":"Team Fortress","app_id":440,"player_count":24,"max_players":24,"Bots":0,"server_type":"Dedicated","server_os":"Linux","password":true,"vac":true,"version":"7757534","steam_id":85568392924494504,"keywords":["cp","nocrits","nodmgspread","uncletopia"],"game_id":440,"stv_port":27016,"stv_name":"Uncletopia | Hong Kong | 1 | All Maps | STV","players":[{"user_id":155,"name":"im_0ff","steam_id":76561198339346695,"connected_time":3609000000000,"state":"active","ping":128},{"user_id":156,"name":"Robo-Ky","steam_id":76561198158666692,"connected_time":3295000000000,"state":"active","ping":38},{"user_id":215,"name":"Nice","steam_id":76561199180653046,"connected_time":1326000000000,"state":"active","ping":133},{"user_id":144,"name":"Ashe","steam_id":76561199127979769,"connected_time":4761000000000,"state":"active","ping":79},{"user_id":218,"name":"ObscuroLucem","steam_id":76561198875037943,"connected_time":1087000000000,"state":"active","ping":83},{"user_id":223,"name":"Turbo.RF4","steam_id":76561199061012484,"connected_time":770000000000,"state":"active","ping":65},{"user_id":201,"name":"Beef Wellington","steam_id":76561197995635241,"connected_time":2312000000000,"state":"active","ping":117},{"user_id":197,"name":"Leroy","steam_id":76561199137927625,"connected_time":2387000000000,"state":"active","ping":90},{"user_id":204,"name":"Panfoolery","steam_id":76561199042318535,"connected_time":2134000000000,"state":"active","ping":98},{"user_id":221,"name":"keieeem","steam_id":76561199200702132,"connected_time":985000000000,"state":"active","ping":146},{"user_id":141,"name":"silverhouse7","steam_id":76561198349634906,"connected_time":4967000000000,"state":"active","ping":90},{"user_id":210,"name":"Zizman","steam_id":76561198446562910,"connected_time":1352000000000,"state":"active","ping":148},{"user_id":226,"name":"NotFine","steam_id":76561199242217590,"connected_time":22000000000,"state":"active","ping":89},{"user_id":224,"name":"screaming sniper","steam_id":76561199085568674,"connected_time":734000000000,"state":"active","ping":71},{"user_id":129,"name":"Seiko Shinohara.png","steam_id":76561198089493039,"connected_time":5863000000000,"state":"active","ping":79},{"user_id":217,"name":"Samoyed","steam_id":76561198299150410,"connected_time":1094000000000,"state":"active","ping":132},{"user_id":199,"name":"Lu","steam_id":76561198320532821,"connected_time":2372000000000,"state":"active","ping":113},{"user_id":222,"name":"Hay","steam_id":76561199438952901,"connected_time":873000000000,"state":"active","ping":54},{"user_id":153,"name":"Milk❤","steam_id":76561198163911560,"connected_time":3799000000000,"state":"active","ping":90},{"user_id":116,"name":"Vortex Medico","steam_id":76561198833527091,"connected_time":7476000000000,"state":"active","ping":99},{"user_id":206,"name":"shego","steam_id":76561198109141608,"connected_time":1995000000000,"state":"active","ping":89},{"user_id":220,"name":"Phou","steam_id":76561198322136756,"connected_time":989000000000,"state":"active","ping":122},{"user_id":203,"name":"Kyo","steam_id":76561198088550274,"connected_time":2234000000000,"state":"active","ping":41},{"user_id":212,"name":"Gordon.Freeman","steam_id":76561198337746852,"connected_time":1350000000000,"state":"active","ping":70}]},{"server_id":1,"name":"Uncletopia | Los Angeles | 1 | All Maps","name_short":"lax-1","host":"lax-1.us.uncletopia.com","port":27015,"enabled":true,"region":"us-west","cc":"us","latitude":33.94279,"longitude":-118.41004,"reserved":0,"last_update":"0001-01-01T00:00:00Z","name_a2s":"Uncletopia | Los Angeles | 1 | All Maps","protocol":17,"map":"pl_pier","folder":"tf","game":"Team Fortress","app_id":440,"player_count":24,"max_players":24,"Bots":0,"server_type":"Dedicated","server_os":"Linux","password":true,"vac":true,"version":"7757534","steam_id":85568392924469991,"keywords":["nocrits","nodmgspread","payload","uncletopia"],"game_id":440,"stv_port":27016,"stv_name":"Uncletopia | Los Angeles | 1 | All Maps | STV","players":[{"user_id":614,"name":"❤[Candy]❤","steam_id":76561198817361963,"connected_time":3280000000000,"state":"active","ping":66},{"user_id":670,"name":"BomberHeadCx","steam_id":76561198189226831,"connected_time":21000000000,"state":"active","ping":224},{"user_id":663,"name":"cream team","steam_id":76561198139043953,"connected_time":917000000000,"state":"active","ping":85},{"user_id":604,"name":"sophie","steam_id":76561198374224659,"connected_time":5211000000000,"state":"active","ping":75},{"user_id":657,"name":"sunny","steam_id":76561198069380992,"connected_time":1176000000000,"state":"active","ping":90},{"user_id":656,"name":"Shamrock Shake Oct.10.2020 @8pm","steam_id":76561198833313201,"connected_time":1233000000000,"state":"active","ping":55},{"user_id":625,"name":"Jake The Snake","steam_id":76561198917115201,"connected_time":2576000000000,"state":"active","ping":86},{"user_id":610,"name":"Not A Rapper","steam_id":76561198077523537,"connected_time":4052000000000,"state":"active","ping":107},{"user_id":658,"name":"geoca404","steam_id":76561198145784505,"connected_time":1166000000000,"state":"active","ping":44},{"user_id":668,"name":"ShadowZiki","steam_id":76561198145930013,"connected_time":76000000000,"state":"active","ping":46},{"user_id":619,"name":"Taco+Taco=Burrito","steam_id":76561198063128663,"connected_time":3023000000000,"state":"active","ping":32},{"user_id":653,"name":"Daniel Craig Fan","steam_id":76561198053467923,"connected_time":1401000000000,"state":"active","ping":88},{"user_id":636,"name":"azureglxy","steam_id":76561198861388315,"connected_time":1993000000000,"state":"active","ping":45},{"user_id":660,"name":"Bobby","steam_id":76561198164004939,"connected_time":1146000000000,"state":"active","ping":79},{"user_id":661,"name":"Puppeteer","steam_id":76561198159928108,"connected_time":1128000000000,"state":"active","ping":91},{"user_id":639,"name":"SadSpoon","steam_id":76561198352540939,"connected_time":1857000000000,"state":"active","ping":56},{"user_id":640,"name":"GRAPE","steam_id":76561198150447896,"connected_time":1806000000000,"state":"active","ping":46},{"user_id":654,"name":"phlog reliant uncletopia player","steam_id":76561198046526036,"connected_time":1399000000000,"state":"active","ping":45},{"user_id":671,"name":"tildae","steam_id":76561198067507938,"connected_time":8000000000,"state":"spawning","ping":44},{"user_id":662,"name":"DaLlama","steam_id":76561198414391545,"connected_time":1122000000000,"state":"active","ping":60},{"user_id":650,"name":"MrHour","steam_id":76561198097762732,"connected_time":1573000000000,"state":"active","ping":46},{"user_id":648,"name":"big car","steam_id":76561198067082350,"connected_time":1617000000000,"state":"active","ping":64},{"user_id":649,"name":"flo rida","steam_id":76561198226169704,"connected_time":1610000000000,"state":"active","ping":50},{"user_id":669,"name":"Kappa Albarn","steam_id":76561198093163204,"connected_time":74000000000,"state":"active","ping":70}]},{"server_id":112,"name":"Uncletopia | Los Angeles | 2 | All Maps","name_short":"lax-2","host":"lax-1.us.uncletopia.com","port":27025,"enabled":true,"region":"us-west","cc":"us","latitude":33.94279,"longitude":-118.41004,"reserved":0,"last_update":"0001-01-01T00:00:00Z","name_a2s":"Uncletopia | Los Angeles | 2 | All Maps","protocol":17,"map":"pl_pier","folder":"tf","game":"Team Fortress","app_id":440,"player_count":24,"max_players":24,"Bots":0,"server_type":"Dedicated","server_os":"Linux","password":true,"vac":true,"version":"7757534","steam_id":85568392924469992,"keywords":["nocrits","nodmgspread","payload","uncletopia"],"game_id":440,"stv_port":27026,"stv_name":"Uncletopia | Los Angeles | 2 | All Maps | STV","players":[{"user_id":234,"name":"Medic","steam_id":76561198152570304,"connected_time":3851000000000,"state":"active","ping":53},{"user_id":287,"name":"Blankrq","steam_id":76561198261030763,"connected_time":160000000000,"state":"active","ping":60},{"user_id":224,"name":"SanitysEdge","steam_id":76561198130732813,"connected_time":5202000000000,"state":"active","ping":49},{"user_id":288,"name":"Twombly","steam_id":76561198056532348,"connected_time":65000000000,"state":"spawning","ping":34},{"user_id":275,"name":"temvillagexd","steam_id":76561199467943426,"connected_time":831000000000,"state":"active","ping":103},{"user_id":286,"name":"Gort","steam_id":76561198185284093,"connected_time":172000000000,"state":"active","ping":99},{"user_id":239,"name":"Major_Pippy","steam_id":76561198004482878,"connected_time":3655000000000,"state":"active","ping":69},{"user_id":251,"name":"AbsurdSiren","steam_id":76561199196666330,"connected_time":2493000000000,"state":"active","ping":116},{"user_id":276,"name":"St. Bimmius","steam_id":76561198013595716,"connected_time":748000000000,"state":"active","ping":68},{"user_id":278,"name":"FI LO","steam_id":76561198976530881,"connected_time":529000000000,"state":"active","ping":35},{"user_id":284,"name":"ุ","steam_id":76561199140164173,"connected_time":297000000000,"state":"active","ping":30},{"user_id":248,"name":"Sir_Cheddar","steam_id":76561198132354554,"connected_time":2735000000000,"state":"active","ping":56},{"user_id":266,"name":"bobtheninjaman","steam_id":76561198066424544,"connected_time":1361000000000,"state":"active","ping":69},{"user_id":279,"name":"RagingRoosevelt","steam_id":76561197985483153,"connected_time":492000000000,"state":"active","ping":76},{"user_id":285,"name":"seabear722","steam_id":76561199033535074,"connected_time":264000000000,"state":"active","ping":59},{"user_id":240,"name":"Ceatharlach","steam_id":76561198318126190,"connected_time":3603000000000,"state":"active","ping":157},{"user_id":274,"name":"GGN","steam_id":76561198233603808,"connected_time":874000000000,"state":"active","ping":45},{"user_id":174,"name":"H4V0C","steam_id":76561199129350925,"connected_time":8203000000000,"state":"active","ping":85},{"user_id":268,"name":"cuckboi","steam_id":76561198343060961,"connected_time":1248000000000,"state":"active","ping":69},{"user_id":282,"name":"BucketofIce","steam_id":76561199108563726,"connected_time":415000000000,"state":"active","ping":58},{"user_id":289,"name":"Papa Panda","steam_id":76561198159061475,"connected_time":20000000000,"state":"spawning","ping":58},{"user_id":227,"name":"monkey squirts","steam_id":76561197983101644,"connected_time":4702000000000,"state":"active","ping":44},{"user_id":271,"name":"JawnyMac","steam_id":76561198179529599,"connected_time":1169000000000,"state":"active","ping":62},{"user_id":283,"name":"Toastedtoast222","steam_id":76561198120756409,"connected_time":385000000000,"state":"active","ping":82}]},{"server_id":324,"name":"Uncletopia | Los Angeles | 3 | All Maps","name_short":"lax-3","host":"lax-1.us.uncletopia.com","port":27035,"enabled":true,"region":"us-west","cc":"us","latitude":33.94279,"longitude":-118.41004,"reserved":0,"last_update":"0001-01-01T00:00:00Z","name_a2s":"Uncletopia | Los Angeles | 3 | All Maps","protocol":17,"map":"cp_powerhouse","folder":"tf","game":"Team Fortress","app_id":440,"player_count":15,"max_players":24,"Bots":0,"server_type":"Dedicated","server_os":"Linux","password":true,"vac":true,"version":"7757534","steam_id":85568392924510198,"keywords":["cp","nocrits","nodmgspread","uncletopia"],"game_id":440,"stv_port":27036,"stv_name":"Uncletopia | Los Angeles | 3 | All Maps | STV","players":[{"user_id":456,"name":"Manly Miner","steam_id":76561198073478560,"connected_time":1757000000000,"state":"active","ping":86},{"user_id":458,"name":"The Krusty Krab Massacre (2012)","steam_id":76561198153092724,"connected_time":1539000000000,"state":"active","ping":154},{"user_id":459,"name":"matche208","steam_id":76561199233090253,"connected_time":1456000000000,"state":"active","ping":100},{"user_id":460,"name":"Lumberjane37 (She/Her)","steam_id":76561198014841793,"connected_time":882000000000,"state":"active","ping":58},{"user_id":403,"name":"Clagger","steam_id":76561198066701092,"connected_time":7876000000000,"state":"active","ping":58},{"user_id":461,"name":"watchfull","steam_id":76561198433266742,"connected_time":851000000000,"state":"active","ping":80},{"user_id":463,"name":"Phlogging Solly","steam_id":76561198020580071,"connected_time":373000000000,"state":"active","ping":46},{"user_id":466,"name":"3_bone","steam_id":76561198849693492,"connected_time":199000000000,"state":"active","ping":67},{"user_id":467,"name":"deano","steam_id":76561198963031449,"connected_time":181000000000,"state":"active","ping":58},{"user_id":468,"name":"Selleyselツ","steam_id":76561199063121048,"connected_time":173000000000,"state":"active","ping":56},{"user_id":469,"name":"Fred","steam_id":76561197983870604,"connected_time":151000000000,"state":"active","ping":56},{"user_id":412,"name":"Agent Q","steam_id":76561198830829003,"connected_time":7293000000000,"state":"active","ping":62},{"user_id":472,"name":"Mormon Discoball","steam_id":76561198028006216,"connected_time":69000000000,"state":"active","ping":76},{"user_id":471,"name":"resh","steam_id":76561198239598834,"connected_time":125000000000,"state":"active","ping":101},{"user_id":446,"name":"✪ Y V E S","steam_id":76561198299479796,"connected_time":3637000000000,"state":"active","ping":45}]},{"server_id":25,"name":"Uncletopia | Los Angeles | 4 | Stopwatch Beta","name_short":"lax-4","host":"lax-1.us.uncletopia.com","port":27045,"enabled":true,"region":"us-west","cc":"us","latitude":33.94279,"longitude":-118.41004,"reserved":0,"last_update":"0001-01-01T00:00:00Z","name_a2s":"Uncletopia | Los Angeles | 4 | Stopwatch Beta","protocol":17,"map":"workshop/koth_bagel_rc6.ugc2514036946","folder":"tf","game":"Team Fortress","app_id":440,"player_count":4,"max_players":24,"Bots":0,"server_type":"Dedicated","server_os":"Linux","password":true,"vac":true,"version":"7757534","steam_id":85568392924510199,"keywords":["cp","nocrits","nodmgspread","uncletopia"],"game_id":440,"stv_port":27046,"stv_name":"Uncletopia | Los Angeles | 4 | Stopwatch Beta | STV","players":[{"user_id":38,"name":"Mub","steam_id":76561198356426602,"connected_time":2594000000000,"state":"active","ping":33},{"user_id":42,"name":"10 FPƧ GΛMIПG","steam_id":76561199130074444,"connected_time":220000000000,"state":"active","ping":132},{"user_id":24,"name":"Dinoman1995","steam_id":76561198244642140,"connected_time":4683000000000,"state":"active","ping":71},{"user_id":25,"name":"Gamer","steam_id":76561199157361352,"connected_time":4618000000000,"state":"active","ping":87}]},{"server_id":11,"name":"Uncletopia | London | 1 | All Maps","name_short":"lon-1","host":"lon-1.uk.uncletopia.com","port":27015,"enabled":true,"region":"eu","cc":"gb","latitude":51.509865,"longitude":-0.118092,"reserved":0,"last_update":"0001-01-01T00:00:00Z","name_a2s":"Uncletopia | London | 1 | All Maps","protocol":17,"map":"koth_highpass","folder":"tf","game":"Team Fortress","app_id":440,"player_count":0,"max_players":24,"Bots":0,"server_type":"Dedicated","server_os":"Linux","password":true,"vac":true,"version":"7757534","steam_id":85568392924367362,"keywords":["cp","nocrits","nodmgspread","uncletopia"],"game_id":440,"stv_port":27016,"stv_name":"Uncletopia | London | 1 | All Maps | STV","players":null},{"server_id":114,"name":"Uncletopia | London | 2 | All Maps","name_short":"lon-2","host":"lon-1.uk.uncletopia.com","port":27025,"enabled":true,"region":"eu","cc":"gb","latitude":51.509865,"longitude":-0.118092,"reserved":0,"last_update":"0001-01-01T00:00:00Z","name_a2s":"Uncletopia | London | 2 | All Maps","protocol":17,"map":"koth_viaduct","folder":"tf","game":"Team Fortress","app_id":440,"player_count":0,"max_players":24,"Bots":0,"server_type":"Dedicated","server_os":"Linux","password":true,"vac":true,"version":"7757534","steam_id":85568392924470941,"keywords":["cp","nocrits","nodmgspread","uncletopia"],"game_id":440,"stv_port":27026,"stv_name":"Uncletopia | London | 2 | All Maps | STV","players":null},{"server_id":320,"name":"Uncletopia | London | 3 | All Maps","name_short":"lon-3","host":"lon-1.uk.uncletopia.com","port":27035,"enabled":true,"region":"eu","cc":"gb","latitude":51.509865,"longitude":-0.118092,"reserved":0,"last_update":"0001-01-01T00:00:00Z","name_a2s":"Uncletopia | London | 3 | All Maps","protocol":17,"map":"pl_barnblitz","folder":"tf","game":"Team Fortress","app_id":440,"player_count":0,"max_players":24,"Bots":0,"server_type":"Dedicated","server_os":"Linux","password":true,"vac":true,"version":"7757534","steam_id":85568392924510192,"keywords":["nocrits","nodmgspread","payload","uncletopia"],"game_id":440,"stv_port":27036,"stv_name":"Uncletopia | London | 3 | All Maps | STV","players":null},{"server_id":321,"name":"Uncletopia | London | 4 | All Maps","name_short":"lon-4","host":"lon-1.uk.uncletopia.com","port":27045,"enabled":true,"region":"eu","cc":"gb","latitude":51.509865,"longitude":-0.118092,"reserved":0,"last_update":"0001-01-01T00:00:00Z","name_a2s":"Uncletopia | London | 4 | All Maps","protocol":17,"map":"cp_dustbowl","folder":"tf","game":"Team Fortress","app_id":440,"player_count":0,"max_players":24,"Bots":0,"server_type":"Dedicated","server_os":"Linux","password":true,"vac":true,"version":"7757534","steam_id":85568392924510193,"keywords":["cp","nocrits","nodmgspread","uncletopia"],"game_id":440,"stv_port":27046,"stv_name":"Uncletopia | London | 4 | All Maps | STV","players":null},{"server_id":21,"name":"Uncletopia | London | 5 | All Maps","name_short":"lon-5","host":"lon-1.uk.uncletopia.com","port":27055,"enabled":true,"region":"eu","cc":"gb","latitude":51.509865,"longitude":-0.118092,"reserved":0,"last_update":"0001-01-01T00:00:00Z","name_a2s":"Uncletopia | London | 5 | All Maps","protocol":17,"map":"cp_altitude","folder":"tf","game":"Team Fortress","app_id":440,"player_count":0,"max_players":24,"Bots":0,"server_type":"Dedicated","server_os":"Linux","password":true,"vac":true,"version":"7757534","steam_id":85568392924742829,"keywords":["cp","nocrits","nodmgspread","uncletopia"],"game_id":440,"stv_port":27056,"stv_name":"Uncletopia | London | 5 | All Maps | STV","players":null},{"server_id":22,"name":"Uncletopia | London | 6 | All Maps","name_short":"lon-6","host":"lon-1.uk.uncletopia.com","port":27065,"enabled":true,"region":"eu","cc":"gb","latitude":51.509865,"longitude":-0.118092,"reserved":0,"last_update":"0001-01-01T00:00:00Z","name_a2s":"Uncletopia | London | 6 | All Maps","protocol":17,"map":"cp_mountainlab","folder":"tf","game":"Team Fortress","app_id":440,"player_count":0,"max_players":24,"Bots":0,"server_type":"Dedicated","server_os":"Linux","password":true,"vac":true,"version":"7757534","steam_id":85568392924742830,"keywords":["cp","nocrits","nodmgspread","uncletopia"],"game_id":440,"stv_port":27066,"stv_name":"Uncletopia | London | 6 | All Maps | STV","players":null},{"server_id":40,"name":"Uncletopia | London | 7 | No Payload","name_short":"lon-7","host":"lon-1.uk.uncletopia.com","port":27075,"enabled":true,"region":"eu","cc":"gb","latitude":51.509865,"longitude":-0.118092,"reserved":0,"last_update":"0001-01-01T00:00:00Z","name_a2s":"Uncletopia | London | 7 | No Payload","protocol":17,"map":"pl_badwater","folder":"tf","game":"Team Fortress","app_id":440,"player_count":0,"max_players":24,"Bots":0,"server_type":"Dedicated","server_os":"Linux","password":true,"vac":true,"version":"7757534","steam_id":85568392924964314,"keywords":["nocrits","nodmgspread","payload","uncletopia"],"game_id":440,"stv_port":27076,"stv_name":"Uncletopia | London | 7 | No Payload | STV","players":null},{"server_id":41,"name":"Uncletopia | London | 8 | Community","name_short":"lon-8","host":"lon-1.uk.uncletopia.com","port":27085,"enabled":true,"region":"eu","cc":"gb","latitude":51.509865,"longitude":-0.118092,"reserved":0,"last_update":"0001-01-01T00:00:00Z","name_a2s":"Uncletopia | London | 8 | Community","protocol":17,"map":"pl_barnblitz","folder":"tf","game":"Team Fortress","app_id":440,"player_count":0,"max_players":24,"Bots":0,"server_type":"Dedicated","server_os":"Linux","password":true,"vac":true,"version":"7757534","steam_id":85568392924964315,"keywords":["nocrits","nodmgspread","payload","uncletopia"],"game_id":440,"stv_port":27086,"stv_name":"Uncletopia | London | 8 | Community | STV","players":null},{"server_id":300,"name":"Uncletopia | Montréal | 1 | All Maps","name_short":"mtl-1","host":"mtl-1.ca.uncletopia.com","port":27015,"enabled":true,"region":"us-east","cc":"ca","latitude":45.50889,"longitude":-73.56167,"reserved":0,"last_update":"0001-01-01T00:00:00Z","name_a2s":"Uncletopia | Montréal | 1 | All Maps","protocol":17,"map":"koth_highpass","folder":"tf","game":"Team Fortress","app_id":440,"player_count":20,"max_players":24,"Bots":0,"server_type":"Dedicated","server_os":"Linux","password":true,"vac":true,"version":"7757534","steam_id":85568392924500087,"keywords":["cp","nocrits","nodmgspread","uncletopia"],"game_id":440,"stv_port":27016,"stv_name":"Uncletopia | Montréal | 1 | All Maps | STV","players":[{"user_id":283,"name":"Doodle gamer 23","steam_id":76561198407763630,"connected_time":9181000000000,"state":"active","ping":125},{"user_id":329,"name":"the taxi driver","steam_id":76561198830243167,"connected_time":1128000000000,"state":"active","ping":76},{"user_id":332,"name":"SIGMA [BS]","steam_id":76561197962604879,"connected_time":161000000000,"state":"active","ping":46},{"user_id":322,"name":"FLUx27A","steam_id":76561199213127917,"connected_time":3030000000000,"state":"active","ping":157},{"user_id":302,"name":"Crystal Toa","steam_id":76561198033861221,"connected_time":7563000000000,"state":"active","ping":130},{"user_id":306,"name":"๖Ðiestow","steam_id":76561198046662484,"connected_time":6947000000000,"state":"active","ping":51},{"user_id":276,"name":"Seaweed","steam_id":76561198331376583,"connected_time":9863000000000,"state":"active","ping":120},{"user_id":290,"name":"American Hogie","steam_id":76561198065822625,"connected_time":8264000000000,"state":"active","ping":97},{"user_id":331,"name":"DOG WITH HOT MILK","steam_id":76561198022903061,"connected_time":742000000000,"state":"active","ping":68},{"user_id":215,"name":"Jerry Kool-Aid","steam_id":76561198030281560,"connected_time":14294000000000,"state":"active","ping":79},{"user_id":334,"name":"AnTiBuLLiNg","steam_id":76561198420482525,"connected_time":90000000000,"state":"active","ping":169},{"user_id":291,"name":"Heyday","steam_id":76561198001984882,"connected_time":8238000000000,"state":"active","ping":64},{"user_id":335,"name":"Shrebbie","steam_id":76561198875230824,"connected_time":48000000000,"state":"active","ping":45},{"user_id":267,"name":"josie","steam_id":76561198170848553,"connected_time":10281000000000,"state":"active","ping":107},{"user_id":254,"name":"NO MA'AM Local 420","steam_id":76561198160572249,"connected_time":11302000000000,"state":"active","ping":66},{"user_id":217,"name":"PizzaThot","steam_id":76561198278237289,"connected_time":14268000000000,"state":"active","ping":104},{"user_id":314,"name":"Eden Hazard","steam_id":76561198089241053,"connected_time":6326000000000,"state":"active","ping":50},{"user_id":315,"name":"TheDeathBirb","steam_id":76561198325012257,"connected_time":5898000000000,"state":"active","ping":86},{"user_id":327,"name":"Person","steam_id":76561198093244204,"connected_time":2674000000000,"state":"active","ping":72},{"user_id":295,"name":"UwU Enforcer","steam_id":76561198083684571,"connected_time":8189000000000,"state":"active","ping":128}]},{"server_id":301,"name":"Uncletopia | Montréal | 2 | All Maps","name_short":"mtl-2","host":"mtl-1.ca.uncletopia.com","port":27025,"enabled":true,"region":"us-east","cc":"ca","latitude":45.50889,"longitude":-73.56167,"reserved":0,"last_update":"0001-01-01T00:00:00Z","name_a2s":"Uncletopia | Montréal | 2 | All Maps","protocol":17,"map":"koth_viaduct","folder":"tf","game":"Team Fortress","app_id":440,"player_count":0,"max_players":24,"Bots":0,"server_type":"Dedicated","server_os":"Linux","password":true,"vac":true,"version":"7757534","steam_id":85568392924500088,"keywords":["cp","nocrits","nodmgspread","uncletopia"],"game_id":440,"stv_port":27026,"stv_name":"Uncletopia | Montréal | 2 | All Maps | STV","players":null},{"server_id":302,"name":"Uncletopia | Montréal | 3 | All Maps","name_short":"mtl-3","host":"mtl-1.ca.uncletopia.com","port":27035,"enabled":true,"region":"us-east","cc":"ca","latitude":45.50889,"longitude":-73.56167,"reserved":0,"last_update":"0001-01-01T00:00:00Z","name_a2s":"Uncletopia | Montréal | 3 | All Maps","protocol":17,"map":"koth_cascade","folder":"tf","game":"Team Fortress","app_id":440,"player_count":3,"max_players":24,"Bots":0,"server_type":"Dedicated","server_os":"Linux","password":true,"vac":true,"version":"7757534","steam_id":85568392924500089,"keywords":["cp","nocrits","nodmgspread","uncletopia"],"game_id":440,"stv_port":27036,"stv_name":"Uncletopia | Montréal | 3 | All Maps | STV","players":[{"user_id":286,"name":"CivilWarMike","steam_id":76561198141188839,"connected_time":903000000000,"state":"active","ping":75},{"user_id":268,"name":"Bip","steam_id":76561199022962204,"connected_time":5475000000000,"state":"active","ping":75},{"user_id":273,"name":"averagesoldiermain","steam_id":76561198158447466,"connected_time":5403000000000,"state":"active","ping":87}]},{"server_id":303,"name":"Uncletopia | Montréal | 4 | No Payload","name_short":"mtl-4","host":"mtl-1.ca.uncletopia.com","port":27045,"enabled":true,"region":"us-east","cc":"ca","latitude":45.50889,"longitude":-73.56167,"reserved":0,"last_update":"0001-01-01T00:00:00Z","name_a2s":"Uncletopia | Montréal | 4 | No Payload","protocol":17,"map":"plr_pipeline","folder":"tf","game":"Team Fortress","app_id":440,"player_count":0,"max_players":24,"Bots":0,"server_type":"Dedicated","server_os":"Linux","password":true,"vac":true,"version":"7757534","steam_id":85568392924500090,"keywords":["nocrits","nodmgspread","payload","uncletopia"],"game_id":440,"stv_port":27046,"stv_name":"Uncletopia | Montréal | 4 | No Payload | STV","players":null},{"server_id":13,"name":"Uncletopia | New York City | 1 | All Maps","name_short":"nyc-1","host":"nyc-1.us.uncletopia.com","port":27015,"enabled":true,"region":"us-east","cc":"us","latitude":40.73061,"longitude":-73.93524,"reserved":0,"last_update":"0001-01-01T00:00:00Z","name_a2s":"Uncletopia | New York City | 1 | All Maps","protocol":17,"map":"cp_altitude","folder":"tf","game":"Team Fortress","app_id":440,"player_count":16,"max_players":24,"Bots":0,"server_type":"Dedicated","server_os":"Linux","password":true,"vac":true,"version":"7757534","steam_id":85568392924469993,"keywords":["cp","nocrits","nodmgspread","uncletopia"],"game_id":440,"stv_port":27016,"stv_name":"Uncletopia | New York City | 1 | All Maps | STV","players":[{"user_id":917,"name":"herb","steam_id":76561198185980055,"connected_time":374000000000,"state":"active","ping":196},{"user_id":907,"name":"swiftyy","steam_id":76561198142939433,"connected_time":934000000000,"state":"active","ping":57},{"user_id":876,"name":"Yakul","steam_id":76561198100040013,"connected_time":3033000000000,"state":"active","ping":92},{"user_id":894,"name":"FlyingThrone62","steam_id":76561198185265269,"connected_time":1442000000000,"state":"active","ping":64},{"user_id":892,"name":"gf.gb/xyz","steam_id":76561198248461754,"connected_time":1459000000000,"state":"active","ping":116},{"user_id":893,"name":"J.R Prime","steam_id":76561198967753173,"connected_time":1452000000000,"state":"active","ping":65},{"user_id":887,"name":"Duncan Idaho","steam_id":76561197988963861,"connected_time":2023000000000,"state":"active","ping":101},{"user_id":883,"name":"BeepBoop","steam_id":76561198071213900,"connected_time":2568000000000,"state":"active","ping":87},{"user_id":921,"name":"Сус/GG","steam_id":76561199276027197,"connected_time":37000000000,"state":"spawning","ping":286},{"user_id":898,"name":"QueenB","steam_id":76561198879929343,"connected_time":1363000000000,"state":"active","ping":121},{"user_id":900,"name":"Kandlwik","steam_id":76561198800442634,"connected_time":1252000000000,"state":"active","ping":432},{"user_id":890,"name":"-astra.gb","steam_id":76561198100477765,"connected_time":1557000000000,"state":"active","ping":105},{"user_id":902,"name":"a table","steam_id":76561198158461279,"connected_time":1164000000000,"state":"spawning","ping":103},{"user_id":903,"name":"BochiDochi","steam_id":76561199224233815,"connected_time":1086000000000,"state":"spawning","ping":62},{"user_id":878,"name":"Girox","steam_id":76561198009921751,"connected_time":3003000000000,"state":"active","ping":104},{"user_id":879,"name":"Spag Hekki","steam_id":76561198207579353,"connected_time":2985000000000,"state":"active","ping":114}]},{"server_id":14,"name":"Uncletopia | New York City | 2 | All Maps","name_short":"nyc-2","host":"nyc-1.us.uncletopia.com","port":27025,"enabled":true,"region":"us-east","cc":"us","latitude":40.73061,"longitude":-73.93524,"reserved":0,"last_update":"0001-01-01T00:00:00Z","name_a2s":"Uncletopia | New York City | 2 | All Maps","protocol":17,"map":"pl_upward","folder":"tf","game":"Team Fortress","app_id":440,"player_count":24,"max_players":24,"Bots":0,"server_type":"Dedicated","server_os":"Linux","password":true,"vac":true,"version":"7757534","steam_id":85568392924469994,"keywords":["nocrits","nodmgspread","payload","uncletopia"],"game_id":440,"stv_port":27026,"stv_name":"Uncletopia | New York City | 2 | All Maps | STV","players":[{"user_id":801,"name":"Vacket","steam_id":76561198161868015,"connected_time":7938000000000,"state":"active","ping":47},{"user_id":862,"name":"Aurro (achievement hunting)","steam_id":76561198315692300,"connected_time":1633000000000,"state":"active","ping":54},{"user_id":873,"name":"originalakalil","steam_id":76561199481172481,"connected_time":635000000000,"state":"active","ping":86},{"user_id":846,"name":"Dr. Money Stacks","steam_id":76561198058144219,"connected_time":3466000000000,"state":"active","ping":70},{"user_id":850,"name":"dzcreeper","steam_id":76561198072250723,"connected_time":2919000000000,"state":"active","ping":110},{"user_id":861,"name":"FS Jorda (She/Her)","steam_id":76561198071421459,"connected_time":1796000000000,"state":"active","ping":44},{"user_id":839,"name":"XCellent","steam_id":76561198805514323,"connected_time":3988000000000,"state":"active","ping":120},{"user_id":845,"name":"Joshy","steam_id":76561198061405421,"connected_time":3471000000000,"state":"active","ping":74},{"user_id":874,"name":"xXIceShocked88Xx","steam_id":76561199239298320,"connected_time":577000000000,"state":"active","ping":149},{"user_id":882,"name":"The Horselords and Animal Gods","steam_id":76561197975094050,"connected_time":31000000000,"state":"active","ping":127},{"user_id":856,"name":"mika kagehira","steam_id":76561198799326339,"connected_time":2658000000000,"state":"active","ping":35},{"user_id":852,"name":"High Medic","steam_id":76561198082405984,"connected_time":2900000000000,"state":"active","ping":63},{"user_id":811,"name":"Ludcmorais","steam_id":76561198359217809,"connected_time":7077000000000,"state":"active","ping":176},{"user_id":875,"name":"Sub-average Spy Main","steam_id":76561198884288965,"connected_time":473000000000,"state":"active","ping":60},{"user_id":865,"name":"如願","steam_id":76561198038486613,"connected_time":1547000000000,"state":"active","ping":45},{"user_id":792,"name":"Wimojimo12","steam_id":76561198370459596,"connected_time":8486000000000,"state":"active","ping":56},{"user_id":795,"name":"tubby","steam_id":76561198174982661,"connected_time":8388000000000,"state":"active","ping":89},{"user_id":854,"name":"MooGoesCow","steam_id":76561199441528448,"connected_time":2882000000000,"state":"active","ping":129},{"user_id":876,"name":"SnareString","steam_id":76561199082119457,"connected_time":438000000000,"state":"active","ping":128},{"user_id":877,"name":"Oni","steam_id":76561198112066584,"connected_time":419000000000,"state":"active","ping":79},{"user_id":834,"name":"Pineapple Pizza","steam_id":76561197997233176,"connected_time":4311000000000,"state":"active","ping":64},{"user_id":879,"name":"Alice in Rubberland","steam_id":76561198087328346,"connected_time":353000000000,"state":"active","ping":65},{"user_id":797,"name":"Capitán Äxis-Flores","steam_id":76561198353865006,"connected_time":8379000000000,"state":"active","ping":63},{"user_id":871,"name":"seems_fishy","steam_id":76561199028846656,"connected_time":1234000000000,"state":"active","ping":56}]},{"server_id":15,"name":"Uncletopia | New York City | 3 | Stopwatch Beta","name_short":"nyc-3","host":"nyc-1.us.uncletopia.com","port":27035,"enabled":true,"region":"us-east","cc":"us","latitude":40.73061,"longitude":-73.93524,"reserved":0,"last_update":"0001-01-01T00:00:00Z","name_a2s":"Uncletopia | New York City | 3 | Stopwatch Beta","protocol":17,"map":"workshop/pl_summercoast_rc8e.ugc1761528829","folder":"tf","game":"Team Fortress","app_id":440,"player_count":0,"max_players":24,"Bots":0,"server_type":"Dedicated","server_os":"Linux","password":true,"vac":true,"version":"7757534","steam_id":85568392924742820,"keywords":["nocrits","nodmgspread","payload","uncletopia"],"game_id":440,"stv_port":27036,"stv_name":"Uncletopia | New York City | 3 | Stopwatch Beta | STV","players":null},{"server_id":16,"name":"Uncletopia | New York City | 4 | Community","name_short":"nyc-4","host":"nyc-1.us.uncletopia.com","port":27045,"enabled":true,"region":"us-east","cc":"us","latitude":40.73061,"longitude":-73.93524,"reserved":0,"last_update":"0001-01-01T00:00:00Z","name_a2s":"Uncletopia | New York City | 4 | Community","protocol":17,"map":"workshop/pl_cactuscanyon_redux_final2.ugc2579644293","folder":"tf","game":"Team Fortress","app_id":440,"player_count":1,"max_players":24,"Bots":0,"server_type":"Dedicated","server_os":"Linux","password":true,"vac":true,"version":"7757534","steam_id":85568392924742821,"keywords":["nocrits","nodmgspread","payload","uncletopia"],"game_id":440,"stv_port":27046,"stv_name":"Uncletopia | New York City | 4 | Community | STV","players":[{"user_id":1078,"name":"PK_hardsight","steam_id":76561199446160699,"connected_time":200000000000,"state":"connecting","ping":0}]},{"server_id":142,"name":"Uncletopia | São Paulo | 1 | All Maps","name_short":"sao-1","host":"sao-1.br.uncletopia.com","port":27015,"enabled":true,"region":"sa","cc":"br","latitude":-23.533773,"longitude":-46.62529,"reserved":0,"last_update":"0001-01-01T00:00:00Z","name_a2s":"Uncletopia | São Paulo | 1 | All Maps","protocol":17,"map":"cp_altitude","folder":"tf","game":"Team Fortress","app_id":440,"player_count":0,"max_players":24,"Bots":0,"server_type":"Dedicated","server_os":"Linux","password":true,"vac":true,"version":"7757534","steam_id":85568392924469996,"keywords":["cp","nocrits","nodmgspread","uncletopia"],"game_id":440,"stv_port":27016,"stv_name":"Uncletopia | São Paulo | 1 | All Maps | STV","players":null},{"server_id":143,"name":"Uncletopia | São Paulo | 2 | All Maps","name_short":"sao-2","host":"sao-2.br.uncletopia.com","port":27015,"enabled":true,"region":"sa","cc":"br","latitude":-23.533773,"longitude":-46.62529,"reserved":0,"last_update":"0001-01-01T00:00:00Z","name_a2s":"Uncletopia | São Paulo | 2 | All Maps","protocol":17,"map":"cp_process_final","folder":"tf","game":"Team Fortress","app_id":440,"player_count":0,"max_players":24,"Bots":0,"server_type":"Dedicated","server_os":"Linux","password":true,"vac":true,"version":"7757534","steam_id":85568392924485349,"keywords":["cp","nocrits","nodmgspread","uncletopia"],"game_id":440,"stv_port":27016,"stv_name":"Uncletopia | São Paulo | 2 | All Maps | STV","players":null},{"server_id":7,"name":"Uncletopia | Seattle | 1 | All Maps","name_short":"sea-1","host":"sea-1.us.uncletopia.com","port":27015,"enabled":true,"region":"us-west","cc":"us","latitude":47.608013,"longitude":-122.33517,"reserved":0,"last_update":"0001-01-01T00:00:00Z","name_a2s":"Uncletopia | Seattle | 1 | All Maps","protocol":17,"map":"pl_borneo","folder":"tf","game":"Team Fortress","app_id":440,"player_count":24,"max_players":24,"Bots":0,"server_type":"Dedicated","server_os":"Linux","password":true,"vac":true,"version":"7757534","steam_id":85568392924469997,"keywords":["nocrits","nodmgspread","payload","uncletopia"],"game_id":440,"stv_port":27016,"stv_name":"Uncletopia | Seattle | 1 | All Maps | STV","players":[{"user_id":719,"name":"lili ezili","steam_id":76561199391478575,"connected_time":3287000000000,"state":"active","ping":70},{"user_id":726,"name":"Cheezbeargur","steam_id":76561198164702899,"connected_time":3086000000000,"state":"active","ping":66},{"user_id":728,"name":"ImmuneToPeas","steam_id":76561198342411594,"connected_time":2950000000000,"state":"active","ping":57},{"user_id":650,"name":"DoctorHa","steam_id":76561198044026008,"connected_time":12254000000000,"state":"active","ping":86},{"user_id":710,"name":"comet","steam_id":76561198149217841,"connected_time":4481000000000,"state":"active","ping":49},{"user_id":735,"name":"Peppy","steam_id":76561198866629645,"connected_time":1113000000000,"state":"active","ping":73},{"user_id":704,"name":"Mignyanne :3","steam_id":76561198048754056,"connected_time":5054000000000,"state":"active","ping":61},{"user_id":718,"name":"Fumpo","steam_id":76561198206873365,"connected_time":3508000000000,"state":"active","ping":104},{"user_id":752,"name":"Rat","steam_id":76561198330059340,"connected_time":488000000000,"state":"active","ping":61},{"user_id":721,"name":"Action_Quacktion","steam_id":76561198407062426,"connected_time":3195000000000,"state":"active","ping":100},{"user_id":750,"name":"RING DONG DORINGOS","steam_id":76561198043558709,"connected_time":944000000000,"state":"active","ping":47},{"user_id":722,"name":"bbbbb","steam_id":76561198095480838,"connected_time":3172000000000,"state":"active","ping":48},{"user_id":678,"name":"mega","steam_id":76561198089520959,"connected_time":8733000000000,"state":"active","ping":100},{"user_id":731,"name":"Attrition","steam_id":76561197969881916,"connected_time":2123000000000,"state":"active","ping":45},{"user_id":696,"name":"Lazy-assed Prophet","steam_id":76561198214400452,"connected_time":6973000000000,"state":"active","ping":60},{"user_id":680,"name":"Ayayayayahuasca","steam_id":76561199002906056,"connected_time":8726000000000,"state":"active","ping":40},{"user_id":670,"name":"Agent86","steam_id":76561198046794593,"connected_time":11022000000000,"state":"active","ping":133},{"user_id":729,"name":"ornithopter_02","steam_id":76561198267827977,"connected_time":2943000000000,"state":"active","ping":98},{"user_id":751,"name":"rorywashere /ᐠ - ˕ -マ Ⳋ","steam_id":76561198065825165,"connected_time":936000000000,"state":"active","ping":114},{"user_id":703,"name":"The King of Piss World","steam_id":76561198082806956,"connected_time":5062000000000,"state":"active","ping":136},{"user_id":753,"name":"self sufficient kitten","steam_id":76561197960592612,"connected_time":84000000000,"state":"active","ping":46},{"user_id":734,"name":"Willy Wonker","steam_id":76561198082944789,"connected_time":1166000000000,"state":"active","ping":148},{"user_id":698,"name":"Rain","steam_id":76561198065612273,"connected_time":6351000000000,"state":"active","ping":45},{"user_id":730,"name":"jorts","steam_id":76561199041179985,"connected_time":2886000000000,"state":"active","ping":58}]},{"server_id":119,"name":"Uncletopia | Seattle | 2 | All Maps","name_short":"sea-2","host":"sea-1.us.uncletopia.com","port":27025,"enabled":true,"region":"us-west","cc":"us","latitude":47.608013,"longitude":-122.33517,"reserved":0,"last_update":"0001-01-01T00:00:00Z","name_a2s":"Uncletopia | Seattle | 2 | All Maps","protocol":17,"map":"koth_suijin","folder":"tf","game":"Team Fortress","app_id":440,"player_count":21,"max_players":24,"Bots":0,"server_type":"Dedicated","server_os":"Linux","password":true,"vac":true,"version":"7757534","steam_id":85568392924469998,"keywords":["cp","nocrits","nodmgspread","uncletopia"],"game_id":440,"stv_port":27026,"stv_name":"Uncletopia | Seattle | 2 | All Maps | STV","players":[{"user_id":758,"name":"Drainbow","steam_id":76561198421913648,"connected_time":54000000000,"state":"active","ping":57},{"user_id":759,"name":"Radio","steam_id":76561198194821053,"connected_time":45000000000,"state":"active","ping":45},{"user_id":749,"name":"Ducks","steam_id":76561198130038345,"connected_time":378000000000,"state":"active","ping":66},{"user_id":760,"name":"Ryshy02","steam_id":76561198055425447,"connected_time":14000000000,"state":"active","ping":193},{"user_id":723,"name":"Kurtle","steam_id":76561199099898602,"connected_time":3370000000000,"state":"active","ping":86},{"user_id":566,"name":"pandy fackler","steam_id":76561198833099152,"connected_time":13725000000000,"state":"active","ping":56},{"user_id":751,"name":"FoodzAreGoodz","steam_id":76561198309262052,"connected_time":301000000000,"state":"active","ping":77},{"user_id":750,"name":"Pie","steam_id":76561198996610188,"connected_time":366000000000,"state":"active","ping":118},{"user_id":734,"name":"CatChat","steam_id":76561198283631727,"connected_time":2022000000000,"state":"active","ping":98},{"user_id":741,"name":"Thexx ❤","steam_id":76561198113823050,"connected_time":1395000000000,"state":"active","ping":45},{"user_id":718,"name":"O","steam_id":76561198450073779,"connected_time":4084000000000,"state":"active","ping":51},{"user_id":752,"name":"ferby","steam_id":76561198028229594,"connected_time":292000000000,"state":"active","ping":66},{"user_id":753,"name":"Copy","steam_id":76561198025031590,"connected_time":261000000000,"state":"active","ping":48},{"user_id":747,"name":"Rocket Drifter","steam_id":76561198046952513,"connected_time":415000000000,"state":"active","ping":47},{"user_id":754,"name":"Salazar9","steam_id":76561198049903973,"connected_time":256000000000,"state":"active","ping":63},{"user_id":725,"name":"Red on Red","steam_id":76561198802356746,"connected_time":3325000000000,"state":"active","ping":75},{"user_id":755,"name":"h a r t","steam_id":76561198046073848,"connected_time":243000000000,"state":"active","ping":46},{"user_id":668,"name":"Bonks","steam_id":76561198972835565,"connected_time":8489000000000,"state":"active","ping":42},{"user_id":756,"name":"ABSOLUTE TERROR","steam_id":76561198018146136,"connected_time":218000000000,"state":"active","ping":51},{"user_id":732,"name":"Optimore","steam_id":76561198047662990,"connected_time":2671000000000,"state":"active","ping":75},{"user_id":728,"name":"Callahan","steam_id":76561197976928457,"connected_time":2716000000000,"state":"active","ping":45}]},{"server_id":406,"name":"Uncletopia | Seattle | 3 | Stopwatch Beta","name_short":"sea-3","host":"sea-1.us.uncletopia.com","port":27035,"enabled":true,"region":"us-west","cc":"us","latitude":47.608013,"longitude":-122.33517,"reserved":0,"last_update":"0001-01-01T00:00:00Z","name_a2s":"Uncletopia | Seattle | 3 | Stopwatch Beta","protocol":17,"map":"workshop/koth_clearcut_b15.ugc2107050255","folder":"tf","game":"Team Fortress","app_id":440,"player_count":0,"max_players":24,"Bots":0,"server_type":"Dedicated","server_os":"Linux","password":true,"vac":true,"version":"7757534","steam_id":85568392924515217,"keywords":["cp","nocrits","nodmgspread","uncletopia"],"game_id":440,"stv_port":27036,"stv_name":"Uncletopia | Seattle | 3 | Stopwatch Beta | STV","players":null},{"server_id":17,"name":"Uncletopia | San Francisco | 1 | All Maps","name_short":"sfo-1","host":"sfo-1.us.uncletopia.com","port":27015,"enabled":true,"region":"us-west","cc":"us","latitude":37.77397,"longitude":-122.4313,"reserved":0,"last_update":"0001-01-01T00:00:00Z","name_a2s":"Uncletopia | San Francisco | 1 | All Maps","protocol":17,"map":"cp_steel","folder":"tf","game":"Team Fortress","app_id":440,"player_count":21,"max_players":24,"Bots":0,"server_type":"Dedicated","server_os":"Linux","password":true,"vac":true,"version":"7757534","steam_id":85568392924469999,"keywords":["cp","nocrits","nodmgspread","uncletopia"],"game_id":440,"stv_port":27016,"stv_name":"Uncletopia | San Francisco | 1 | All Maps | STV","players":[{"user_id":535,"name":"Antwan","steam_id":76561198246200638,"connected_time":36000000000,"state":"active","ping":80},{"user_id":525,"name":"bigman1","steam_id":76561198050225055,"connected_time":1596000000000,"state":"active","ping":58},{"user_id":536,"name":"Elite_Friendly","steam_id":76561198819972127,"connected_time":27000000000,"state":"spawning","ping":74},{"user_id":513,"name":"shoe","steam_id":76561198451476220,"connected_time":2511000000000,"state":"active","ping":66},{"user_id":479,"name":"Tarruin","steam_id":76561198009677876,"connected_time":4076000000000,"state":"active","ping":140},{"user_id":521,"name":"DOPEam1ne","steam_id":76561198112204774,"connected_time":2085000000000,"state":"active","ping":45},{"user_id":518,"name":"Excrement","steam_id":76561198167740127,"connected_time":2166000000000,"state":"active","ping":60},{"user_id":530,"name":"cracky","steam_id":76561197971365444,"connected_time":712000000000,"state":"active","ping":69},{"user_id":487,"name":"SquidFurBrains","steam_id":76561198293899688,"connected_time":3729000000000,"state":"active","ping":90},{"user_id":526,"name":"D0c Hammer","steam_id":76561198002007932,"connected_time":1519000000000,"state":"active","ping":69},{"user_id":527,"name":"rock gaming","steam_id":76561199402868311,"connected_time":1500000000000,"state":"active","ping":66},{"user_id":534,"name":"SvicidalBug","steam_id":76561198221390504,"connected_time":164000000000,"state":"active","ping":88},{"user_id":516,"name":"Perfectly Dreadful","steam_id":76561198165728680,"connected_time":2228000000000,"state":"active","ping":64},{"user_id":488,"name":"cyke","steam_id":76561198827919358,"connected_time":3724000000000,"state":"active","ping":63},{"user_id":510,"name":"Summer's Snowman","steam_id":76561198057140854,"connected_time":2785000000000,"state":"active","ping":58},{"user_id":497,"name":"5th Tier","steam_id":76561198348513187,"connected_time":3548000000000,"state":"active","ping":59},{"user_id":514,"name":"Imitation Caucasian","steam_id":76561198320536166,"connected_time":2448000000000,"state":"active","ping":77},{"user_id":515,"name":"Grungus","steam_id":76561198047700230,"connected_time":2342000000000,"state":"active","ping":45},{"user_id":533,"name":"mela ♡","steam_id":76561198301598124,"connected_time":628000000000,"state":"active","ping":67},{"user_id":528,"name":"Wavelengths (they/it)","steam_id":76561197997621320,"connected_time":1169000000000,"state":"active","ping":99},{"user_id":502,"name":"jello","steam_id":76561198149683030,"connected_time":3347000000000,"state":"active","ping":61}]},{"server_id":18,"name":"Uncletopia | San Francisco | 2 | All Maps","name_short":"sfo-2","host":"sfo-1.us.uncletopia.com","port":27025,"enabled":true,"region":"us-west","cc":"us","latitude":37.77397,"longitude":-122.4313,"reserved":0,"last_update":"0001-01-01T00:00:00Z","name_a2s":"Uncletopia | San Francisco | 2 | All Maps","protocol":17,"map":"pl_frontier_final","folder":"tf","game":"Team Fortress","app_id":440,"player_count":6,"max_players":24,"Bots":0,"server_type":"Dedicated","server_os":"Linux","password":true,"vac":true,"version":"7757534","steam_id":85568392924470000,"keywords":["nocrits","nodmgspread","payload","uncletopia"],"game_id":440,"stv_port":27026,"stv_name":"Uncletopia | San Francisco | 2 | All Maps | STV","players":[{"user_id":420,"name":"NastyAssRaccoon","steam_id":76561198136771481,"connected_time":663000000000,"state":"active","ping":108},{"user_id":416,"name":"Zomwashroomz","steam_id":76561198131316167,"connected_time":1163000000000,"state":"active","ping":59},{"user_id":421,"name":"Bodya animeshnik","steam_id":76561199367813991,"connected_time":0,"state":"spawning","ping":87},{"user_id":414,"name":"Arcy","steam_id":76561198237030056,"connected_time":1321000000000,"state":"active","ping":60},{"user_id":397,"name":"catswork","steam_id":76561198081130757,"connected_time":2379000000000,"state":"active","ping":68},{"user_id":417,"name":"Excalibrine","steam_id":76561198129312118,"connected_time":1156000000000,"state":"active","ping":48}]},{"server_id":19,"name":"Uncletopia | San Francisco | 3 | Stopwatch Beta","name_short":"sfo-3","host":"sfo-1.us.uncletopia.com","port":27035,"enabled":true,"region":"us-west","cc":"us","latitude":37.77397,"longitude":-122.4313,"reserved":0,"last_update":"0001-01-01T00:00:00Z","name_a2s":"Uncletopia | San Francisco | 3 | Stopwatch Beta","protocol":17,"map":"koth_highpass","folder":"tf","game":"Team Fortress","app_id":440,"player_count":0,"max_players":24,"Bots":0,"server_type":"Dedicated","server_os":"Linux","password":true,"vac":true,"version":"7757534","steam_id":85568392924742824,"keywords":["cp","nocrits","nodmgspread","uncletopia"],"game_id":440,"stv_port":27036,"stv_name":"Uncletopia | San Francisco | 3 | Stopwatch Beta | STV","players":null},{"server_id":20,"name":"Uncletopia | San Francisco | 4 | Community","name_short":"sfo-4","host":"sfo-1.us.uncletopia.com","port":27045,"enabled":true,"region":"us-west","cc":"us","latitude":37.77397,"longitude":-122.4313,"reserved":0,"last_update":"0001-01-01T00:00:00Z","name_a2s":"Uncletopia | San Francisco | 4 | Community","protocol":17,"map":"workshop/koth_trenchfoot_b1a.ugc731436616","folder":"tf","game":"Team Fortress","app_id":440,"player_count":0,"max_players":24,"Bots":0,"server_type":"Dedicated","server_os":"Linux","password":true,"vac":true,"version":"7757534","steam_id":85568392924742826,"keywords":["cp","nocrits","nodmgspread","uncletopia"],"game_id":440,"stv_port":27046,"stv_name":"Uncletopia | San Francisco | 4 | Community | STV","players":null},{"server_id":141,"name":"Uncletopia | Sydney | 1 | All Maps","name_short":"syd-1","host":"syd-1.au.uncletopia.com","port":27015,"enabled":true,"region":"au","cc":"au","latitude":-33.865143,"longitude":151.2099,"reserved":0,"last_update":"0001-01-01T00:00:00Z","name_a2s":"Uncletopia | Sydney | 1 | All Maps","protocol":17,"map":"pl_upward","folder":"tf","game":"Team Fortress","app_id":440,"player_count":24,"max_players":24,"Bots":0,"server_type":"Dedicated","server_os":"Linux","password":true,"vac":true,"version":"7757534","steam_id":85568392924470001,"keywords":["nocrits","nodmgspread","payload","uncletopia"],"game_id":440,"stv_port":27016,"stv_name":"Uncletopia | Sydney | 1 | All Maps | STV","players":[{"user_id":148,"name":"Ratbagus","steam_id":76561197993827486,"connected_time":1563000000000,"state":"active","ping":75},{"user_id":164,"name":"Sentry Gun (EpicGuy4227)","steam_id":76561198094132328,"connected_time":612000000000,"state":"active","ping":52},{"user_id":154,"name":"Louis","steam_id":76561198013395847,"connected_time":1419000000000,"state":"active","ping":51},{"user_id":176,"name":"pissmaster","steam_id":76561197990537324,"connected_time":226000000000,"state":"active","ping":106},{"user_id":166,"name":"Abraham Lincoln","steam_id":76561198095292515,"connected_time":582000000000,"state":"active","ping":66},{"user_id":179,"name":"Warmwalker","steam_id":76561198025089589,"connected_time":176000000000,"state":"active","ping":142},{"user_id":147,"name":"Chris","steam_id":76561198088227961,"connected_time":1598000000000,"state":"active","ping":64},{"user_id":150,"name":"HotheadWill","steam_id":76561199253825374,"connected_time":1488000000000,"state":"active","ping":50},{"user_id":173,"name":"ToadFungus","steam_id":76561199219667039,"connected_time":381000000000,"state":"active","ping":105},{"user_id":155,"name":"helton1 #RemoveCrossbow","steam_id":76561198841855657,"connected_time":1395000000000,"state":"active","ping":53},{"user_id":160,"name":"goob","steam_id":76561199480479443,"connected_time":921000000000,"state":"active","ping":85},{"user_id":170,"name":"B. F. Bugleberry","steam_id":76561198137335569,"connected_time":484000000000,"state":"active","ping":57},{"user_id":174,"name":"Cris.p bacon","steam_id":76561199230423491,"connected_time":336000000000,"state":"active","ping":113},{"user_id":151,"name":"demoKe","steam_id":76561199081848498,"connected_time":1463000000000,"state":"active","ping":57},{"user_id":177,"name":"Motormouth","steam_id":76561197980851839,"connected_time":225000000000,"state":"active","ping":84},{"user_id":153,"name":"[FTW] RonnieD'","steam_id":76561197993957267,"connected_time":1443000000000,"state":"active","ping":46},{"user_id":131,"name":"nojnosbod11","steam_id":76561199176012151,"connected_time":4042000000000,"state":"active","ping":66},{"user_id":180,"name":"rambo","steam_id":76561199044403405,"connected_time":82000000000,"state":"active","ping":60},{"user_id":143,"name":"bison","steam_id":76561198183851230,"connected_time":2195000000000,"state":"active","ping":81},{"user_id":127,"name":"Turbo_dip","steam_id":76561198446508846,"connected_time":4382000000000,"state":"active","ping":61},{"user_id":132,"name":"whiteshaq","steam_id":76561198131988811,"connected_time":4031000000000,"state":"active","ping":45},{"user_id":163,"name":"Pile of Sneed","steam_id":76561198143537391,"connected_time":656000000000,"state":"active","ping":58},{"user_id":110,"name":"Jodelkönig Franzl Lang","steam_id":76561198007667830,"connected_time":5368000000000,"state":"active","ping":47},{"user_id":178,"name":"Bay Goy","steam_id":76561197989541221,"connected_time":206000000000,"state":"active","ping":65}]},{"server_id":123,"name":"Uncletopia | Sydney | 2 | All Maps","name_short":"syd-2","host":"syd-1.au.uncletopia.com","port":27025,"enabled":true,"region":"au","cc":"au","latitude":-33.865143,"longitude":151.2099,"reserved":0,"last_update":"0001-01-01T00:00:00Z","name_a2s":"Uncletopia | Sydney | 2 | All Maps","protocol":17,"map":"pl_frontier_final","folder":"tf","game":"Team Fortress","app_id":440,"player_count":24,"max_players":24,"Bots":0,"server_type":"Dedicated","server_os":"Linux","password":true,"vac":true,"version":"7757534","steam_id":85568392924470002,"keywords":["nocrits","nodmgspread","payload","uncletopia"],"game_id":440,"stv_port":27026,"stv_name":"Uncletopia | Sydney | 2 | All Maps | STV","players":[{"user_id":441,"name":"Fledges","steam_id":76561198017381539,"connected_time":596000000000,"state":"active","ping":58},{"user_id":444,"name":"FoxGamerPaw ❤uwu❤","steam_id":76561198169374536,"connected_time":254000000000,"state":"active","ping":56},{"user_id":434,"name":"punchtoy","steam_id":76561198118772528,"connected_time":1046000000000,"state":"active","ping":61},{"user_id":436,"name":"CypressFluff (She/Her)","steam_id":76561198174667818,"connected_time":1017000000000,"state":"active","ping":56},{"user_id":445,"name":"you have been deemed, Gilbert","steam_id":76561198301282416,"connected_time":143000000000,"state":"active","ping":65},{"user_id":446,"name":"ATTACK THE D POINT!!!!","steam_id":76561199405735306,"connected_time":11000000000,"state":"spawning","ping":54},{"user_id":424,"name":"Bird Spy From Tf2","steam_id":76561199026240631,"connected_time":1241000000000,"state":"active","ping":71},{"user_id":426,"name":"Long_Neck","steam_id":76561198059207275,"connected_time":1214000000000,"state":"active","ping":83},{"user_id":438,"name":"SaltierThanYou","steam_id":76561198444395188,"connected_time":916000000000,"state":"active","ping":80},{"user_id":437,"name":"the fella","steam_id":76561198015032342,"connected_time":933000000000,"state":"active","ping":61},{"user_id":427,"name":"Chowdermonkey","steam_id":76561198990121068,"connected_time":1204000000000,"state":"active","ping":71},{"user_id":442,"name":"Snowy","steam_id":76561198255720598,"connected_time":540000000000,"state":"active","ping":45},{"user_id":354,"name":"Dupiter","steam_id":76561198108820767,"connected_time":4852000000000,"state":"active","ping":59},{"user_id":429,"name":"Local Trash Expert","steam_id":76561198145598622,"connected_time":1137000000000,"state":"active","ping":81},{"user_id":440,"name":"DonPenguini","steam_id":76561198002525417,"connected_time":747000000000,"state":"active","ping":45},{"user_id":422,"name":"Livid","steam_id":76561198060024585,"connected_time":1265000000000,"state":"active","ping":41},{"user_id":355,"name":"coles","steam_id":76561198356037391,"connected_time":4783000000000,"state":"active","ping":71},{"user_id":418,"name":"Peteydog","steam_id":76561198376474981,"connected_time":1346000000000,"state":"active","ping":33},{"user_id":393,"name":"Float","steam_id":76561198021812511,"connected_time":2623000000000,"state":"active","ping":55},{"user_id":381,"name":"SkoKiE","steam_id":76561198283542986,"connected_time":3623000000000,"state":"active","ping":60},{"user_id":401,"name":"wombatrat","steam_id":76561199375834537,"connected_time":2449000000000,"state":"active","ping":131},{"user_id":414,"name":"Kremmen","steam_id":76561198051368641,"connected_time":1973000000000,"state":"active","ping":70},{"user_id":409,"name":"Tiger_Tan","steam_id":76561198221733844,"connected_time":2211000000000,"state":"active","ping":73},{"user_id":385,"name":"Enchanted Cat","steam_id":76561198866538028,"connected_time":3405000000000,"state":"active","ping":88}]},{"server_id":395,"name":"Uncletopia | Sydney | 3 | All Maps","name_short":"syd-3","host":"syd-1.au.uncletopia.com","port":27035,"enabled":true,"region":"au","cc":"au","latitude":-33.865143,"longitude":151.2099,"reserved":0,"last_update":"0001-01-01T00:00:00Z","name_a2s":"Uncletopia | Sydney | 3 | All Maps","protocol":17,"map":"koth_viaduct","folder":"tf","game":"Team Fortress","app_id":440,"player_count":0,"max_players":24,"Bots":0,"server_type":"Dedicated","server_os":"Linux","password":true,"vac":true,"version":"7757534","steam_id":85568392925194467,"keywords":["cp","nocrits","nodmgspread","uncletopia"],"game_id":440,"stv_port":27036,"stv_name":"Uncletopia | Sydney | 3 | All Maps | STV","players":null},{"server_id":396,"name":"Uncletopia | Sydney | 4 | All Maps","name_short":"syd-4","host":"syd-1.au.uncletopia.com","port":27045,"enabled":true,"region":"au","cc":"au","latitude":-33.865143,"longitude":151.2099,"reserved":0,"last_update":"0001-01-01T00:00:00Z","name_a2s":"Uncletopia | Sydney | 4 | All Maps","protocol":17,"map":"koth_highpass","folder":"tf","game":"Team Fortress","app_id":440,"player_count":0,"max_players":24,"Bots":0,"server_type":"Dedicated","server_os":"Linux","password":true,"vac":true,"version":"7757534","steam_id":85568392925397958,"keywords":["cp","nocrits","nodmgspread","uncletopia"],"game_id":440,"stv_port":27046,"stv_name":"Uncletopia | Sydney | 4 | All Maps | STV","players":null},{"server_id":58,"name":"Uncletopia | Sydney | 5 | Stopwatch Beta","name_short":"syd-5","host":"syd-1.au.uncletopia.com","port":27055,"enabled":true,"region":"au","cc":"au","latitude":-33.865143,"longitude":151.2099,"reserved":0,"last_update":"0001-01-01T00:00:00Z","name_a2s":"Uncletopia | Sydney | 5 | Stopwatch Beta","protocol":17,"map":"workshop/pl_summercoast_rc8e.ugc1761528829","folder":"tf","game":"Team Fortress","app_id":440,"player_count":0,"max_players":24,"Bots":0,"server_type":"Dedicated","server_os":"Linux","password":true,"vac":true,"version":"7757534","steam_id":85568392925397959,"keywords":["nocrits","nodmgspread","payload","uncletopia"],"game_id":440,"stv_port":27056,"stv_name":"Uncletopia | Sydney | 5 | Stopwatch Beta | STV","players":null},{"server_id":59,"name":"Uncletopia | Sydney | 6 | Community","name_short":"syd-6","host":"syd-1.au.uncletopia.com","port":27065,"enabled":true,"region":"au","cc":"au","latitude":-33.865143,"longitude":151.2099,"reserved":0,"last_update":"0001-01-01T00:00:00Z","name_a2s":"Uncletopia | Sydney | 6 | Community","protocol":17,"map":"workshop/cp_snowbase_b18.ugc2081770490","folder":"tf","game":"Team Fortress","app_id":440,"player_count":0,"max_players":24,"Bots":0,"server_type":"Dedicated","server_os":"Linux","password":true,"vac":true,"version":"7757534","steam_id":85568392925397960,"keywords":["cp","nocrits","nodmgspread","uncletopia"],"game_id":440,"stv_port":27066,"stv_name":"Uncletopia | Sydney | 6 | Community | STV","players":null},{"server_id":49,"name":"Uncletopia | Warsaw | 1 | All Maps","name_short":"waw-1","host":"waw-1.pl.uncletopia.com","port":27015,"enabled":true,"region":"eu","cc":"pl","latitude":52.2297,"longitude":21.017532,"reserved":0,"last_update":"0001-01-01T00:00:00Z","name_a2s":"","protocol":0,"map":"","folder":"","game":"","app_id":0,"player_count":0,"max_players":0,"Bots":0,"server_type":"","server_os":"","password":false,"vac":false,"version":"","steam_id":0,"keywords":null,"game_id":0,"stv_port":0,"stv_name":"","players":null},{"server_id":50,"name":"Uncletopia | Warsaw | 2 | All Maps","name_short":"waw-2","host":"waw-1.pl.uncletopia.com","port":27025,"enabled":true,"region":"eu","cc":"pl","latitude":52.2297,"longitude":21.017532,"reserved":0,"last_update":"0001-01-01T00:00:00Z","name_a2s":"Uncletopia | Warsaw | 2 | All Maps","protocol":17,"map":"koth_viaduct","folder":"tf","game":"Team Fortress","app_id":440,"player_count":0,"max_players":24,"Bots":0,"server_type":"Dedicated","server_os":"Linux","password":true,"vac":true,"version":"7757534","steam_id":85568392925397851,"keywords":["cp","nocrits","nodmgspread","uncletopia"],"game_id":440,"stv_port":27026,"stv_name":"Uncletopia | Warsaw | 2 | All Maps | STV","players":null},{"server_id":51,"name":"Uncletopia | Warsaw | 3 | All Maps","name_short":"waw-3","host":"waw-1.pl.uncletopia.com","port":27035,"enabled":true,"region":"eu","cc":"pl","latitude":52.2297,"longitude":21.017532,"reserved":0,"last_update":"0001-01-01T00:00:00Z","name_a2s":"Uncletopia | Warsaw | 3 | All Maps","protocol":17,"map":"pl_badwater","folder":"tf","game":"Team Fortress","app_id":440,"player_count":0,"max_players":24,"Bots":0,"server_type":"Dedicated","server_os":"Linux","password":true,"vac":true,"version":"7757534","steam_id":85568392925397852,"keywords":["nocrits","nodmgspread","payload","uncletopia"],"game_id":440,"stv_port":27036,"stv_name":"Uncletopia | Warsaw | 3 | All Maps | STV","players":null},{"server_id":52,"name":"Uncletopia | Warsaw | 4 | All Maps","name_short":"waw-4","host":"waw-1.pl.uncletopia.com","port":27045,"enabled":true,"region":"eu","cc":"pl","latitude":52.2297,"longitude":21.017532,"reserved":0,"last_update":"0001-01-01T00:00:00Z","name_a2s":"Uncletopia | Warsaw | 4 | All Maps","protocol":17,"map":"koth_lakeside_final","folder":"tf","game":"Team Fortress","app_id":440,"player_count":0,"max_players":24,"Bots":0,"server_type":"Dedicated","server_os":"Linux","password":true,"vac":true,"version":"7757534","steam_id":85568392925397853,"keywords":["cp","nocrits","nodmgspread","uncletopia"],"game_id":440,"stv_port":27046,"stv_name":"Uncletopia | Warsaw | 4 | All Maps | STV","players":null},{"server_id":53,"name":"Uncletopia | Warsaw | 5 | Stopwatch Beta","name_short":"waw-5","host":"waw-1.pl.uncletopia.com","port":27055,"enabled":true,"region":"eu","cc":"pl","latitude":52.2297,"longitude":21.017532,"reserved":0,"last_update":"0001-01-01T00:00:00Z","name_a2s":"Uncletopia | Warsaw | 5 | Stopwatch Beta","protocol":17,"map":"pl_borneo","folder":"tf","game":"Team Fortress","app_id":440,"player_count":0,"max_players":24,"Bots":0,"server_type":"Dedicated","server_os":"Linux","password":true,"vac":true,"version":"7757534","steam_id":85568392925397854,"keywords":["nocrits","nodmgspread","payload","uncletopia"],"game_id":440,"stv_port":27056,"stv_name":"Uncletopia | Warsaw | 5 | Stopwatch Beta | STV","players":null},{"server_id":54,"name":"Uncletopia | Warsaw | 6 | Community","name_short":"waw-6","host":"waw-1.pl.uncletopia.com","port":27065,"enabled":true,"region":"eu","cc":"pl","latitude":52.2297,"longitude":21.017532,"reserved":0,"last_update":"0001-01-01T00:00:00Z","name_a2s":"Uncletopia | Warsaw | 6 | Community","protocol":17,"map":"koth_lakeside_final","folder":"tf","game":"Team Fortress","app_id":440,"player_count":0,"max_players":24,"Bots":0,"server_type":"Dedicated","server_os":"Linux","password":true,"vac":true,"version":"7757534","steam_id":85568392925397856,"keywords":["cp","nocrits","nodmgspread","uncletopia"],"game_id":440,"stv_port":27066,"stv_name":"Uncletopia | Warsaw | 6 | Community | STV","players":null}]}