{"status":true,"message":"","result":[{"server_id":9,"name":"Uncletopia | Atlanta | 1 | All Maps","name_short":"atl-1","host":"atl-1.us.uncletopia.com","port":27015,"enabled":true,"region":"us-east","cc":"us","latitude":33.753746,"longitude":-84.38633,"reserved":0,"last_update":"0001-01-01T00:00:00Z","name_a2s":"Uncletopia | Atlanta | 1 | All Maps","protocol":17,"map":"pl_frontier_final","folder":"tf","game":"Team Fortress","app_id":440,"player_count":24,"max_players":24,"Bots":0,"server_type":"Dedicated","server_os":"Linux","password":true,"vac":true,"version":"7695204","steam_id":85568392924469982,"keywords":["nocrits","nodmgspread","payload","uncletopia"],"game_id":440,"stv_port":27016,"stv_name":"Uncletopia | Atlanta | 1 | All Maps | STV","players":[{"user_id":445,"name":"merryy","steam_id":76561198968001329,"connected_time":2348000000000,"state":"active","ping":46},{"user_id":433,"name":"Avo","steam_id":76561197993340494,"connected_time":3379000000000,"state":"active","ping":59},{"user_id":437,"name":"ATL1 | Vee (very jolly and cool","steam_id":76561198330432889,"connected_time":3191000000000,"state":"active","ping":60},{"user_id":426,"name":"cece","steam_id":76561198862785401,"connected_time":3985000000000,"state":"active","ping":106},{"user_id":430,"name":"com lag","steam_id":76561198019019392,"connected_time":3467000000000,"state":"active","ping":70},{"user_id":431,"name":"LynBoByn","steam_id":76561198052911142,"connected_time":3424000000000,"state":"active","ping":66},{"user_id":446,"name":"Braixen","steam_id":76561198354314389,"connected_time":2293000000000,"state":"active","ping":59},{"user_id":449,"name":"indi","steam_id":76561198045917538,"connected_time":1821000000000,"state":"active","ping":65},{"user_id":357,"name":"Toest","steam_id":76561198076061844,"connected_time":9488000000000,"state":"active","ping":64},{"user_id":451,"name":"sansa musa","steam_id":76561198163723555,"connected_time":698000000000,"state":"active","ping":75},{"user_id":450,"name":"Save your wifi","steam_id":76561198286147372,"connected_time":1778000000000,"state":"active","ping":52},{"user_id":423,"name":"Krissy","steam_id":76561197960848174,"connected_time":4128000000000,"state":"active","ping":68},{"user_id":438,"name":"Hodeman","steam_id":76561197975982368,"connected_time":3115000000000,"state":"active","ping":65},{"user_id":442,"name":"Intro Bonito","steam_id":76561198119478838,"connected_time":2439000000000,"state":"active","ping":60},{"user_id":439,"name":"basil","steam_id":76561198075758026,"connected_time":3107000000000,"state":"active","ping":80},{"user_id":405,"name":"ATL1 | Psionic Present","steam_id":76561198151019322,"connected_time":5284000000000,"state":"active","ping":60},{"user_id":440,"name":"cola","steam_id":76561198374390458,"connected_time":3048000000000,"state":"active","ping":57},{"user_id":420,"name":"p_picklelol","steam_id":76561198129434533,"connected_time":4517000000000,"state":"active","ping":60},{"user_id":396,"name":"Smoky","steam_id":76561198418262145,"connected_time":5930000000000,"state":"active","ping":96},{"user_id":416,"name":"‚òô Corrupt ‚ùß","steam_id":76561197977631915,"connected_time":4700000000000,"state":"active","ping":53},{"user_id":429,"name":"mf","steam_id":76561198025668771,"connected_time":3588000000000,"state":"active","ping":105},{"user_id":441,"name":"merry mommy","steam_id":76561199230929836,"connected_time":2877000000000,"state":"active","ping":89},{"user_id":444,"name":"McChezzy","steam_id":76561199125249222,"connected_time":2363000000000,"state":"active","ping":94},{"user_id":422,"name":"DingDongAnalog","steam_id":76561198850181994,"connected_time":4396000000000,"state":"active","ping":114}]},{"server_id":400,"name":"Uncletopia | Atlanta | 3 | All Maps","name_short":"atl-3","host":"atl-1.us.uncletopia.com","port":27035,"enabled":true,"region":"us-east","cc":"us","latitude":33.753746,"longitude":-84.38633,"reserved":0,"last_update":"0001-01-01T00:00:00Z","name_a2s":"Uncletopia | Atlanta | 3 | All Maps","protocol":17,"map":"pl_frontier_final","folder":"tf","game":"Team Fortress","app_id":440,"player_count":15,"max_players":24,"Bots":0,"server_type":"Dedicated","server_os":"Linux","password":true,"vac":true,"version":"7695204","steam_id":85568392924515187,"keywords":["nocrits","nodmgspread","payload","uncletopia"],"game_id":440,"stv_port":27036,"stv_name":"Uncletopia | Atlanta | 3 | All Maps | STV","players":[{"user_id":188,"name":"BrokeFolk","steam_id":76561198010301519,"connected_time":1150000000000,"state":"active","ping":60},{"user_id":173,"name":"[UNFAIR] H1gh0nSt34m","steam_id":76561198839068126,"connected_time":1434000000000,"state":"active","ping":61},{"user_id":204,"name":"Glove Man","steam_id":76561198186899790,"connected_time":287000000000,"state":"active","ping":76},{"user_id":199,"name":"rumes","steam_id":76561198349219467,"connected_time":377000000000,"state":"active","ping":77},{"user_id":194,"name":"DiscoTraveler","steam_id":76561199240168088,"connected_time":547000000000,"state":"active","ping":58},{"user_id":206,"name":"‚ô• Ranman ‚ô•","steam_id":76561198042144492,"connected_time":183000000000,"state":"active","ping":52},{"user_id":207,"name":"Alibyssel","steam_id":76561199195784827,"connected_time":172000000000,"state":"active","ping":82},{"user_id":208,"name":"Funkboi","steam_id":76561198046235038,"connected_time":42000000000,"state":"active","ping":96},{"user_id":175,"name":"Pretty Boy's Pocket Pussy","steam_id":76561198050582941,"connected_time":1369000000000,"state":"active","ping":89},{"user_id":176,"name":"fumo","steam_id":76561199089453214,"connected_time":1333000000000,"state":"active","ping":55},{"user_id":190,"name":"Nephs","steam_id":76561198136763403,"connected_time":1002000000000,"state":"active","ping":78},{"user_id":192,"name":"the senate","steam_id":76561198353542913,"connected_time":620000000000,"state":"active","ping":72},{"user_id":182,"name":"bonk","steam_id":76561198004823930,"connected_time":1255000000000,"state":"active","ping":56},{"user_id":183,"name":"Sexual Butt","steam_id":76561198102241399,"connected_time":1247000000000,"state":"active","ping":73},{"user_id":165,"name":"Mr. Tickle","steam_id":76561198126684647,"connected_time":2582000000000,"state":"active","ping":68}]},{"server_id":401,"name":"Uncletopia | Atlanta | 4 | No Payload","name_short":"atl-4","host":"atl-1.us.uncletopia.com","port":27045,"enabled":true,"region":"us-east","cc":"us","latitude":33.753746,"longitude":-84.38633,"reserved":0,"last_update":"0001-01-01T00:00:00Z","name_a2s":"Uncletopia | Atlanta | 4 | No Payload","protocol":17,"map":"koth_sawmill","folder":"tf","game":"Team Fortress","app_id":440,"player_count":0,"max_players":24,"Bots":0,"server_type":"Dedicated","server_os":"Linux","password":true,"vac":true,"version":"7695204","steam_id":85568392924515188,"keywords":["cp","nocrits","nodmgspread","uncletopia"],"game_id":440,"stv_port":27046,"stv_name":"Uncletopia | Atlanta | 4 | No Payload | STV","players":null},{"server_id":2,"name":"Uncletopia | Chicago | 1 | All Maps","name_short":"chi-1","host":"chi-1.us.uncletopia.com","port":27015,"enabled":true,"region":"us-central","cc":"us","latitude":41.881832,"longitude":-87.62318,"reserved":0,"last_update":"0001-01-01T00:00:00Z","name_a2s":"Uncletopia | Chicago | 1 | All Maps","protocol":17,"map":"pl_goldrush","folder":"tf","game":"Team Fortress","app_id":440,"player_count":23,"max_players":24,"Bots":0,"server_type":"Dedicated","server_os":"Linux","password":true,"vac":true,"version":"7695204","steam_id":85568392924469984,"keywords":["nocrits","nodmgspread","payload","uncletopia"],"game_id":440,"stv_port":27016,"stv_name":"Uncletopia | Chicago | 1 | All Maps | STV","players":[{"user_id":508,"name":"Mythical Lag","steam_id":76561198347031281,"connected_time":5447000000000,"state":"active","ping":76},{"user_id":584,"name":"Athrium","steam_id":76561199201940614,"connected_time":49000000000,"state":"active","ping":104},{"user_id":517,"name":"√íw√ì","steam_id":76561197997304387,"connected_time":3880000000000,"state":"active","ping":75},{"user_id":465,"name":"Ben Shapiro Gaming","steam_id":76561198113651011,"connected_time":7465000000000,"state":"active","ping":64},{"user_id":565,"name":"                             -","steam_id":76561198021308963,"connected_time":1306000000000,"state":"active","ping":65},{"user_id":575,"name":"splatoon 3 enjoyer","steam_id":76561198306945757,"connected_time":325000000000,"state":"active","ping":60},{"user_id":577,"name":"Kalimar","steam_id":76561198316254429,"connected_time":314000000000,"state":"active","ping":77},{"user_id":581,"name":"AOTFB | BigTony","steam_id":76561198260516158,"connected_time":192000000000,"state":"active","ping":49},{"user_id":557,"name":"Probably Aleks","steam_id":76561199106731358,"connected_time":1884000000000,"state":"active","ping":59},{"user_id":536,"name":"Legion","steam_id":76561199036242643,"connected_time":3263000000000,"state":"active","ping":61},{"user_id":569,"name":"tum","steam_id":76561198084712019,"connected_time":1013000000000,"state":"active","ping":104},{"user_id":552,"name":"Pizza Party","steam_id":76561198165730754,"connected_time":1909000000000,"state":"active","ping":64},{"user_id":546,"name":"garf","steam_id":76561198088228311,"connected_time":1987000000000,"state":"active","ping":73},{"user_id":573,"name":"lankyboxbigfan2012","steam_id":76561199139182003,"connected_time":513000000000,"state":"active","ping":53},{"user_id":578,"name":"im druhnk","steam_id":76561198025723087,"connected_time":309000000000,"state":"active","ping":75},{"user_id":555,"name":"09robcraft2","steam_id":76561199073189184,"connected_time":1904000000000,"state":"active","ping":92},{"user_id":538,"name":"Noodlebox","steam_id":76561197993846770,"connected_time":3114000000000,"state":"active","ping":90},{"user_id":558,"name":"lyra","steam_id":76561198200002859,"connected_time":1807000000000,"state":"active","ping":60},{"user_id":532,"name":"ThatTechDude","steam_id":76561198342630635,"connected_time":3564000000000,"state":"active","ping":50},{"user_id":540,"name":"Raniel Dicciardo","steam_id":76561198053859538,"connected_time":2955000000000,"state":"active","ping":66},{"user_id":579,"name":"valky","steam_id":76561198046033522,"connected_time":300000000000,"state":"active","ping":100},{"user_id":580,"name":"AOTFB | Vox Vulpera","steam_id":76561198796227041,"connected_time":274000000000,"state":"active","ping":76},{"user_id":541,"name":"world's dumbest himbo","steam_id":76561199143725014,"connected_time":2927000000000,"state":"active","ping":75}]},{"server_id":106,"name":"Uncletopia | Chicago | 2 | All Maps","name_short":"chi-2","host":"chi-1.us.uncletopia.com","port":27025,"enabled":true,"region":"us-central","cc":"us","latitude":41.881832,"longitude":-87.62318,"reserved":0,"last_update":"0001-01-01T00:00:00Z","name_a2s":"Uncletopia | Chicago | 2 | All Maps","protocol":17,"map":"cp_sunshine","folder":"tf","game":"Team Fortress","app_id":440,"player_count":24,"max_players":24,"Bots":0,"server_type":"Dedicated","server_os":"Linux","password":true,"vac":true,"version":"7695204","steam_id":85568392924469985,"keywords":["cp","nocrits","nodmgspread","uncletopia"],"game_id":440,"stv_port":27026,"stv_name":"Uncletopia | Chicago | 2 | All Maps | STV","players":[{"user_id":401,"name":"Misha","steam_id":76561198066174041,"connected_time":6011000000000,"state":"active","ping":57},{"user_id":490,"name":"Boiling Oil","steam_id":76561199238964574,"connected_time":396000000000,"state":"active","ping":65},{"user_id":457,"name":"BING CHILLING (F2P)","steam_id":76561198083694047,"connected_time":1664000000000,"state":"active","ping":104},{"user_id":443,"name":"dn13","steam_id":76561198076067588,"connected_time":2329000000000,"state":"active","ping":120},{"user_id":487,"name":"lambmyth","steam_id":76561199215261209,"connected_time":472000000000,"state":"active","ping":114},{"user_id":492,"name":"pandora da king","steam_id":76561198075490385,"connected_time":385000000000,"state":"active","ping":99},{"user_id":497,"name":"leumas","steam_id":76561198240408540,"connected_time":141000000000,"state":"active","ping":55},{"user_id":471,"name":"queer linux user","steam_id":76561199208765424,"connected_time":1053000000000,"state":"active","ping":80},{"user_id":415,"name":"Lomba","steam_id":76561198136329102,"connected_time":5093000000000,"state":"active","ping":67},{"user_id":498,"name":"PotatoKing","steam_id":76561198302517491,"connected_time":131000000000,"state":"active","ping":75},{"user_id":501,"name":"a crazy hobo","steam_id":76561198289650060,"connected_time":44000000000,"state":"active","ping":82},{"user_id":496,"name":"Quansen","steam_id":76561198151594550,"connected_time":206000000000,"state":"active","ping":58},{"user_id":476,"name":"Domino Jones","steam_id":76561198202195792,"connected_time":1012000000000,"state":"active","ping":60},{"user_id":494,"name":"Boop Master","steam_id":76561198091582046,"connected_time":327000000000,"state":"active","ping":107},{"user_id":464,"name":"Shmoopy","steam_id":76561198030459152,"connected_time":1114000000000,"state":"active","ping":71},{"user_id":499,"name":"beats_femboy","steam_id":76561199245717718,"connected_time":92000000000,"state":"active","ping":45},{"user_id":416,"name":"taky0n","steam_id":76561198103759716,"connected_time":5092000000000,"state":"active","ping":72},{"user_id":437,"name":"Grimm","steam_id":76561198355935693,"connected_time":3085000000000,"state":"active","ping":47},{"user_id":500,"name":"Sunmist","steam_id":76561198027784824,"connected_time":65000000000,"state":"active","ping":74},{"user_id":409,"name":"brae","steam_id":76561198047126327,"connected_time":5908000000000,"state":"active","ping":78},{"user_id":463,"name":"OneTrueCorvid","steam_id":76561199012953221,"connected_time":1126000000000,"state":"active","ping":80},{"user_id":485,"name":"nb","steam_id":76561199384918606,"connected_time":521000000000,"state":"active","ping":60},{"user_id":428,"name":"Beef Wellington","steam_id":76561197995635241,"connected_time":3522000000000,"state":"active","ping":64},{"user_id":478,"name":"BoddhosDaughter","steam_id":76561198140202317,"connected_time":969000000000,"state":"active","ping":49}]},{"server_id":402,"name":"Uncletopia | Chicago | 3 | All Maps","name_short":"chi-3","host":"chi-1.us.uncletopia.com","port":27035,"enabled":true,"region":"us-central","cc":"us","latitude":41.881832,"longitude":-87.62318,"reserved":0,"last_update":"0001-01-01T00:00:00Z","name_a2s":"Uncletopia | Chicago | 3 | All Maps","protocol":17,"map":"cp_dustbowl","folder":"tf","game":"Team Fortress","app_id":440,"player_count":24,"max_players":24,"Bots":0,"server_type":"Dedicated","server_os":"Linux","password":true,"vac":true,"version":"7695204","steam_id":85568392924515191,"keywords":["cp","nocrits","nodmgspread","uncletopia"],"game_id":440,"stv_port":27036,"stv_name":"Uncletopia | Chicago | 3 | All Maps | STV","players":[{"user_id":346,"name":"BEN FRANKLYN KNOWS MY NAME","steam_id":76561199007029763,"connected_time":3210000000000,"state":"active","ping":73},{"user_id":363,"name":"november","steam_id":76561198148357768,"connected_time":1403000000000,"state":"active","ping":61},{"user_id":365,"name":"Plate","steam_id":76561198013720285,"connected_time":1274000000000,"state":"active","ping":64},{"user_id":358,"name":"Bowl","steam_id":76561198133931159,"connected_time":2191000000000,"state":"active","ping":53},{"user_id":304,"name":"Dat Dere Kirby","steam_id":76561198084054568,"connected_time":6762000000000,"state":"active","ping":78},{"user_id":305,"name":"Nuruko","steam_id":76561198066698922,"connected_time":6749000000000,"state":"active","ping":47},{"user_id":306,"name":"Liquid Metal Slime from DQ9","steam_id":76561198061621275,"connected_time":6737000000000,"state":"active","ping":76},{"user_id":351,"name":"404","steam_id":76561198031391621,"connected_time":2882000000000,"state":"active","ping":66},{"user_id":312,"name":"Vivi from Final","steam_id":76561198119809263,"connected_time":5835000000000,"state":"active","ping":107},{"user_id":360,"name":"Morphe","steam_id":76561197999279039,"connected_time":1488000000000,"state":"active","ping":52},{"user_id":359,"name":"flatts","steam_id":76561198094127177,"connected_time":2177000000000,"state":"active","ping":60},{"user_id":372,"name":"TriM","steam_id":76561198048332533,"connected_time":207000000000,"state":"active","ping":52},{"user_id":356,"name":"The Dashing Hooligan","steam_id":76561197997263153,"connected_time":2472000000000,"state":"active","ping":135},{"user_id":370,"name":"plutonium isotope","steam_id":76561198319442494,"connected_time":242000000000,"state":"active","ping":104},{"user_id":364,"name":"King Cotton","steam_id":76561198292444376,"connected_time":1397000000000,"state":"active","ping":73},{"user_id":357,"name":"Bad Santa","steam_id":76561198000198205,"connected_time":2343000000000,"state":"active","ping":60},{"user_id":352,"name":"Kylebutt‚Ñ¢ üá∫üá¶","steam_id":76561197966575426,"connected_time":2870000000000,"state":"active","ping":51},{"user_id":369,"name":"Cleric","steam_id":76561198045887994,"connected_time":427000000000,"state":"active","ping":45},{"user_id":333,"name":"Bidoofus","steam_id":76561198047726667,"connected_time":4406000000000,"state":"active","ping":45},{"user_id":353,"name":"b2brawler","steam_id":76561198037174169,"connected_time":2862000000000,"state":"active","ping":40},{"user_id":361,"name":"The Muffin Man","steam_id":76561199088286427,"connected_time":1479000000000,"state":"active","ping":101},{"user_id":354,"name":"BALL FART BARON","steam_id":76561198410061750,"connected_time":2851000000000,"state":"active","ping":59},{"user_id":362,"name":"Joker Joestar","steam_id":76561198115696839,"connected_time":1474000000000,"state":"active","ping":47},{"user_id":367,"name":"buttmaholer","steam_id":76561197991611361,"connected_time":1031000000000,"state":"active","ping":204}]},{"server_id":403,"name":"Uncletopia | Chicago | 4 | All Maps","name_short":"chi-4","host":"chi-1.us.uncletopia.com","port":27045,"enabled":true,"region":"us-central","cc":"us","latitude":41.881832,"longitude":-87.62318,"reserved":0,"last_update":"0001-01-01T00:00:00Z","name_a2s":"Uncletopia | Chicago | 4 | All Maps","protocol":17,"map":"cp_process_final","folder":"tf","game":"Team Fortress","app_id":440,"player_count":22,"max_players":24,"Bots":0,"server_type":"Dedicated","server_os":"Linux","password":true,"vac":true,"version":"7695204","steam_id":85568392924515193,"keywords":["cp","nocrits","nodmgspread","uncletopia"],"game_id":440,"stv_port":27046,"stv_name":"Uncletopia | Chicago | 4 | All Maps | STV","players":[{"user_id":446,"name":"-Chan","steam_id":76561198231125628,"connected_time":1703000000000,"state":"active","ping":66},{"user_id":387,"name":"Assilio","steam_id":76561198371102414,"connected_time":7650000000000,"state":"active","ping":74},{"user_id":442,"name":"riley","steam_id":76561198133142520,"connected_time":2578000000000,"state":"active","ping":64},{"user_id":451,"name":"mkwiiallpro","steam_id":76561198312645614,"connected_time":1464000000000,"state":"active","ping":58},{"user_id":449,"name":"atserc","steam_id":76561197997570349,"connected_time":1504000000000,"state":"active","ping":90},{"user_id":384,"name":"My controller broke","steam_id":76561198157280577,"connected_time":7710000000000,"state":"active","ping":63},{"user_id":448,"name":"a garbage can","steam_id":76561198403626105,"connected_time":1510000000000,"state":"active","ping":59},{"user_id":460,"name":"Muffin","steam_id":76561198050715053,"connected_time":343000000000,"state":"active","ping":75},{"user_id":435,"name":"raya","steam_id":76561198051504581,"connected_time":3670000000000,"state":"active","ping":63},{"user_id":374,"name":"Horus","steam_id":76561198166215370,"connected_time":8691000000000,"state":"active","ping":101},{"user_id":457,"name":"_Lusty_","steam_id":76561198876948142,"connected_time":1273000000000,"state":"active","ping":62},{"user_id":437,"name":"Zpan0317","steam_id":76561198243792280,"connected_time":3641000000000,"state":"active","ping":60},{"user_id":464,"name":"bulrushed","steam_id":76561199307715463,"connected_time":84000000000,"state":"active","ping":84},{"user_id":462,"name":"AbhorAdore","steam_id":76561198354036370,"connected_time":192000000000,"state":"active","ping":74},{"user_id":453,"name":"defcon","steam_id":76561198100656328,"connected_time":1455000000000,"state":"active","ping":76},{"user_id":423,"name":"badass skeleten","steam_id":76561198198460711,"connected_time":5140000000000,"state":"active","ping":46},{"user_id":465,"name":"COD zombie","steam_id":76561198375679278,"connected_time":78000000000,"state":"active","ping":73},{"user_id":424,"name":"Pierce","steam_id":76561198043747953,"connected_time":5109000000000,"state":"active","ping":59},{"user_id":463,"name":"Blungus","steam_id":76561198165779610,"connected_time":183000000000,"state":"active","ping":121},{"user_id":284,"name":"McGangBang","steam_id":76561198862379865,"connected_time":17081000000000,"state":"active","ping":55},{"user_id":466,"name":"Architect","steam_id":76561198015242016,"connected_time":72000000000,"state":"active","ping":41},{"user_id":445,"name":"Fred","steam_id":76561197983870604,"connected_time":2404000000000,"state":"active","ping":91}]},{"server_id":36,"name":"Uncletopia | Chicago | 5 | All Maps","name_short":"chi-5","host":"chi-2.us.uncletopia.com","port":27015,"enabled":true,"region":"us-central","cc":"us","latitude":41.881832,"longitude":-87.62318,"reserved":0,"last_update":"0001-01-01T00:00:00Z","name_a2s":"Uncletopia | Chicago | 5 | All Maps","protocol":17,"map":"pl_snowycoast","folder":"tf","game":"Team Fortress","app_id":440,"player_count":23,"max_players":24,"Bots":0,"server_type":"Dedicated","server_os":"Linux","password":true,"vac":true,"version":"7695204","steam_id":85568392924866362,"keywords":["nocrits","nodmgspread","payload","uncletopia"],"game_id":440,"stv_port":27016,"stv_name":"Uncletopia | Chicago | 5 | All Maps | STV","players":[{"user_id":408,"name":"BillButtLicker69","steam_id":76561198070119268,"connected_time":1547000000000,"state":"active","ping":98},{"user_id":414,"name":"Kevin Y.","steam_id":76561198364331423,"connected_time":1218000000000,"state":"active","ping":82},{"user_id":415,"name":"cashaw23","steam_id":76561198308574172,"connected_time":1185000000000,"state":"active","ping":83},{"user_id":423,"name":"macaroni zamboni","steam_id":76561198127149121,"connected_time":561000000000,"state":"active","ping":78},{"user_id":386,"name":"Lore","steam_id":76561198098407538,"connected_time":3608000000000,"state":"active","ping":53},{"user_id":405,"name":"TheTomatoWizard","steam_id":76561199123567989,"connected_time":1707000000000,"state":"active","ping":71},{"user_id":422,"name":"jorjor wells","steam_id":76561199073429082,"connected_time":655000000000,"state":"active","ping":67},{"user_id":375,"name":"ùñöùñé","steam_id":76561198049238840,"connected_time":4534000000000,"state":"active","ping":78},{"user_id":417,"name":"Lancewiu","steam_id":76561198010985573,"connected_time":1173000000000,"state":"active","ping":56},{"user_id":433,"name":"Bob the Minion","steam_id":76561197972389354,"connected_time":188000000000,"state":"active","ping":72},{"user_id":425,"name":"poobis-130 inbound","steam_id":76561198123287268,"connected_time":554000000000,"state":"active","ping":46},{"user_id":407,"name":"DimensionalCheesecake","steam_id":76561198170133562,"connected_time":1613000000000,"state":"active","ping":64},{"user_id":426,"name":"POWER IN MISERY","steam_id":76561198032008701,"connected_time":549000000000,"state":"active","ping":62},{"user_id":432,"name":"Psycho","steam_id":76561198084918608,"connected_time":275000000000,"state":"active","ping":132},{"user_id":401,"name":"Iman Shitpants","steam_id":76561198063677510,"connected_time":2212000000000,"state":"active","ping":73},{"user_id":434,"name":"faxxy","steam_id":76561198079621240,"connected_time":159000000000,"state":"active","ping":61},{"user_id":410,"name":"jolt","steam_id":76561198055423711,"connected_time":1535000000000,"state":"active","ping":68},{"user_id":411,"name":"Raydn","steam_id":76561198418414338,"connected_time":1531000000000,"state":"active","ping":76},{"user_id":412,"name":"VerociousVee","steam_id":76561198289106015,"connected_time":1530000000000,"state":"active","ping":96},{"user_id":382,"name":"Mischief of Rats","steam_id":76561198106307068,"connected_time":4398000000000,"state":"active","ping":52},{"user_id":421,"name":"novacheri1","steam_id":76561198345120143,"connected_time":805000000000,"state":"active","ping":62},{"user_id":435,"name":"HOG RIDER","steam_id":76561198298589502,"connected_time":61000000000,"state":"active","ping":109},{"user_id":413,"name":"Miss PeaceTea","steam_id":76561198279236985,"connected_time":1441000000000,"state":"active","ping":127}]},{"server_id":37,"name":"Uncletopia | Chicago | 6 | All Maps","name_short":"chi-6","host":"chi-2.us.uncletopia.com","port":27025,"enabled":true,"region":"us-central","cc":"us","latitude":41.881832,"longitude":-87.62318,"reserved":0,"last_update":"0001-01-01T00:00:00Z","name_a2s":"Uncletopia | Chicago | 6 | All Maps","protocol":17,"map":"pl_borneo","folder":"tf","game":"Team Fortress","app_id":440,"player_count":24,"max_players":24,"Bots":0,"server_type":"Dedicated","server_os":"Linux","password":true,"vac":true,"version":"7695204","steam_id":85568392924866363,"keywords":["nocrits","nodmgspread","payload","uncletopia"],"game_id":440,"stv_port":27026,"stv_name":"Uncletopia | Chicago | 6 | All Maps | STV","players":[{"user_id":219,"name":"AlecTheNecrophiliac","steam_id":76561198010019214,"connected_time":3646000000000,"state":"active","ping":48},{"user_id":231,"name":"lanoc","steam_id":76561198055415367,"connected_time":2558000000000,"state":"active","ping":60},{"user_id":206,"name":"gyozaking","steam_id":76561197972312696,"connected_time":4659000000000,"state":"active","ping":34},{"user_id":180,"name":"Pep Seeman","steam_id":76561198038393007,"connected_time":7151000000000,"state":"active","ping":45},{"user_id":264,"name":"Leviathon804","steam_id":76561198979241603,"connected_time":481000000000,"state":"active","ping":75},{"user_id":248,"name":"Vitaman","steam_id":76561198010655685,"connected_time":1516000000000,"state":"active","ping":60},{"user_id":236,"name":"Dieu-Sama","steam_id":76561198002075862,"connected_time":2533000000000,"state":"active","ping":80},{"user_id":256,"name":"Murk Wahlberg","steam_id":76561198131467867,"connected_time":1441000000000,"state":"active","ping":78},{"user_id":220,"name":"AlecTheNefarious","steam_id":76561198035291230,"connected_time":3643000000000,"state":"active","ping":60},{"user_id":267,"name":"sithreis","steam_id":76561198000564263,"connected_time":344000000000,"state":"active","ping":68},{"user_id":266,"name":"Jackdoug","steam_id":76561198309384213,"connected_time":386000000000,"state":"active","ping":103},{"user_id":257,"name":"Milkboxxy","steam_id":76561198059944128,"connected_time":1423000000000,"state":"active","ping":103},{"user_id":232,"name":"clio","steam_id":76561198141700569,"connected_time":2555000000000,"state":"active","ping":75},{"user_id":269,"name":"Drilly22","steam_id":76561198068838338,"connected_time":196000000000,"state":"active","ping":82},{"user_id":253,"name":"yuji","steam_id":76561198401572620,"connected_time":1454000000000,"state":"active","ping":60},{"user_id":258,"name":"SealsandSomeMore","steam_id":76561198399201495,"connected_time":1418000000000,"state":"active","ping":88},{"user_id":244,"name":"BOATS","steam_id":76561198084018402,"connected_time":1648000000000,"state":"active","ping":57},{"user_id":255,"name":"EagleEye2000","steam_id":76561198233776704,"connected_time":1447000000000,"state":"active","ping":66},{"user_id":268,"name":"Lemur","steam_id":76561198065300466,"connected_time":319000000000,"state":"active","ping":79},{"user_id":218,"name":"java","steam_id":76561198030276792,"connected_time":4175000000000,"state":"active","ping":70},{"user_id":251,"name":"Brendan","steam_id":76561198041079914,"connected_time":1483000000000,"state":"active","ping":74},{"user_id":240,"name":"Dr3gyn0","steam_id":76561199081910939,"connected_time":2488000000000,"state":"active","ping":63},{"user_id":261,"name":"JoeysMunchkin","steam_id":76561199058793029,"connected_time":1394000000000,"state":"active","ping":63},{"user_id":263,"name":"Preston","steam_id":76561198059794321,"connected_time":1381000000000,"state":"active","ping":72}]},{"server_id":38,"name":"Uncletopia | Chicago | 7 | No Payload","name_short":"chi-7","host":"chi-2.us.uncletopia.com","port":27035,"enabled":true,"region":"us-central","cc":"us","latitude":41.881832,"longitude":-87.62318,"reserved":0,"last_update":"0001-01-01T00:00:00Z","name_a2s":"Uncletopia | Chicago | 7 | No Payload","protocol":17,"map":"cp_vanguard","folder":"tf","game":"Team Fortress","app_id":440,"player_count":17,"max_players":24,"Bots":0,"server_type":"Dedicated","server_os":"Linux","password":true,"vac":true,"version":"7695204","steam_id":85568392924866364,"keywords":["cp","nocrits","nodmgspread","uncletopia"],"game_id":440,"stv_port":27036,"stv_name":"Uncletopia | Chicago | 7 | No Payload | STV","players":[{"user_id":105,"name":"Kanye","steam_id":76561199122755987,"connected_time":2404000000000,"state":"active","ping":90},{"user_id":71,"name":"TheAilingSword","steam_id":76561198250350844,"connected_time":5286000000000,"state":"active","ping":68},{"user_id":131,"name":"primordialheath","steam_id":76561199386942638,"connected_time":701000000000,"state":"active","ping":57},{"user_id":24,"name":"The Hamburger Helper","steam_id":76561199043015346,"connected_time":8188000000000,"state":"active","ping":61},{"user_id":25,"name":"pray tell. dost thou fart?","steam_id":76561198149666258,"connected_time":8179000000000,"state":"spawning","ping":266},{"user_id":133,"name":"Regi","steam_id":76561198271508598,"connected_time":662000000000,"state":"active","ping":47},{"user_id":119,"name":"totally not a pile of beans","steam_id":76561198119851931,"connected_time":1450000000000,"state":"active","ping":98},{"user_id":72,"name":"DarkForce8","steam_id":76561198853892261,"connected_time":5074000000000,"state":"active","ping":119},{"user_id":94,"name":"Alex Narex","steam_id":76561198814364412,"connected_time":2953000000000,"state":"active","ping":223},{"user_id":110,"name":"Splinto","steam_id":76561198111260488,"connected_time":2131000000000,"state":"active","ping":72},{"user_id":52,"name":"Azrazel","steam_id":76561198821691005,"connected_time":7055000000000,"state":"spawning","ping":324},{"user_id":77,"name":"The Convention","steam_id":76561198445006943,"connected_time":4754000000000,"state":"active","ping":80},{"user_id":73,"name":"Anarchy","steam_id":76561199062545363,"connected_time":5051000000000,"state":"active","ping":173},{"user_id":120,"name":"TheMadDoctor","steam_id":76561198846198407,"connected_time":1409000000000,"state":"spawning","ping":87},{"user_id":74,"name":"Retrowave","steam_id":76561198061921346,"connected_time":5039000000000,"state":"active","ping":62},{"user_id":130,"name":"Cog","steam_id":76561198106174067,"connected_time":822000000000,"state":"spawning","ping":75},{"user_id":132,"name":"Phos","steam_id":76561198122339506,"connected_time":684000000000,"state":"spawning","ping":64}]},{"server_id":39,"name":"Uncletopia | Chicago | 8 | Community","name_short":"chi-8","host":"chi-2.us.uncletopia.com","port":27045,"enabled":true,"region":"us-central","cc":"us","latitude":41.881832,"longitude":-87.62318,"reserved":0,"last_update":"0001-01-01T00:00:00Z","name_a2s":"Uncletopia | Chicago | 8 | Community","protocol":17,"map":"workshop/pl_vigil_rc9.ugc1266210012","folder":"tf","game":"Team Fortress","app_id":440,"player_count":0,"max_players":24,"Bots":0,"server_type":"Dedicated","server_os":"Linux","password":true,"vac":true,"version":"7695204","steam_id":85568392924866365,"keywords":["nocrits","nodmgspread","payload","uncletopia"],"game_id":440,"stv_port":27046,"stv_name":"Uncletopia | Chicago | 8 | Community | STV","players":null},{"server_id":8,"name":"Uncletopia | Dallas | 1 | All Maps","name_short":"dal-1","host":"dal-1.us.uncletopia.com","port":27015,"enabled":true,"region":"us-central","cc":"us","latitude":32.779167,"longitude":-96.80889,"reserved":0,"last_update":"0001-01-01T00:00:00Z","name_a2s":"Uncletopia | Dallas | 1 | All Maps","protocol":17,"map":"pl_frontier_final","folder":"tf","game":"Team Fortress","app_id":440,"player_count":24,"max_players":24,"Bots":0,"server_type":"Dedicated","server_os":"Linux","password":true,"vac":true,"version":"7695204","steam_id":85568392924469986,"keywords":["nocrits","nodmgspread","payload","uncletopia"],"game_id":440,"stv_port":27016,"stv_name":"Uncletopia | Dallas | 1 | All Maps | STV","players":[{"user_id":374,"name":"coal","steam_id":76561198027252280,"connected_time":7122000000000,"state":"active","ping":52},{"user_id":442,"name":"poey","steam_id":76561198865346767,"connected_time":1899000000000,"state":"active","ping":73},{"user_id":464,"name":"Glitch51","steam_id":76561198217050353,"connected_time":581000000000,"state":"active","ping":82},{"user_id":466,"name":"Nyyrikki","steam_id":76561198093411560,"connected_time":498000000000,"state":"active","ping":86},{"user_id":388,"name":"Smiles","steam_id":76561198107197973,"connected_time":6092000000000,"state":"active","ping":105},{"user_id":469,"name":"Krow","steam_id":76561198010392099,"connected_time":206000000000,"state":"active","ping":56},{"user_id":445,"name":"Glitchy","steam_id":76561198037920420,"connected_time":1819000000000,"state":"active","ping":73},{"user_id":399,"name":"RYMAXRULES","steam_id":76561198841603682,"connected_time":5568000000000,"state":"active","ping":133},{"user_id":423,"name":"+","steam_id":76561198262422184,"connected_time":3790000000000,"state":"active","ping":56},{"user_id":457,"name":"Marc G","steam_id":76561198062650363,"connected_time":896000000000,"state":"active","ping":45},{"user_id":407,"name":"SpinnerSpecial","steam_id":76561198065661869,"connected_time":4835000000000,"state":"active","ping":97},{"user_id":389,"name":"Ascendance","steam_id":76561198065357068,"connected_time":6089000000000,"state":"active","ping":109},{"user_id":462,"name":"Cumbrain","steam_id":76561198157473216,"connected_time":618000000000,"state":"active","ping":85},{"user_id":455,"name":"Fighting Spirit","steam_id":76561198024192155,"connected_time":1469000000000,"state":"active","ping":48},{"user_id":431,"name":"plink","steam_id":76561198057829889,"connected_time":2890000000000,"state":"active","ping":60},{"user_id":461,"name":"kermitcreeper(ZAZA)","steam_id":76561199222829972,"connected_time":747000000000,"state":"active","ping":60},{"user_id":470,"name":"Pasta","steam_id":76561198170042173,"connected_time":127000000000,"state":"active","ping":83},{"user_id":472,"name":"Kenpachi","steam_id":76561198803824764,"connected_time":97000000000,"state":"active","ping":119},{"user_id":436,"name":"Quantum Sauce","steam_id":76561198164034337,"connected_time":2422000000000,"state":"active","ping":53},{"user_id":467,"name":"Imrgrim","steam_id":76561198135866481,"connected_time":380000000000,"state":"active","ping":68},{"user_id":458,"name":"SHADOW","steam_id":76561198207768148,"connected_time":885000000000,"state":"active","ping":97},{"user_id":381,"name":"Van Tastic","steam_id":76561198063855523,"connected_time":6629000000000,"state":"active","ping":45},{"user_id":459,"name":"JDizzle","steam_id":76561199122696841,"connected_time":855000000000,"state":"active","ping":79}]},{"server_id":108,"name":"Uncletopia | Dallas | 2 | All Maps","name_short":"dal-2","host":"dal-1.us.uncletopia.com","port":27025,"enabled":true,"region":"us-central","cc":"us","latitude":32.779167,"longitude":-96.80889,"reserved":0,"last_update":"0001-01-01T00:00:00Z","name_a2s":"Uncletopia | Dallas | 2 | All Maps","protocol":17,"map":"pl_goldrush","folder":"tf","game":"Team Fortress","app_id":440,"player_count":24,"max_players":24,"Bots":0,"server_type":"Dedicated","server_os":"Linux","password":true,"vac":true,"version":"7695204","steam_id":85568392924469988,"keywords":["nocrits","nodmgspread","payload","uncletopia"],"game_id":440,"stv_port":27026,"stv_name":"Uncletopia | Dallas | 2 | All Maps | STV","players":[{"user_id":385,"name":"CodeRedDev","steam_id":76561198179982494,"connected_time":2074000000000,"state":"active","ping":38},{"user_id":386,"name":"Giorno_Giovanna","steam_id":76561199014402406,"connected_time":2070000000000,"state":"active","ping":135},{"user_id":392,"name":"SPOON MAN","steam_id":76561199028500370,"connected_time":1653000000000,"state":"active","ping":92},{"user_id":376,"name":"Artillerymanüí£","steam_id":76561198103503066,"connected_time":2469000000000,"state":"active","ping":85},{"user_id":400,"name":"Dr. Karl, the AUS Science Guy","steam_id":76561198031278747,"connected_time":487000000000,"state":"active","ping":95},{"user_id":394,"name":"‚ñ≥","steam_id":76561198060642242,"connected_time":1555000000000,"state":"active","ping":78},{"user_id":398,"name":"Mani","steam_id":76561198139428711,"connected_time":862000000000,"state":"active","ping":46},{"user_id":396,"name":"ccat","steam_id":76561198281773224,"connected_time":951000000000,"state":"active","ping":67},{"user_id":378,"name":"Nightmare","steam_id":76561198094127235,"connected_time":2253000000000,"state":"active","ping":103},{"user_id":379,"name":"∆û√∏œÑ_«ù…Ø","steam_id":76561199063941100,"connected_time":2222000000000,"state":"active","ping":141},{"user_id":362,"name":"weed woman (smokes weed)","steam_id":76561198036901822,"connected_time":2898000000000,"state":"active","ping":46},{"user_id":352,"name":"Dripless The Poor","steam_id":76561198090546454,"connected_time":4401000000000,"state":"active","ping":77},{"user_id":365,"name":"crommy","steam_id":76561198120461656,"connected_time":2789000000000,"state":"active","ping":82},{"user_id":381,"name":"Seaplane","steam_id":76561198147243498,"connected_time":2161000000000,"state":"active","ping":79},{"user_id":395,"name":"Reclipser","steam_id":76561198093697554,"connected_time":1049000000000,"state":"active","ping":64},{"user_id":368,"name":"seceretgaming","steam_id":76561199112096028,"connected_time":2675000000000,"state":"active","ping":73},{"user_id":401,"name":"Sad Sapling","steam_id":76561198075612150,"connected_time":481000000000,"state":"active","ping":86},{"user_id":388,"name":"Blippy","steam_id":76561198225904600,"connected_time":2025000000000,"state":"active","ping":62},{"user_id":397,"name":"jimmy hat","steam_id":76561198046632405,"connected_time":939000000000,"state":"active","ping":61},{"user_id":402,"name":"AnnieTheBeast3301","steam_id":76561199229781001,"connected_time":427000000000,"state":"active","ping":124},{"user_id":382,"name":"realoowl","steam_id":76561199181610147,"connected_time":2159000000000,"state":"active","ping":149},{"user_id":403,"name":"Sporp","steam_id":76561197987957133,"connected_time":280000000000,"state":"active","ping":95},{"user_id":374,"name":"snugthebug","steam_id":76561198030964222,"connected_time":2596000000000,"state":"active","ping":89},{"user_id":404,"name":"belle","steam_id":76561198353809292,"connected_time":207000000000,"state":"active","ping":90}]},{"server_id":5,"name":"Uncletopia | Frankfurt | 1 | All Maps","name_short":"frk-1","host":"frk-1.de.uncletopia.com","port":27015,"enabled":true,"region":"eu","cc":"de","latitude":50.110924,"longitude":8.682127,"reserved":0,"last_update":"0001-01-01T00:00:00Z","name_a2s":"Uncletopia | Frankfurt | 1 | All Maps","protocol":17,"map":"koth_viaduct","folder":"tf","game":"Team Fortress","app_id":440,"player_count":0,"max_players":24,"Bots":0,"server_type":"Dedicated","server_os":"Linux","password":true,"vac":true,"version":"7695204","steam_id":85568392924469989,"keywords":["cp","nocrits","nodmgspread","uncletopia"],"game_id":440,"stv_port":0,"stv_name":"","players":null},{"server_id":110,"name":"Uncletopia | Frankfurt | 2 | All Maps","name_short":"frk-2","host":"frk-1.de.uncletopia.com","port":27025,"enabled":true,"region":"eu","cc":"de","latitude":50.110924,"longitude":8.682127,"reserved":0,"last_update":"0001-01-01T00:00:00Z","name_a2s":"Uncletopia | Frankfurt | 2 | All Maps","protocol":17,"map":"cp_altitude","folder":"tf","game":"Team Fortress","app_id":440,"player_count":0,"max_players":24,"Bots":0,"server_type":"Dedicated","server_os":"Linux","password":true,"vac":true,"version":"7695204","steam_id":85568392924469990,"keywords":["cp","nocrits","nodmgspread","uncletopia"],"game_id":440,"stv_port":0,"stv_name":"","players":null},{"server_id":308,"name":"Uncletopia | Frankfurt | 3 | All Maps","name_short":"frk-3","host":"frk-1.de.uncletopia.com","port":27035,"enabled":true,"region":"eu","cc":"de","latitude":50.110924,"longitude":8.682127,"reserved":0,"last_update":"0001-01-01T00:00:00Z","name_a2s":"Uncletopia | Frankfurt | 3 | All Maps","protocol":17,"map":"pl_badwater","folder":"tf","game":"Team Fortress","app_id":440,"player_count":0,"max_players":24,"Bots":0,"server_type":"Dedicated","server_os":"Linux","password":true,"vac":true,"version":"7695204","steam_id":85568392924504274,"keywords":["nocrits","nodmgspread","payload","uncletopia"],"game_id":440,"stv_port":0,"stv_name":"","players":null},{"server_id":309,"name":"Uncletopia | Frankfurt | 4 | All Maps","name_short":"frk-4","host":"frk-1.de.uncletopia.com","port":27045,"enabled":true,"region":"eu","cc":"de","latitude":50.110924,"longitude":8.682127,"reserved":0,"last_update":"0001-01-01T00:00:00Z","name_a2s":"Uncletopia | Frankfurt | 4 | All Maps","protocol":17,"map":"koth_highpass","folder":"tf","game":"Team Fortress","app_id":440,"player_count":0,"max_players":24,"Bots":0,"server_type":"Dedicated","server_os":"Linux","password":true,"vac":true,"version":"7695204","steam_id":85568392924504275,"keywords":["cp","nocrits","nodmgspread","uncletopia"],"game_id":440,"stv_port":0,"stv_name":"","players":null},{"server_id":310,"name":"Uncletopia | Frankfurt | 5 | All Maps","name_short":"frk-5","host":"frk-1.de.uncletopia.com","port":27055,"enabled":true,"region":"eu","cc":"de","latitude":50.110924,"longitude":8.682127,"reserved":0,"last_update":"0001-01-01T00:00:00Z","name_a2s":"Uncletopia | Frankfurt | 5 | All Maps","protocol":17,"map":"pl_pier","folder":"tf","game":"Team Fortress","app_id":440,"player_count":0,"max_players":24,"Bots":0,"server_type":"Dedicated","server_os":"Linux","password":true,"vac":true,"version":"7695204","steam_id":85568392924504277,"keywords":["nocrits","nodmgspread","payload","uncletopia"],"game_id":440,"stv_port":0,"stv_name":"","players":null},{"server_id":311,"name":"Uncletopia | Frankfurt | 6 | All Maps","name_short":"frk-6","host":"frk-1.de.uncletopia.com","port":27065,"enabled":true,"region":"eu","cc":"de","latitude":50.110924,"longitude":8.682127,"reserved":0,"last_update":"0001-01-01T00:00:00Z","name_a2s":"Uncletopia | Frankfurt | 6 | All Maps","protocol":17,"map":"pl_barnblitz","folder":"tf","game":"Team Fortress","app_id":440,"player_count":0,"max_players":24,"Bots":0,"server_type":"Dedicated","server_os":"Linux","password":true,"vac":true,"version":"7695204","steam_id":85568392924504278,"keywords":["nocrits","nodmgspread","payload","uncletopia"],"game_id":440,"stv_port":0,"stv_name":"","players":null},{"server_id":23,"name":"Uncletopia | Frankfurt | 7 | No Payload","name_short":"frk-7","host":"frk-1.de.uncletopia.com","port":27075,"enabled":true,"region":"eu","cc":"de","latitude":50.110924,"longitude":8.682127,"reserved":0,"last_update":"0001-01-01T00:00:00Z","name_a2s":"Uncletopia | Frankfurt | 7 | No Payload","protocol":17,"map":"pl_snowycoast","folder":"tf","game":"Team Fortress","app_id":440,"player_count":0,"max_players":24,"Bots":0,"server_type":"Dedicated","server_os":"Linux","password":true,"vac":true,"version":"7695204","steam_id":85568392924742827,"keywords":["nocrits","nodmgspread","payload","uncletopia"],"game_id":440,"stv_port":0,"stv_name":"","players":null},{"server_id":24,"name":"Uncletopia | Frankfurt | 8 | Community","name_short":"frk-8","host":"frk-1.de.uncletopia.com","port":27085,"enabled":true,"region":"eu","cc":"de","latitude":50.110924,"longitude":8.682127,"reserved":0,"last_update":"0001-01-01T00:00:00Z","name_a2s":"Uncletopia | Frankfurt | 8 | Community","protocol":17,"map":"koth_lakeside_final","folder":"tf","game":"Team Fortress","app_id":440,"player_count":0,"max_players":24,"Bots":0,"server_type":"Dedicated","server_os":"Linux","password":true,"vac":true,"version":"7695204","steam_id":85568392924742828,"keywords":["cp","nocrits","nodmgspread","uncletopia"],"game_id":440,"stv_port":0,"stv_name":"","players":null},{"server_id":202,"name":"Uncletopia | Hong Kong | 1 | All Maps","name_short":"hgk-1","host":"hgk-1.hk.uncletopia.com","port":27015,"enabled":true,"region":"asia","cc":"hk","latitude":22.302711,"longitude":114.177216,"reserved":0,"last_update":"0001-01-01T00:00:00Z","name_a2s":"Uncletopia | Hong Kong | 1 | All Maps","protocol":17,"map":"pl_pier","folder":"tf","game":"Team Fortress","app_id":440,"player_count":24,"max_players":24,"Bots":0,"server_type":"Dedicated","server_os":"Linux","password":true,"vac":true,"version":"7695204","steam_id":85568392924494504,"keywords":["nocrits","nodmgspread","payload","uncletopia"],"game_id":440,"stv_port":27016,"stv_name":"Uncletopia | Hong Kong | 1 | All Maps | STV","players":[{"user_id":216,"name":"Degenerate With Standards!!!!!","steam_id":76561199174449723,"connected_time":121000000000,"state":"active","ping":75},{"user_id":156,"name":"TW Grenade","steam_id":76561198027659491,"connected_time":3194000000000,"state":"active","ping":60},{"user_id":189,"name":"Penginzzz","steam_id":76561199215850274,"connected_time":1476000000000,"state":"active","ping":65},{"user_id":190,"name":"Kiyomi","steam_id":76561198240627872,"connected_time":1454000000000,"state":"spawning","ping":62},{"user_id":142,"name":"Not So Balanced","steam_id":76561199404958139,"connected_time":4170000000000,"state":"active","ping":129},{"user_id":213,"name":"Blingus","steam_id":76561199246724374,"connected_time":298000000000,"state":"active","ping":69},{"user_id":191,"name":"2232","steam_id":76561198074339034,"connected_time":1441000000000,"state":"active","ping":69},{"user_id":178,"name":"elijahkamfuentes2008","steam_id":76561199227862824,"connected_time":1679000000000,"state":"active","ping":97},{"user_id":180,"name":"Martin Morether King Jr","steam_id":76561198845978746,"connected_time":1631000000000,"state":"active","ping":96},{"user_id":206,"name":"‚≠êA Random Guy „ÉÑ","steam_id":76561199076452888,"connected_time":671000000000,"state":"active","ping":76},{"user_id":215,"name":"doggybile","steam_id":76561199235409252,"connected_time":199000000000,"state":"active","ping":51},{"user_id":217,"name":"private louis","steam_id":76561199426995173,"connected_time":27000000000,"state":"active","ping":88},{"user_id":218,"name":"godhood","steam_id":76561198412329672,"connected_time":15000000000,"state":"spawning","ping":89},{"user_id":194,"name":"MS PowerPoint","steam_id":76561198369523192,"connected_time":1290000000000,"state":"spawning","ping":80},{"user_id":199,"name":"timmy.1366","steam_id":76561199065433547,"connected_time":1042000000000,"state":"active","ping":76},{"user_id":196,"name":"i legit own asia","steam_id":76561199126124270,"connected_time":1261000000000,"state":"active","ping":92},{"user_id":204,"name":"‡∏∏","steam_id":76561198130085148,"connected_time":866000000000,"state":"active","ping":78},{"user_id":203,"name":"THE_BREAD0122","steam_id":76561199079101573,"connected_time":923000000000,"state":"active","ping":73},{"user_id":207,"name":"solo","steam_id":76561199221433871,"connected_time":635000000000,"state":"active","ping":103},{"user_id":202,"name":"Level 2 sentry","steam_id":76561198979802944,"connected_time":965000000000,"state":"active","ping":76},{"user_id":208,"name":"gibus gaming (f2p)","steam_id":76561199044282228,"connected_time":536000000000,"state":"active","ping":73},{"user_id":209,"name":"ÁÖôÊµ∑ | Enkai","steam_id":76561198050460825,"connected_time":492000000000,"state":"active","ping":81},{"user_id":210,"name":"brizzard","steam_id":76561198048438653,"connected_time":491000000000,"state":"active","ping":50},{"user_id":219,"name":"…îu·ó°‡∂û …ü∆®u·íê","steam_id":76561199031283970,"connected_time":5000000000,"state":"spawning","ping":87}]},{"server_id":1,"name":"Uncletopia | Los Angeles | 1 | All Maps","name_short":"lax-1","host":"lax-1.us.uncletopia.com","port":27015,"enabled":true,"region":"us-west","cc":"us","latitude":33.94279,"longitude":-118.41004,"reserved":0,"last_update":"0001-01-01T00:00:00Z","name_a2s":"Uncletopia | Los Angeles | 1 | All Maps","protocol":17,"map":"pl_goldrush","folder":"tf","game":"Team Fortress","app_id":440,"player_count":25,"max_players":24,"Bots":0,"server_type":"Dedicated","server_os":"Linux","password":true,"vac":true,"version":"7695204","steam_id":85568392924469991,"keywords":["nocrits","nodmgspread","payload","uncletopia"],"game_id":440,"stv_port":27016,"stv_name":"Uncletopia | Los Angeles | 1 | All Maps | STV","players":[{"user_id":153,"name":"Festive Pybro","steam_id":76561198203013246,"connected_time":1558000000000,"state":"active","ping":73},{"user_id":119,"name":"Wirt","steam_id":76561198272327629,"connected_time":4514000000000,"state":"active","ping":57},{"user_id":164,"name":"Nugakku","steam_id":76561198082346219,"connected_time":582000000000,"state":"active","ping":53},{"user_id":167,"name":"‚ôï6'5\"‚ôï","steam_id":76561198094027709,"connected_time":20000000000,"state":"active","ping":114},{"user_id":94,"name":"Mao Zedong","steam_id":76561199156131540,"connected_time":5391000000000,"state":"active","ping":130},{"user_id":156,"name":"KingTinkerer","steam_id":76561198226856548,"connected_time":1455000000000,"state":"active","ping":110},{"user_id":152,"name":"Skadoosh","steam_id":76561198144771234,"connected_time":1564000000000,"state":"active","ping":45},{"user_id":165,"name":"Woshingo","steam_id":76561199164819248,"connected_time":572000000000,"state":"active","ping":47},{"user_id":138,"name":"Weakest Uncletopia Demo","steam_id":76561198236109724,"connected_time":3223000000000,"state":"active","ping":47},{"user_id":130,"name":"dewey","steam_id":76561198132791511,"connected_time":4093000000000,"state":"active","ping":51},{"user_id":154,"name":"T√ºCold","steam_id":76561198111278197,"connected_time":1556000000000,"state":"active","ping":61},{"user_id":166,"name":"Yorai20XX","steam_id":76561198082235591,"connected_time":37000000000,"state":"active","ping":53},{"user_id":145,"name":"kronk","steam_id":76561198054623686,"connected_time":2105000000000,"state":"active","ping":53},{"user_id":168,"name":"Baxton","steam_id":76561198121700542,"connected_time":5000000000,"state":"spawning","ping":52},{"user_id":73,"name":"Furious George","steam_id":76561198405111646,"connected_time":6208000000000,"state":"active","ping":51},{"user_id":103,"name":"HAT-WEARING‚Ñ¢ Maggot Gamer Cat","steam_id":76561197973992705,"connected_time":5103000000000,"state":"active","ping":50},{"user_id":139,"name":"Aspect1","steam_id":76561199006943927,"connected_time":3075000000000,"state":"active","ping":45},{"user_id":134,"name":"walrooos ‚úø","steam_id":76561198024521839,"connected_time":3723000000000,"state":"active","ping":46},{"user_id":140,"name":"UncoolBandit","steam_id":76561199228133164,"connected_time":2743000000000,"state":"spawning","ping":58},{"user_id":118,"name":"Jaded","steam_id":76561198272575611,"connected_time":4534000000000,"state":"active","ping":85},{"user_id":143,"name":"Adlai130s","steam_id":76561198571410221,"connected_time":2538000000000,"state":"active","ping":51},{"user_id":169,"name":"For Whom The Taco Bell Tolls","steam_id":76561198418288939,"connected_time":4000000000,"state":"spawning","ping":70},{"user_id":83,"name":"flo rida","steam_id":76561198226169704,"connected_time":5930000000000,"state":"active","ping":62},{"user_id":170,"name":"An00bis","steam_id":76561198044084508,"connected_time":2000000000,"state":"spawning","ping":55},{"user_id":163,"name":"The Caretaker","steam_id":76561198125241411,"connected_time":840000000000,"state":"active","ping":106}]},{"server_id":112,"name":"Uncletopia | Los Angeles | 2 | All Maps","name_short":"lax-2","host":"lax-1.us.uncletopia.com","port":27025,"enabled":true,"region":"us-west","cc":"us","latitude":33.94279,"longitude":-118.41004,"reserved":0,"last_update":"0001-01-01T00:00:00Z","name_a2s":"Uncletopia | Los Angeles | 2 | All Maps","protocol":17,"map":"pl_badwater","folder":"tf","game":"Team Fortress","app_id":440,"player_count":0,"max_players":24,"Bots":0,"server_type":"Dedicated","server_os":"Linux","password":true,"vac":true,"version":"7695204","steam_id":85568392924469992,"keywords":["nocrits","nodmgspread","payload","uncletopia"],"game_id":440,"stv_port":27026,"stv_name":"Uncletopia | Los Angeles | 2 | All Maps | STV","players":null},{"server_id":324,"name":"Uncletopia | Los Angeles | 3 | All Maps","name_short":"lax-3","host":"lax-1.us.uncletopia.com","port":27035,"enabled":true,"region":"us-west","cc":"us","latitude":33.94279,"longitude":-118.41004,"reserved":0,"last_update":"0001-01-01T00:00:00Z","name_a2s":"Uncletopia | Los Angeles | 3 | All Maps","protocol":17,"map":"koth_cascade","folder":"tf","game":"Team Fortress","app_id":440,"player_count":0,"max_players":24,"Bots":0,"server_type":"Dedicated","server_os":"Linux","password":true,"vac":true,"version":"7695204","steam_id":85568392924510198,"keywords":["cp","nocrits","nodmgspread","uncletopia"],"game_id":440,"stv_port":27036,"stv_name":"Uncletopia | Los Angeles | 3 | All Maps | STV","players":null},{"server_id":25,"name":"Uncletopia | Los Angeles | 4 | No Payload","name_short":"lax-4","host":"lax-1.us.uncletopia.com","port":27045,"enabled":true,"region":"us-west","cc":"us","latitude":33.94279,"longitude":-118.41004,"reserved":0,"last_update":"0001-01-01T00:00:00Z","name_a2s":"Uncletopia | Los Angeles | 4 | No Payload","protocol":17,"map":"cp_process_final","folder":"tf","game":"Team Fortress","app_id":440,"player_count":0,"max_players":24,"Bots":0,"server_type":"Dedicated","server_os":"Linux","password":true,"vac":true,"version":"7695204","steam_id":85568392924510199,"keywords":["cp","nocrits","nodmgspread","uncletopia"],"game_id":440,"stv_port":27046,"stv_name":"Uncletopia | Los Angeles | 4 | No Payload | STV","players":null},{"server_id":11,"name":"Uncletopia | London | 1 | All Maps","name_short":"lon-1","host":"lon-1.uk.uncletopia.com","port":27015,"enabled":true,"region":"eu","cc":"gb","latitude":51.509865,"longitude":-0.118092,"reserved":0,"last_update":"0001-01-01T00:00:00Z","name_a2s":"Uncletopia | London | 1 | All Maps","protocol":17,"map":"cp_altitude","folder":"tf","game":"Team Fortress","app_id":440,"player_count":0,"max_players":24,"Bots":0,"server_type":"Dedicated","server_os":"Linux","password":true,"vac":true,"version":"7695204","steam_id":85568392924367362,"keywords":["cp","nocrits","nodmgspread","uncletopia"],"game_id":440,"stv_port":27016,"stv_name":"Uncletopia | London | 1 | All Maps | STV","players":null},{"server_id":114,"name":"Uncletopia | London | 2 | All Maps","name_short":"lon-2","host":"lon-1.uk.uncletopia.com","port":27025,"enabled":true,"region":"eu","cc":"gb","latitude":51.509865,"longitude":-0.118092,"reserved":0,"last_update":"0001-01-01T00:00:00Z","name_a2s":"Uncletopia | London | 2 | All Maps","protocol":17,"map":"koth_viaduct","folder":"tf","game":"Team Fortress","app_id":440,"player_count":0,"max_players":24,"Bots":0,"server_type":"Dedicated","server_os":"Linux","password":true,"vac":true,"version":"7695204","steam_id":85568392924470941,"keywords":["cp","nocrits","nodmgspread","uncletopia"],"game_id":440,"stv_port":27026,"stv_name":"Uncletopia | London | 2 | All Maps | STV","players":null},{"server_id":320,"name":"Uncletopia | London | 3 | All Maps","name_short":"lon-3","host":"lon-1.uk.uncletopia.com","port":27035,"enabled":true,"region":"eu","cc":"gb","latitude":51.509865,"longitude":-0.118092,"reserved":0,"last_update":"0001-01-01T00:00:00Z","name_a2s":"Uncletopia | London | 3 | All Maps","protocol":17,"map":"koth_cascade","folder":"tf","game":"Team Fortress","app_id":440,"player_count":0,"max_players":24,"Bots":0,"server_type":"Dedicated","server_os":"Linux","password":true,"vac":true,"version":"7695204","steam_id":85568392924510192,"keywords":["cp","nocrits","nodmgspread","uncletopia"],"game_id":440,"stv_port":27036,"stv_name":"Uncletopia | London | 3 | All Maps | STV","players":null},{"server_id":321,"name":"Uncletopia | London | 4 | All Maps","name_short":"lon-4","host":"lon-1.uk.uncletopia.com","port":27045,"enabled":true,"region":"eu","cc":"gb","latitude":51.509865,"longitude":-0.118092,"reserved":0,"last_update":"0001-01-01T00:00:00Z","name_a2s":"Uncletopia | London | 4 | All Maps","protocol":17,"map":"koth_cascade","folder":"tf","game":"Team Fortress","app_id":440,"player_count":0,"max_players":24,"Bots":0,"server_type":"Dedicated","server_os":"Linux","password":true,"vac":true,"version":"7695204","steam_id":85568392924510193,"keywords":["cp","nocrits","nodmgspread","uncletopia"],"game_id":440,"stv_port":27046,"stv_name":"Uncletopia | London | 4 | All Maps | STV","players":null},{"server_id":21,"name":"Uncletopia | London | 5 | All Maps","name_short":"lon-5","host":"lon-1.uk.uncletopia.com","port":27055,"enabled":true,"region":"eu","cc":"gb","latitude":51.509865,"longitude":-0.118092,"reserved":0,"last_update":"0001-01-01T00:00:00Z","name_a2s":"Uncletopia | London | 5 | All Maps","protocol":17,"map":"koth_cascade","folder":"tf","game":"Team Fortress","app_id":440,"player_count":0,"max_players":24,"Bots":0,"server_type":"Dedicated","server_os":"Linux","password":true,"vac":true,"version":"7695204","steam_id":85568392924742829,"keywords":["cp","nocrits","nodmgspread","uncletopia"],"game_id":440,"stv_port":0,"stv_name":"","players":null},{"server_id":22,"name":"Uncletopia | London | 6 | All Maps","name_short":"lon-6","host":"lon-1.uk.uncletopia.com","port":27065,"enabled":true,"region":"eu","cc":"gb","latitude":51.509865,"longitude":-0.118092,"reserved":0,"last_update":"0001-01-01T00:00:00Z","name_a2s":"Uncletopia | London | 6 | All Maps","protocol":17,"map":"plr_bananabay","folder":"tf","game":"Team Fortress","app_id":440,"player_count":0,"max_players":24,"Bots":0,"server_type":"Dedicated","server_os":"Linux","password":true,"vac":true,"version":"7695204","steam_id":85568392924742830,"keywords":["nocrits","nodmgspread","payload","uncletopia"],"game_id":440,"stv_port":27066,"stv_name":"Uncletopia | London | 6 | All Maps | STV","players":null},{"server_id":40,"name":"Uncletopia | London | 7 | No Payload","name_short":"lon-7","host":"lon-1.uk.uncletopia.com","port":27075,"enabled":true,"region":"eu","cc":"gb","latitude":51.509865,"longitude":-0.118092,"reserved":0,"last_update":"0001-01-01T00:00:00Z","name_a2s":"Uncletopia | London | 7 | No Payload","protocol":17,"map":"koth_sawmill","folder":"tf","game":"Team Fortress","app_id":440,"player_count":0,"max_players":24,"Bots":0,"server_type":"Dedicated","server_os":"Linux","password":true,"vac":true,"version":"7695204","steam_id":85568392924964314,"keywords":["cp","nocrits","nodmgspread","uncletopia"],"game_id":440,"stv_port":27076,"stv_name":"Uncletopia | London | 7 | No Payload | STV","players":null},{"server_id":41,"name":"Uncletopia | London | 8 | Community","name_short":"lon-8","host":"lon-1.uk.uncletopia.com","port":27085,"enabled":true,"region":"eu","cc":"gb","latitude":51.509865,"longitude":-0.118092,"reserved":0,"last_update":"0001-01-01T00:00:00Z","name_a2s":"Uncletopia | London | 8 | Community","protocol":17,"map":"cp_dustbowl","folder":"tf","game":"Team Fortress","app_id":440,"player_count":0,"max_players":24,"Bots":0,"server_type":"Dedicated","server_os":"Linux","password":true,"vac":true,"version":"7695204","steam_id":85568392924964315,"keywords":["cp","nocrits","nodmgspread","uncletopia"],"game_id":440,"stv_port":0,"stv_name":"","players":null},{"server_id":300,"name":"Uncletopia | Montr√©al | 1 | All Maps","name_short":"mtl-1","host":"mtl-1.ca.uncletopia.com","port":27015,"enabled":true,"region":"us-east","cc":"ca","latitude":45.50889,"longitude":-73.56167,"reserved":0,"last_update":"0001-01-01T00:00:00Z","name_a2s":"Uncletopia | Montr√©al | 1 | All Maps","protocol":17,"map":"koth_highpass","folder":"tf","game":"Team Fortress","app_id":440,"player_count":0,"max_players":24,"Bots":0,"server_type":"Dedicated","server_os":"Linux","password":true,"vac":true,"version":"7695204","steam_id":85568392924500087,"keywords":["cp","nocrits","nodmgspread","uncletopia"],"game_id":440,"stv_port":27016,"stv_name":"Uncletopia | Montr√©al | 1 | All Maps | STV","players":null},{"server_id":301,"name":"Uncletopia | Montr√©al | 2 | All Maps","name_short":"mtl-2","host":"mtl-1.ca.uncletopia.com","port":27025,"enabled":true,"region":"us-east","cc":"ca","latitude":45.50889,"longitude":-73.56167,"reserved":0,"last_update":"0001-01-01T00:00:00Z","name_a2s":"Uncletopia | Montr√©al | 2 | All Maps","protocol":17,"map":"koth_lakeside_final","folder":"tf","game":"Team Fortress","app_id":440,"player_count":0,"max_players":24,"Bots":0,"server_type":"Dedicated","server_os":"Linux","password":true,"vac":true,"version":"7695204","steam_id":85568392924500088,"keywords":["cp","nocrits","nodmgspread","uncletopia"],"game_id":440,"stv_port":27026,"stv_name":"Uncletopia | Montr√©al | 2 | All Maps | STV","players":null},{"server_id":302,"name":"Uncletopia | Montr√©al | 3 | All Maps","name_short":"mtl-3","host":"mtl-1.ca.uncletopia.com","port":27035,"enabled":true,"region":"us-east","cc":"ca","latitude":45.50889,"longitude":-73.56167,"reserved":0,"last_update":"0001-01-01T00:00:00Z","name_a2s":"Uncletopia | Montr√©al | 3 | All Maps","protocol":17,"map":"koth_viaduct","folder":"tf","game":"Team Fortress","app_id":440,"player_count":0,"max_players":24,"Bots":0,"server_type":"Dedicated","server_os":"Linux","password":true,"vac":true,"version":"7695204","steam_id":85568392924500089,"keywords":["cp","nocrits","nodmgspread","uncletopia"],"game_id":440,"stv_port":0,"stv_name":"","players":null},{"server_id":303,"name":"Uncletopia | Montr√©al | 4 | No Payload","name_short":"mtl-4","host":"mtl-1.ca.uncletopia.com","port":27045,"enabled":true,"region":"us-east","cc":"ca","latitude":45.50889,"longitude":-73.56167,"reserved":0,"last_update":"0001-01-01T00:00:00Z","name_a2s":"Uncletopia | Montr√©al | 4 | No Payload","protocol":17,"map":"cp_standin_final","folder":"tf","game":"Team Fortress","app_id":440,"player_count":0,"max_players":24,"Bots":0,"server_type":"Dedicated","server_os":"Linux","password":true,"vac":true,"version":"7695204","steam_id":85568392924500090,"keywords":["cp","nocrits","nodmgspread","uncletopia"],"game_id":440,"stv_port":27046,"stv_name":"Uncletopia | Montr√©al | 4 | No Payload | STV","players":null},{"server_id":13,"name":"Uncletopia | New York City | 1 | All Maps","name_short":"nyc-1","host":"nyc-1.us.uncletopia.com","port":27015,"enabled":true,"region":"us-east","cc":"us","latitude":40.73061,"longitude":-73.93524,"reserved":0,"last_update":"0001-01-01T00:00:00Z","name_a2s":"Uncletopia | New York City | 1 | All Maps","protocol":17,"map":"cp_mountainlab","folder":"tf","game":"Team Fortress","app_id":440,"player_count":22,"max_players":24,"Bots":0,"server_type":"Dedicated","server_os":"Linux","password":true,"vac":true,"version":"7695204","steam_id":85568392924469993,"keywords":["cp","nocrits","nodmgspread","uncletopia"],"game_id":440,"stv_port":27016,"stv_name":"Uncletopia | New York City | 1 | All Maps | STV","players":[{"user_id":382,"name":"slowboygofast","steam_id":76561198004907943,"connected_time":5964000000000,"state":"active","ping":55},{"user_id":469,"name":"Kezner","steam_id":76561198993951071,"connected_time":586000000000,"state":"active","ping":43},{"user_id":463,"name":"Fish Fisherman","steam_id":76561198018656022,"connected_time":943000000000,"state":"active","ping":60},{"user_id":361,"name":"crupe","steam_id":76561198032582983,"connected_time":7128000000000,"state":"active","ping":59},{"user_id":442,"name":"KoolSurfDude","steam_id":76561198979809684,"connected_time":2133000000000,"state":"active","ping":54},{"user_id":471,"name":"Gorilla","steam_id":76561198214897880,"connected_time":292000000000,"state":"active","ping":44},{"user_id":454,"name":"Aldinach","steam_id":76561198079912615,"connected_time":1185000000000,"state":"active","ping":61},{"user_id":411,"name":"Chechens Spotted","steam_id":76561199028910893,"connected_time":3528000000000,"state":"active","ping":60},{"user_id":462,"name":"A Rope, for big pits","steam_id":76561198068044782,"connected_time":985000000000,"state":"active","ping":54},{"user_id":467,"name":"Sudo","steam_id":76561198123714026,"connected_time":844000000000,"state":"active","ping":125},{"user_id":465,"name":"FightyPNW","steam_id":76561198981808810,"connected_time":873000000000,"state":"active","ping":129},{"user_id":455,"name":"a zephyr","steam_id":76561198182506001,"connected_time":1060000000000,"state":"active","ping":46},{"user_id":459,"name":"Pomegranate88","steam_id":76561198056385456,"connected_time":1010000000000,"state":"active","ping":57},{"user_id":423,"name":"Minion Bob","steam_id":76561198023938170,"connected_time":2994000000000,"state":"active","ping":63},{"user_id":438,"name":"CounterCraft","steam_id":76561197994940522,"connected_time":2448000000000,"state":"active","ping":44},{"user_id":468,"name":"UNIT 220","steam_id":76561198042243497,"connected_time":786000000000,"state":"active","ping":66},{"user_id":456,"name":"LDM","steam_id":76561198843313898,"connected_time":1032000000000,"state":"active","ping":58},{"user_id":386,"name":"Bedell","steam_id":76561198124296450,"connected_time":5701000000000,"state":"active","ping":116},{"user_id":430,"name":"Universe Man","steam_id":76561197997710655,"connected_time":2811000000000,"state":"active","ping":81},{"user_id":461,"name":"ii-V-I","steam_id":76561198012114174,"connected_time":1004000000000,"state":"active","ping":52},{"user_id":435,"name":"Parth Makeo","steam_id":76561198002516581,"connected_time":2696000000000,"state":"active","ping":51},{"user_id":364,"name":"The Big Slap","steam_id":76561198046225968,"connected_time":6916000000000,"state":"active","ping":67}]},{"server_id":14,"name":"Uncletopia | New York City | 2 | All Maps","name_short":"nyc-2","host":"nyc-1.us.uncletopia.com","port":27025,"enabled":true,"region":"us-east","cc":"us","latitude":40.73061,"longitude":-73.93524,"reserved":0,"last_update":"0001-01-01T00:00:00Z","name_a2s":"Uncletopia | New York City | 2 | All Maps","protocol":17,"map":"pl_swiftwater_final1","folder":"tf","game":"Team Fortress","app_id":440,"player_count":24,"max_players":24,"Bots":0,"server_type":"Dedicated","server_os":"Linux","password":true,"vac":true,"version":"7695204","steam_id":85568392924469994,"keywords":["nocrits","nodmgspread","payload","uncletopia"],"game_id":440,"stv_port":27026,"stv_name":"Uncletopia | New York City | 2 | All Maps | STV","players":[{"user_id":503,"name":"Dancing Nuggets","steam_id":76561198307986253,"connected_time":35000000000,"state":"active","ping":70},{"user_id":470,"name":"jamey431","steam_id":76561198076043961,"connected_time":2803000000000,"state":"active","ping":129},{"user_id":450,"name":"Jimmy","steam_id":76561197970838363,"connected_time":4301000000000,"state":"active","ping":75},{"user_id":504,"name":"tame","steam_id":76561198925005855,"connected_time":19000000000,"state":"spawning","ping":179},{"user_id":471,"name":"Thirsty Boy","steam_id":76561198047908972,"connected_time":2795000000000,"state":"active","ping":71},{"user_id":497,"name":"Grahf, the seeker of power","steam_id":76561198132031026,"connected_time":517000000000,"state":"active","ping":56},{"user_id":446,"name":"CrunchCisco","steam_id":76561199162724832,"connected_time":4693000000000,"state":"active","ping":90},{"user_id":477,"name":"The Fortress From Team Fortress","steam_id":76561198081422503,"connected_time":1659000000000,"state":"active","ping":86},{"user_id":502,"name":"Epi","steam_id":76561198041175008,"connected_time":102000000000,"state":"active","ping":147},{"user_id":496,"name":"joyboy","steam_id":76561198116908911,"connected_time":527000000000,"state":"active","ping":50},{"user_id":494,"name":"Wario Smoking Weed (real)","steam_id":76561198056175175,"connected_time":730000000000,"state":"active","ping":121},{"user_id":463,"name":"Erwin","steam_id":76561198149011751,"connected_time":3614000000000,"state":"active","ping":92},{"user_id":480,"name":"1ncel","steam_id":76561198950243192,"connected_time":1639000000000,"state":"active","ping":79},{"user_id":483,"name":"RyanDCB [Real]","steam_id":76561198040138739,"connected_time":1591000000000,"state":"active","ping":70},{"user_id":495,"name":"yaldabaoth","steam_id":76561198084606869,"connected_time":667000000000,"state":"active","ping":59},{"user_id":435,"name":"Mally","steam_id":76561198025013765,"connected_time":5241000000000,"state":"active","ping":78},{"user_id":481,"name":"Sputnix","steam_id":76561198236857310,"connected_time":1635000000000,"state":"active","ping":42},{"user_id":484,"name":"Turnabout","steam_id":76561198883325162,"connected_time":1584000000000,"state":"active","ping":50},{"user_id":488,"name":"Rein","steam_id":76561198300340427,"connected_time":1356000000000,"state":"active","ping":66},{"user_id":469,"name":"Sargeant","steam_id":76561198077066612,"connected_time":2843000000000,"state":"active","ping":126},{"user_id":486,"name":"rlty","steam_id":76561198009395055,"connected_time":1520000000000,"state":"active","ping":57},{"user_id":490,"name":"u/unhinged_person","steam_id":76561198085839920,"connected_time":1199000000000,"state":"active","ping":56},{"user_id":500,"name":"Draygin","steam_id":76561198060607137,"connected_time":435000000000,"state":"active","ping":36},{"user_id":501,"name":"iL","steam_id":76561198086331015,"connected_time":265000000000,"state":"active","ping":39}]},{"server_id":15,"name":"Uncletopia | New York City | 3 | All Maps","name_short":"nyc-3","host":"nyc-1.us.uncletopia.com","port":27035,"enabled":true,"region":"us-east","cc":"us","latitude":40.73061,"longitude":-73.93524,"reserved":0,"last_update":"0001-01-01T00:00:00Z","name_a2s":"Uncletopia | New York City | 3 | All Maps","protocol":17,"map":"cp_dustbowl","folder":"tf","game":"Team Fortress","app_id":440,"player_count":24,"max_players":24,"Bots":0,"server_type":"Dedicated","server_os":"Linux","password":true,"vac":true,"version":"7695204","steam_id":85568392924742820,"keywords":["cp","nocrits","nodmgspread","uncletopia"],"game_id":440,"stv_port":27036,"stv_name":"Uncletopia | New York City | 3 | All Maps | STV","players":[{"user_id":536,"name":"stuporvillian","steam_id":76561198083796225,"connected_time":951000000000,"state":"active","ping":69},{"user_id":529,"name":"aZn","steam_id":76561198035629877,"connected_time":2111000000000,"state":"active","ping":63},{"user_id":517,"name":"Miss Tuxie","steam_id":76561198088778979,"connected_time":2400000000000,"state":"active","ping":127},{"user_id":533,"name":"Remy the rat","steam_id":76561198080519558,"connected_time":1343000000000,"state":"active","ping":85},{"user_id":537,"name":"slayy","steam_id":76561197994492154,"connected_time":947000000000,"state":"active","ping":146},{"user_id":510,"name":"feurolant","steam_id":76561198050929765,"connected_time":3658000000000,"state":"active","ping":58},{"user_id":538,"name":"chilis baby back ribs","steam_id":76561198813516435,"connected_time":947000000000,"state":"active","ping":106},{"user_id":515,"name":"kiwionly","steam_id":76561198123896851,"connected_time":2587000000000,"state":"active","ping":95},{"user_id":521,"name":"Sean","steam_id":76561199367470003,"connected_time":2326000000000,"state":"active","ping":125},{"user_id":522,"name":"Lots0","steam_id":76561198043143145,"connected_time":2300000000000,"state":"active","ping":110},{"user_id":523,"name":"halls enthusiast [XJAY]","steam_id":76561198283669604,"connected_time":2291000000000,"state":"active","ping":66},{"user_id":491,"name":"aspartame enjoyer","steam_id":76561198117033273,"connected_time":4925000000000,"state":"active","ping":126},{"user_id":535,"name":"raphaim #bb","steam_id":76561198089649422,"connected_time":1317000000000,"state":"active","ping":119},{"user_id":468,"name":"Mickey","steam_id":76561197976868960,"connected_time":6341000000000,"state":"active","ping":138},{"user_id":469,"name":"tminator64","steam_id":76561197997576273,"connected_time":6340000000000,"state":"active","ping":50},{"user_id":470,"name":"the real babytron","steam_id":76561197989627918,"connected_time":6324000000000,"state":"active","ping":73},{"user_id":513,"name":"BBOSensei","steam_id":76561198071548190,"connected_time":2853000000000,"state":"active","ping":56},{"user_id":524,"name":"groond","steam_id":76561198309426720,"connected_time":2282000000000,"state":"active","ping":67},{"user_id":525,"name":"Salmon_Man","steam_id":76561198023769034,"connected_time":2282000000000,"state":"active","ping":52},{"user_id":541,"name":"poopfeast420","steam_id":76561198137740187,"connected_time":45000000000,"state":"active","ping":53},{"user_id":475,"name":"FairHeadcrab","steam_id":76561197999148535,"connected_time":6212000000000,"state":"active","ping":75},{"user_id":539,"name":"full of soap","steam_id":76561198183999845,"connected_time":933000000000,"state":"active","ping":122},{"user_id":528,"name":"SHURIKEN","steam_id":76561197982319164,"connected_time":2193000000000,"state":"active","ping":153},{"user_id":540,"name":"Colin102004","steam_id":76561198202384334,"connected_time":553000000000,"state":"active","ping":42}]},{"server_id":16,"name":"Uncletopia | New York City | 4 | Community","name_short":"nyc-4","host":"nyc-1.us.uncletopia.com","port":27045,"enabled":true,"region":"us-east","cc":"us","latitude":40.73061,"longitude":-73.93524,"reserved":0,"last_update":"0001-01-01T00:00:00Z","name_a2s":"Uncletopia | New York City | 4 | Community","protocol":17,"map":"workshop/koth_product_final.ugc454272353","folder":"tf","game":"Team Fortress","app_id":440,"player_count":0,"max_players":24,"Bots":0,"server_type":"Dedicated","server_os":"Linux","password":true,"vac":true,"version":"7695204","steam_id":85568392924742821,"keywords":["cp","nocrits","nodmgspread","uncletopia"],"game_id":440,"stv_port":27046,"stv_name":"Uncletopia | New York City | 4 | Community | STV","players":null},{"server_id":142,"name":"Uncletopia | S√£o Paulo | 1 | All Maps","name_short":"sao-1","host":"sao-1.br.uncletopia.com","port":27015,"enabled":true,"region":"sa","cc":"br","latitude":-23.533773,"longitude":-46.62529,"reserved":0,"last_update":"0001-01-01T00:00:00Z","name_a2s":"Uncletopia | S√£o Paulo | 1 | All Maps","protocol":17,"map":"cp_process_final","folder":"tf","game":"Team Fortress","app_id":440,"player_count":0,"max_players":24,"Bots":0,"server_type":"Dedicated","server_os":"Linux","password":true,"vac":true,"version":"7695204","steam_id":85568392924469996,"keywords":["cp","nocrits","nodmgspread","uncletopia"],"game_id":440,"stv_port":27016,"stv_name":"Uncletopia | S√£o Paulo | 1 | All Maps | STV","players":null},{"server_id":143,"name":"Uncletopia | S√£o Paulo | 2 | All Maps","name_short":"sao-2","host":"sao-2.br.uncletopia.com","port":27015,"enabled":true,"region":"sa","cc":"br","latitude":-23.533773,"longitude":-46.62529,"reserved":0,"last_update":"0001-01-01T00:00:00Z","name_a2s":"Uncletopia | S√£o Paulo | 2 | All Maps","protocol":17,"map":"koth_harvest_final","folder":"tf","game":"Team Fortress","app_id":440,"player_count":3,"max_players":24,"Bots":0,"server_type":"Dedicated","server_os":"Linux","password":true,"vac":true,"version":"7695204","steam_id":85568392924485349,"keywords":["cp","nocrits","nodmgspread","uncletopia"],"game_id":440,"stv_port":27016,"stv_name":"Uncletopia | S√£o Paulo | 2 | All Maps | STV","players":[{"user_id":326,"name":"Intermet","steam_id":76561198974998106,"connected_time":705000000000,"state":"active","ping":157},{"user_id":314,"name":"Angel","steam_id":76561199010842733,"connected_time":4542000000000,"state":"active","ping":46},{"user_id":281,"name":"flamingo","steam_id":76561198854099251,"connected_time":8711000000000,"state":"active","ping":66}]},{"server_id":7,"name":"Uncletopia | Seattle | 1 | All Maps","name_short":"sea-1","host":"sea-1.us.uncletopia.com","port":27015,"enabled":true,"region":"us-west","cc":"us","latitude":47.608013,"longitude":-122.33517,"reserved":0,"last_update":"0001-01-01T00:00:00Z","name_a2s":"Uncletopia | Seattle | 1 | All Maps","protocol":17,"map":"pl_snowycoast","folder":"tf","game":"Team Fortress","app_id":440,"player_count":24,"max_players":24,"Bots":0,"server_type":"Dedicated","server_os":"Linux","password":true,"vac":true,"version":"7695204","steam_id":85568392924469997,"keywords":["nocrits","nodmgspread","payload","uncletopia"],"game_id":440,"stv_port":27016,"stv_name":"Uncletopia | Seattle | 1 | All Maps | STV","players":[{"user_id":330,"name":"Mason","steam_id":76561198125358775,"connected_time":3192000000000,"state":"active","ping":62},{"user_id":428,"name":"MrGruntington","steam_id":76561198081442888,"connected_time":487000000000,"state":"active","ping":56},{"user_id":301,"name":"–≥—Ä—É—Å—Ç–Ω—ã–π","steam_id":76561198274550638,"connected_time":3832000000000,"state":"active","ping":110},{"user_id":409,"name":"„Éï„Ç£„É≥ „Åè„Çì","steam_id":76561198962318010,"connected_time":1169000000000,"state":"active","ping":139},{"user_id":410,"name":"Mr defrost","steam_id":76561198322125657,"connected_time":1160000000000,"state":"active","ping":60},{"user_id":358,"name":"trackpad gaming | f2p","steam_id":76561198840414371,"connected_time":2309000000000,"state":"active","ping":51},{"user_id":411,"name":"e doctor","steam_id":76561198081851446,"connected_time":1136000000000,"state":"active","ping":103},{"user_id":417,"name":"The_Pacific_gamer","steam_id":76561198089491446,"connected_time":1074000000000,"state":"active","ping":52},{"user_id":332,"name":"Wormy Getting Coal","steam_id":76561198054539200,"connected_time":3161000000000,"state":"active","ping":52},{"user_id":422,"name":"Frank","steam_id":76561198126681511,"connected_time":910000000000,"state":"active","ping":80},{"user_id":335,"name":"Robyn Goodfellowe","steam_id":76561198074719241,"connected_time":3060000000000,"state":"active","ping":122},{"user_id":430,"name":"Mii Guest C, From Wii Sports","steam_id":76561198197964803,"connected_time":387000000000,"state":"active","ping":51},{"user_id":416,"name":"McSpazatron","steam_id":76561198955942148,"connected_time":1084000000000,"state":"active","ping":115},{"user_id":426,"name":"Pixel","steam_id":76561198163549359,"connected_time":517000000000,"state":"active","ping":118},{"user_id":336,"name":"Luca","steam_id":76561198125087140,"connected_time":3058000000000,"state":"active","ping":46},{"user_id":408,"name":"shadow3004","steam_id":76561198064870076,"connected_time":1199000000000,"state":"active","ping":117},{"user_id":337,"name":"LalitoTV","steam_id":76561198334302951,"connected_time":3056000000000,"state":"active","ping":124},{"user_id":339,"name":"lavender","steam_id":76561199069518286,"connected_time":2993000000000,"state":"active","ping":75},{"user_id":424,"name":"Sailor","steam_id":76561199081983517,"connected_time":551000000000,"state":"active","ping":95},{"user_id":402,"name":"FRANKY!!!","steam_id":76561199211305343,"connected_time":1283000000000,"state":"active","ping":59},{"user_id":421,"name":"Sarbanes-Oxley","steam_id":76561197975898479,"connected_time":946000000000,"state":"active","ping":109},{"user_id":427,"name":"Many Bees' Chilling","steam_id":76561198079641282,"connected_time":517000000000,"state":"active","ping":54},{"user_id":258,"name":"mumbles","steam_id":76561197994528974,"connected_time":4490000000000,"state":"active","ping":81},{"user_id":282,"name":"Syrup","steam_id":76561198004623229,"connected_time":4087000000000,"state":"active","ping":89}]},{"server_id":119,"name":"Uncletopia | Seattle | 2 | All Maps","name_short":"sea-2","host":"sea-1.us.uncletopia.com","port":27025,"enabled":true,"region":"us-west","cc":"us","latitude":47.608013,"longitude":-122.33517,"reserved":0,"last_update":"0001-01-01T00:00:00Z","name_a2s":"Uncletopia | Seattle | 2 | All Maps","protocol":17,"map":"pl_borneo","folder":"tf","game":"Team Fortress","app_id":440,"player_count":23,"max_players":24,"Bots":0,"server_type":"Dedicated","server_os":"Linux","password":true,"vac":true,"version":"7695204","steam_id":85568392924469998,"keywords":["nocrits","nodmgspread","payload","uncletopia"],"game_id":440,"stv_port":27026,"stv_name":"Uncletopia | Seattle | 2 | All Maps | STV","players":[{"user_id":503,"name":"gorlab","steam_id":76561198025089694,"connected_time":1440000000000,"state":"active","ping":62},{"user_id":527,"name":"Smiling","steam_id":76561198293407075,"connected_time":212000000000,"state":"active","ping":71},{"user_id":501,"name":"Lawnmower","steam_id":76561198186680197,"connected_time":1703000000000,"state":"active","ping":60},{"user_id":512,"name":"Carthage","steam_id":76561198049001571,"connected_time":1078000000000,"state":"active","ping":54},{"user_id":465,"name":"tayzik","steam_id":76561199391478575,"connected_time":5049000000000,"state":"active","ping":69},{"user_id":525,"name":"N0_J0K3","steam_id":76561198287102197,"connected_time":357000000000,"state":"active","ping":116},{"user_id":506,"name":"Kay Z1014","steam_id":76561198374228296,"connected_time":1413000000000,"state":"active","ping":68},{"user_id":523,"name":"delight","steam_id":76561197980280272,"connected_time":391000000000,"state":"active","ping":46},{"user_id":522,"name":"Booster Gold","steam_id":76561198045873731,"connected_time":397000000000,"state":"active","ping":48},{"user_id":524,"name":"Dark Lord","steam_id":76561198044199150,"connected_time":380000000000,"state":"active","ping":127},{"user_id":484,"name":"goon","steam_id":76561198146228439,"connected_time":3153000000000,"state":"active","ping":51},{"user_id":515,"name":"ordinaryJoe","steam_id":76561198139822390,"connected_time":764000000000,"state":"active","ping":62},{"user_id":520,"name":"Cyrus","steam_id":76561198063715948,"connected_time":525000000000,"state":"active","ping":97},{"user_id":517,"name":"BlockBurst","steam_id":76561199220851075,"connected_time":758000000000,"state":"active","ping":62},{"user_id":454,"name":"snorlax_gamer","steam_id":76561199084972996,"connected_time":6438000000000,"state":"active","ping":55},{"user_id":464,"name":"DJHyper777","steam_id":76561198304548526,"connected_time":5066000000000,"state":"active","ping":70},{"user_id":456,"name":"General Fisticuffs","steam_id":76561198255721392,"connected_time":6288000000000,"state":"active","ping":107},{"user_id":492,"name":"Pronounced30","steam_id":76561198070127606,"connected_time":2957000000000,"state":"active","ping":130},{"user_id":489,"name":"Gunslinger Rafa","steam_id":76561198070140106,"connected_time":3068000000000,"state":"active","ping":47},{"user_id":526,"name":"corbenis","steam_id":76561199012442511,"connected_time":352000000000,"state":"active","ping":82},{"user_id":490,"name":"Perry_The_Platypus","steam_id":76561198842310418,"connected_time":3064000000000,"state":"active","ping":62},{"user_id":508,"name":"boo_thefeared","steam_id":76561198127967685,"connected_time":1350000000000,"state":"active","ping":180},{"user_id":375,"name":"Soap","steam_id":76561198074619142,"connected_time":11985000000000,"state":"active","ping":99}]},{"server_id":17,"name":"Uncletopia | San Francisco | 1 | All Maps","name_short":"sfo-1","host":"sfo-1.us.uncletopia.com","port":27015,"enabled":true,"region":"us-west","cc":"us","latitude":37.77397,"longitude":-122.4313,"reserved":0,"last_update":"0001-01-01T00:00:00Z","name_a2s":"Uncletopia | San Francisco | 1 | All Maps","protocol":17,"map":"cp_steel","folder":"tf","game":"Team Fortress","app_id":440,"player_count":24,"max_players":24,"Bots":0,"server_type":"Dedicated","server_os":"Linux","password":true,"vac":true,"version":"7695204","steam_id":85568392924469999,"keywords":["cp","nocrits","nodmgspread","uncletopia"],"game_id":440,"stv_port":27016,"stv_name":"Uncletopia | San Francisco | 1 | All Maps | STV","players":[{"user_id":106,"name":"Justtophat","steam_id":76561198308787175,"connected_time":639000000000,"state":"active","ping":57},{"user_id":40,"name":"Spooks ‚òÜ","steam_id":76561198118095626,"connected_time":4001000000000,"state":"active","ping":61},{"user_id":117,"name":"Moyshen24","steam_id":76561199210510557,"connected_time":425000000000,"state":"active","ping":52},{"user_id":107,"name":"real","steam_id":76561198156053300,"connected_time":633000000000,"state":"active","ping":69},{"user_id":108,"name":"Killerofzombie23","steam_id":76561198799173778,"connected_time":614000000000,"state":"active","ping":75},{"user_id":80,"name":"socially anxious kid","steam_id":76561198249946198,"connected_time":2727000000000,"state":"active","ping":56},{"user_id":69,"name":"loco503","steam_id":76561198827495121,"connected_time":3443000000000,"state":"active","ping":58},{"user_id":75,"name":"Wacks","steam_id":76561198079476100,"connected_time":2937000000000,"state":"active","ping":53},{"user_id":118,"name":"devils nightmare","steam_id":76561198068136765,"connected_time":2000000000,"state":"spawning","ping":47},{"user_id":109,"name":"Verde","steam_id":76561198035623915,"connected_time":577000000000,"state":"active","ping":103},{"user_id":86,"name":"pt","steam_id":76561198143023330,"connected_time":2266000000000,"state":"active","ping":57},{"user_id":110,"name":"I like Aidan","steam_id":76561198056869760,"connected_time":564000000000,"state":"active","ping":78},{"user_id":93,"name":"bucketsss12","steam_id":76561199227877399,"connected_time":1688000000000,"state":"active","ping":53},{"user_id":87,"name":"El Gato Paranoico","steam_id":76561198116567116,"connected_time":2263000000000,"state":"active","ping":104},{"user_id":88,"name":"Idontknow","steam_id":76561199207044048,"connected_time":2218000000000,"state":"active","ping":65},{"user_id":96,"name":"Flyingcat9000","steam_id":76561198179561797,"connected_time":1597000000000,"state":"active","ping":31},{"user_id":115,"name":"Spare(8)Ball","steam_id":76561197982432995,"connected_time":503000000000,"state":"active","ping":50},{"user_id":114,"name":"LOBER","steam_id":76561198057253404,"connected_time":515000000000,"state":"active","ping":108},{"user_id":98,"name":"BLU Payload Cart","steam_id":76561198352427247,"connected_time":1408000000000,"state":"active","ping":66},{"user_id":97,"name":"PapaTheBear123","steam_id":76561198885286869,"connected_time":1588000000000,"state":"active","ping":133},{"user_id":116,"name":"$199.95 12-Speed Mixer","steam_id":76561198251173702,"connected_time":476000000000,"state":"active","ping":63},{"user_id":113,"name":"disser","steam_id":76561198344531355,"connected_time":523000000000,"state":"active","ping":72},{"user_id":101,"name":"Papi Nacho","steam_id":76561198170128009,"connected_time":912000000000,"state":"active","ping":53},{"user_id":73,"name":"azureglxy","steam_id":76561198861388315,"connected_time":3222000000000,"state":"active","ping":54}]},{"server_id":18,"name":"Uncletopia | San Francisco | 2 | All Maps","name_short":"sfo-2","host":"sfo-1.us.uncletopia.com","port":27025,"enabled":true,"region":"us-west","cc":"us","latitude":37.77397,"longitude":-122.4313,"reserved":0,"last_update":"0001-01-01T00:00:00Z","name_a2s":"Uncletopia | San Francisco | 2 | All Maps","protocol":17,"map":"pl_upward","folder":"tf","game":"Team Fortress","app_id":440,"player_count":24,"max_players":24,"Bots":0,"server_type":"Dedicated","server_os":"Linux","password":true,"vac":true,"version":"7695204","steam_id":85568392924470000,"keywords":["nocrits","nodmgspread","payload","uncletopia"],"game_id":440,"stv_port":27026,"stv_name":"Uncletopia | San Francisco | 2 | All Maps | STV","players":[{"user_id":552,"name":"Nocturnal","steam_id":76561198278704738,"connected_time":915000000000,"state":"active","ping":60},{"user_id":540,"name":"Dmon","steam_id":76561198032702087,"connected_time":2771000000000,"state":"active","ping":45},{"user_id":512,"name":"BlueCinema","steam_id":76561198376605350,"connected_time":5215000000000,"state":"active","ping":116},{"user_id":531,"name":"‚ù§ Ashley ‚ù§","steam_id":76561198056428303,"connected_time":3478000000000,"state":"active","ping":61},{"user_id":547,"name":"101","steam_id":76561199366968526,"connected_time":1984000000000,"state":"active","ping":44},{"user_id":555,"name":"happer","steam_id":76561198018252253,"connected_time":194000000000,"state":"active","ping":57},{"user_id":526,"name":"SPREAD CHRISTMAS CHEER AND JOY","steam_id":76561198800386026,"connected_time":3665000000000,"state":"active","ping":68},{"user_id":534,"name":"supcupman","steam_id":76561198051513866,"connected_time":3153000000000,"state":"active","ping":55},{"user_id":528,"name":"Sardinio","steam_id":76561198065097426,"connected_time":3652000000000,"state":"active","ping":52},{"user_id":548,"name":"paint thinner victim","steam_id":76561198176069217,"connected_time":1963000000000,"state":"active","ping":68},{"user_id":516,"name":"Kitto","steam_id":76561198053851877,"connected_time":4979000000000,"state":"active","ping":57},{"user_id":551,"name":"girl moder","steam_id":76561198075694197,"connected_time":1938000000000,"state":"active","ping":49},{"user_id":541,"name":"Dogg wader","steam_id":76561199090314340,"connected_time":2760000000000,"state":"active","ping":78},{"user_id":514,"name":"Jax O'Gaytor","steam_id":76561198288922168,"connected_time":5148000000000,"state":"active","ping":60},{"user_id":532,"name":"Ricelover","steam_id":76561198064631164,"connected_time":3402000000000,"state":"active","ping":57},{"user_id":521,"name":"xxashketchup712","steam_id":76561198067232540,"connected_time":4485000000000,"state":"active","ping":122},{"user_id":554,"name":"ArnoldGaming","steam_id":76561198040140247,"connected_time":275000000000,"state":"active","ping":124},{"user_id":437,"name":"jodie.blend","steam_id":76561198140701807,"connected_time":9420000000000,"state":"active","ping":88},{"user_id":460,"name":"MG","steam_id":76561197980131846,"connected_time":8543000000000,"state":"active","ping":50},{"user_id":281,"name":"tweet","steam_id":76561198166515735,"connected_time":20519000000000,"state":"active","ping":49},{"user_id":542,"name":"Dr. FlimFlam","steam_id":76561198049212986,"connected_time":2722000000000,"state":"active","ping":75},{"user_id":553,"name":"R5-D4","steam_id":76561198025196439,"connected_time":628000000000,"state":"active","ping":70},{"user_id":544,"name":"d.em","steam_id":76561198057179683,"connected_time":2570000000000,"state":"active","ping":80},{"user_id":556,"name":"jimmy outlaw","steam_id":76561198070380402,"connected_time":22000000000,"state":"active","ping":117}]},{"server_id":19,"name":"Uncletopia | San Francisco | 3 | No Payload","name_short":"sfo-3","host":"sfo-1.us.uncletopia.com","port":27035,"enabled":true,"region":"us-west","cc":"us","latitude":37.77397,"longitude":-122.4313,"reserved":0,"last_update":"0001-01-01T00:00:00Z","name_a2s":"Uncletopia | San Francisco | 3 | No Payload","protocol":17,"map":"plr_hightower","folder":"tf","game":"Team Fortress","app_id":440,"player_count":0,"max_players":24,"Bots":0,"server_type":"Dedicated","server_os":"Linux","password":true,"vac":true,"version":"7695204","steam_id":85568392924742824,"keywords":["nocrits","nodmgspread","payload","uncletopia"],"game_id":440,"stv_port":27036,"stv_name":"Uncletopia | San Francisco | 3 | No Payload | STV","players":null},{"server_id":20,"name":"Uncletopia | San Francisco | 4 | Community","name_short":"sfo-4","host":"sfo-1.us.uncletopia.com","port":27045,"enabled":true,"region":"us-west","cc":"us","latitude":37.77397,"longitude":-122.4313,"reserved":0,"last_update":"0001-01-01T00:00:00Z","name_a2s":"Uncletopia | San Francisco | 4 | Community","protocol":17,"map":"koth_highpass","folder":"tf","game":"Team Fortress","app_id":440,"player_count":0,"max_players":24,"Bots":0,"server_type":"Dedicated","server_os":"Linux","password":true,"vac":true,"version":"7695204","steam_id":85568392924742826,"keywords":["cp","nocrits","nodmgspread","uncletopia"],"game_id":440,"stv_port":0,"stv_name":"","players":null},{"server_id":141,"name":"Uncletopia | Sydney | 1 | All Maps","name_short":"syd-1","host":"syd-1.au.uncletopia.com","port":27015,"enabled":true,"region":"au","cc":"au","latitude":-33.865143,"longitude":151.2099,"reserved":0,"last_update":"0001-01-01T00:00:00Z","name_a2s":"Uncletopia | Sydney | 1 | All Maps","protocol":17,"map":"cp_dustbowl","folder":"tf","game":"Team Fortress","app_id":440,"player_count":0,"max_players":24,"Bots":0,"server_type":"Dedicated","server_os":"Linux","password":true,"vac":true,"version":"7695204","steam_id":85568392924470001,"keywords":["cp","nocrits","nodmgspread","uncletopia"],"game_id":440,"stv_port":27016,"stv_name":"Uncletopia | Sydney | 1 | All Maps | STV","players":null},{"server_id":123,"name":"Uncletopia | Sydney | 2 | All Maps","name_short":"syd-2","host":"syd-1.au.uncletopia.com","port":27025,"enabled":true,"region":"au","cc":"au","latitude":-33.865143,"longitude":151.2099,"reserved":0,"last_update":"0001-01-01T00:00:00Z","name_a2s":"Uncletopia | Sydney | 2 | All Maps","protocol":17,"map":"pl_upward","folder":"tf","game":"Team Fortress","app_id":440,"player_count":24,"max_players":24,"Bots":0,"server_type":"Dedicated","server_os":"Linux","password":true,"vac":true,"version":"7695204","steam_id":85568392924470002,"keywords":["nocrits","nodmgspread","payload","uncletopia"],"game_id":440,"stv_port":27026,"stv_name":"Uncletopia | Sydney | 2 | All Maps | STV","players":[{"user_id":319,"name":"Charm","steam_id":76561198028891054,"connected_time":488000000000,"state":"active","ping":60},{"user_id":304,"name":"th0red0n","steam_id":76561198855934264,"connected_time":2110000000000,"state":"active","ping":79},{"user_id":293,"name":"rhanger","steam_id":76561198178150811,"connected_time":2943000000000,"state":"active","ping":66},{"user_id":291,"name":"bucko","steam_id":76561198113662788,"connected_time":2964000000000,"state":"active","ping":59},{"user_id":253,"name":"tetrx","steam_id":76561197996427098,"connected_time":5376000000000,"state":"active","ping":89},{"user_id":281,"name":"Wolf","steam_id":76561198067256350,"connected_time":3998000000000,"state":"active","ping":48},{"user_id":254,"name":"Bread","steam_id":76561198421454803,"connected_time":5345000000000,"state":"active","ping":77},{"user_id":234,"name":"Gasoline","steam_id":76561198879023728,"connected_time":7325000000000,"state":"active","ping":75},{"user_id":313,"name":"wizard.dll","steam_id":76561198000442860,"connected_time":1029000000000,"state":"active","ping":78},{"user_id":287,"name":"AfroNinja","steam_id":76561198120372011,"connected_time":3647000000000,"state":"active","ping":67},{"user_id":307,"name":"callistoAshley","steam_id":76561198178116375,"connected_time":1563000000000,"state":"active","ping":40},{"user_id":310,"name":"Mysterious Hooded Figure","steam_id":76561198119416510,"connected_time":1163000000000,"state":"active","ping":34},{"user_id":240,"name":"Mooty","steam_id":76561198301293435,"connected_time":6759000000000,"state":"active","ping":51},{"user_id":318,"name":"Glockenspe","steam_id":76561199184115241,"connected_time":667000000000,"state":"active","ping":47},{"user_id":267,"name":"TheSaltyKoi","steam_id":76561198816704624,"connected_time":4771000000000,"state":"active","ping":58},{"user_id":306,"name":"El Chupacabra","steam_id":76561198070641651,"connected_time":2050000000000,"state":"active","ping":52},{"user_id":308,"name":"KeeweMiner","steam_id":76561198373679200,"connected_time":1174000000000,"state":"active","ping":93},{"user_id":317,"name":"Warren","steam_id":76561198120350917,"connected_time":758000000000,"state":"active","ping":38},{"user_id":316,"name":"Bayonet Enthusiast","steam_id":76561198088904161,"connected_time":779000000000,"state":"active","ping":62},{"user_id":314,"name":"Bin","steam_id":76561199117653318,"connected_time":1010000000000,"state":"active","ping":74},{"user_id":309,"name":"average nothing enjoyer","steam_id":76561198302936089,"connected_time":1170000000000,"state":"active","ping":56},{"user_id":315,"name":"Schizo Joshua Graham","steam_id":76561198136604959,"connected_time":862000000000,"state":"active","ping":67},{"user_id":296,"name":"krandlez` (Any/All)","steam_id":76561198044839726,"connected_time":2672000000000,"state":"active","ping":41},{"user_id":298,"name":"Rarity the Fabulous","steam_id":76561198077653287,"connected_time":2578000000000,"state":"active","ping":34}]},{"server_id":395,"name":"Uncletopia | Sydney | 3 | All Maps","name_short":"syd-3","host":"syd-1.au.uncletopia.com","port":27035,"enabled":true,"region":"au","cc":"au","latitude":-33.865143,"longitude":151.2099,"reserved":0,"last_update":"0001-01-01T00:00:00Z","name_a2s":"Uncletopia | Sydney | 3 | All Maps","protocol":17,"map":"pl_swiftwater_final1","folder":"tf","game":"Team Fortress","app_id":440,"player_count":16,"max_players":24,"Bots":0,"server_type":"Dedicated","server_os":"Linux","password":true,"vac":true,"version":"7695204","steam_id":85568392925194467,"keywords":["nocrits","nodmgspread","payload","uncletopia"],"game_id":440,"stv_port":27036,"stv_name":"Uncletopia | Sydney | 3 | All Maps | STV","players":[{"user_id":97,"name":"MikkyD","steam_id":76561198043452962,"connected_time":776000000000,"state":"active","ping":64},{"user_id":100,"name":"Courage","steam_id":76561198051379740,"connected_time":474000000000,"state":"active","ping":51},{"user_id":106,"name":"LazyGuyEythan (SethEythan)","steam_id":76561198100007906,"connected_time":194000000000,"state":"active","ping":150},{"user_id":99,"name":"‡∏∏bifcheg","steam_id":76561198319806610,"connected_time":614000000000,"state":"active","ping":61},{"user_id":84,"name":"perturb","steam_id":76561198085124297,"connected_time":1100000000000,"state":"active","ping":55},{"user_id":89,"name":"cimpact","steam_id":76561198452258917,"connected_time":940000000000,"state":"active","ping":131},{"user_id":102,"name":"J''''","steam_id":76561198047565137,"connected_time":466000000000,"state":"active","ping":56},{"user_id":107,"name":"braindamage","steam_id":76561198110730148,"connected_time":111000000000,"state":"active","ping":79},{"user_id":103,"name":"‚ô• Sharpy \u003e v \u003c","steam_id":76561198091613743,"connected_time":375000000000,"state":"active","ping":93},{"user_id":104,"name":"yves","steam_id":76561198154552555,"connected_time":368000000000,"state":"active","ping":59},{"user_id":60,"name":"mycelph","steam_id":76561197993987500,"connected_time":3470000000000,"state":"active","ping":45},{"user_id":93,"name":"soup","steam_id":76561198094520079,"connected_time":892000000000,"state":"active","ping":51},{"user_id":95,"name":"huh","steam_id":76561198146659854,"connected_time":882000000000,"state":"active","ping":50},{"user_id":72,"name":"‚úªF—èostbite","steam_id":76561198035353612,"connected_time":2483000000000,"state":"active","ping":61},{"user_id":76,"name":"Glaistig Uaine","steam_id":76561198056798610,"connected_time":2454000000000,"state":"active","ping":85},{"user_id":80,"name":"ToadFungus","steam_id":76561199219667039,"connected_time":1456000000000,"state":"active","ping":106}]},{"server_id":396,"name":"Uncletopia | Sydney | 4 | All Maps","name_short":"syd-4","host":"syd-1.au.uncletopia.com","port":27045,"enabled":true,"region":"au","cc":"au","latitude":-33.865143,"longitude":151.2099,"reserved":0,"last_update":"0001-01-01T00:00:00Z","name_a2s":"Uncletopia | Sydney | 4 | All Maps","protocol":17,"map":"koth_lakeside_final","folder":"tf","game":"Team Fortress","app_id":440,"player_count":0,"max_players":24,"Bots":0,"server_type":"Dedicated","server_os":"Linux","password":true,"vac":true,"version":"7695204","steam_id":85568392925397958,"keywords":["cp","nocrits","nodmgspread","uncletopia"],"game_id":440,"stv_port":27046,"stv_name":"Uncletopia | Sydney | 4 | All Maps | STV","players":null},{"server_id":58,"name":"Uncletopia | Sydney | 5 | No Payload","name_short":"syd-5","host":"syd-1.au.uncletopia.com","port":27055,"enabled":true,"region":"au","cc":"au","latitude":-33.865143,"longitude":151.2099,"reserved":0,"last_update":"0001-01-01T00:00:00Z","name_a2s":"Uncletopia | Sydney | 5 | No Payload","protocol":17,"map":"cp_snakewater_final1","folder":"tf","game":"Team Fortress","app_id":440,"player_count":0,"max_players":24,"Bots":0,"server_type":"Dedicated","server_os":"Linux","password":true,"vac":true,"version":"7695204","steam_id":85568392925397959,"keywords":["cp","nocrits","nodmgspread","uncletopia"],"game_id":440,"stv_port":27056,"stv_name":"Uncletopia | Sydney | 5 | No Payload | STV","players":null},{"server_id":59,"name":"Uncletopia | Sydney | 6 | Community","name_short":"syd-6","host":"syd-1.au.uncletopia.com","port":27065,"enabled":true,"region":"au","cc":"au","latitude":-33.865143,"longitude":151.2099,"reserved":0,"last_update":"0001-01-01T00:00:00Z","name_a2s":"Uncletopia | Sydney | 6 | Community","protocol":17,"map":"workshop/koth_product_final.ugc454272353","folder":"tf","game":"Team Fortress","app_id":440,"player_count":0,"max_players":24,"Bots":0,"server_type":"Dedicated","server_os":"Linux","password":true,"vac":true,"version":"7695204","steam_id":85568392925397960,"keywords":["cp","nocrits","nodmgspread","uncletopia"],"game_id":440,"stv_port":27066,"stv_name":"Uncletopia | Sydney | 6 | Community | STV","players":null},{"server_id":49,"name":"Uncletopia | Warsaw | 1 | All Maps","name_short":"waw-1","host":"waw-1.pl.uncletopia.com","port":27015,"enabled":true,"region":"eu","cc":"pl","latitude":52.2297,"longitude":21.017532,"reserved":0,"last_update":"0001-01-01T00:00:00Z","name_a2s":"Uncletopia | Warsaw | 1 | All Maps","protocol":17,"map":"pl_frontier_final","folder":"tf","game":"Team Fortress","app_id":440,"player_count":0,"max_players":24,"Bots":0,"server_type":"Dedicated","server_os":"Linux","password":true,"vac":true,"version":"7695204","steam_id":85568392925397850,"keywords":["nocrits","nodmgspread","payload","uncletopia"],"game_id":440,"stv_port":0,"stv_name":"","players":null},{"server_id":50,"name":"Uncletopia | Warsaw | 2 | All Maps","name_short":"waw-2","host":"waw-1.pl.uncletopia.com","port":27025,"enabled":true,"region":"eu","cc":"pl","latitude":52.2297,"longitude":21.017532,"reserved":0,"last_update":"0001-01-01T00:00:00Z","name_a2s":"Uncletopia | Warsaw | 2 | All Maps","protocol":17,"map":"cp_snakewater_final1","folder":"tf","game":"Team Fortress","app_id":440,"player_count":0,"max_players":24,"Bots":0,"server_type":"Dedicated","server_os":"Linux","password":true,"vac":true,"version":"7695204","steam_id":85568392925397851,"keywords":["cp","nocrits","nodmgspread","uncletopia"],"game_id":440,"stv_port":0,"stv_name":"","players":null},{"server_id":51,"name":"Uncletopia | Warsaw | 3 | All Maps","name_short":"waw-3","host":"waw-1.pl.uncletopia.com","port":27035,"enabled":true,"region":"eu","cc":"pl","latitude":52.2297,"longitude":21.017532,"reserved":0,"last_update":"0001-01-01T00:00:00Z","name_a2s":"Uncletopia | Warsaw | 3 | All Maps","protocol":17,"map":"pl_barnblitz","folder":"tf","game":"Team Fortress","app_id":440,"player_count":0,"max_players":24,"Bots":0,"server_type":"Dedicated","server_os":"Linux","password":true,"vac":true,"version":"7695204","steam_id":85568392925397852,"keywords":["nocrits","nodmgspread","payload","uncletopia"],"game_id":440,"stv_port":0,"stv_name":"","players":null},{"server_id":52,"name":"Uncletopia | Warsaw | 4 | All Maps","name_short":"waw-4","host":"waw-1.pl.uncletopia.com","port":27045,"enabled":true,"region":"eu","cc":"pl","latitude":52.2297,"longitude":21.017532,"reserved":0,"last_update":"0001-01-01T00:00:00Z","name_a2s":"Uncletopia | Warsaw | 4 | All Maps","protocol":17,"map":"cp_altitude","folder":"tf","game":"Team Fortress","app_id":440,"player_count":0,"max_players":24,"Bots":0,"server_type":"Dedicated","server_os":"Linux","password":true,"vac":true,"version":"7695204","steam_id":85568392925397853,"keywords":["cp","nocrits","nodmgspread","uncletopia"],"game_id":440,"stv_port":0,"stv_name":"","players":null},{"server_id":53,"name":"Uncletopia | Warsaw | 5 | No Payload","name_short":"waw-5","host":"waw-1.pl.uncletopia.com","port":27055,"enabled":true,"region":"eu","cc":"pl","latitude":52.2297,"longitude":21.017532,"reserved":0,"last_update":"0001-01-01T00:00:00Z","name_a2s":"Uncletopia | Warsaw | 5 | No Payload","protocol":17,"map":"pl_badwater","folder":"tf","game":"Team Fortress","app_id":440,"player_count":0,"max_players":24,"Bots":0,"server_type":"Dedicated","server_os":"Linux","password":true,"vac":true,"version":"7695204","steam_id":85568392925397854,"keywords":["nocrits","nodmgspread","payload","uncletopia"],"game_id":440,"stv_port":0,"stv_name":"","players":null},{"server_id":54,"name":"Uncletopia | Warsaw | 6 | Community","name_short":"waw-6","host":"waw-1.pl.uncletopia.com","port":27065,"enabled":true,"region":"eu","cc":"pl","latitude":52.2297,"longitude":21.017532,"reserved":0,"last_update":"0001-01-01T00:00:00Z","name_a2s":"Uncletopia | Warsaw | 6 | Community","protocol":17,"map":"pl_barnblitz","folder":"tf","game":"Team Fortress","app_id":440,"player_count":0,"max_players":24,"Bots":0,"server_type":"Dedicated","server_os":"Linux","password":true,"vac":true,"version":"7695204","steam_id":85568392925397856,"keywords":["nocrits","nodmgspread","payload","uncletopia"],"game_id":440,"stv_port":0,"stv_name":"","players":null}]}