{"status":true,"message":"","result":[{"server_id":9,"name":"Uncletopia | Atlanta | 1 | All Maps","name_short":"atl-1","host":"atl-1.us.uncletopia.com","port":27015,"enabled":true,"region":"us-east","cc":"us","latitude":33.753746,"longitude":-84.38633,"reserved":0,"last_update":"0001-01-01T00:00:00Z","name_a2s":"Uncletopia | Atlanta | 1 | All Maps","protocol":17,"map":"koth_lakeside_final","folder":"tf","game":"Team Fortress","app_id":440,"player_count":0,"max_players":24,"Bots":0,"server_type":"Dedicated","server_os":"Linux","password":true,"vac":true,"version":"7695204","steam_id":85568392924469982,"keywords":["cp","nocrits","nodmgspread","uncletopia"],"game_id":440,"stv_port":27016,"stv_name":"Uncletopia | Atlanta | 1 | All Maps | STV","players":null},{"server_id":400,"name":"Uncletopia | Atlanta | 3 | All Maps","name_short":"atl-3","host":"atl-1.us.uncletopia.com","port":27035,"enabled":true,"region":"us-east","cc":"us","latitude":33.753746,"longitude":-84.38633,"reserved":0,"last_update":"0001-01-01T00:00:00Z","name_a2s":"Uncletopia | Atlanta | 3 | All Maps","protocol":17,"map":"pl_upward","folder":"tf","game":"Team Fortress","app_id":440,"player_count":24,"max_players":24,"Bots":0,"server_type":"Dedicated","server_os":"Linux","password":true,"vac":true,"version":"7695204","steam_id":85568392924515187,"keywords":["nocrits","nodmgspread","payload","uncletopia"],"game_id":440,"stv_port":27036,"stv_name":"Uncletopia | Atlanta | 3 | All Maps | STV","players":[{"user_id":70,"name":"notyourslave213","steam_id":76561198353623935,"connected_time":225000000000,"state":"active","ping":62},{"user_id":69,"name":"PeptoBismol135","steam_id":76561198135387121,"connected_time":258000000000,"state":"active","ping":64},{"user_id":56,"name":"MinimanC","steam_id":76561198071475084,"connected_time":872000000000,"state":"active","ping":67},{"user_id":58,"name":"Wengatang","steam_id":76561198021747059,"connected_time":841000000000,"state":"active","ping":57},{"user_id":45,"name":"‚ô• Ranman ‚ô•","steam_id":76561198042144492,"connected_time":2784000000000,"state":"active","ping":51},{"user_id":59,"name":"a Salty Coquito","steam_id":76561197979951077,"connected_time":828000000000,"state":"active","ping":100},{"user_id":53,"name":"Quansen","steam_id":76561198151594550,"connected_time":1402000000000,"state":"active","ping":75},{"user_id":71,"name":"Sammich","steam_id":76561198010543087,"connected_time":200000000000,"state":"active","ping":74},{"user_id":72,"name":"kasper","steam_id":76561198263271697,"connected_time":181000000000,"state":"active","ping":62},{"user_id":73,"name":"MrLeftTurn","steam_id":76561198856743969,"connected_time":151000000000,"state":"active","ping":150},{"user_id":74,"name":"finnish soldier circa 1939","steam_id":76561198294321610,"connected_time":148000000000,"state":"active","ping":89},{"user_id":75,"name":"Esau","steam_id":76561198110449520,"connected_time":137000000000,"state":"active","ping":67},{"user_id":43,"name":"Ad√°n Negro","steam_id":76561198151256410,"connected_time":2811000000000,"state":"active","ping":125},{"user_id":25,"name":"Furn4c3","steam_id":76561198089272430,"connected_time":3667000000000,"state":"active","ping":82},{"user_id":66,"name":"TheSpyCrabKing #SaveTF2","steam_id":76561198090177784,"connected_time":639000000000,"state":"active","ping":94},{"user_id":67,"name":"Avid Femboy Enjoyer","steam_id":76561199230313370,"connected_time":595000000000,"state":"active","ping":59},{"user_id":76,"name":"Inevitable","steam_id":76561198210050169,"connected_time":134000000000,"state":"active","ping":60},{"user_id":77,"name":"my system crushed...","steam_id":76561199225658151,"connected_time":116000000000,"state":"active","ping":147},{"user_id":31,"name":"That70sDog","steam_id":76561198119396142,"connected_time":3463000000000,"state":"active","ping":80},{"user_id":65,"name":"giant_dork","steam_id":76561199105606956,"connected_time":664000000000,"state":"active","ping":74},{"user_id":78,"name":"Sneed's Feed and Seed","steam_id":76561197999859912,"connected_time":112000000000,"state":"active","ping":61},{"user_id":55,"name":"peppermint schnoops","steam_id":76561197986760351,"connected_time":1044000000000,"state":"active","ping":76},{"user_id":42,"name":"Royal","steam_id":76561198319509387,"connected_time":2826000000000,"state":"active","ping":61},{"user_id":52,"name":"Beavis","steam_id":76561197970619638,"connected_time":1503000000000,"state":"active","ping":107}]},{"server_id":401,"name":"Uncletopia | Atlanta | 4 | No Payload","name_short":"atl-4","host":"atl-1.us.uncletopia.com","port":27045,"enabled":true,"region":"us-east","cc":"us","latitude":33.753746,"longitude":-84.38633,"reserved":0,"last_update":"0001-01-01T00:00:00Z","name_a2s":"Uncletopia | Atlanta | 4 | No Payload","protocol":17,"map":"ctf_well","folder":"tf","game":"Team Fortress","app_id":440,"player_count":0,"max_players":24,"Bots":0,"server_type":"Dedicated","server_os":"Linux","password":true,"vac":true,"version":"7695204","steam_id":85568392924515188,"keywords":["ctf","nocrits","nodmgspread","uncletopia"],"game_id":440,"stv_port":27046,"stv_name":"Uncletopia | Atlanta | 4 | No Payload | STV","players":null},{"server_id":2,"name":"Uncletopia | Chicago | 1 | All Maps","name_short":"chi-1","host":"chi-1.us.uncletopia.com","port":27015,"enabled":true,"region":"us-central","cc":"us","latitude":41.881832,"longitude":-87.62318,"reserved":0,"last_update":"0001-01-01T00:00:00Z","name_a2s":"Uncletopia | Chicago | 1 | All Maps","protocol":17,"map":"pl_barnblitz","folder":"tf","game":"Team Fortress","app_id":440,"player_count":24,"max_players":24,"Bots":0,"server_type":"Dedicated","server_os":"Linux","password":true,"vac":true,"version":"7695204","steam_id":85568392924469984,"keywords":["nocrits","nodmgspread","payload","uncletopia"],"game_id":440,"stv_port":27016,"stv_name":"Uncletopia | Chicago | 1 | All Maps | STV","players":[{"user_id":251,"name":"lostos","steam_id":76561197983869145,"connected_time":1590000000000,"state":"active","ping":118},{"user_id":221,"name":"Marc G","steam_id":76561198062650363,"connected_time":2793000000000,"state":"active","ping":62},{"user_id":260,"name":"Phroliax","steam_id":76561198207075529,"connected_time":271000000000,"state":"active","ping":93},{"user_id":184,"name":"Vishi","steam_id":76561198028710179,"connected_time":5930000000000,"state":"active","ping":119},{"user_id":258,"name":"Rukks","steam_id":76561197993918954,"connected_time":654000000000,"state":"active","ping":69},{"user_id":256,"name":"baguette","steam_id":76561198066048980,"connected_time":1327000000000,"state":"active","ping":44},{"user_id":218,"name":"Spirited?","steam_id":76561199097601654,"connected_time":3336000000000,"state":"active","ping":75},{"user_id":243,"name":"p4ka (in a pear tree)","steam_id":76561198315291317,"connected_time":1940000000000,"state":"active","ping":67},{"user_id":198,"name":"BIG HOG","steam_id":76561198079923652,"connected_time":5143000000000,"state":"active","ping":80},{"user_id":239,"name":"gilgy","steam_id":76561198855810297,"connected_time":2057000000000,"state":"active","ping":76},{"user_id":250,"name":"YungKeet","steam_id":76561198293854963,"connected_time":1731000000000,"state":"active","ping":83},{"user_id":257,"name":"ZeN","steam_id":76561199098746585,"connected_time":888000000000,"state":"active","ping":60},{"user_id":261,"name":"boxoh","steam_id":76561198153343031,"connected_time":229000000000,"state":"active","ping":63},{"user_id":235,"name":"yup","steam_id":76561199190800520,"connected_time":2152000000000,"state":"active","ping":89},{"user_id":244,"name":"Eightyy  Fourr","steam_id":76561197960374225,"connected_time":1919000000000,"state":"active","ping":74},{"user_id":264,"name":"Hamlindigo Blue‚Ñ¢","steam_id":76561198116337540,"connected_time":158000000000,"state":"active","ping":81},{"user_id":248,"name":"pink","steam_id":76561198032220545,"connected_time":1787000000000,"state":"active","ping":79},{"user_id":262,"name":"Ras","steam_id":76561198123546775,"connected_time":203000000000,"state":"active","ping":61},{"user_id":255,"name":"sansa musa","steam_id":76561198163723555,"connected_time":1415000000000,"state":"active","ping":65},{"user_id":259,"name":"Mixomin","steam_id":76561198295061570,"connected_time":451000000000,"state":"active","ping":59},{"user_id":252,"name":"BLM was a trend","steam_id":76561198142949496,"connected_time":1590000000000,"state":"active","ping":57},{"user_id":186,"name":"tingle shitmouth","steam_id":76561198055109192,"connected_time":5926000000000,"state":"active","ping":69},{"user_id":263,"name":"can you feel my 12-gauge slug","steam_id":76561198809577048,"connected_time":192000000000,"state":"active","ping":105},{"user_id":265,"name":"vince","steam_id":76561198054144974,"connected_time":130000000000,"state":"active","ping":57}]},{"server_id":106,"name":"Uncletopia | Chicago | 2 | All Maps","name_short":"chi-2","host":"chi-1.us.uncletopia.com","port":27025,"enabled":true,"region":"us-central","cc":"us","latitude":41.881832,"longitude":-87.62318,"reserved":0,"last_update":"0001-01-01T00:00:00Z","name_a2s":"Uncletopia | Chicago | 2 | All Maps","protocol":17,"map":"pl_upward","folder":"tf","game":"Team Fortress","app_id":440,"player_count":24,"max_players":24,"Bots":0,"server_type":"Dedicated","server_os":"Linux","password":true,"vac":true,"version":"7695204","steam_id":85568392924469985,"keywords":["nocrits","nodmgspread","payload","uncletopia"],"game_id":440,"stv_port":27026,"stv_name":"Uncletopia | Chicago | 2 | All Maps | STV","players":[{"user_id":66,"name":"WilderBump7","steam_id":76561198370423164,"connected_time":211000000000,"state":"active","ping":68},{"user_id":67,"name":"PeopleOrderOurPatties","steam_id":76561198323144922,"connected_time":156000000000,"state":"active","ping":49},{"user_id":44,"name":"hippo mode","steam_id":76561198073455521,"connected_time":1977000000000,"state":"active","ping":59},{"user_id":9,"name":"SSBM Pelican","steam_id":76561198040697907,"connected_time":3198000000000,"state":"active","ping":73},{"user_id":65,"name":"Mortimer Khan","steam_id":76561197968829990,"connected_time":274000000000,"state":"active","ping":76},{"user_id":58,"name":"Lost (14)","steam_id":76561198093713427,"connected_time":681000000000,"state":"active","ping":60},{"user_id":64,"name":"ASadTeddyBear","steam_id":76561198968206673,"connected_time":413000000000,"state":"active","ping":72},{"user_id":59,"name":"Ta5K","steam_id":76561198939558155,"connected_time":668000000000,"state":"active","ping":36},{"user_id":61,"name":"Ch4rl33","steam_id":76561198037008621,"connected_time":528000000000,"state":"active","ping":49},{"user_id":50,"name":"no","steam_id":76561198248853140,"connected_time":1494000000000,"state":"active","ping":53},{"user_id":30,"name":"Motreir","steam_id":76561198151717946,"connected_time":2571000000000,"state":"active","ping":92},{"user_id":60,"name":"Level 1 Crook","steam_id":76561198441098132,"connected_time":656000000000,"state":"active","ping":47},{"user_id":49,"name":"Steiner","steam_id":76561198030457066,"connected_time":1657000000000,"state":"active","ping":80},{"user_id":23,"name":"The Observer","steam_id":76561199026590878,"connected_time":2777000000000,"state":"active","ping":68},{"user_id":43,"name":"lambmyth","steam_id":76561199215261209,"connected_time":1994000000000,"state":"active","ping":85},{"user_id":38,"name":"Butter","steam_id":76561199071860279,"connected_time":2436000000000,"state":"active","ping":65},{"user_id":54,"name":"Montana","steam_id":76561198449437002,"connected_time":935000000000,"state":"active","ping":176},{"user_id":69,"name":"Dangerous Kliff","steam_id":76561198961326131,"connected_time":26000000000,"state":"spawning","ping":53},{"user_id":45,"name":"haley","steam_id":76561198126181038,"connected_time":1903000000000,"state":"active","ping":57},{"user_id":40,"name":"DrakonasDragonslayer","steam_id":76561198156125950,"connected_time":2340000000000,"state":"active","ping":64},{"user_id":32,"name":"the gamer hermit crab","steam_id":76561198969402276,"connected_time":2557000000000,"state":"active","ping":51},{"user_id":62,"name":"Uulinium","steam_id":76561198087252897,"connected_time":517000000000,"state":"active","ping":111},{"user_id":68,"name":"rice white","steam_id":76561198320732910,"connected_time":113000000000,"state":"active","ping":74},{"user_id":47,"name":"BigBubble42","steam_id":76561198136286123,"connected_time":1744000000000,"state":"active","ping":62}]},{"server_id":402,"name":"Uncletopia | Chicago | 3 | All Maps","name_short":"chi-3","host":"chi-1.us.uncletopia.com","port":27035,"enabled":true,"region":"us-central","cc":"us","latitude":41.881832,"longitude":-87.62318,"reserved":0,"last_update":"0001-01-01T00:00:00Z","name_a2s":"Uncletopia | Chicago | 3 | All Maps","protocol":17,"map":"koth_highpass","folder":"tf","game":"Team Fortress","app_id":440,"player_count":24,"max_players":24,"Bots":0,"server_type":"Dedicated","server_os":"Linux","password":true,"vac":true,"version":"7695204","steam_id":85568392924515191,"keywords":["cp","nocrits","nodmgspread","uncletopia"],"game_id":440,"stv_port":27036,"stv_name":"Uncletopia | Chicago | 3 | All Maps | STV","players":[{"user_id":149,"name":"Reindeer Poacher","steam_id":76561198867626964,"connected_time":10000000000,"state":"active","ping":119},{"user_id":144,"name":"ly","steam_id":76561198062922146,"connected_time":351000000000,"state":"active","ping":76},{"user_id":140,"name":"Tuvok Shakur","steam_id":76561198018875334,"connected_time":610000000000,"state":"active","ping":105},{"user_id":79,"name":"Adam (Cursed Confetti Creature)","steam_id":76561198317690197,"connected_time":5579000000000,"state":"active","ping":45},{"user_id":142,"name":"la loveiathenne","steam_id":76561198046394237,"connected_time":492000000000,"state":"active","ping":89},{"user_id":122,"name":"CreateADebate","steam_id":76561198115760035,"connected_time":1839000000000,"state":"active","ping":74},{"user_id":130,"name":"john Bloodborne","steam_id":76561199002452936,"connected_time":1340000000000,"state":"active","ping":55},{"user_id":102,"name":"BudTuggly","steam_id":76561198026873580,"connected_time":2926000000000,"state":"active","ping":45},{"user_id":143,"name":"10footlongschlong","steam_id":76561198291160259,"connected_time":376000000000,"state":"active","ping":61},{"user_id":27,"name":"s4int_","steam_id":76561198201919804,"connected_time":9014000000000,"state":"active","ping":67},{"user_id":141,"name":"claire","steam_id":76561198127525888,"connected_time":549000000000,"state":"active","ping":72},{"user_id":136,"name":"AnalConquest666","steam_id":76561198218558897,"connected_time":864000000000,"state":"active","ping":121},{"user_id":80,"name":"defs98","steam_id":76561198134813102,"connected_time":5573000000000,"state":"active","ping":59},{"user_id":145,"name":"king of bogers","steam_id":76561198045731295,"connected_time":349000000000,"state":"active","ping":68},{"user_id":134,"name":"A Kawaii Dog Named Kenny","steam_id":76561198093246817,"connected_time":938000000000,"state":"active","ping":51},{"user_id":137,"name":"R3PurpleOwl","steam_id":76561198049212557,"connected_time":852000000000,"state":"active","ping":101},{"user_id":148,"name":"Phyyrin","steam_id":76561198154532657,"connected_time":202000000000,"state":"active","ping":95},{"user_id":131,"name":"Beef Wellington","steam_id":76561197995635241,"connected_time":1060000000000,"state":"active","ping":63},{"user_id":147,"name":"strangedeath","steam_id":76561198154159297,"connected_time":342000000000,"state":"active","ping":76},{"user_id":90,"name":"AkimboAoki","steam_id":76561198158323058,"connected_time":4163000000000,"state":"active","ping":100},{"user_id":113,"name":"hops_a_pops","steam_id":76561198210902109,"connected_time":2203000000000,"state":"active","ping":75},{"user_id":118,"name":"id rather you not","steam_id":76561198161824724,"connected_time":2027000000000,"state":"active","ping":93},{"user_id":101,"name":"Henk_de_Patatman","steam_id":76561198070103191,"connected_time":3106000000000,"state":"active","ping":136},{"user_id":125,"name":"a baby","steam_id":76561198008662184,"connected_time":1827000000000,"state":"active","ping":64}]},{"server_id":403,"name":"Uncletopia | Chicago | 4 | All Maps","name_short":"chi-4","host":"chi-1.us.uncletopia.com","port":27045,"enabled":true,"region":"us-central","cc":"us","latitude":41.881832,"longitude":-87.62318,"reserved":0,"last_update":"0001-01-01T00:00:00Z","name_a2s":"Uncletopia | Chicago | 4 | All Maps","protocol":17,"map":"koth_highpass","folder":"tf","game":"Team Fortress","app_id":440,"player_count":11,"max_players":24,"Bots":0,"server_type":"Dedicated","server_os":"Linux","password":true,"vac":true,"version":"7695204","steam_id":85568392924515193,"keywords":["cp","nocrits","nodmgspread","uncletopia"],"game_id":440,"stv_port":0,"stv_name":"","players":[{"user_id":5,"name":"peepleus","steam_id":76561198013830903,"connected_time":2080000000000,"state":"active","ping":62},{"user_id":7,"name":"Purple","steam_id":76561198067335111,"connected_time":1982000000000,"state":"active","ping":48},{"user_id":15,"name":"jinsa315","steam_id":76561199433723319,"connected_time":668000000000,"state":"active","ping":58},{"user_id":9,"name":"toastman","steam_id":76561198207073088,"connected_time":1398000000000,"state":"active","ping":60},{"user_id":17,"name":"KevCraft","steam_id":76561199000622939,"connected_time":97000000000,"state":"active","ping":57},{"user_id":16,"name":"gabebarron27","steam_id":76561199390578153,"connected_time":206000000000,"state":"active","ping":67},{"user_id":12,"name":"That Dude","steam_id":76561198980486227,"connected_time":1019000000000,"state":"active","ping":118},{"user_id":14,"name":"Zackariah","steam_id":76561198848362267,"connected_time":792000000000,"state":"active","ping":47},{"user_id":18,"name":"Grease monkey","steam_id":76561199229169396,"connected_time":82000000000,"state":"active","ping":54},{"user_id":19,"name":"Papi Pescado","steam_id":76561198039500575,"connected_time":70000000000,"state":"active","ping":85},{"user_id":20,"name":"Sir Loincloth","steam_id":76561198033073991,"connected_time":45000000000,"state":"active","ping":70}]},{"server_id":36,"name":"Uncletopia | Chicago | 5 | All Maps","name_short":"chi-5","host":"chi-2.us.uncletopia.com","port":27015,"enabled":true,"region":"us-central","cc":"us","latitude":41.881832,"longitude":-87.62318,"reserved":0,"last_update":"0001-01-01T00:00:00Z","name_a2s":"Uncletopia | Chicago | 5 | All Maps","protocol":17,"map":"koth_cascade","folder":"tf","game":"Team Fortress","app_id":440,"player_count":0,"max_players":24,"Bots":0,"server_type":"Dedicated","server_os":"Linux","password":true,"vac":true,"version":"7695204","steam_id":85568392924866362,"keywords":["cp","nocrits","nodmgspread","uncletopia"],"game_id":440,"stv_port":27016,"stv_name":"Uncletopia | Chicago | 5 | All Maps | STV","players":null},{"server_id":37,"name":"Uncletopia | Chicago | 6 | All Maps","name_short":"chi-6","host":"chi-2.us.uncletopia.com","port":27025,"enabled":true,"region":"us-central","cc":"us","latitude":41.881832,"longitude":-87.62318,"reserved":0,"last_update":"0001-01-01T00:00:00Z","name_a2s":"Uncletopia | Chicago | 6 | All Maps","protocol":17,"map":"cp_mountainlab","folder":"tf","game":"Team Fortress","app_id":440,"player_count":0,"max_players":24,"Bots":0,"server_type":"Dedicated","server_os":"Linux","password":true,"vac":true,"version":"7695204","steam_id":85568392924866363,"keywords":["cp","nocrits","nodmgspread","uncletopia"],"game_id":440,"stv_port":27026,"stv_name":"Uncletopia | Chicago | 6 | All Maps | STV","players":null},{"server_id":38,"name":"Uncletopia | Chicago | 7 | No Payload","name_short":"chi-7","host":"chi-2.us.uncletopia.com","port":27035,"enabled":true,"region":"us-central","cc":"us","latitude":41.881832,"longitude":-87.62318,"reserved":0,"last_update":"0001-01-01T00:00:00Z","name_a2s":"Uncletopia | Chicago | 7 | No Payload","protocol":17,"map":"cp_metalworks","folder":"tf","game":"Team Fortress","app_id":440,"player_count":0,"max_players":24,"Bots":0,"server_type":"Dedicated","server_os":"Linux","password":true,"vac":true,"version":"7695204","steam_id":85568392924866364,"keywords":["cp","nocrits","nodmgspread","uncletopia"],"game_id":440,"stv_port":27036,"stv_name":"Uncletopia | Chicago | 7 | No Payload | STV","players":null},{"server_id":39,"name":"Uncletopia | Chicago | 8 | Community","name_short":"chi-8","host":"chi-2.us.uncletopia.com","port":27045,"enabled":true,"region":"us-central","cc":"us","latitude":41.881832,"longitude":-87.62318,"reserved":0,"last_update":"0001-01-01T00:00:00Z","name_a2s":"Uncletopia | Chicago | 8 | Community","protocol":17,"map":"cp_altitude","folder":"tf","game":"Team Fortress","app_id":440,"player_count":0,"max_players":24,"Bots":0,"server_type":"Dedicated","server_os":"Linux","password":true,"vac":true,"version":"7695204","steam_id":85568392924866365,"keywords":["cp","nocrits","nodmgspread","uncletopia"],"game_id":440,"stv_port":0,"stv_name":"","players":null},{"server_id":8,"name":"Uncletopia | Dallas | 1 | All Maps","name_short":"dal-1","host":"dal-1.us.uncletopia.com","port":27015,"enabled":true,"region":"us-central","cc":"us","latitude":32.779167,"longitude":-96.80889,"reserved":0,"last_update":"0001-01-01T00:00:00Z","name_a2s":"Uncletopia | Dallas | 1 | All Maps","protocol":17,"map":"koth_viaduct","folder":"tf","game":"Team Fortress","app_id":440,"player_count":0,"max_players":24,"Bots":0,"server_type":"Dedicated","server_os":"Linux","password":true,"vac":true,"version":"7695204","steam_id":85568392924469986,"keywords":["cp","nocrits","nodmgspread","uncletopia"],"game_id":440,"stv_port":27016,"stv_name":"Uncletopia | Dallas | 1 | All Maps | STV","players":null},{"server_id":108,"name":"Uncletopia | Dallas | 2 | All Maps","name_short":"dal-2","host":"dal-1.us.uncletopia.com","port":27025,"enabled":true,"region":"us-central","cc":"us","latitude":32.779167,"longitude":-96.80889,"reserved":0,"last_update":"0001-01-01T00:00:00Z","name_a2s":"Uncletopia | Dallas | 2 | All Maps","protocol":17,"map":"cp_mountainlab","folder":"tf","game":"Team Fortress","app_id":440,"player_count":0,"max_players":24,"Bots":0,"server_type":"Dedicated","server_os":"Linux","password":true,"vac":true,"version":"7695204","steam_id":85568392924469988,"keywords":["cp","nocrits","nodmgspread","uncletopia"],"game_id":440,"stv_port":0,"stv_name":"","players":null},{"server_id":5,"name":"Uncletopia | Frankfurt | 1 | All Maps","name_short":"frk-1","host":"frk-1.de.uncletopia.com","port":27015,"enabled":true,"region":"eu","cc":"de","latitude":50.110924,"longitude":8.682127,"reserved":0,"last_update":"0001-01-01T00:00:00Z","name_a2s":"Uncletopia | Frankfurt | 1 | All Maps","protocol":17,"map":"cp_sunshine","folder":"tf","game":"Team Fortress","app_id":440,"player_count":0,"max_players":24,"Bots":0,"server_type":"Dedicated","server_os":"Linux","password":true,"vac":true,"version":"7695204","steam_id":85568392924469989,"keywords":["cp","nocrits","nodmgspread","uncletopia"],"game_id":440,"stv_port":27016,"stv_name":"Uncletopia | Frankfurt | 1 | All Maps | STV","players":null},{"server_id":110,"name":"Uncletopia | Frankfurt | 2 | All Maps","name_short":"frk-2","host":"frk-1.de.uncletopia.com","port":27025,"enabled":true,"region":"eu","cc":"de","latitude":50.110924,"longitude":8.682127,"reserved":0,"last_update":"0001-01-01T00:00:00Z","name_a2s":"Uncletopia | Frankfurt | 2 | All Maps","protocol":17,"map":"pl_upward","folder":"tf","game":"Team Fortress","app_id":440,"player_count":24,"max_players":24,"Bots":0,"server_type":"Dedicated","server_os":"Linux","password":true,"vac":true,"version":"7695204","steam_id":85568392924469990,"keywords":["nocrits","nodmgspread","payload","uncletopia"],"game_id":440,"stv_port":27026,"stv_name":"Uncletopia | Frankfurt | 2 | All Maps | STV","players":[{"user_id":278,"name":"i am not famous anymore","steam_id":76561197994300335,"connected_time":804000000000,"state":"active","ping":77},{"user_id":279,"name":"Andy","steam_id":76561198136364381,"connected_time":793000000000,"state":"active","ping":51},{"user_id":297,"name":"Gabys","steam_id":76561198282892553,"connected_time":194000000000,"state":"active","ping":75},{"user_id":280,"name":"Tao","steam_id":76561198036750896,"connected_time":788000000000,"state":"active","ping":52},{"user_id":300,"name":"trans werewolf","steam_id":76561198107235989,"connected_time":82000000000,"state":"active","ping":65},{"user_id":238,"name":"SvbK","steam_id":76561198201478866,"connected_time":3856000000000,"state":"active","ping":84},{"user_id":295,"name":":)","steam_id":76561198039964082,"connected_time":296000000000,"state":"active","ping":56},{"user_id":269,"name":"MAKENTAKEN","steam_id":76561199127359587,"connected_time":1547000000000,"state":"active","ping":95},{"user_id":208,"name":"2 Bugatti Richh","steam_id":76561198122416996,"connected_time":5155000000000,"state":"active","ping":51},{"user_id":254,"name":"Ablativus","steam_id":76561198025698470,"connected_time":2662000000000,"state":"active","ping":64},{"user_id":277,"name":"0 DAMAGE ROCKET","steam_id":76561198377533237,"connected_time":858000000000,"state":"active","ping":73},{"user_id":281,"name":"Kovalski","steam_id":76561199092689216,"connected_time":782000000000,"state":"active","ping":84},{"user_id":231,"name":"player","steam_id":76561198054474684,"connected_time":4247000000000,"state":"active","ping":73},{"user_id":268,"name":"Aquatical","steam_id":76561198097333170,"connected_time":1618000000000,"state":"active","ping":91},{"user_id":284,"name":"21 barni","steam_id":76561198170420173,"connected_time":737000000000,"state":"active","ping":82},{"user_id":272,"name":"Welder","steam_id":76561198355300561,"connected_time":1310000000000,"state":"active","ping":68},{"user_id":242,"name":"LOBZIK","steam_id":76561198114830120,"connected_time":3728000000000,"state":"active","ping":82},{"user_id":228,"name":"Max Andrew","steam_id":76561198158955194,"connected_time":4321000000000,"state":"active","ping":69},{"user_id":246,"name":"Bentoman","steam_id":76561198154956469,"connected_time":2896000000000,"state":"active","ping":62},{"user_id":301,"name":"–°–ª–µ–ø–æ–π –ü—å—é","steam_id":76561198370392066,"connected_time":77000000000,"state":"active","ping":79},{"user_id":290,"name":"invis","steam_id":76561198120668070,"connected_time":486000000000,"state":"active","ping":62},{"user_id":296,"name":"SenSation314","steam_id":76561198224663720,"connected_time":253000000000,"state":"active","ping":182},{"user_id":292,"name":"Deltoid-Detlef","steam_id":76561198039886379,"connected_time":421000000000,"state":"active","ping":71},{"user_id":299,"name":"Futaba","steam_id":76561199000012281,"connected_time":158000000000,"state":"active","ping":90}]},{"server_id":308,"name":"Uncletopia | Frankfurt | 3 | All Maps","name_short":"frk-3","host":"frk-1.de.uncletopia.com","port":27035,"enabled":true,"region":"eu","cc":"de","latitude":50.110924,"longitude":8.682127,"reserved":0,"last_update":"0001-01-01T00:00:00Z","name_a2s":"Uncletopia | Frankfurt | 3 | All Maps","protocol":17,"map":"pl_pier","folder":"tf","game":"Team Fortress","app_id":440,"player_count":24,"max_players":24,"Bots":0,"server_type":"Dedicated","server_os":"Linux","password":true,"vac":true,"version":"7695204","steam_id":85568392924504274,"keywords":["nocrits","nodmgspread","payload","uncletopia"],"game_id":440,"stv_port":27036,"stv_name":"Uncletopia | Frankfurt | 3 | All Maps | STV","players":[{"user_id":247,"name":"Optimist 50","steam_id":76561198039631442,"connected_time":6277000000000,"state":"active","ping":85},{"user_id":385,"name":"Realist 40","steam_id":76561198052476979,"connected_time":3080000000000,"state":"active","ping":75},{"user_id":360,"name":"sex","steam_id":76561198412197820,"connected_time":3593000000000,"state":"active","ping":68},{"user_id":440,"name":"Professional Gibus Spy (F2P)","steam_id":76561199082683456,"connected_time":487000000000,"state":"active","ping":118},{"user_id":434,"name":"Tomamo","steam_id":76561198258031112,"connected_time":746000000000,"state":"active","ping":62},{"user_id":388,"name":"Redmailbox","steam_id":76561198042930322,"connected_time":2952000000000,"state":"active","ping":61},{"user_id":428,"name":"Sodemo","steam_id":76561198074987146,"connected_time":993000000000,"state":"active","ping":42},{"user_id":422,"name":"E_WM","steam_id":76561198283432737,"connected_time":1471000000000,"state":"active","ping":95},{"user_id":401,"name":"Grim the lemon","steam_id":76561199083433988,"connected_time":2088000000000,"state":"active","ping":60},{"user_id":443,"name":"shoras","steam_id":76561198019680159,"connected_time":212000000000,"state":"active","ping":79},{"user_id":368,"name":"Stepoface","steam_id":76561198091569863,"connected_time":3398000000000,"state":"active","ping":59},{"user_id":444,"name":"flareshmoney","steam_id":76561198101292843,"connected_time":183000000000,"state":"active","ping":51},{"user_id":438,"name":"gfjhsdf","steam_id":76561198136736426,"connected_time":573000000000,"state":"active","ping":56},{"user_id":439,"name":"Greed","steam_id":76561198034264020,"connected_time":510000000000,"state":"active","ping":103},{"user_id":442,"name":"Ariel ‚®Å ·ö®·ö±·õÅ·õñ·õöüå™","steam_id":76561198011340227,"connected_time":331000000000,"state":"active","ping":65},{"user_id":436,"name":"Joemamasaur","steam_id":76561198094430039,"connected_time":677000000000,"state":"active","ping":64},{"user_id":430,"name":"Bobby Wasabi 2007","steam_id":76561197988085026,"connected_time":965000000000,"state":"active","ping":59},{"user_id":407,"name":"ToniGAM3S","steam_id":76561198128605351,"connected_time":1937000000000,"state":"active","ping":57},{"user_id":423,"name":"Hasamnas","steam_id":76561199125038537,"connected_time":1385000000000,"state":"active","ping":58},{"user_id":420,"name":"Prox","steam_id":76561198351490981,"connected_time":1576000000000,"state":"active","ping":56},{"user_id":289,"name":"Zerfesh","steam_id":76561198117534358,"connected_time":5357000000000,"state":"active","ping":89},{"user_id":437,"name":"mohammed","steam_id":76561198156087581,"connected_time":624000000000,"state":"active","ping":68},{"user_id":405,"name":"tob:ias","steam_id":76561198832146626,"connected_time":1958000000000,"state":"active","ping":49},{"user_id":224,"name":"breedable","steam_id":76561198010300032,"connected_time":7452000000000,"state":"active","ping":67}]},{"server_id":309,"name":"Uncletopia | Frankfurt | 4 | All Maps","name_short":"frk-4","host":"frk-1.de.uncletopia.com","port":27045,"enabled":true,"region":"eu","cc":"de","latitude":50.110924,"longitude":8.682127,"reserved":0,"last_update":"0001-01-01T00:00:00Z","name_a2s":"Uncletopia | Frankfurt | 4 | All Maps","protocol":17,"map":"pl_upward","folder":"tf","game":"Team Fortress","app_id":440,"player_count":8,"max_players":24,"Bots":0,"server_type":"Dedicated","server_os":"Linux","password":true,"vac":true,"version":"7695204","steam_id":85568392924504275,"keywords":["nocrits","nodmgspread","payload","uncletopia"],"game_id":440,"stv_port":27046,"stv_name":"Uncletopia | Frankfurt | 4 | All Maps | STV","players":[{"user_id":10,"name":"Dasmonson","steam_id":76561199029771850,"connected_time":4626000000000,"state":"active","ping":111},{"user_id":11,"name":"bin.","steam_id":76561198805497064,"connected_time":4588000000000,"state":"active","ping":80},{"user_id":32,"name":"Kahvi","steam_id":76561198723244199,"connected_time":3000000000,"state":"spawning","ping":86},{"user_id":21,"name":"benifis163","steam_id":76561198420973492,"connected_time":913000000000,"state":"active","ping":99},{"user_id":23,"name":"Spicyfruits","steam_id":76561198157322959,"connected_time":851000000000,"state":"active","ping":108},{"user_id":25,"name":"üåüüéÑ‚ùÑFestive MEGOS‚ùÑüéÑ","steam_id":76561198172740637,"connected_time":502000000000,"state":"active","ping":51},{"user_id":26,"name":"sethlington14","steam_id":76561199438357690,"connected_time":480000000000,"state":"active","ping":62},{"user_id":29,"name":"Carry Krypl","steam_id":76561198136938121,"connected_time":347000000000,"state":"active","ping":47}]},{"server_id":310,"name":"Uncletopia | Frankfurt | 5 | All Maps","name_short":"frk-5","host":"frk-1.de.uncletopia.com","port":27055,"enabled":true,"region":"eu","cc":"de","latitude":50.110924,"longitude":8.682127,"reserved":0,"last_update":"0001-01-01T00:00:00Z","name_a2s":"Uncletopia | Frankfurt | 5 | All Maps","protocol":17,"map":"koth_highpass","folder":"tf","game":"Team Fortress","app_id":440,"player_count":0,"max_players":24,"Bots":0,"server_type":"Dedicated","server_os":"Linux","password":true,"vac":true,"version":"7695204","steam_id":85568392924504277,"keywords":["cp","nocrits","nodmgspread","uncletopia"],"game_id":440,"stv_port":27056,"stv_name":"Uncletopia | Frankfurt | 5 | All Maps | STV","players":null},{"server_id":311,"name":"Uncletopia | Frankfurt | 6 | All Maps","name_short":"frk-6","host":"frk-1.de.uncletopia.com","port":27065,"enabled":true,"region":"eu","cc":"de","latitude":50.110924,"longitude":8.682127,"reserved":0,"last_update":"0001-01-01T00:00:00Z","name_a2s":"Uncletopia | Frankfurt | 6 | All Maps","protocol":17,"map":"cp_mountainlab","folder":"tf","game":"Team Fortress","app_id":440,"player_count":24,"max_players":24,"Bots":0,"server_type":"Dedicated","server_os":"Linux","password":true,"vac":true,"version":"7695204","steam_id":85568392924504278,"keywords":["cp","nocrits","nodmgspread","uncletopia"],"game_id":440,"stv_port":27066,"stv_name":"Uncletopia | Frankfurt | 6 | All Maps | STV","players":[{"user_id":274,"name":"galaxy","steam_id":76561198164819022,"connected_time":7935000000000,"state":"active","ping":62},{"user_id":334,"name":"Taewinzer","steam_id":76561198261820803,"connected_time":4541000000000,"state":"active","ping":74},{"user_id":316,"name":"muza‚ô•","steam_id":76561198220183377,"connected_time":5789000000000,"state":"active","ping":106},{"user_id":350,"name":"Ixsus\u003c3","steam_id":76561198094756869,"connected_time":3472000000000,"state":"active","ping":58},{"user_id":374,"name":"petr.kadera","steam_id":76561198310852145,"connected_time":1509000000000,"state":"active","ping":59},{"user_id":367,"name":"kurlyk","steam_id":76561198837861763,"connected_time":2309000000000,"state":"active","ping":192},{"user_id":384,"name":"Seitec","steam_id":76561197962965293,"connected_time":1341000000000,"state":"active","ping":64},{"user_id":377,"name":"joe (real)","steam_id":76561198875409640,"connected_time":1467000000000,"state":"active","ping":64},{"user_id":363,"name":"Kuna ‚ò©","steam_id":76561199012155377,"connected_time":2592000000000,"state":"active","ping":43},{"user_id":375,"name":"moki","steam_id":76561198314358032,"connected_time":1502000000000,"state":"active","ping":82},{"user_id":373,"name":"Dummy","steam_id":76561198349741126,"connected_time":1519000000000,"state":"active","ping":75},{"user_id":360,"name":"Washburne","steam_id":76561198032810579,"connected_time":2818000000000,"state":"active","ping":57},{"user_id":378,"name":"RazOverdrive","steam_id":76561198000794210,"connected_time":1461000000000,"state":"active","ping":54},{"user_id":324,"name":"1","steam_id":76561199259135692,"connected_time":5561000000000,"state":"active","ping":90},{"user_id":368,"name":"Soerlssoelss√∂en","steam_id":76561197993060585,"connected_time":2265000000000,"state":"active","ping":66},{"user_id":379,"name":"Ducky[WADZ]üê§","steam_id":76561198060341245,"connected_time":1457000000000,"state":"active","ping":53},{"user_id":385,"name":"tealoverr.190","steam_id":76561199028497703,"connected_time":1288000000000,"state":"active","ping":100},{"user_id":391,"name":"God Eater","steam_id":76561199107770206,"connected_time":102000000000,"state":"active","ping":97},{"user_id":387,"name":"Dolcelatte","steam_id":76561198038501770,"connected_time":1082000000000,"state":"active","ping":46},{"user_id":366,"name":"Sphinx","steam_id":76561198874511283,"connected_time":2351000000000,"state":"active","ping":90},{"user_id":327,"name":"Rhino.","steam_id":76561198065951617,"connected_time":5445000000000,"state":"active","ping":75},{"user_id":390,"name":"actually polish","steam_id":76561198267579078,"connected_time":124000000000,"state":"active","ping":75},{"user_id":389,"name":"Regan","steam_id":76561198100631086,"connected_time":354000000000,"state":"active","ping":61},{"user_id":386,"name":"Mr.O","steam_id":76561198039567498,"connected_time":1236000000000,"state":"active","ping":60}]},{"server_id":23,"name":"Uncletopia | Frankfurt | 7 | No Payload","name_short":"frk-7","host":"frk-1.de.uncletopia.com","port":27075,"enabled":true,"region":"eu","cc":"de","latitude":50.110924,"longitude":8.682127,"reserved":0,"last_update":"0001-01-01T00:00:00Z","name_a2s":"Uncletopia | Frankfurt | 7 | No Payload","protocol":17,"map":"koth_sawmill","folder":"tf","game":"Team Fortress","app_id":440,"player_count":24,"max_players":24,"Bots":0,"server_type":"Dedicated","server_os":"Linux","password":true,"vac":true,"version":"7695204","steam_id":85568392924742827,"keywords":["cp","nocrits","nodmgspread","uncletopia"],"game_id":440,"stv_port":27076,"stv_name":"Uncletopia | Frankfurt | 7 | No Payload | STV","players":[{"user_id":445,"name":"ppppppppppppppppppppppppppppppp","steam_id":76561199232442508,"connected_time":21000000000,"state":"active","ping":74},{"user_id":437,"name":"B4Pp0","steam_id":76561198199294097,"connected_time":915000000000,"state":"active","ping":61},{"user_id":431,"name":"paguro","steam_id":76561198119560871,"connected_time":1087000000000,"state":"active","ping":66},{"user_id":438,"name":"Enchiridion","steam_id":76561199156497840,"connected_time":270000000000,"state":"active","ping":61},{"user_id":427,"name":"Rebel Friend","steam_id":76561198046347156,"connected_time":1143000000000,"state":"active","ping":55},{"user_id":409,"name":"Vikep'S","steam_id":76561199002274689,"connected_time":2092000000000,"state":"active","ping":86},{"user_id":443,"name":"kotamine","steam_id":76561198068907991,"connected_time":177000000000,"state":"active","ping":67},{"user_id":389,"name":"Aspartus","steam_id":76561198101385763,"connected_time":3558000000000,"state":"active","ping":47},{"user_id":362,"name":"drippin jimmy","steam_id":76561198219243969,"connected_time":5218000000000,"state":"active","ping":62},{"user_id":444,"name":"magic","steam_id":76561198190687331,"connected_time":33000000000,"state":"active","ping":247},{"user_id":441,"name":"Micha≈Ç","steam_id":76561198320346362,"connected_time":200000000000,"state":"active","ping":57},{"user_id":435,"name":"Estyle","steam_id":76561198157804700,"connected_time":1024000000000,"state":"active","ping":89},{"user_id":432,"name":"miau!","steam_id":76561198053919062,"connected_time":1084000000000,"state":"active","ping":73},{"user_id":414,"name":"LuBieS","steam_id":76561198122635195,"connected_time":1907000000000,"state":"active","ping":57},{"user_id":415,"name":"chilemann","steam_id":76561199006812725,"connected_time":1901000000000,"state":"active","ping":51},{"user_id":446,"name":"Lemonady","steam_id":76561198378349222,"connected_time":19000000000,"state":"active","ping":80},{"user_id":434,"name":"7hero","steam_id":76561198118829945,"connected_time":1030000000000,"state":"active","ping":114},{"user_id":442,"name":"Bob Salami","steam_id":76561198150681340,"connected_time":183000000000,"state":"active","ping":75},{"user_id":436,"name":"jones","steam_id":76561198044434971,"connected_time":1018000000000,"state":"active","ping":62},{"user_id":242,"name":"noob_with_source","steam_id":76561198870362103,"connected_time":13253000000000,"state":"active","ping":60},{"user_id":420,"name":"Diana Ball","steam_id":76561198382533813,"connected_time":1793000000000,"state":"active","ping":71},{"user_id":395,"name":"EST_R33kid","steam_id":76561198947039734,"connected_time":3172000000000,"state":"active","ping":70},{"user_id":417,"name":"Warpzel65","steam_id":76561198799303596,"connected_time":1869000000000,"state":"active","ping":109},{"user_id":424,"name":"Cubwyn","steam_id":76561198873710099,"connected_time":1616000000000,"state":"active","ping":52}]},{"server_id":24,"name":"Uncletopia | Frankfurt | 8 | Community","name_short":"frk-8","host":"frk-1.de.uncletopia.com","port":27085,"enabled":true,"region":"eu","cc":"de","latitude":50.110924,"longitude":8.682127,"reserved":0,"last_update":"0001-01-01T00:00:00Z","name_a2s":"Uncletopia | Frankfurt | 8 | Community","protocol":17,"map":"koth_lakeside_final","folder":"tf","game":"Team Fortress","app_id":440,"player_count":0,"max_players":24,"Bots":0,"server_type":"Dedicated","server_os":"Linux","password":true,"vac":true,"version":"7695204","steam_id":85568392924742828,"keywords":["cp","nocrits","nodmgspread","uncletopia"],"game_id":440,"stv_port":0,"stv_name":"","players":null},{"server_id":202,"name":"Uncletopia | Hong Kong | 1 | All Maps","name_short":"hgk-1","host":"hgk-1.hk.uncletopia.com","port":27015,"enabled":true,"region":"asia","cc":"hk","latitude":22.302711,"longitude":114.177216,"reserved":0,"last_update":"0001-01-01T00:00:00Z","name_a2s":"Uncletopia | Hong Kong | 1 | All Maps","protocol":17,"map":"koth_viaduct","folder":"tf","game":"Team Fortress","app_id":440,"player_count":0,"max_players":24,"Bots":0,"server_type":"Dedicated","server_os":"Linux","password":true,"vac":true,"version":"7695204","steam_id":85568392924494504,"keywords":["cp","nocrits","nodmgspread","uncletopia"],"game_id":440,"stv_port":27016,"stv_name":"Uncletopia | Hong Kong | 1 | All Maps | STV","players":null},{"server_id":1,"name":"Uncletopia | Los Angeles | 1 | All Maps","name_short":"lax-1","host":"lax-1.us.uncletopia.com","port":27015,"enabled":true,"region":"us-west","cc":"us","latitude":33.94279,"longitude":-118.41004,"reserved":0,"last_update":"0001-01-01T00:00:00Z","name_a2s":"Uncletopia | Los Angeles | 1 | All Maps","protocol":17,"map":"cp_sunshine","folder":"tf","game":"Team Fortress","app_id":440,"player_count":0,"max_players":24,"Bots":0,"server_type":"Dedicated","server_os":"Linux","password":true,"vac":true,"version":"7695204","steam_id":85568392924469991,"keywords":["cp","nocrits","nodmgspread","uncletopia"],"game_id":440,"stv_port":0,"stv_name":"","players":null},{"server_id":112,"name":"Uncletopia | Los Angeles | 2 | All Maps","name_short":"lax-2","host":"lax-1.us.uncletopia.com","port":27025,"enabled":true,"region":"us-west","cc":"us","latitude":33.94279,"longitude":-118.41004,"reserved":0,"last_update":"0001-01-01T00:00:00Z","name_a2s":"Uncletopia | Los Angeles | 2 | All Maps","protocol":17,"map":"pl_barnblitz","folder":"tf","game":"Team Fortress","app_id":440,"player_count":0,"max_players":24,"Bots":0,"server_type":"Dedicated","server_os":"Linux","password":true,"vac":true,"version":"7695204","steam_id":85568392924469992,"keywords":["nocrits","nodmgspread","payload","uncletopia"],"game_id":440,"stv_port":27026,"stv_name":"Uncletopia | Los Angeles | 2 | All Maps | STV","players":null},{"server_id":324,"name":"Uncletopia | Los Angeles | 3 | All Maps","name_short":"lax-3","host":"lax-1.us.uncletopia.com","port":27035,"enabled":true,"region":"us-west","cc":"us","latitude":33.94279,"longitude":-118.41004,"reserved":0,"last_update":"0001-01-01T00:00:00Z","name_a2s":"Uncletopia | Los Angeles | 3 | All Maps","protocol":17,"map":"cp_mountainlab","folder":"tf","game":"Team Fortress","app_id":440,"player_count":0,"max_players":24,"Bots":0,"server_type":"Dedicated","server_os":"Linux","password":true,"vac":true,"version":"7695204","steam_id":85568392924510198,"keywords":["cp","nocrits","nodmgspread","uncletopia"],"game_id":440,"stv_port":0,"stv_name":"","players":null},{"server_id":25,"name":"Uncletopia | Los Angeles | 4 | No Payload","name_short":"lax-4","host":"lax-1.us.uncletopia.com","port":27045,"enabled":true,"region":"us-west","cc":"us","latitude":33.94279,"longitude":-118.41004,"reserved":0,"last_update":"0001-01-01T00:00:00Z","name_a2s":"Uncletopia | Los Angeles | 4 | No Payload","protocol":17,"map":"koth_highpass","folder":"tf","game":"Team Fortress","app_id":440,"player_count":1,"max_players":24,"Bots":0,"server_type":"Dedicated","server_os":"Linux","password":true,"vac":true,"version":"7695204","steam_id":85568392924510199,"keywords":["cp","nocrits","nodmgspread","uncletopia"],"game_id":440,"stv_port":27046,"stv_name":"Uncletopia | Los Angeles | 4 | No Payload | STV","players":[{"user_id":6,"name":"JAG","steam_id":76561199251178274,"connected_time":21000000000,"state":"spawning","ping":121}]},{"server_id":11,"name":"Uncletopia | London | 1 | All Maps","name_short":"lon-1","host":"lon-1.uk.uncletopia.com","port":27015,"enabled":true,"region":"eu","cc":"gb","latitude":51.509865,"longitude":-0.118092,"reserved":0,"last_update":"0001-01-01T00:00:00Z","name_a2s":"Uncletopia | London | 1 | All Maps","protocol":17,"map":"pl_frontier_final","folder":"tf","game":"Team Fortress","app_id":440,"player_count":24,"max_players":24,"Bots":0,"server_type":"Dedicated","server_os":"Linux","password":true,"vac":true,"version":"7695204","steam_id":85568392924367362,"keywords":["nocrits","nodmgspread","payload","uncletopia"],"game_id":440,"stv_port":27016,"stv_name":"Uncletopia | London | 1 | All Maps | STV","players":[{"user_id":312,"name":"ALARM","steam_id":76561198120686521,"connected_time":1076000000000,"state":"active","ping":69},{"user_id":305,"name":"kalaa ‚Ä†","steam_id":76561198134652336,"connected_time":1351000000000,"state":"active","ping":74},{"user_id":323,"name":"Tj0ckis","steam_id":76561198108854226,"connected_time":185000000000,"state":"active","ping":73},{"user_id":308,"name":"Yony","steam_id":76561199070569941,"connected_time":1112000000000,"state":"active","ping":70},{"user_id":272,"name":"festive jones","steam_id":76561198073975078,"connected_time":4450000000000,"state":"active","ping":49},{"user_id":285,"name":"Fred","steam_id":76561198107137362,"connected_time":3218000000000,"state":"active","ping":47},{"user_id":243,"name":"Mr_White","steam_id":76561198024615280,"connected_time":5295000000000,"state":"active","ping":68},{"user_id":309,"name":"Pipkins","steam_id":76561199177223922,"connected_time":1093000000000,"state":"active","ping":45},{"user_id":282,"name":"romaingallo","steam_id":76561198268112907,"connected_time":3362000000000,"state":"active","ping":54},{"user_id":290,"name":"Disasterday","steam_id":76561198044767090,"connected_time":2151000000000,"state":"active","ping":66},{"user_id":295,"name":"Pink Cheese","steam_id":76561198972186436,"connected_time":2056000000000,"state":"active","ping":73},{"user_id":301,"name":"chocolate flavoured femboy","steam_id":76561198819353867,"connected_time":1721000000000,"state":"active","ping":40},{"user_id":310,"name":"guy who snores hooonk mimimi","steam_id":76561198156394435,"connected_time":1092000000000,"state":"active","ping":36},{"user_id":319,"name":"smell_my_cheese","steam_id":76561198008517427,"connected_time":831000000000,"state":"active","ping":44},{"user_id":313,"name":"=flashpoint=","steam_id":76561197976774456,"connected_time":1074000000000,"state":"active","ping":46},{"user_id":318,"name":"Largo","steam_id":76561198844368927,"connected_time":902000000000,"state":"active","ping":75},{"user_id":322,"name":"yummy_treat_for_mr_beast","steam_id":76561198010251613,"connected_time":413000000000,"state":"active","ping":75},{"user_id":294,"name":"Hell Striker","steam_id":76561199023875942,"connected_time":2101000000000,"state":"active","ping":107},{"user_id":306,"name":"6CO2 + 6H2O ‚Üí C6H12O6 + 6O2","steam_id":76561198981516715,"connected_time":1158000000000,"state":"active","ping":33},{"user_id":315,"name":"moser23","steam_id":76561197960543171,"connected_time":1057000000000,"state":"active","ping":45},{"user_id":320,"name":"Kotlet schabowy","steam_id":76561198048983509,"connected_time":521000000000,"state":"active","ping":85},{"user_id":274,"name":"Chocofrolik","steam_id":76561198454779847,"connected_time":4338000000000,"state":"active","ping":63},{"user_id":316,"name":"Herr M√ºller","steam_id":76561198064876829,"connected_time":1048000000000,"state":"active","ping":164},{"user_id":324,"name":"AglioOloYo","steam_id":76561198026553503,"connected_time":67000000000,"state":"active","ping":129}]},{"server_id":114,"name":"Uncletopia | London | 2 | All Maps","name_short":"lon-2","host":"lon-1.uk.uncletopia.com","port":27025,"enabled":true,"region":"eu","cc":"gb","latitude":51.509865,"longitude":-0.118092,"reserved":0,"last_update":"0001-01-01T00:00:00Z","name_a2s":"Uncletopia | London | 2 | All Maps","protocol":17,"map":"cp_freight_final1","folder":"tf","game":"Team Fortress","app_id":440,"player_count":22,"max_players":24,"Bots":0,"server_type":"Dedicated","server_os":"Linux","password":true,"vac":true,"version":"7695204","steam_id":85568392924470941,"keywords":["cp","nocrits","nodmgspread","uncletopia"],"game_id":440,"stv_port":27026,"stv_name":"Uncletopia | London | 2 | All Maps | STV","players":[{"user_id":297,"name":"Haggabah,WhoPliesTheUmbralPath","steam_id":76561198846984399,"connected_time":595000000000,"state":"active","ping":89},{"user_id":301,"name":"Hattmannen","steam_id":76561198340884902,"connected_time":505000000000,"state":"active","ping":169},{"user_id":274,"name":"UnknownTM","steam_id":76561198262728330,"connected_time":2785000000000,"state":"active","ping":71},{"user_id":269,"name":"artonzhun","steam_id":76561198259104010,"connected_time":3041000000000,"state":"active","ping":71},{"user_id":270,"name":"MFA [pt]","steam_id":76561198021950957,"connected_time":3023000000000,"state":"active","ping":62},{"user_id":296,"name":"Fisher","steam_id":76561199092708122,"connected_time":667000000000,"state":"active","ping":147},{"user_id":317,"name":"Carrot","steam_id":76561198119340863,"connected_time":46000000000,"state":"active","ping":120},{"user_id":314,"name":"MONKEYBOYXD","steam_id":76561198156224952,"connected_time":147000000000,"state":"active","ping":72},{"user_id":302,"name":"Enrico Pallazzo","steam_id":76561197993555892,"connected_time":495000000000,"state":"active","ping":25},{"user_id":293,"name":"The MonSus Battle Bus","steam_id":76561199107189489,"connected_time":795000000000,"state":"active","ping":45},{"user_id":318,"name":"ApplePieAlive","steam_id":76561198396695859,"connected_time":25000000000,"state":"active","ping":62},{"user_id":310,"name":"JC","steam_id":76561198029213352,"connected_time":369000000000,"state":"active","ping":30},{"user_id":298,"name":"my mother","steam_id":76561199190383479,"connected_time":571000000000,"state":"active","ping":168},{"user_id":299,"name":"pepper","steam_id":76561198059782462,"connected_time":537000000000,"state":"active","ping":61},{"user_id":300,"name":"hammond the blithering idiot","steam_id":76561199263384620,"connected_time":518000000000,"state":"active","ping":128},{"user_id":316,"name":"sinx | nebitan","steam_id":76561198879865374,"connected_time":83000000000,"state":"active","ping":92},{"user_id":304,"name":"Sad Slut","steam_id":76561198838277022,"connected_time":484000000000,"state":"active","ping":78},{"user_id":305,"name":"A delicious Ph√¥","steam_id":76561198859709451,"connected_time":469000000000,"state":"active","ping":44},{"user_id":307,"name":"so much painz","steam_id":76561198240320806,"connected_time":403000000000,"state":"active","ping":75},{"user_id":308,"name":"Kaizoku","steam_id":76561198441081699,"connected_time":392000000000,"state":"active","ping":58},{"user_id":309,"name":"ZboubiZboub","steam_id":76561198085240093,"connected_time":391000000000,"state":"active","ping":61},{"user_id":311,"name":"Kokas","steam_id":76561197996786353,"connected_time":368000000000,"state":"active","ping":75}]},{"server_id":320,"name":"Uncletopia | London | 3 | All Maps","name_short":"lon-3","host":"lon-1.uk.uncletopia.com","port":27035,"enabled":true,"region":"eu","cc":"gb","latitude":51.509865,"longitude":-0.118092,"reserved":0,"last_update":"0001-01-01T00:00:00Z","name_a2s":"Uncletopia | London | 3 | All Maps","protocol":17,"map":"pl_borneo","folder":"tf","game":"Team Fortress","app_id":440,"player_count":24,"max_players":24,"Bots":0,"server_type":"Dedicated","server_os":"Linux","password":true,"vac":true,"version":"7695204","steam_id":85568392924510192,"keywords":["nocrits","nodmgspread","payload","uncletopia"],"game_id":440,"stv_port":27036,"stv_name":"Uncletopia | London | 3 | All Maps | STV","players":[{"user_id":570,"name":"pod","steam_id":76561198136259553,"connected_time":38000000000,"state":"active","ping":91},{"user_id":563,"name":"ksg","steam_id":76561198042894236,"connected_time":561000000000,"state":"active","ping":100},{"user_id":566,"name":"Ghost of pl_frontier","steam_id":76561198040444697,"connected_time":460000000000,"state":"active","ping":122},{"user_id":513,"name":"the boss","steam_id":76561198353190790,"connected_time":4295000000000,"state":"active","ping":76},{"user_id":531,"name":"Salesman","steam_id":76561198045527771,"connected_time":2496000000000,"state":"active","ping":51},{"user_id":496,"name":"Ross from F.R.I.E.N.D.S.","steam_id":76561198008511665,"connected_time":6281000000000,"state":"active","ping":59},{"user_id":552,"name":"dysesthesia","steam_id":76561198027159018,"connected_time":1214000000000,"state":"active","ping":164},{"user_id":559,"name":"G6 sherlock","steam_id":76561198802967796,"connected_time":946000000000,"state":"active","ping":111},{"user_id":524,"name":"Ross","steam_id":76561198965967986,"connected_time":3146000000000,"state":"active","ping":66},{"user_id":548,"name":"vfrc","steam_id":76561198430631575,"connected_time":1516000000000,"state":"active","ping":81},{"user_id":542,"name":"jaMie","steam_id":76561198170148783,"connected_time":2139000000000,"state":"active","ping":40},{"user_id":555,"name":"JOHN GAMING (based)","steam_id":76561199085822219,"connected_time":1168000000000,"state":"active","ping":79},{"user_id":569,"name":"FackinNoobs","steam_id":76561198076129936,"connected_time":106000000000,"state":"active","ping":66},{"user_id":562,"name":"clems17","steam_id":76561199420685482,"connected_time":715000000000,"state":"active","ping":57},{"user_id":304,"name":"Ôº≤ ÔºØ Ôº¢ Ôº¢ Ôº• Ôº≤ Ôº¥","steam_id":76561198134404830,"connected_time":17178000000000,"state":"active","ping":147},{"user_id":553,"name":"mmonkay","steam_id":76561198397360709,"connected_time":1187000000000,"state":"active","ping":50},{"user_id":539,"name":"Wardruna96","steam_id":76561199057083828,"connected_time":2244000000000,"state":"active","ping":85},{"user_id":564,"name":"cowdwogh","steam_id":76561197960509452,"connected_time":500000000000,"state":"active","ping":52},{"user_id":568,"name":"fl1p","steam_id":76561198148565659,"connected_time":379000000000,"state":"active","ping":73},{"user_id":474,"name":"Thunder","steam_id":76561198042433374,"connected_time":7212000000000,"state":"active","ping":39},{"user_id":558,"name":"Kapitan Polska","steam_id":76561197968069413,"connected_time":1119000000000,"state":"active","ping":67},{"user_id":549,"name":"soul catcher","steam_id":76561198099757669,"connected_time":1443000000000,"state":"active","ping":124},{"user_id":550,"name":"Savlon","steam_id":76561198011597274,"connected_time":1363000000000,"state":"active","ping":30},{"user_id":560,"name":"Taverino","steam_id":76561198041763546,"connected_time":834000000000,"state":"active","ping":47}]},{"server_id":321,"name":"Uncletopia | London | 4 | All Maps","name_short":"lon-4","host":"lon-1.uk.uncletopia.com","port":27045,"enabled":true,"region":"eu","cc":"gb","latitude":51.509865,"longitude":-0.118092,"reserved":0,"last_update":"0001-01-01T00:00:00Z","name_a2s":"Uncletopia | London | 4 | All Maps","protocol":17,"map":"koth_king","folder":"tf","game":"Team Fortress","app_id":440,"player_count":0,"max_players":24,"Bots":0,"server_type":"Dedicated","server_os":"Linux","password":true,"vac":true,"version":"7695204","steam_id":85568392924510193,"keywords":["cp","nocrits","nodmgspread","uncletopia"],"game_id":440,"stv_port":27046,"stv_name":"Uncletopia | London | 4 | All Maps | STV","players":null},{"server_id":21,"name":"Uncletopia | London | 5 | All Maps","name_short":"lon-5","host":"lon-1.uk.uncletopia.com","port":27055,"enabled":true,"region":"eu","cc":"gb","latitude":51.509865,"longitude":-0.118092,"reserved":0,"last_update":"0001-01-01T00:00:00Z","name_a2s":"Uncletopia | London | 5 | All Maps","protocol":17,"map":"pl_borneo","folder":"tf","game":"Team Fortress","app_id":440,"player_count":24,"max_players":24,"Bots":0,"server_type":"Dedicated","server_os":"Linux","password":true,"vac":true,"version":"7695204","steam_id":85568392924742829,"keywords":["nocrits","nodmgspread","payload","uncletopia"],"game_id":440,"stv_port":27056,"stv_name":"Uncletopia | London | 5 | All Maps | STV","players":[{"user_id":173,"name":"meratrof","steam_id":76561198181841702,"connected_time":625000000000,"state":"active","ping":115},{"user_id":175,"name":"Tasukeru","steam_id":76561198011909704,"connected_time":595000000000,"state":"active","ping":51},{"user_id":171,"name":"Blacksheep","steam_id":76561198019621063,"connected_time":663000000000,"state":"active","ping":45},{"user_id":166,"name":"MrBanana","steam_id":76561198116021623,"connected_time":872000000000,"state":"active","ping":60},{"user_id":143,"name":"Only my weapon understand me","steam_id":76561198799097492,"connected_time":2023000000000,"state":"active","ping":45},{"user_id":136,"name":"chachiply","steam_id":76561198316355509,"connected_time":2490000000000,"state":"active","ping":67},{"user_id":122,"name":"sumweeb","steam_id":76561198311624395,"connected_time":2991000000000,"state":"active","ping":36},{"user_id":176,"name":"roar","steam_id":76561198032516058,"connected_time":595000000000,"state":"active","ping":47},{"user_id":126,"name":"outin","steam_id":76561198137734730,"connected_time":2837000000000,"state":"active","ping":67},{"user_id":132,"name":"SynthBox3","steam_id":76561199094075745,"connected_time":2659000000000,"state":"active","ping":98},{"user_id":142,"name":"Mr. Huntsman","steam_id":76561197981910397,"connected_time":2072000000000,"state":"active","ping":59},{"user_id":169,"name":"Qwertuss","steam_id":76561198026305366,"connected_time":816000000000,"state":"active","ping":54},{"user_id":144,"name":"Billy Genie","steam_id":76561198061724014,"connected_time":2011000000000,"state":"active","ping":40},{"user_id":145,"name":"Yakashii","steam_id":76561198073297078,"connected_time":2006000000000,"state":"active","ping":66},{"user_id":177,"name":"Wangel","steam_id":76561199116413509,"connected_time":572000000000,"state":"active","ping":57},{"user_id":160,"name":"glyphoglossus molossus","steam_id":76561198191291749,"connected_time":1016000000000,"state":"active","ping":80},{"user_id":159,"name":"obi","steam_id":76561198040154461,"connected_time":1091000000000,"state":"active","ping":66},{"user_id":148,"name":"VolcanicArts","steam_id":76561198063453246,"connected_time":1957000000000,"state":"active","ping":41},{"user_id":172,"name":"flucK","steam_id":76561199078847021,"connected_time":661000000000,"state":"active","ping":89},{"user_id":69,"name":"gadgetelf","steam_id":76561198268418693,"connected_time":6861000000000,"state":"active","ping":41},{"user_id":179,"name":"The 4th Doctor","steam_id":76561198191516706,"connected_time":405000000000,"state":"active","ping":63},{"user_id":178,"name":"Blax","steam_id":76561198377155387,"connected_time":571000000000,"state":"active","ping":54},{"user_id":112,"name":"DinoDion","steam_id":76561198165449931,"connected_time":4068000000000,"state":"active","ping":52},{"user_id":164,"name":"Farmercy","steam_id":76561198000038039,"connected_time":915000000000,"state":"active","ping":72}]},{"server_id":22,"name":"Uncletopia | London | 6 | All Maps","name_short":"lon-6","host":"lon-1.uk.uncletopia.com","port":27065,"enabled":true,"region":"eu","cc":"gb","latitude":51.509865,"longitude":-0.118092,"reserved":0,"last_update":"0001-01-01T00:00:00Z","name_a2s":"Uncletopia | London | 6 | All Maps","protocol":17,"map":"pl_swiftwater_final1","folder":"tf","game":"Team Fortress","app_id":440,"player_count":8,"max_players":24,"Bots":0,"server_type":"Dedicated","server_os":"Linux","password":true,"vac":true,"version":"7695204","steam_id":85568392924742830,"keywords":["nocrits","nodmgspread","payload","uncletopia"],"game_id":440,"stv_port":27066,"stv_name":"Uncletopia | London | 6 | All Maps | STV","players":[{"user_id":19,"name":"tzlil","steam_id":76561198399916290,"connected_time":837000000000,"state":"active","ping":139},{"user_id":20,"name":"\u003e:3","steam_id":76561198368312026,"connected_time":805000000000,"state":"active","ping":60},{"user_id":21,"name":"1.99$ crippin","steam_id":76561198325760411,"connected_time":792000000000,"state":"active","ping":95},{"user_id":10,"name":"Suspicious Cabin","steam_id":76561198083261198,"connected_time":2384000000000,"state":"active","ping":51},{"user_id":22,"name":"gogiden23","steam_id":76561199271225607,"connected_time":275000000000,"state":"active","ping":61},{"user_id":23,"name":"Cazulas","steam_id":76561198027460283,"connected_time":203000000000,"state":"active","ping":62},{"user_id":14,"name":"Maya #transrights","steam_id":76561198290614621,"connected_time":2039000000000,"state":"active","ping":69},{"user_id":24,"name":"smjwels6","steam_id":76561198859868344,"connected_time":103000000000,"state":"active","ping":58}]},{"server_id":40,"name":"Uncletopia | London | 7 | No Payload","name_short":"lon-7","host":"lon-1.uk.uncletopia.com","port":27075,"enabled":true,"region":"eu","cc":"gb","latitude":51.509865,"longitude":-0.118092,"reserved":0,"last_update":"0001-01-01T00:00:00Z","name_a2s":"Uncletopia | London | 7 | No Payload","protocol":17,"map":"koth_lakeside_final","folder":"tf","game":"Team Fortress","app_id":440,"player_count":0,"max_players":24,"Bots":0,"server_type":"Dedicated","server_os":"Linux","password":true,"vac":true,"version":"7695204","steam_id":85568392924964314,"keywords":["cp","nocrits","nodmgspread","uncletopia"],"game_id":440,"stv_port":27076,"stv_name":"Uncletopia | London | 7 | No Payload | STV","players":null},{"server_id":41,"name":"Uncletopia | London | 8 | Community","name_short":"lon-8","host":"lon-1.uk.uncletopia.com","port":27085,"enabled":true,"region":"eu","cc":"gb","latitude":51.509865,"longitude":-0.118092,"reserved":0,"last_update":"0001-01-01T00:00:00Z","name_a2s":"Uncletopia | London | 8 | Community","protocol":17,"map":"workshop/pl_vigil_rc9.ugc1266210012","folder":"tf","game":"Team Fortress","app_id":440,"player_count":23,"max_players":24,"Bots":0,"server_type":"Dedicated","server_os":"Linux","password":true,"vac":true,"version":"7695204","steam_id":85568392924964315,"keywords":["nocrits","nodmgspread","payload","uncletopia"],"game_id":440,"stv_port":27086,"stv_name":"Uncletopia | London | 8 | Community | STV","players":[{"user_id":158,"name":"Joe Mother","steam_id":76561198858427770,"connected_time":241000000000,"state":"active","ping":191},{"user_id":8,"name":"User8","steam_id":76561198419902561,"connected_time":8735000000000,"state":"active","ping":40},{"user_id":22,"name":"ItsYeeman","steam_id":76561198066258291,"connected_time":5562000000000,"state":"active","ping":74},{"user_id":144,"name":"Bobo","steam_id":76561198052308399,"connected_time":796000000000,"state":"active","ping":59},{"user_id":156,"name":"toxxy the trash","steam_id":76561198279983364,"connected_time":267000000000,"state":"active","ping":69},{"user_id":104,"name":"EnchantedCoffee","steam_id":76561198371221467,"connected_time":2475000000000,"state":"active","ping":42},{"user_id":157,"name":"greg's mom","steam_id":76561198050525471,"connected_time":255000000000,"state":"active","ping":73},{"user_id":123,"name":"Fat Pigeon","steam_id":76561198817940142,"connected_time":1715000000000,"state":"active","ping":46},{"user_id":150,"name":"ÿ±Ÿàÿ®ŸäŸÉŸàÿ≥","steam_id":76561198823847982,"connected_time":467000000000,"state":"active","ping":90},{"user_id":24,"name":"Aristoratt","steam_id":76561198292700053,"connected_time":5526000000000,"state":"active","ping":67},{"user_id":107,"name":"Cyanasaurus_Red","steam_id":76561198165888933,"connected_time":2206000000000,"state":"active","ping":40},{"user_id":108,"name":"I jazzed myself","steam_id":76561198203016603,"connected_time":2163000000000,"state":"active","ping":49},{"user_id":131,"name":"LasagnaLarry22","steam_id":76561198089478290,"connected_time":1482000000000,"state":"active","ping":38},{"user_id":132,"name":"i am bread","steam_id":76561199180277321,"connected_time":1430000000000,"state":"active","ping":32},{"user_id":141,"name":"gojoel","steam_id":76561198251181946,"connected_time":888000000000,"state":"active","ping":38},{"user_id":119,"name":"Mondy","steam_id":76561198081196528,"connected_time":1781000000000,"state":"active","ping":59},{"user_id":162,"name":"max","steam_id":76561197976345859,"connected_time":119000000000,"state":"active","ping":51},{"user_id":147,"name":"Equinox","steam_id":76561199055592635,"connected_time":620000000000,"state":"active","ping":49},{"user_id":122,"name":"Laxslow","steam_id":76561198065361846,"connected_time":1745000000000,"state":"active","ping":69},{"user_id":135,"name":"D4SBOT","steam_id":76561198313297337,"connected_time":1360000000000,"state":"active","ping":91},{"user_id":154,"name":"Relocation Agent","steam_id":76561198026133917,"connected_time":331000000000,"state":"active","ping":102},{"user_id":159,"name":"Vinbing","steam_id":76561198140834992,"connected_time":198000000000,"state":"active","ping":71},{"user_id":93,"name":"JayoPlayer","steam_id":76561198332674208,"connected_time":2778000000000,"state":"active","ping":60}]},{"server_id":300,"name":"Uncletopia | Montr√©al | 1 | All Maps","name_short":"mtl-1","host":"mtl-1.ca.uncletopia.com","port":27015,"enabled":true,"region":"us-east","cc":"ca","latitude":45.50889,"longitude":-73.56167,"reserved":0,"last_update":"0001-01-01T00:00:00Z","name_a2s":"Uncletopia | Montr√©al | 1 | All Maps","protocol":17,"map":"koth_viaduct","folder":"tf","game":"Team Fortress","app_id":440,"player_count":0,"max_players":24,"Bots":0,"server_type":"Dedicated","server_os":"Linux","password":true,"vac":true,"version":"7695204","steam_id":85568392924500087,"keywords":["cp","nocrits","nodmgspread","uncletopia"],"game_id":440,"stv_port":27016,"stv_name":"Uncletopia | Montr√©al | 1 | All Maps | STV","players":null},{"server_id":301,"name":"Uncletopia | Montr√©al | 2 | All Maps","name_short":"mtl-2","host":"mtl-1.ca.uncletopia.com","port":27025,"enabled":true,"region":"us-east","cc":"ca","latitude":45.50889,"longitude":-73.56167,"reserved":0,"last_update":"0001-01-01T00:00:00Z","name_a2s":"Uncletopia | Montr√©al | 2 | All Maps","protocol":17,"map":"pl_snowycoast","folder":"tf","game":"Team Fortress","app_id":440,"player_count":0,"max_players":24,"Bots":0,"server_type":"Dedicated","server_os":"Linux","password":true,"vac":true,"version":"7695204","steam_id":85568392924500088,"keywords":["nocrits","nodmgspread","payload","uncletopia"],"game_id":440,"stv_port":0,"stv_name":"","players":null},{"server_id":302,"name":"Uncletopia | Montr√©al | 3 | All Maps","name_short":"mtl-3","host":"mtl-1.ca.uncletopia.com","port":27035,"enabled":true,"region":"us-east","cc":"ca","latitude":45.50889,"longitude":-73.56167,"reserved":0,"last_update":"0001-01-01T00:00:00Z","name_a2s":"Uncletopia | Montr√©al | 3 | All Maps","protocol":17,"map":"koth_viaduct","folder":"tf","game":"Team Fortress","app_id":440,"player_count":0,"max_players":24,"Bots":0,"server_type":"Dedicated","server_os":"Linux","password":true,"vac":true,"version":"7695204","steam_id":85568392924500089,"keywords":["cp","nocrits","nodmgspread","uncletopia"],"game_id":440,"stv_port":0,"stv_name":"","players":null},{"server_id":303,"name":"Uncletopia | Montr√©al | 4 | No Payload","name_short":"mtl-4","host":"mtl-1.ca.uncletopia.com","port":27045,"enabled":true,"region":"us-east","cc":"ca","latitude":45.50889,"longitude":-73.56167,"reserved":0,"last_update":"0001-01-01T00:00:00Z","name_a2s":"Uncletopia | Montr√©al | 4 | No Payload","protocol":17,"map":"cp_dustbowl","folder":"tf","game":"Team Fortress","app_id":440,"player_count":0,"max_players":24,"Bots":0,"server_type":"Dedicated","server_os":"Linux","password":true,"vac":true,"version":"7695204","steam_id":85568392924500090,"keywords":["cp","nocrits","nodmgspread","uncletopia"],"game_id":440,"stv_port":0,"stv_name":"","players":null},{"server_id":13,"name":"Uncletopia | New York City | 1 | All Maps","name_short":"nyc-1","host":"nyc-1.us.uncletopia.com","port":27015,"enabled":true,"region":"us-east","cc":"us","latitude":40.73061,"longitude":-73.93524,"reserved":0,"last_update":"0001-01-01T00:00:00Z","name_a2s":"Uncletopia | New York City | 1 | All Maps","protocol":17,"map":"pl_swiftwater_final1","folder":"tf","game":"Team Fortress","app_id":440,"player_count":23,"max_players":24,"Bots":0,"server_type":"Dedicated","server_os":"Linux","password":true,"vac":true,"version":"7695204","steam_id":85568392924469993,"keywords":["nocrits","nodmgspread","payload","uncletopia"],"game_id":440,"stv_port":27016,"stv_name":"Uncletopia | New York City | 1 | All Maps | STV","players":[{"user_id":78,"name":"poopass","steam_id":76561197988226228,"connected_time":3316000000000,"state":"active","ping":70},{"user_id":102,"name":"Pablo Sanchez","steam_id":76561197982219837,"connected_time":627000000000,"state":"active","ping":37},{"user_id":9,"name":"dan","steam_id":76561198061589465,"connected_time":7936000000000,"state":"active","ping":44},{"user_id":85,"name":"kiwiichie ‚Çç·ê¢·ê¢‚Çé","steam_id":76561198315449521,"connected_time":2809000000000,"state":"active","ping":66},{"user_id":106,"name":"Spirit","steam_id":76561199069322627,"connected_time":157000000000,"state":"active","ping":48},{"user_id":93,"name":"GreenDragon","steam_id":76561198087074246,"connected_time":1501000000000,"state":"active","ping":47},{"user_id":66,"name":"Drokkit","steam_id":76561197994405728,"connected_time":4532000000000,"state":"active","ping":84},{"user_id":74,"name":"Ghost","steam_id":76561198110914180,"connected_time":3492000000000,"state":"active","ping":169},{"user_id":92,"name":"Kritzburgh","steam_id":76561198149466938,"connected_time":1515000000000,"state":"active","ping":46},{"user_id":94,"name":"Slime","steam_id":76561198128358144,"connected_time":1491000000000,"state":"active","ping":48},{"user_id":107,"name":"ExtraSoap","steam_id":76561198008712409,"connected_time":47000000000,"state":"active","ping":47},{"user_id":104,"name":"schmink90","steam_id":76561199131248103,"connected_time":585000000000,"state":"active","ping":92},{"user_id":89,"name":"The Horse from Horsin' Around","steam_id":76561198332887086,"connected_time":1851000000000,"state":"active","ping":45},{"user_id":105,"name":"Geloman","steam_id":76561198005501322,"connected_time":396000000000,"state":"active","ping":67},{"user_id":98,"name":"HALO 3","steam_id":76561198020825795,"connected_time":1460000000000,"state":"active","ping":81},{"user_id":38,"name":"Johnnyrola","steam_id":76561198106316179,"connected_time":7177000000000,"state":"active","ping":49},{"user_id":41,"name":"Wahooka (Manrobics Instructor)","steam_id":76561197962240925,"connected_time":6935000000000,"state":"active","ping":45},{"user_id":99,"name":"themeanseenleangreenbeanmachine","steam_id":76561199232327942,"connected_time":1057000000000,"state":"active","ping":52},{"user_id":30,"name":"Galemek","steam_id":76561198161410911,"connected_time":7426000000000,"state":"active","ping":77},{"user_id":101,"name":"yeyoi","steam_id":76561198069821885,"connected_time":931000000000,"state":"active","ping":63},{"user_id":82,"name":"JA","steam_id":76561198308183330,"connected_time":3146000000000,"state":"active","ping":36},{"user_id":84,"name":"Carson","steam_id":76561198076771071,"connected_time":2885000000000,"state":"active","ping":60},{"user_id":88,"name":"Chaotic Rushu","steam_id":76561198170054407,"connected_time":1996000000000,"state":"active","ping":64}]},{"server_id":14,"name":"Uncletopia | New York City | 2 | All Maps","name_short":"nyc-2","host":"nyc-1.us.uncletopia.com","port":27025,"enabled":true,"region":"us-east","cc":"us","latitude":40.73061,"longitude":-73.93524,"reserved":0,"last_update":"0001-01-01T00:00:00Z","name_a2s":"Uncletopia | New York City | 2 | All Maps","protocol":17,"map":"pl_pier","folder":"tf","game":"Team Fortress","app_id":440,"player_count":3,"max_players":24,"Bots":0,"server_type":"Dedicated","server_os":"Linux","password":true,"vac":true,"version":"7695204","steam_id":85568392924469994,"keywords":["nocrits","nodmgspread","payload","uncletopia"],"game_id":440,"stv_port":27026,"stv_name":"Uncletopia | New York City | 2 | All Maps | STV","players":[{"user_id":29,"name":"Dreszerg","steam_id":76561198838757422,"connected_time":326000000000,"state":"active","ping":63},{"user_id":20,"name":".jpg","steam_id":76561198137237377,"connected_time":1136000000000,"state":"active","ping":60},{"user_id":8,"name":"agateduke","steam_id":76561199144842110,"connected_time":1690000000000,"state":"active","ping":167}]},{"server_id":15,"name":"Uncletopia | New York City | 3 | All Maps","name_short":"nyc-3","host":"nyc-1.us.uncletopia.com","port":27035,"enabled":true,"region":"us-east","cc":"us","latitude":40.73061,"longitude":-73.93524,"reserved":0,"last_update":"0001-01-01T00:00:00Z","name_a2s":"Uncletopia | New York City | 3 | All Maps","protocol":17,"map":"koth_lakeside_final","folder":"tf","game":"Team Fortress","app_id":440,"player_count":0,"max_players":24,"Bots":0,"server_type":"Dedicated","server_os":"Linux","password":true,"vac":true,"version":"7695204","steam_id":85568392924742820,"keywords":["cp","nocrits","nodmgspread","uncletopia"],"game_id":440,"stv_port":27036,"stv_name":"Uncletopia | New York City | 3 | All Maps | STV","players":null},{"server_id":16,"name":"Uncletopia | New York City | 4 | Community","name_short":"nyc-4","host":"nyc-1.us.uncletopia.com","port":27045,"enabled":true,"region":"us-east","cc":"us","latitude":40.73061,"longitude":-73.93524,"reserved":0,"last_update":"0001-01-01T00:00:00Z","name_a2s":"Uncletopia | New York City | 4 | Community","protocol":17,"map":"workshop/cp_sulfur_rc2.ugc619869471","folder":"tf","game":"Team Fortress","app_id":440,"player_count":0,"max_players":24,"Bots":0,"server_type":"Dedicated","server_os":"Linux","password":true,"vac":true,"version":"7695204","steam_id":85568392924742821,"keywords":["cp","nocrits","nodmgspread","uncletopia"],"game_id":440,"stv_port":27046,"stv_name":"Uncletopia | New York City | 4 | Community | STV","players":null},{"server_id":142,"name":"Uncletopia | S√£o Paulo | 1 | All Maps","name_short":"sao-1","host":"sao-1.br.uncletopia.com","port":27015,"enabled":true,"region":"sa","cc":"br","latitude":-23.533773,"longitude":-46.62529,"reserved":0,"last_update":"0001-01-01T00:00:00Z","name_a2s":"Uncletopia | S√£o Paulo | 1 | All Maps","protocol":17,"map":"koth_cascade","folder":"tf","game":"Team Fortress","app_id":440,"player_count":0,"max_players":24,"Bots":0,"server_type":"Dedicated","server_os":"Linux","password":true,"vac":true,"version":"7695204","steam_id":85568392924469996,"keywords":["cp","nocrits","nodmgspread","uncletopia"],"game_id":440,"stv_port":0,"stv_name":"","players":null},{"server_id":143,"name":"Uncletopia | S√£o Paulo | 2 | All Maps","name_short":"sao-2","host":"sao-2.br.uncletopia.com","port":27015,"enabled":true,"region":"sa","cc":"br","latitude":-23.533773,"longitude":-46.62529,"reserved":0,"last_update":"0001-01-01T00:00:00Z","name_a2s":"Uncletopia | S√£o Paulo | 2 | All Maps","protocol":17,"map":"pl_frontier_final","folder":"tf","game":"Team Fortress","app_id":440,"player_count":23,"max_players":24,"Bots":0,"server_type":"Dedicated","server_os":"Linux","password":true,"vac":true,"version":"7695204","steam_id":85568392924485349,"keywords":["nocrits","nodmgspread","payload","uncletopia"],"game_id":440,"stv_port":27016,"stv_name":"Uncletopia | S√£o Paulo | 2 | All Maps | STV","players":[{"user_id":73,"name":"Abiodon","steam_id":76561199001721897,"connected_time":1929000000000,"state":"active","ping":46},{"user_id":36,"name":"rotun","steam_id":76561199041035890,"connected_time":4078000000000,"state":"active","ping":43},{"user_id":86,"name":"bus driver","steam_id":76561199059062371,"connected_time":1050000000000,"state":"active","ping":45},{"user_id":87,"name":"Momo","steam_id":76561198143438576,"connected_time":1023000000000,"state":"active","ping":40},{"user_id":97,"name":"tes√£o em an√£o","steam_id":76561198014554133,"connected_time":60000000000,"state":"active","ping":51},{"user_id":32,"name":"F‚ôØ A‚ôØ ‚àû","steam_id":76561198118943620,"connected_time":4632000000000,"state":"active","ping":39},{"user_id":75,"name":"natalbuluc","steam_id":76561199090188453,"connected_time":1788000000000,"state":"active","ping":58},{"user_id":90,"name":"algumber","steam_id":76561199429426012,"connected_time":362000000000,"state":"active","ping":59},{"user_id":38,"name":"WAVE dimer","steam_id":76561198132959446,"connected_time":4050000000000,"state":"active","ping":84},{"user_id":39,"name":"Vic Rattlehead","steam_id":76561199232899925,"connected_time":3857000000000,"state":"active","ping":70},{"user_id":88,"name":"jumpa fofo","steam_id":76561199097626414,"connected_time":987000000000,"state":"active","ping":58},{"user_id":91,"name":"Zodd","steam_id":76561198940541282,"connected_time":245000000000,"state":"active","ping":68},{"user_id":49,"name":"ARK","steam_id":76561198253139686,"connected_time":3125000000000,"state":"active","ping":89},{"user_id":51,"name":"mimimito","steam_id":76561198002565927,"connected_time":3105000000000,"state":"active","ping":44},{"user_id":71,"name":"Gh‚ç§st‚ô´","steam_id":76561199058870253,"connected_time":2077000000000,"state":"active","ping":58},{"user_id":53,"name":"Cherry Cupcake","steam_id":76561198012448942,"connected_time":3091000000000,"state":"active","ping":44},{"user_id":54,"name":"videogames","steam_id":76561198012204309,"connected_time":3090000000000,"state":"active","ping":45},{"user_id":89,"name":"Pathetic","steam_id":76561198051056987,"connected_time":654000000000,"state":"active","ping":61},{"user_id":56,"name":"MilDol","steam_id":76561198338733365,"connected_time":3085000000000,"state":"active","ping":74},{"user_id":58,"name":"Ôº•ÔΩéÔΩÑÔΩÖÔΩíÔºÆÔΩÖÔΩÉÔΩíÔΩè","steam_id":76561198044304293,"connected_time":3072000000000,"state":"active","ping":37},{"user_id":95,"name":"SaladFingers","steam_id":76561198154118416,"connected_time":185000000000,"state":"active","ping":91},{"user_id":63,"name":"Every year is getting shorter","steam_id":76561198026672557,"connected_time":2886000000000,"state":"active","ping":45},{"user_id":92,"name":"ayumi","steam_id":76561197977365746,"connected_time":245000000000,"state":"active","ping":51}]},{"server_id":7,"name":"Uncletopia | Seattle | 1 | All Maps","name_short":"sea-1","host":"sea-1.us.uncletopia.com","port":27015,"enabled":true,"region":"us-west","cc":"us","latitude":47.608013,"longitude":-122.33517,"reserved":0,"last_update":"0001-01-01T00:00:00Z","name_a2s":"Uncletopia | Seattle | 1 | All Maps","protocol":17,"map":"pl_snowycoast","folder":"tf","game":"Team Fortress","app_id":440,"player_count":0,"max_players":24,"Bots":0,"server_type":"Dedicated","server_os":"Linux","password":true,"vac":true,"version":"7695204","steam_id":85568392924469997,"keywords":["nocrits","nodmgspread","payload","uncletopia"],"game_id":440,"stv_port":0,"stv_name":"","players":null},{"server_id":119,"name":"Uncletopia | Seattle | 2 | All Maps","name_short":"sea-2","host":"sea-1.us.uncletopia.com","port":27025,"enabled":true,"region":"us-west","cc":"us","latitude":47.608013,"longitude":-122.33517,"reserved":0,"last_update":"0001-01-01T00:00:00Z","name_a2s":"Uncletopia | Seattle | 2 | All Maps","protocol":17,"map":"pl_snowycoast","folder":"tf","game":"Team Fortress","app_id":440,"player_count":5,"max_players":24,"Bots":0,"server_type":"Dedicated","server_os":"Linux","password":true,"vac":true,"version":"7695204","steam_id":85568392924469998,"keywords":["nocrits","nodmgspread","payload","uncletopia"],"game_id":440,"stv_port":27026,"stv_name":"Uncletopia | Seattle | 2 | All Maps | STV","players":[{"user_id":13,"name":"trackpad gaming | f2p","steam_id":76561198840414371,"connected_time":496000000000,"state":"active","ping":45},{"user_id":11,"name":"frying pan","steam_id":76561198276866938,"connected_time":2532000000000,"state":"active","ping":103},{"user_id":9,"name":"Doctor Payne","steam_id":76561198025576587,"connected_time":3082000000000,"state":"active","ping":32},{"user_id":14,"name":"Whomsticot","steam_id":76561198406721885,"connected_time":408000000000,"state":"active","ping":60},{"user_id":16,"name":"reiidaya","steam_id":76561198325306660,"connected_time":65000000000,"state":"active","ping":48}]},{"server_id":17,"name":"Uncletopia | San Francisco | 1 | All Maps","name_short":"sfo-1","host":"sfo-1.us.uncletopia.com","port":27015,"enabled":true,"region":"us-west","cc":"us","latitude":37.77397,"longitude":-122.4313,"reserved":0,"last_update":"0001-01-01T00:00:00Z","name_a2s":"Uncletopia | San Francisco | 1 | All Maps","protocol":17,"map":"pl_upward","folder":"tf","game":"Team Fortress","app_id":440,"player_count":24,"max_players":24,"Bots":0,"server_type":"Dedicated","server_os":"Linux","password":true,"vac":true,"version":"7695204","steam_id":85568392924469999,"keywords":["nocrits","nodmgspread","payload","uncletopia"],"game_id":440,"stv_port":27016,"stv_name":"Uncletopia | San Francisco | 1 | All Maps | STV","players":[{"user_id":153,"name":"PROFILE NAME","steam_id":76561199438851854,"connected_time":7131000000000,"state":"active","ping":90},{"user_id":205,"name":"TheOneTrueDev","steam_id":76561198107400823,"connected_time":2737000000000,"state":"active","ping":92},{"user_id":229,"name":"Jesus Loves You57","steam_id":76561199058833769,"connected_time":758000000000,"state":"active","ping":56},{"user_id":232,"name":"Swag6","steam_id":76561198064110837,"connected_time":24000000000,"state":"active","ping":45},{"user_id":151,"name":"Soap","steam_id":76561198074619142,"connected_time":7203000000000,"state":"active","ping":97},{"user_id":230,"name":"sockgobblin","steam_id":76561198853494675,"connected_time":726000000000,"state":"active","ping":68},{"user_id":158,"name":"science_fan.1948","steam_id":76561199076453501,"connected_time":6901000000000,"state":"active","ping":58},{"user_id":206,"name":"Trow","steam_id":76561198033918106,"connected_time":2325000000000,"state":"active","ping":42},{"user_id":195,"name":"Drakon","steam_id":76561198078210822,"connected_time":3930000000000,"state":"active","ping":65},{"user_id":193,"name":"twitch.tv/HelloAnon_","steam_id":76561198109740776,"connected_time":4085000000000,"state":"active","ping":66},{"user_id":226,"name":"Kafe","steam_id":76561198978781762,"connected_time":992000000000,"state":"active","ping":51},{"user_id":197,"name":"Fajita Master","steam_id":76561198329150962,"connected_time":3674000000000,"state":"active","ping":92},{"user_id":208,"name":"CoherentCarpet („Éé‡≤†Áõä‡≤†)\ufffd\ufffd","steam_id":76561198045625360,"connected_time":1929000000000,"state":"active","ping":86},{"user_id":210,"name":"Noodlesmasher2","steam_id":76561199084186813,"connected_time":1818000000000,"state":"active","ping":47},{"user_id":213,"name":"Dat Tater Skater","steam_id":76561198021391134,"connected_time":1766000000000,"state":"active","ping":101},{"user_id":217,"name":"no vc no c","steam_id":76561197989503095,"connected_time":1498000000000,"state":"active","ping":147},{"user_id":220,"name":"fulcrum","steam_id":76561198363821364,"connected_time":1445000000000,"state":"active","ping":35},{"user_id":221,"name":"catboy (real)","steam_id":76561198298140571,"connected_time":1419000000000,"state":"active","ping":54},{"user_id":222,"name":"yoshinoya","steam_id":76561198414300607,"connected_time":1395000000000,"state":"active","ping":65},{"user_id":223,"name":"Cuno Doesn't Care!","steam_id":76561198007372782,"connected_time":1382000000000,"state":"active","ping":51},{"user_id":129,"name":"Zobozo","steam_id":76561198028954297,"connected_time":7868000000000,"state":"active","ping":42},{"user_id":231,"name":"jennco","steam_id":76561198212421513,"connected_time":70000000000,"state":"active","ping":51},{"user_id":228,"name":"Toastedtoast222","steam_id":76561198120756409,"connected_time":918000000000,"state":"active","ping":61},{"user_id":203,"name":"XX_gamer2001_XxX","steam_id":76561198105405869,"connected_time":3255000000000,"state":"active","ping":91}]},{"server_id":18,"name":"Uncletopia | San Francisco | 2 | All Maps","name_short":"sfo-2","host":"sfo-1.us.uncletopia.com","port":27025,"enabled":true,"region":"us-west","cc":"us","latitude":37.77397,"longitude":-122.4313,"reserved":0,"last_update":"0001-01-01T00:00:00Z","name_a2s":"Uncletopia | San Francisco | 2 | All Maps","protocol":17,"map":"koth_lakeside_final","folder":"tf","game":"Team Fortress","app_id":440,"player_count":0,"max_players":24,"Bots":0,"server_type":"Dedicated","server_os":"Linux","password":true,"vac":true,"version":"7695204","steam_id":85568392924470000,"keywords":["cp","nocrits","nodmgspread","uncletopia"],"game_id":440,"stv_port":27026,"stv_name":"Uncletopia | San Francisco | 2 | All Maps | STV","players":null},{"server_id":19,"name":"Uncletopia | San Francisco | 3 | No Payload","name_short":"sfo-3","host":"sfo-1.us.uncletopia.com","port":27035,"enabled":true,"region":"us-west","cc":"us","latitude":37.77397,"longitude":-122.4313,"reserved":0,"last_update":"0001-01-01T00:00:00Z","name_a2s":"Uncletopia | San Francisco | 3 | No Payload","protocol":17,"map":"cp_snakewater_final1","folder":"tf","game":"Team Fortress","app_id":440,"player_count":0,"max_players":24,"Bots":0,"server_type":"Dedicated","server_os":"Linux","password":true,"vac":true,"version":"7695204","steam_id":85568392924742824,"keywords":["cp","nocrits","nodmgspread","uncletopia"],"game_id":440,"stv_port":0,"stv_name":"","players":null},{"server_id":20,"name":"Uncletopia | San Francisco | 4 | Community","name_short":"sfo-4","host":"sfo-1.us.uncletopia.com","port":27045,"enabled":true,"region":"us-west","cc":"us","latitude":37.77397,"longitude":-122.4313,"reserved":0,"last_update":"0001-01-01T00:00:00Z","name_a2s":"Uncletopia | San Francisco | 4 | Community","protocol":17,"map":"koth_highpass","folder":"tf","game":"Team Fortress","app_id":440,"player_count":0,"max_players":24,"Bots":0,"server_type":"Dedicated","server_os":"Linux","password":true,"vac":true,"version":"7695204","steam_id":85568392924742826,"keywords":["cp","nocrits","nodmgspread","uncletopia"],"game_id":440,"stv_port":0,"stv_name":"","players":null},{"server_id":141,"name":"Uncletopia | Sydney | 1 | All Maps","name_short":"syd-1","host":"syd-1.au.uncletopia.com","port":27015,"enabled":true,"region":"au","cc":"au","latitude":-33.865143,"longitude":151.2099,"reserved":0,"last_update":"0001-01-01T00:00:00Z","name_a2s":"Uncletopia | Sydney | 1 | All Maps","protocol":17,"map":"cp_process_final","folder":"tf","game":"Team Fortress","app_id":440,"player_count":0,"max_players":24,"Bots":0,"server_type":"Dedicated","server_os":"Linux","password":true,"vac":true,"version":"7695204","steam_id":85568392924470001,"keywords":["cp","nocrits","nodmgspread","uncletopia"],"game_id":440,"stv_port":27016,"stv_name":"Uncletopia | Sydney | 1 | All Maps | STV","players":null},{"server_id":123,"name":"Uncletopia | Sydney | 2 | All Maps","name_short":"syd-2","host":"syd-1.au.uncletopia.com","port":27025,"enabled":true,"region":"au","cc":"au","latitude":-33.865143,"longitude":151.2099,"reserved":0,"last_update":"0001-01-01T00:00:00Z","name_a2s":"Uncletopia | Sydney | 2 | All Maps","protocol":17,"map":"pl_swiftwater_final1","folder":"tf","game":"Team Fortress","app_id":440,"player_count":0,"max_players":24,"Bots":0,"server_type":"Dedicated","server_os":"Linux","password":true,"vac":true,"version":"7695204","steam_id":85568392924470002,"keywords":["nocrits","nodmgspread","payload","uncletopia"],"game_id":440,"stv_port":27026,"stv_name":"Uncletopia | Sydney | 2 | All Maps | STV","players":null},{"server_id":395,"name":"Uncletopia | Sydney | 3 | All Maps","name_short":"syd-3","host":"syd-1.au.uncletopia.com","port":27035,"enabled":true,"region":"au","cc":"au","latitude":-33.865143,"longitude":151.2099,"reserved":0,"last_update":"0001-01-01T00:00:00Z","name_a2s":"Uncletopia | Sydney | 3 | All Maps","protocol":17,"map":"koth_cascade","folder":"tf","game":"Team Fortress","app_id":440,"player_count":0,"max_players":24,"Bots":0,"server_type":"Dedicated","server_os":"Linux","password":true,"vac":true,"version":"7695204","steam_id":85568392925194467,"keywords":["cp","nocrits","nodmgspread","uncletopia"],"game_id":440,"stv_port":27036,"stv_name":"Uncletopia | Sydney | 3 | All Maps | STV","players":null},{"server_id":396,"name":"Uncletopia | Sydney | 4 | All Maps","name_short":"syd-4","host":"syd-1.au.uncletopia.com","port":27045,"enabled":true,"region":"au","cc":"au","latitude":-33.865143,"longitude":151.2099,"reserved":0,"last_update":"0001-01-01T00:00:00Z","name_a2s":"Uncletopia | Sydney | 4 | All Maps","protocol":17,"map":"koth_highpass","folder":"tf","game":"Team Fortress","app_id":440,"player_count":0,"max_players":24,"Bots":0,"server_type":"Dedicated","server_os":"Linux","password":true,"vac":true,"version":"7695204","steam_id":85568392925397958,"keywords":["cp","nocrits","nodmgspread","uncletopia"],"game_id":440,"stv_port":27046,"stv_name":"Uncletopia | Sydney | 4 | All Maps | STV","players":null},{"server_id":58,"name":"Uncletopia | Sydney | 5 | No Payload","name_short":"syd-5","host":"syd-1.au.uncletopia.com","port":27055,"enabled":true,"region":"au","cc":"au","latitude":-33.865143,"longitude":151.2099,"reserved":0,"last_update":"0001-01-01T00:00:00Z","name_a2s":"Uncletopia | Sydney | 5 | No Payload","protocol":17,"map":"koth_viaduct","folder":"tf","game":"Team Fortress","app_id":440,"player_count":0,"max_players":24,"Bots":0,"server_type":"Dedicated","server_os":"Linux","password":true,"vac":true,"version":"7695204","steam_id":85568392925397959,"keywords":["cp","nocrits","nodmgspread","uncletopia"],"game_id":440,"stv_port":0,"stv_name":"","players":null},{"server_id":59,"name":"Uncletopia | Sydney | 6 | Community","name_short":"syd-6","host":"syd-1.au.uncletopia.com","port":27065,"enabled":true,"region":"au","cc":"au","latitude":-33.865143,"longitude":151.2099,"reserved":0,"last_update":"0001-01-01T00:00:00Z","name_a2s":"Uncletopia | Sydney | 6 | Community","protocol":17,"map":"workshop/koth_bagel_rc5.ugc2514036946","folder":"tf","game":"Team Fortress","app_id":440,"player_count":0,"max_players":24,"Bots":0,"server_type":"Dedicated","server_os":"Linux","password":true,"vac":true,"version":"7695204","steam_id":85568392925397960,"keywords":["cp","nocrits","nodmgspread","uncletopia"],"game_id":440,"stv_port":27066,"stv_name":"Uncletopia | Sydney | 6 | Community | STV","players":null},{"server_id":49,"name":"Uncletopia | Warsaw | 1 | All Maps","name_short":"waw-1","host":"waw-1.pl.uncletopia.com","port":27015,"enabled":true,"region":"eu","cc":"pl","latitude":52.2297,"longitude":21.017532,"reserved":0,"last_update":"0001-01-01T00:00:00Z","name_a2s":"Uncletopia | Warsaw | 1 | All Maps","protocol":17,"map":"pl_upward","folder":"tf","game":"Team Fortress","app_id":440,"player_count":0,"max_players":24,"Bots":0,"server_type":"Dedicated","server_os":"Linux","password":true,"vac":true,"version":"7695204","steam_id":85568392925397850,"keywords":["nocrits","nodmgspread","payload","uncletopia"],"game_id":440,"stv_port":27016,"stv_name":"Uncletopia | Warsaw | 1 | All Maps | STV","players":null},{"server_id":50,"name":"Uncletopia | Warsaw | 2 | All Maps","name_short":"waw-2","host":"waw-1.pl.uncletopia.com","port":27025,"enabled":true,"region":"eu","cc":"pl","latitude":52.2297,"longitude":21.017532,"reserved":0,"last_update":"0001-01-01T00:00:00Z","name_a2s":"Uncletopia | Warsaw | 2 | All Maps","protocol":17,"map":"koth_highpass","folder":"tf","game":"Team Fortress","app_id":440,"player_count":0,"max_players":24,"Bots":0,"server_type":"Dedicated","server_os":"Linux","password":true,"vac":true,"version":"7695204","steam_id":85568392925397851,"keywords":["cp","nocrits","nodmgspread","uncletopia"],"game_id":440,"stv_port":27026,"stv_name":"Uncletopia | Warsaw | 2 | All Maps | STV","players":null},{"server_id":51,"name":"Uncletopia | Warsaw | 3 | All Maps","name_short":"waw-3","host":"waw-1.pl.uncletopia.com","port":27035,"enabled":true,"region":"eu","cc":"pl","latitude":52.2297,"longitude":21.017532,"reserved":0,"last_update":"0001-01-01T00:00:00Z","name_a2s":"Uncletopia | Warsaw | 3 | All Maps","protocol":17,"map":"pl_upward","folder":"tf","game":"Team Fortress","app_id":440,"player_count":24,"max_players":24,"Bots":0,"server_type":"Dedicated","server_os":"Linux","password":true,"vac":true,"version":"7695204","steam_id":85568392925397852,"keywords":["nocrits","nodmgspread","payload","uncletopia"],"game_id":440,"stv_port":27036,"stv_name":"Uncletopia | Warsaw | 3 | All Maps | STV","players":[{"user_id":72,"name":"SPYbrine","steam_id":76561198345490646,"connected_time":956000000000,"state":"active","ping":69},{"user_id":8,"name":"OnkelPyro","steam_id":76561197986615018,"connected_time":6175000000000,"state":"active","ping":69},{"user_id":52,"name":"Lindbergan","steam_id":76561198226613312,"connected_time":3428000000000,"state":"active","ping":97},{"user_id":10,"name":"MidBossss","steam_id":76561197993118310,"connected_time":6164000000000,"state":"active","ping":86},{"user_id":73,"name":"Fox","steam_id":76561198079364100,"connected_time":953000000000,"state":"active","ping":44},{"user_id":12,"name":"shiki","steam_id":76561197997087907,"connected_time":6144000000000,"state":"active","ping":65},{"user_id":13,"name":"[AL] Linc0ln-S1x_3Ch0","steam_id":76561197977810954,"connected_time":6126000000000,"state":"active","ping":74},{"user_id":14,"name":"StrikeUnleashed","steam_id":76561198029663426,"connected_time":6115000000000,"state":"active","ping":66},{"user_id":15,"name":"[AL] Cyroxes","steam_id":76561198058855088,"connected_time":6086000000000,"state":"active","ping":91},{"user_id":64,"name":"[AL] Aprophis","steam_id":76561197967826422,"connected_time":2346000000000,"state":"active","ping":75},{"user_id":59,"name":"Luo Lang","steam_id":76561197988802856,"connected_time":3067000000000,"state":"active","ping":65},{"user_id":60,"name":"wenomechainasama","steam_id":76561198173180554,"connected_time":2747000000000,"state":"active","ping":95},{"user_id":74,"name":"brtaba","steam_id":76561198796334790,"connected_time":934000000000,"state":"active","ping":62},{"user_id":78,"name":"ducks","steam_id":76561198166148685,"connected_time":846000000000,"state":"active","ping":62},{"user_id":63,"name":"Ok","steam_id":76561198356826506,"connected_time":2410000000000,"state":"active","ping":65},{"user_id":71,"name":"Syd","steam_id":76561198020515027,"connected_time":989000000000,"state":"active","ping":68},{"user_id":75,"name":"Maken","steam_id":76561197995777078,"connected_time":931000000000,"state":"active","ping":89},{"user_id":32,"name":"goofy goober","steam_id":76561198013237629,"connected_time":5340000000000,"state":"active","ping":110},{"user_id":44,"name":"[AL] Pain","steam_id":76561198009748256,"connected_time":4837000000000,"state":"active","ping":91},{"user_id":51,"name":"Hox","steam_id":76561198977801115,"connected_time":3826000000000,"state":"active","ping":58},{"user_id":66,"name":"GetExp","steam_id":76561198410131881,"connected_time":1701000000000,"state":"active","ping":62},{"user_id":40,"name":"Narvhal√∏","steam_id":76561198147495474,"connected_time":5107000000000,"state":"active","ping":71},{"user_id":67,"name":"blurst of times","steam_id":76561197972325640,"connected_time":1687000000000,"state":"active","ping":72},{"user_id":77,"name":"denji741games","steam_id":76561198067499762,"connected_time":911000000000,"state":"active","ping":86}]},{"server_id":52,"name":"Uncletopia | Warsaw | 4 | All Maps","name_short":"waw-4","host":"waw-1.pl.uncletopia.com","port":27045,"enabled":true,"region":"eu","cc":"pl","latitude":52.2297,"longitude":21.017532,"reserved":0,"last_update":"0001-01-01T00:00:00Z","name_a2s":"Uncletopia | Warsaw | 4 | All Maps","protocol":17,"map":"cp_altitude","folder":"tf","game":"Team Fortress","app_id":440,"player_count":0,"max_players":24,"Bots":0,"server_type":"Dedicated","server_os":"Linux","password":true,"vac":true,"version":"7695204","steam_id":85568392925397853,"keywords":["cp","nocrits","nodmgspread","uncletopia"],"game_id":440,"stv_port":0,"stv_name":"","players":null},{"server_id":53,"name":"Uncletopia | Warsaw | 5 | No Payload","name_short":"waw-5","host":"waw-1.pl.uncletopia.com","port":27055,"enabled":true,"region":"eu","cc":"pl","latitude":52.2297,"longitude":21.017532,"reserved":0,"last_update":"0001-01-01T00:00:00Z","name_a2s":"Uncletopia | Warsaw | 5 | No Payload","protocol":17,"map":"koth_highpass","folder":"tf","game":"Team Fortress","app_id":440,"player_count":0,"max_players":24,"Bots":0,"server_type":"Dedicated","server_os":"Linux","password":true,"vac":true,"version":"7695204","steam_id":85568392925397854,"keywords":["cp","nocrits","nodmgspread","uncletopia"],"game_id":440,"stv_port":27056,"stv_name":"Uncletopia | Warsaw | 5 | No Payload | STV","players":null},{"server_id":54,"name":"Uncletopia | Warsaw | 6 | Community","name_short":"waw-6","host":"waw-1.pl.uncletopia.com","port":27065,"enabled":true,"region":"eu","cc":"pl","latitude":52.2297,"longitude":21.017532,"reserved":0,"last_update":"0001-01-01T00:00:00Z","name_a2s":"Uncletopia | Warsaw | 6 | Community","protocol":17,"map":"workshop/cp_sulfur_rc2.ugc619869471","folder":"tf","game":"Team Fortress","app_id":440,"player_count":6,"max_players":24,"Bots":0,"server_type":"Dedicated","server_os":"Linux","password":true,"vac":true,"version":"7695204","steam_id":85568392925397856,"keywords":["cp","nocrits","nodmgspread","uncletopia"],"game_id":440,"stv_port":27066,"stv_name":"Uncletopia | Warsaw | 6 | Community | STV","players":[{"user_id":3,"name":"Flaffian","steam_id":76561198261614764,"connected_time":10832000000000,"state":"active","ping":54},{"user_id":4,"name":"–ö—Ä–∞—Ö –º—É–∂–µ—Å—Ç–≤–∞","steam_id":76561198251356426,"connected_time":10694000000000,"state":"active","ping":104},{"user_id":16,"name":"–°–∞–Ω—è2014","steam_id":76561198184235809,"connected_time":7313000000000,"state":"active","ping":138},{"user_id":17,"name":"EternalVelard","steam_id":76561198234244420,"connected_time":6655000000000,"state":"active","ping":93},{"user_id":18,"name":"ZXC_–°–µ—Ä—ë–≥–∞_228","steam_id":76561198060993967,"connected_time":6448000000000,"state":"active","ping":90},{"user_id":25,"name":"london","steam_id":76561199055749571,"connected_time":459000000000,"state":"active","ping":103}]}]}