{"status":true,"message":"","result":[{"server_id":9,"name":"Uncletopia | Atlanta | 1 | All Maps","name_short":"atl-1","host":"atl-1.us.uncletopia.com","port":27015,"enabled":true,"region":"us-east","cc":"us","latitude":33.753746,"longitude":-84.38633,"reserved":0,"last_update":"0001-01-01T00:00:00Z","name_a2s":"Uncletopia | Atlanta | 1 | All Maps","protocol":17,"map":"pl_swiftwater_final1","folder":"tf","game":"Team Fortress","app_id":440,"player_count":24,"max_players":24,"Bots":0,"server_type":"Dedicated","server_os":"Linux","password":true,"vac":true,"version":"7961495","steam_id":85568392924469982,"keywords":["nocrits","nodmgspread","payload","uncletopia"],"game_id":440,"stv_port":27016,"stv_name":"Uncletopia | Atlanta | 1 | All Maps | STV","players":[{"user_id":9,"name":"MinimanC","steam_id":76561198071475084,"connected_time":2068000000000,"state":"active","ping":63},{"user_id":17,"name":"bread","steam_id":76561198291298731,"connected_time":747000000000,"state":"active","ping":40},{"user_id":38,"name":"SATURATION II","steam_id":76561198098656830,"connected_time":17000000000,"state":"spawning","ping":71},{"user_id":12,"name":"Jesus Burgess","steam_id":76561199343316814,"connected_time":1207000000000,"state":"active","ping":49},{"user_id":15,"name":"TheGingerOne","steam_id":76561198354203847,"connected_time":966000000000,"state":"active","ping":74},{"user_id":14,"name":"Menacing","steam_id":76561198009093788,"connected_time":1004000000000,"state":"active","ping":69},{"user_id":16,"name":"bingus cheese","steam_id":76561198069010944,"connected_time":965000000000,"state":"active","ping":75},{"user_id":30,"name":"EQTY","steam_id":76561198012272367,"connected_time":410000000000,"state":"active","ping":61},{"user_id":19,"name":"Jrock","steam_id":76561198045715996,"connected_time":672000000000,"state":"active","ping":72},{"user_id":36,"name":"Firedust19","steam_id":76561198153238631,"connected_time":200000000000,"state":"active","ping":105},{"user_id":21,"name":"name420","steam_id":76561198129374525,"connected_time":614000000000,"state":"active","ping":48},{"user_id":22,"name":"Gamer Princess","steam_id":76561198048205270,"connected_time":583000000000,"state":"active","ping":87},{"user_id":23,"name":"Waffle Wannabe, MD (!!!)","steam_id":76561198064510650,"connected_time":576000000000,"state":"active","ping":68},{"user_id":24,"name":"Pango","steam_id":76561198069811545,"connected_time":573000000000,"state":"active","ping":45},{"user_id":25,"name":"kashroomski","steam_id":76561198057076267,"connected_time":495000000000,"state":"active","ping":79},{"user_id":26,"name":"ICE Carbon Diablo X","steam_id":76561198249206656,"connected_time":477000000000,"state":"active","ping":89},{"user_id":27,"name":"Cowborg","steam_id":76561199407170452,"connected_time":433000000000,"state":"active","ping":91},{"user_id":28,"name":"Meat Dragon","steam_id":76561198120319256,"connected_time":433000000000,"state":"active","ping":70},{"user_id":37,"name":"the pest","steam_id":76561198826298849,"connected_time":69000000000,"state":"active","ping":78},{"user_id":31,"name":"fudo myoo","steam_id":76561198456258164,"connected_time":366000000000,"state":"active","ping":63},{"user_id":32,"name":"clavin","steam_id":76561198069380992,"connected_time":357000000000,"state":"active","ping":73},{"user_id":33,"name":"‚õß AlphaSatanOmega ‚õß","steam_id":76561198035125511,"connected_time":339000000000,"state":"active","ping":69},{"user_id":34,"name":"Guloveos","steam_id":76561199138358380,"connected_time":335000000000,"state":"active","ping":93},{"user_id":35,"name":"BANGARANG","steam_id":76561198816597453,"connected_time":334000000000,"state":"active","ping":73}]},{"server_id":104,"name":"Uncletopia | Atlanta | 2 | All Maps","name_short":"atl-2","host":"atl-1.us.uncletopia.com","port":27025,"enabled":true,"region":"us-east","cc":"us","latitude":33.753746,"longitude":-84.38633,"reserved":0,"last_update":"0001-01-01T00:00:00Z","name_a2s":"Uncletopia | Atlanta | 2 | All Maps","protocol":17,"map":"cp_mountainlab","folder":"tf","game":"Team Fortress","app_id":440,"player_count":0,"max_players":24,"Bots":0,"server_type":"Dedicated","server_os":"Linux","password":true,"vac":true,"version":"7961495","steam_id":85568392924469983,"keywords":["cp","nocrits","nodmgspread","uncletopia"],"game_id":440,"stv_port":27026,"stv_name":"Uncletopia | Atlanta | 2 | All Maps | STV","players":null},{"server_id":400,"name":"Uncletopia | Atlanta | 3 | Stopwatch","name_short":"atl-3","host":"atl-1.us.uncletopia.com","port":27035,"enabled":true,"region":"us-east","cc":"us","latitude":33.753746,"longitude":-84.38633,"reserved":0,"last_update":"0001-01-01T00:00:00Z","name_a2s":"Uncletopia | Atlanta | 3 | Stopwatch","protocol":17,"map":"workshop/koth_ashville_final.ugc2130459942","folder":"tf","game":"Team Fortress","app_id":440,"player_count":0,"max_players":24,"Bots":0,"server_type":"Dedicated","server_os":"Linux","password":true,"vac":true,"version":"7961495","steam_id":85568392924515187,"keywords":["cp","nocrits","nodmgspread","uncletopia"],"game_id":440,"stv_port":27036,"stv_name":"Uncletopia | Atlanta | 3 | Stopwatch | STV","players":null},{"server_id":401,"name":"Uncletopia | Atlanta | 4 | Community","name_short":"atl-4","host":"atl-1.us.uncletopia.com","port":27045,"enabled":true,"region":"us-east","cc":"us","latitude":33.753746,"longitude":-84.38633,"reserved":0,"last_update":"0001-01-01T00:00:00Z","name_a2s":"Uncletopia | Atlanta | 4 | Community","protocol":17,"map":"workshop/pl_vigil_rc10.ugc1266210012","folder":"tf","game":"Team Fortress","app_id":440,"player_count":0,"max_players":24,"Bots":0,"server_type":"Dedicated","server_os":"Linux","password":true,"vac":true,"version":"7961495","steam_id":85568392924515188,"keywords":["nocrits","nodmgspread","payload","uncletopia"],"game_id":440,"stv_port":27046,"stv_name":"Uncletopia | Atlanta | 4 | Community | STV","players":null},{"server_id":2,"name":"Uncletopia | Chicago | 1 | All Maps","name_short":"chi-1","host":"chi-1.us.uncletopia.com","port":27015,"enabled":true,"region":"us-central","cc":"us","latitude":41.881832,"longitude":-87.62318,"reserved":0,"last_update":"0001-01-01T00:00:00Z","name_a2s":"Uncletopia | Chicago | 1 | All Maps","protocol":17,"map":"koth_viaduct","folder":"tf","game":"Team Fortress","app_id":440,"player_count":0,"max_players":24,"Bots":0,"server_type":"Dedicated","server_os":"Linux","password":true,"vac":true,"version":"7961495","steam_id":85568392924469984,"keywords":["cp","nocrits","nodmgspread","uncletopia"],"game_id":440,"stv_port":27016,"stv_name":"Uncletopia | Chicago | 1 | All Maps | STV","players":null},{"server_id":106,"name":"Uncletopia | Chicago | 2 | All Maps","name_short":"chi-2","host":"chi-1.us.uncletopia.com","port":27025,"enabled":true,"region":"us-central","cc":"us","latitude":41.881832,"longitude":-87.62318,"reserved":0,"last_update":"0001-01-01T00:00:00Z","name_a2s":"Uncletopia | Chicago | 2 | All Maps","protocol":17,"map":"cp_gravelpit","folder":"tf","game":"Team Fortress","app_id":440,"player_count":24,"max_players":24,"Bots":0,"server_type":"Dedicated","server_os":"Linux","password":true,"vac":true,"version":"7961495","steam_id":85568392924469985,"keywords":["cp","nocrits","nodmgspread","uncletopia"],"game_id":440,"stv_port":27026,"stv_name":"Uncletopia | Chicago | 2 | All Maps | STV","players":[{"user_id":56,"name":"orbisg","steam_id":76561198004133638,"connected_time":6428000000000,"state":"active","ping":90},{"user_id":108,"name":"ArchmageF","steam_id":76561197992246851,"connected_time":724000000000,"state":"active","ping":102},{"user_id":104,"name":"IGOR","steam_id":76561199128786637,"connected_time":1217000000000,"state":"active","ping":101},{"user_id":70,"name":"Brandino!","steam_id":76561198000446932,"connected_time":5184000000000,"state":"active","ping":68},{"user_id":86,"name":"Kiss Master","steam_id":76561198289572271,"connected_time":3219000000000,"state":"active","ping":65},{"user_id":118,"name":"mkl","steam_id":76561197986401685,"connected_time":178000000000,"state":"active","ping":83},{"user_id":11,"name":"JohnFMX","steam_id":76561198175608097,"connected_time":9152000000000,"state":"active","ping":68},{"user_id":95,"name":"Baron von Whoopsie","steam_id":76561197996691013,"connected_time":2011000000000,"state":"active","ping":58},{"user_id":71,"name":"daemon","steam_id":76561198001541433,"connected_time":4858000000000,"state":"active","ping":60},{"user_id":93,"name":"vinny6","steam_id":76561198386735728,"connected_time":2473000000000,"state":"active","ping":65},{"user_id":69,"name":"abom","steam_id":76561198167974713,"connected_time":5277000000000,"state":"active","ping":72},{"user_id":116,"name":"Bob","steam_id":76561198059258610,"connected_time":426000000000,"state":"active","ping":59},{"user_id":111,"name":"meep :3","steam_id":76561198211781375,"connected_time":683000000000,"state":"active","ping":88},{"user_id":112,"name":"ThunderMonkey (SMOKE)","steam_id":76561198017631728,"connected_time":674000000000,"state":"active","ping":66},{"user_id":98,"name":"Shank","steam_id":76561198039110658,"connected_time":1782000000000,"state":"active","ping":74},{"user_id":119,"name":"gulch","steam_id":76561199227946025,"connected_time":159000000000,"state":"active","ping":60},{"user_id":97,"name":"ginosaurusx","steam_id":76561198410640142,"connected_time":1795000000000,"state":"active","ping":62},{"user_id":68,"name":"Duncan Slamwell, B-Ball Attorne","steam_id":76561197994924793,"connected_time":5795000000000,"state":"active","ping":57},{"user_id":120,"name":"Erbbew","steam_id":76561198014787195,"connected_time":101000000000,"state":"active","ping":89},{"user_id":102,"name":"JOOOOOOOOOOOOO!!!!!!","steam_id":76561199101638460,"connected_time":1315000000000,"state":"active","ping":89},{"user_id":117,"name":"leopardo123atl","steam_id":76561198872648238,"connected_time":355000000000,"state":"active","ping":94},{"user_id":107,"name":"DOOMBRINGER_","steam_id":76561198038523571,"connected_time":730000000000,"state":"active","ping":71},{"user_id":114,"name":"bench","steam_id":76561198055339968,"connected_time":546000000000,"state":"active","ping":72},{"user_id":115,"name":"nettles","steam_id":76561199238923581,"connected_time":546000000000,"state":"active","ping":117}]},{"server_id":402,"name":"Uncletopia | Chicago | 3 | All Maps","name_short":"chi-3","host":"chi-1.us.uncletopia.com","port":27035,"enabled":true,"region":"us-central","cc":"us","latitude":41.881832,"longitude":-87.62318,"reserved":0,"last_update":"0001-01-01T00:00:00Z","name_a2s":"Uncletopia | Chicago | 3 | All Maps","protocol":17,"map":"plr_pipeline","folder":"tf","game":"Team Fortress","app_id":440,"player_count":0,"max_players":24,"Bots":0,"server_type":"Dedicated","server_os":"Linux","password":true,"vac":true,"version":"7961495","steam_id":85568392924515191,"keywords":["nocrits","nodmgspread","payload","uncletopia"],"game_id":440,"stv_port":27036,"stv_name":"Uncletopia | Chicago | 3 | All Maps | STV","players":null},{"server_id":403,"name":"Uncletopia | Chicago | 4 | All Maps","name_short":"chi-4","host":"chi-1.us.uncletopia.com","port":27045,"enabled":true,"region":"us-central","cc":"us","latitude":41.881832,"longitude":-87.62318,"reserved":0,"last_update":"0001-01-01T00:00:00Z","name_a2s":"Uncletopia | Chicago | 4 | All Maps","protocol":17,"map":"pl_rumford_event","folder":"tf","game":"Team Fortress","app_id":440,"player_count":0,"max_players":24,"Bots":0,"server_type":"Dedicated","server_os":"Linux","password":true,"vac":true,"version":"7961495","steam_id":85568392924515193,"keywords":["nocrits","nodmgspread","payload","uncletopia"],"game_id":440,"stv_port":27046,"stv_name":"Uncletopia | Chicago | 4 | All Maps | STV","players":null},{"server_id":36,"name":"Uncletopia | Chicago | 5 | All Maps","name_short":"chi-5","host":"chi-2.us.uncletopia.com","port":27015,"enabled":true,"region":"us-central","cc":"us","latitude":41.881832,"longitude":-87.62318,"reserved":0,"last_update":"0001-01-01T00:00:00Z","name_a2s":"Uncletopia | Chicago | 5 | All Maps","protocol":17,"map":"pl_badwater","folder":"tf","game":"Team Fortress","app_id":440,"player_count":24,"max_players":24,"Bots":0,"server_type":"Dedicated","server_os":"Linux","password":true,"vac":true,"version":"7961495","steam_id":85568392924866362,"keywords":["nocrits","nodmgspread","payload","uncletopia"],"game_id":440,"stv_port":27016,"stv_name":"Uncletopia | Chicago | 5 | All Maps | STV","players":[{"user_id":65,"name":"Mug Moment Gaming","steam_id":76561198233098136,"connected_time":2073000000000,"state":"active","ping":61},{"user_id":85,"name":"CLASHER WIZ","steam_id":76561198079026982,"connected_time":403000000000,"state":"active","ping":93},{"user_id":74,"name":"Kawaiiestboi","steam_id":76561198182178703,"connected_time":1375000000000,"state":"active","ping":101},{"user_id":56,"name":"hexewitch","steam_id":76561199001918194,"connected_time":3561000000000,"state":"active","ping":104},{"user_id":8,"name":"Transgender Guy Fieri","steam_id":76561198801467075,"connected_time":6060000000000,"state":"active","ping":68},{"user_id":87,"name":"Orange","steam_id":76561198282214019,"connected_time":218000000000,"state":"active","ping":60},{"user_id":80,"name":"choi","steam_id":76561198053669887,"connected_time":965000000000,"state":"active","ping":117},{"user_id":82,"name":"Kaypo","steam_id":76561198262420097,"connected_time":849000000000,"state":"active","ping":54},{"user_id":58,"name":"Monkey","steam_id":76561198293422854,"connected_time":3335000000000,"state":"active","ping":64},{"user_id":13,"name":"MechaSixVII","steam_id":76561198014927379,"connected_time":5922000000000,"state":"active","ping":59},{"user_id":51,"name":"Zykron","steam_id":76561199056400800,"connected_time":3756000000000,"state":"active","ping":108},{"user_id":60,"name":"B.","steam_id":76561198040445907,"connected_time":3076000000000,"state":"active","ping":74},{"user_id":61,"name":"SAUSAGE SLAPPER","steam_id":76561198030627003,"connected_time":3019000000000,"state":"active","ping":69},{"user_id":26,"name":"(\u003e‰∫∫\u003c;)","steam_id":76561198043684960,"connected_time":5441000000000,"state":"active","ping":66},{"user_id":81,"name":"juku06","steam_id":76561198953966982,"connected_time":875000000000,"state":"active","ping":181},{"user_id":62,"name":"Window Licker #pride","steam_id":76561198386717007,"connected_time":2662000000000,"state":"active","ping":55},{"user_id":84,"name":"Just a Good Friend","steam_id":76561198140052403,"connected_time":727000000000,"state":"active","ping":82},{"user_id":83,"name":"Noise | „Éé„Ç§„Ç∫","steam_id":76561198058706902,"connected_time":811000000000,"state":"active","ping":106},{"user_id":64,"name":"jras","steam_id":76561198159797901,"connected_time":2636000000000,"state":"active","ping":75},{"user_id":50,"name":"Child Incinerator","steam_id":76561198115707039,"connected_time":3820000000000,"state":"active","ping":47},{"user_id":88,"name":"Sylvain","steam_id":76561198113385271,"connected_time":207000000000,"state":"active","ping":72},{"user_id":71,"name":"milk","steam_id":76561198053410877,"connected_time":1880000000000,"state":"active","ping":106},{"user_id":90,"name":"Prsm","steam_id":76561198053344995,"connected_time":158000000000,"state":"active","ping":60},{"user_id":89,"name":"totsnotabot","steam_id":76561198077023364,"connected_time":192000000000,"state":"active","ping":42}]},{"server_id":37,"name":"Uncletopia | Chicago | 6 | All Maps","name_short":"chi-6","host":"chi-2.us.uncletopia.com","port":27025,"enabled":true,"region":"us-central","cc":"us","latitude":41.881832,"longitude":-87.62318,"reserved":0,"last_update":"0001-01-01T00:00:00Z","name_a2s":"Uncletopia | Chicago | 6 | All Maps","protocol":17,"map":"pl_frontier_final","folder":"tf","game":"Team Fortress","app_id":440,"player_count":0,"max_players":24,"Bots":0,"server_type":"Dedicated","server_os":"Linux","password":true,"vac":true,"version":"7961495","steam_id":85568392924866363,"keywords":["nocrits","nodmgspread","payload","uncletopia"],"game_id":440,"stv_port":27026,"stv_name":"Uncletopia | Chicago | 6 | All Maps | STV","players":null},{"server_id":38,"name":"Uncletopia | Chicago | 7 | Stopwatch","name_short":"chi-7","host":"chi-2.us.uncletopia.com","port":27035,"enabled":true,"region":"us-central","cc":"us","latitude":41.881832,"longitude":-87.62318,"reserved":0,"last_update":"0001-01-01T00:00:00Z","name_a2s":"Uncletopia | Chicago | 7 | Stopwatch","protocol":17,"map":"pl_borneo","folder":"tf","game":"Team Fortress","app_id":440,"player_count":1,"max_players":24,"Bots":0,"server_type":"Dedicated","server_os":"Linux","password":true,"vac":true,"version":"7961495","steam_id":85568392924866364,"keywords":["nocrits","nodmgspread","payload","uncletopia"],"game_id":440,"stv_port":27036,"stv_name":"Uncletopia | Chicago | 7 | Stopwatch | STV","players":[{"user_id":3,"name":"WhoWee!","steam_id":76561198269471732,"connected_time":207000000000,"state":"active","ping":74}]},{"server_id":39,"name":"Uncletopia | Chicago | 8 | Community","name_short":"chi-8","host":"chi-2.us.uncletopia.com","port":27045,"enabled":true,"region":"us-central","cc":"us","latitude":41.881832,"longitude":-87.62318,"reserved":0,"last_update":"0001-01-01T00:00:00Z","name_a2s":"Uncletopia | Chicago | 8 | Community","protocol":17,"map":"workshop/koth_slaughter_rc1.ugc1712845210","folder":"tf","game":"Team Fortress","app_id":440,"player_count":2,"max_players":24,"Bots":0,"server_type":"Dedicated","server_os":"Linux","password":true,"vac":true,"version":"7961495","steam_id":85568392924866365,"keywords":["cp","nocrits","nodmgspread","uncletopia"],"game_id":440,"stv_port":27046,"stv_name":"Uncletopia | Chicago | 8 | Community | STV","players":[{"user_id":6,"name":"Kamikaze Speedruner (Blankus)","steam_id":76561198215486596,"connected_time":266000000000,"state":"active","ping":137},{"user_id":5,"name":"LakiorGaming","steam_id":76561199220617368,"connected_time":479000000000,"state":"active","ping":177}]},{"server_id":8,"name":"Uncletopia | Dallas | 1 | All Maps","name_short":"dal-1","host":"dal-1.us.uncletopia.com","port":27015,"enabled":true,"region":"us-central","cc":"us","latitude":32.779167,"longitude":-96.80889,"reserved":0,"last_update":"0001-01-01T00:00:00Z","name_a2s":"Uncletopia | Dallas | 1 | All Maps","protocol":17,"map":"plr_bananabay","folder":"tf","game":"Team Fortress","app_id":440,"player_count":24,"max_players":24,"Bots":0,"server_type":"Dedicated","server_os":"Linux","password":true,"vac":true,"version":"7961495","steam_id":85568392924469986,"keywords":["nocrits","nodmgspread","payload","uncletopia"],"game_id":440,"stv_port":27016,"stv_name":"Uncletopia | Dallas | 1 | All Maps | STV","players":[{"user_id":76,"name":"HanakoToast","steam_id":76561198045233131,"connected_time":172000000000,"state":"active","ping":73},{"user_id":59,"name":"Slasher69","steam_id":76561198027679752,"connected_time":1738000000000,"state":"active","ping":93},{"user_id":74,"name":"üíï‚úßHeavenly Princess‚úßüíï","steam_id":76561198118922966,"connected_time":349000000000,"state":"active","ping":150},{"user_id":79,"name":"pabbott123110","steam_id":76561199231739796,"connected_time":8000000000,"state":"spawning","ping":100},{"user_id":77,"name":"Tuvok Shakur","steam_id":76561198018875334,"connected_time":172000000000,"state":"active","ping":60},{"user_id":18,"name":"Username","steam_id":76561198198918781,"connected_time":4085000000000,"state":"active","ping":82},{"user_id":53,"name":"Sneed-poster","steam_id":76561198206198937,"connected_time":2099000000000,"state":"active","ping":54},{"user_id":62,"name":"rad killl raccoon","steam_id":76561198980975595,"connected_time":1027000000000,"state":"active","ping":104},{"user_id":54,"name":"BatMatt","steam_id":76561198045910433,"connected_time":1968000000000,"state":"active","ping":54},{"user_id":34,"name":"splot","steam_id":76561199133681385,"connected_time":3287000000000,"state":"active","ping":114},{"user_id":70,"name":"GANJAMAGICIAN1997","steam_id":76561198079496953,"connected_time":628000000000,"state":"active","ping":47},{"user_id":69,"name":"zmanvic","steam_id":76561198008389885,"connected_time":645000000000,"state":"active","ping":87},{"user_id":28,"name":"Cofi","steam_id":76561199026721822,"connected_time":3513000000000,"state":"active","ping":92},{"user_id":71,"name":"Valen","steam_id":76561198142031999,"connected_time":530000000000,"state":"active","ping":54},{"user_id":39,"name":"CRAZYLAWNMOWER18","steam_id":76561198072653481,"connected_time":2962000000000,"state":"active","ping":75},{"user_id":64,"name":"Taskrabbits","steam_id":76561198366682546,"connected_time":1017000000000,"state":"active","ping":112},{"user_id":37,"name":"space creep","steam_id":76561198025668545,"connected_time":3225000000000,"state":"active","ping":82},{"user_id":72,"name":"Motazza","steam_id":76561198324727518,"connected_time":498000000000,"state":"active","ping":70},{"user_id":40,"name":"tommy","steam_id":76561198111753974,"connected_time":2958000000000,"state":"active","ping":75},{"user_id":68,"name":"SubWay #SaveTf2","steam_id":76561198336722096,"connected_time":735000000000,"state":"active","ping":71},{"user_id":78,"name":"Milkman Superman","steam_id":76561199106218986,"connected_time":165000000000,"state":"active","ping":79},{"user_id":48,"name":"GuyGoom","steam_id":76561198254522178,"connected_time":2725000000000,"state":"active","ping":72},{"user_id":45,"name":"je'mond #JOYCONBOYZ","steam_id":76561198113990147,"connected_time":2859000000000,"state":"active","ping":97},{"user_id":61,"name":"wendigo","steam_id":76561197994528974,"connected_time":1039000000000,"state":"active","ping":93}]},{"server_id":108,"name":"Uncletopia | Dallas | 2 | All Maps","name_short":"dal-2","host":"dal-1.us.uncletopia.com","port":27025,"enabled":true,"region":"us-central","cc":"us","latitude":32.779167,"longitude":-96.80889,"reserved":0,"last_update":"0001-01-01T00:00:00Z","name_a2s":"Uncletopia | Dallas | 2 | All Maps","protocol":17,"map":"koth_lakeside_final","folder":"tf","game":"Team Fortress","app_id":440,"player_count":0,"max_players":24,"Bots":0,"server_type":"Dedicated","server_os":"Linux","password":true,"vac":true,"version":"7961495","steam_id":85568392924469988,"keywords":["cp","nocrits","nodmgspread","uncletopia"],"game_id":440,"stv_port":27026,"stv_name":"Uncletopia | Dallas | 2 | All Maps | STV","players":null},{"server_id":404,"name":"Uncletopia | Dallas | 3 | All Maps","name_short":"dal-3","host":"dal-1.us.uncletopia.com","port":27035,"enabled":true,"region":"us-central","cc":"us","latitude":32.779167,"longitude":-96.80889,"reserved":0,"last_update":"0001-01-01T00:00:00Z","name_a2s":"Uncletopia | Dallas | 3 | All Maps","protocol":17,"map":"cp_coldfront","folder":"tf","game":"Team Fortress","app_id":440,"player_count":0,"max_players":24,"Bots":0,"server_type":"Dedicated","server_os":"Linux","password":true,"vac":true,"version":"7961495","steam_id":85568392924515219,"keywords":["cp","nocrits","nodmgspread","uncletopia"],"game_id":440,"stv_port":27036,"stv_name":"Uncletopia | Dallas | 3 | All Maps | STV","players":null},{"server_id":405,"name":"Uncletopia | Dallas | 4 | Community","name_short":"dal-4","host":"dal-1.us.uncletopia.com","port":27045,"enabled":true,"region":"us-central","cc":"us","latitude":32.779167,"longitude":-96.80889,"reserved":0,"last_update":"0001-01-01T00:00:00Z","name_a2s":"Uncletopia | Dallas | 4 | Community","protocol":17,"map":"workshop/koth_synthetic_rc6a.ugc1549817316","folder":"tf","game":"Team Fortress","app_id":440,"player_count":0,"max_players":24,"Bots":0,"server_type":"Dedicated","server_os":"Linux","password":true,"vac":true,"version":"7961495","steam_id":85568392924515220,"keywords":["cp","nocrits","nodmgspread","uncletopia"],"game_id":440,"stv_port":27046,"stv_name":"Uncletopia | Dallas | 4 | Community | STV","players":null},{"server_id":5,"name":"Uncletopia | Frankfurt | 1 | All Maps","name_short":"frk-1","host":"frk-1.de.uncletopia.com","port":27015,"enabled":true,"region":"eu","cc":"de","latitude":50.110924,"longitude":8.682127,"reserved":0,"last_update":"0001-01-01T00:00:00Z","name_a2s":"Uncletopia | Frankfurt | 1 | All Maps","protocol":17,"map":"pl_badwater","folder":"tf","game":"Team Fortress","app_id":440,"player_count":25,"max_players":24,"Bots":0,"server_type":"Dedicated","server_os":"Linux","password":true,"vac":true,"version":"7961495","steam_id":85568392924469989,"keywords":["nocrits","nodmgspread","payload","uncletopia"],"game_id":440,"stv_port":27016,"stv_name":"Uncletopia | Frankfurt | 1 | All Maps | STV","players":[{"user_id":151,"name":"Pvt Talbot","steam_id":76561198261001389,"connected_time":2420000000000,"state":"active","ping":51},{"user_id":93,"name":"Marty‚Ñ¢","steam_id":76561198060073673,"connected_time":7233000000000,"state":"active","ping":61},{"user_id":170,"name":"Razef","steam_id":76561198030309484,"connected_time":1023000000000,"state":"active","ping":51},{"user_id":128,"name":"Carl","steam_id":76561198045638738,"connected_time":3688000000000,"state":"active","ping":61},{"user_id":129,"name":"cheriberry","steam_id":76561198093577036,"connected_time":3592000000000,"state":"active","ping":58},{"user_id":153,"name":"Gambling is my hobby","steam_id":76561198145500202,"connected_time":2106000000000,"state":"active","ping":86},{"user_id":86,"name":"Gregor Samsa","steam_id":76561198973069177,"connected_time":7679000000000,"state":"active","ping":48},{"user_id":163,"name":"hichem","steam_id":76561198056197307,"connected_time":1701000000000,"state":"active","ping":50},{"user_id":159,"name":"6bIK_0CeMEHuTEJIb","steam_id":76561198992528373,"connected_time":1981000000000,"state":"active","ping":125},{"user_id":171,"name":"Hegyi tah√≥ F2P","steam_id":76561199219150356,"connected_time":1001000000000,"state":"active","ping":73},{"user_id":178,"name":"Veir≈´ Viseris","steam_id":76561197989857176,"connected_time":238000000000,"state":"active","ping":75},{"user_id":166,"name":"executive producer larry david","steam_id":76561198057868438,"connected_time":1305000000000,"state":"active","ping":58},{"user_id":179,"name":"_Alonso","steam_id":76561198041893314,"connected_time":186000000000,"state":"active","ping":51},{"user_id":172,"name":"Lord of the Ping","steam_id":76561198019648669,"connected_time":996000000000,"state":"active","ping":50},{"user_id":130,"name":"onixed","steam_id":76561198995478547,"connected_time":3477000000000,"state":"active","ping":52},{"user_id":118,"name":"President013","steam_id":76561198107233527,"connected_time":4825000000000,"state":"active","ping":72},{"user_id":149,"name":"galaxy","steam_id":76561198164819022,"connected_time":2702000000000,"state":"active","ping":45},{"user_id":147,"name":"Milten","steam_id":76561198191768569,"connected_time":2929000000000,"state":"active","ping":61},{"user_id":180,"name":"justpixels","steam_id":76561198143717568,"connected_time":186000000000,"state":"active","ping":105},{"user_id":175,"name":"Igames","steam_id":76561198414062544,"connected_time":873000000000,"state":"active","ping":67},{"user_id":148,"name":"doggy style","steam_id":76561198079426726,"connected_time":2800000000000,"state":"active","ping":60},{"user_id":181,"name":"Visphiric - All Muted","steam_id":76561198071938027,"connected_time":137000000000,"state":"active","ping":55},{"user_id":182,"name":"Ardello","steam_id":76561198864484125,"connected_time":23000000000,"state":"spawning","ping":128},{"user_id":116,"name":"Gurgula","steam_id":76561198021253678,"connected_time":4970000000000,"state":"active","ping":53},{"user_id":161,"name":"Uganda Warrior","steam_id":76561198120502313,"connected_time":1813000000000,"state":"active","ping":56}]},{"server_id":110,"name":"Uncletopia | Frankfurt | 2 | All Maps","name_short":"frk-2","host":"frk-1.de.uncletopia.com","port":27025,"enabled":true,"region":"eu","cc":"de","latitude":50.110924,"longitude":8.682127,"reserved":0,"last_update":"0001-01-01T00:00:00Z","name_a2s":"Uncletopia | Frankfurt | 2 | All Maps","protocol":17,"map":"cp_process_final","folder":"tf","game":"Team Fortress","app_id":440,"player_count":23,"max_players":24,"Bots":0,"server_type":"Dedicated","server_os":"Linux","password":true,"vac":true,"version":"7961495","steam_id":85568392924469990,"keywords":["cp","nocrits","nodmgspread","uncletopia"],"game_id":440,"stv_port":27026,"stv_name":"Uncletopia | Frankfurt | 2 | All Maps | STV","players":[{"user_id":280,"name":"Unsfangable","steam_id":76561198035928111,"connected_time":476000000000,"state":"active","ping":62},{"user_id":270,"name":"Jesus (real)","steam_id":76561199106262610,"connected_time":757000000000,"state":"active","ping":52},{"user_id":200,"name":"Fat Pigeon","steam_id":76561198817940142,"connected_time":5940000000000,"state":"active","ping":59},{"user_id":234,"name":"Kahvi","steam_id":76561198723244199,"connected_time":3312000000000,"state":"active","ping":89},{"user_id":228,"name":"GooseberryGarry27","steam_id":76561198089478290,"connected_time":3567000000000,"state":"active","ping":53},{"user_id":226,"name":"SeaKane","steam_id":76561198165453318,"connected_time":3730000000000,"state":"active","ping":48},{"user_id":277,"name":"Mr_Pulse_","steam_id":76561198095001602,"connected_time":492000000000,"state":"active","ping":89},{"user_id":276,"name":"Bajas","steam_id":76561198179339326,"connected_time":675000000000,"state":"active","ping":79},{"user_id":282,"name":"Beauf de France","steam_id":76561198799097492,"connected_time":442000000000,"state":"active","ping":46},{"user_id":273,"name":"TJ1212","steam_id":76561199013575313,"connected_time":709000000000,"state":"active","ping":66},{"user_id":283,"name":"tokss","steam_id":76561198033084982,"connected_time":410000000000,"state":"active","ping":89},{"user_id":248,"name":"Ryus_arts","steam_id":76561198805135862,"connected_time":2609000000000,"state":"active","ping":83},{"user_id":281,"name":"Kentucky Fried Crab","steam_id":76561198035586715,"connected_time":465000000000,"state":"active","ping":117},{"user_id":278,"name":"hashabis","steam_id":76561198048335438,"connected_time":489000000000,"state":"active","ping":68},{"user_id":286,"name":"Squash Banana","steam_id":76561198055480280,"connected_time":160000000000,"state":"active","ping":67},{"user_id":284,"name":"Denialman (Muted)","steam_id":76561198309182092,"connected_time":407000000000,"state":"active","ping":56},{"user_id":257,"name":"quickfast","steam_id":76561199438900919,"connected_time":1798000000000,"state":"active","ping":58},{"user_id":238,"name":"Peter.. Limonadee","steam_id":76561198346638308,"connected_time":3133000000000,"state":"active","ping":60},{"user_id":285,"name":"Alyx","steam_id":76561198064654326,"connected_time":399000000000,"state":"active","ping":55},{"user_id":264,"name":"Udinese Dion","steam_id":76561198067931573,"connected_time":1230000000000,"state":"active","ping":55},{"user_id":161,"name":"Nittugai","steam_id":76561198067366462,"connected_time":9003000000000,"state":"active","ping":59},{"user_id":279,"name":"Lota","steam_id":76561198005798410,"connected_time":482000000000,"state":"active","ping":78},{"user_id":244,"name":"else1","steam_id":76561197996558319,"connected_time":2881000000000,"state":"active","ping":84}]},{"server_id":308,"name":"Uncletopia | Frankfurt | 3 | All Maps","name_short":"frk-3","host":"frk-1.de.uncletopia.com","port":27035,"enabled":true,"region":"eu","cc":"de","latitude":50.110924,"longitude":8.682127,"reserved":0,"last_update":"0001-01-01T00:00:00Z","name_a2s":"Uncletopia | Frankfurt | 3 | All Maps","protocol":17,"map":"pl_upward","folder":"tf","game":"Team Fortress","app_id":440,"player_count":24,"max_players":24,"Bots":0,"server_type":"Dedicated","server_os":"Linux","password":true,"vac":true,"version":"7961495","steam_id":85568392924504274,"keywords":["nocrits","nodmgspread","payload","uncletopia"],"game_id":440,"stv_port":27036,"stv_name":"Uncletopia | Frankfurt | 3 | All Maps | STV","players":[{"user_id":612,"name":"MR BUBBLES","steam_id":76561198019005259,"connected_time":1456000000000,"state":"active","ping":86},{"user_id":591,"name":"TheKees301","steam_id":76561198827506371,"connected_time":4185000000000,"state":"active","ping":63},{"user_id":614,"name":"sniper's kangaroo wife","steam_id":76561198334042273,"connected_time":1385000000000,"state":"active","ping":60},{"user_id":627,"name":"Nylo","steam_id":76561198828562687,"connected_time":197000000000,"state":"active","ping":166},{"user_id":623,"name":"Largo","steam_id":76561198844368927,"connected_time":583000000000,"state":"active","ping":72},{"user_id":572,"name":"Shapefisher","steam_id":76561198052898368,"connected_time":5054000000000,"state":"active","ping":68},{"user_id":630,"name":"BELADIT","steam_id":76561198011911501,"connected_time":14000000000,"state":"spawning","ping":60},{"user_id":599,"name":"MG","steam_id":76561197992591715,"connected_time":2625000000000,"state":"active","ping":68},{"user_id":571,"name":"TeaFlavouredCoffee","steam_id":76561198925306032,"connected_time":5133000000000,"state":"active","ping":59},{"user_id":604,"name":"Ergas","steam_id":76561198860861032,"connected_time":2350000000000,"state":"active","ping":70},{"user_id":615,"name":"sixhundredseventy","steam_id":76561199441772083,"connected_time":1382000000000,"state":"active","ping":49},{"user_id":621,"name":"?","steam_id":76561198171950949,"connected_time":927000000000,"state":"active","ping":98},{"user_id":538,"name":"KrAk3rs","steam_id":76561198298179344,"connected_time":7001000000000,"state":"active","ping":66},{"user_id":626,"name":"Yuval","steam_id":76561198241802390,"connected_time":216000000000,"state":"active","ping":100},{"user_id":613,"name":"spy","steam_id":76561199402711007,"connected_time":1397000000000,"state":"active","ping":114},{"user_id":628,"name":"swueuws","steam_id":76561198020716743,"connected_time":117000000000,"state":"active","ping":47},{"user_id":622,"name":"Soulman25 (FIN)","steam_id":76561198103611974,"connected_time":612000000000,"state":"active","ping":85},{"user_id":629,"name":"Hungeryan","steam_id":76561198887299930,"connected_time":110000000000,"state":"active","ping":68},{"user_id":606,"name":"runcar222","steam_id":76561198077085528,"connected_time":2271000000000,"state":"active","ping":60},{"user_id":618,"name":"PENGUN","steam_id":76561199015156956,"connected_time":1362000000000,"state":"active","ping":138},{"user_id":620,"name":"Kestrel","steam_id":76561198144033005,"connected_time":1320000000000,"state":"active","ping":56},{"user_id":590,"name":"Cockvin","steam_id":76561199166839164,"connected_time":4199000000000,"state":"spawning","ping":41},{"user_id":510,"name":"lulu","steam_id":76561199147764133,"connected_time":8249000000000,"state":"active","ping":63},{"user_id":616,"name":"Charles Darwin","steam_id":76561197973496139,"connected_time":1375000000000,"state":"active","ping":70}]},{"server_id":309,"name":"Uncletopia | Frankfurt | 4 | All Maps","name_short":"frk-4","host":"frk-1.de.uncletopia.com","port":27045,"enabled":true,"region":"eu","cc":"de","latitude":50.110924,"longitude":8.682127,"reserved":0,"last_update":"0001-01-01T00:00:00Z","name_a2s":"Uncletopia | Frankfurt | 4 | All Maps","protocol":17,"map":"pl_borneo","folder":"tf","game":"Team Fortress","app_id":440,"player_count":23,"max_players":24,"Bots":0,"server_type":"Dedicated","server_os":"Linux","password":true,"vac":true,"version":"7961495","steam_id":85568392924504275,"keywords":["nocrits","nodmgspread","payload","uncletopia"],"game_id":440,"stv_port":27046,"stv_name":"Uncletopia | Frankfurt | 4 | All Maps | STV","players":[{"user_id":372,"name":"the pyro","steam_id":76561199217601719,"connected_time":1309000000000,"state":"active","ping":74},{"user_id":381,"name":"R8N - Obismal","steam_id":76561198007482714,"connected_time":596000000000,"state":"active","ping":66},{"user_id":336,"name":"ZANNABLUKE","steam_id":76561198013534336,"connected_time":4818000000000,"state":"active","ping":57},{"user_id":374,"name":"Jeffrey Harpen","steam_id":76561199073314677,"connected_time":1185000000000,"state":"active","ping":54},{"user_id":370,"name":"‚ò© Knightz ‚ò©","steam_id":76561198040936414,"connected_time":1826000000000,"state":"active","ping":112},{"user_id":369,"name":"Ixion","steam_id":76561198041660675,"connected_time":1930000000000,"state":"active","ping":75},{"user_id":309,"name":"levnemcev","steam_id":76561198057205970,"connected_time":6433000000000,"state":"active","ping":97},{"user_id":385,"name":"tone","steam_id":76561197975301462,"connected_time":80000000000,"state":"active","ping":86},{"user_id":345,"name":"Mega Man Legends 3","steam_id":76561198014110199,"connected_time":3543000000000,"state":"active","ping":60},{"user_id":376,"name":"Kyy","steam_id":76561198041993514,"connected_time":1165000000000,"state":"active","ping":57},{"user_id":382,"name":"Spxndrej","steam_id":76561199426583978,"connected_time":398000000000,"state":"active","ping":46},{"user_id":273,"name":"Rin-Nakaret","steam_id":76561197971051188,"connected_time":8828000000000,"state":"active","ping":57},{"user_id":378,"name":"I watch solarlight","steam_id":76561199143232222,"connected_time":1111000000000,"state":"active","ping":92},{"user_id":352,"name":"www.ESYACARSISI.COM","steam_id":76561198378280844,"connected_time":3321000000000,"state":"active","ping":82},{"user_id":364,"name":"Chambersite the Wizard","steam_id":76561198197022399,"connected_time":2874000000000,"state":"active","ping":54},{"user_id":365,"name":"Columban","steam_id":76561199202258284,"connected_time":2852000000000,"state":"active","ping":56},{"user_id":337,"name":"jeff","steam_id":76561198272815746,"connected_time":4811000000000,"state":"active","ping":55},{"user_id":379,"name":"WarBoyAnthem","steam_id":76561198207589235,"connected_time":1100000000000,"state":"active","ping":160},{"user_id":384,"name":"Lukmort","steam_id":76561199191479743,"connected_time":111000000000,"state":"active","ping":67},{"user_id":366,"name":"bright","steam_id":76561198323945338,"connected_time":2814000000000,"state":"active","ping":127},{"user_id":340,"name":"Play slowly, pls","steam_id":76561198006463587,"connected_time":4627000000000,"state":"active","ping":124},{"user_id":338,"name":"snake","steam_id":76561198077822932,"connected_time":4793000000000,"state":"active","ping":60},{"user_id":371,"name":"DDUUCCKK","steam_id":76561198141953050,"connected_time":1712000000000,"state":"active","ping":84}]},{"server_id":310,"name":"Uncletopia | Frankfurt | 5 | All Maps","name_short":"frk-5","host":"frk-1.de.uncletopia.com","port":27055,"enabled":true,"region":"eu","cc":"de","latitude":50.110924,"longitude":8.682127,"reserved":0,"last_update":"0001-01-01T00:00:00Z","name_a2s":"Uncletopia | Frankfurt | 5 | All Maps","protocol":17,"map":"cp_steel","folder":"tf","game":"Team Fortress","app_id":440,"player_count":24,"max_players":24,"Bots":0,"server_type":"Dedicated","server_os":"Linux","password":true,"vac":true,"version":"7961495","steam_id":85568392924504277,"keywords":["cp","nocrits","nodmgspread","uncletopia"],"game_id":440,"stv_port":27056,"stv_name":"Uncletopia | Frankfurt | 5 | All Maps | STV","players":[{"user_id":103,"name":"cof","steam_id":76561199128417805,"connected_time":30000000000,"state":"active","ping":181},{"user_id":59,"name":"—Ç–æ—á–Ω–æ –ø—Ä–æ–≤–µ—Ä–µ–Ω–æ","steam_id":76561198005742337,"connected_time":2898000000000,"state":"active","ping":60},{"user_id":94,"name":"AbuMshMsh","steam_id":76561198291184871,"connected_time":763000000000,"state":"active","ping":121},{"user_id":61,"name":"Scruga","steam_id":76561197993476998,"connected_time":2792000000000,"state":"active","ping":46},{"user_id":99,"name":"Vince","steam_id":76561199103000131,"connected_time":269000000000,"state":"active","ping":59},{"user_id":90,"name":"‚ú™·¥ç√∂ Ä·¥ã√∂‚ú™","steam_id":76561198114429501,"connected_time":843000000000,"state":"active","ping":75},{"user_id":101,"name":"Wardruna96","steam_id":76561199057083828,"connected_time":225000000000,"state":"active","ping":75},{"user_id":82,"name":"Ale","steam_id":76561198908841078,"connected_time":1451000000000,"state":"active","ping":75},{"user_id":100,"name":"Shnormy","steam_id":76561199038376416,"connected_time":256000000000,"state":"active","ping":80},{"user_id":87,"name":"BuddhaBrot","steam_id":76561198181885110,"connected_time":913000000000,"state":"active","ping":44},{"user_id":44,"name":"Tre3","steam_id":76561198054795379,"connected_time":3754000000000,"state":"active","ping":59},{"user_id":91,"name":"[UM-monster","steam_id":76561198085098243,"connected_time":838000000000,"state":"active","ping":100},{"user_id":98,"name":"Epexegeticus","steam_id":76561198164545360,"connected_time":603000000000,"state":"active","ping":45},{"user_id":93,"name":"The_Jaystone","steam_id":76561198126280691,"connected_time":800000000000,"state":"active","ping":46},{"user_id":71,"name":"Bob Sacamano","steam_id":76561198085610701,"connected_time":2572000000000,"state":"active","ping":72},{"user_id":83,"name":"low on caffeine","steam_id":76561198257158275,"connected_time":1153000000000,"state":"active","ping":145},{"user_id":80,"name":"simeswipe","steam_id":76561198188471097,"connected_time":1714000000000,"state":"active","ping":63},{"user_id":69,"name":"kastanomata","steam_id":76561198271832763,"connected_time":2667000000000,"state":"active","ping":60},{"user_id":78,"name":"AI | Davidoscki","steam_id":76561198129166046,"connected_time":2038000000000,"state":"active","ping":78},{"user_id":57,"name":"neJ","steam_id":76561198003397488,"connected_time":3086000000000,"state":"active","ping":74},{"user_id":40,"name":"YunikkoN","steam_id":76561198211962412,"connected_time":3816000000000,"state":"active","ping":76},{"user_id":102,"name":"TotallyRealRunarTv√•lfager‚Ñ¢","steam_id":76561198018228013,"connected_time":91000000000,"state":"active","ping":60},{"user_id":79,"name":"Roby","steam_id":76561198358015863,"connected_time":2036000000000,"state":"active","ping":68},{"user_id":96,"name":"Carry Krypl","steam_id":76561198136938121,"connected_time":657000000000,"state":"active","ping":44}]},{"server_id":311,"name":"Uncletopia | Frankfurt | 6 | All Maps","name_short":"frk-6","host":"frk-1.de.uncletopia.com","port":27065,"enabled":true,"region":"eu","cc":"de","latitude":50.110924,"longitude":8.682127,"reserved":0,"last_update":"0001-01-01T00:00:00Z","name_a2s":"Uncletopia | Frankfurt | 6 | All Maps","protocol":17,"map":"pl_snowycoast","folder":"tf","game":"Team Fortress","app_id":440,"player_count":24,"max_players":24,"Bots":0,"server_type":"Dedicated","server_os":"Linux","password":true,"vac":true,"version":"7961495","steam_id":85568392924504278,"keywords":["nocrits","nodmgspread","payload","uncletopia"],"game_id":440,"stv_port":27066,"stv_name":"Uncletopia | Frankfurt | 6 | All Maps | STV","players":[{"user_id":218,"name":"peyniz","steam_id":76561198044189114,"connected_time":887000000000,"state":"active","ping":57},{"user_id":219,"name":"xSamyaza","steam_id":76561198058447257,"connected_time":857000000000,"state":"active","ping":47},{"user_id":217,"name":"Woman (Real)","steam_id":76561199151823932,"connected_time":955000000000,"state":"active","ping":61},{"user_id":157,"name":"Pestilence","steam_id":76561198140938904,"connected_time":6386000000000,"state":"active","ping":59},{"user_id":137,"name":"lillunya ‚ô°","steam_id":76561198330418866,"connected_time":7520000000000,"state":"active","ping":50},{"user_id":200,"name":"Brum","steam_id":76561198022849237,"connected_time":3172000000000,"state":"active","ping":48},{"user_id":230,"name":"RIBS GROW BACK","steam_id":76561198123659806,"connected_time":382000000000,"state":"active","ping":78},{"user_id":190,"name":"chocy milk addict","steam_id":76561199042178118,"connected_time":3545000000000,"state":"active","ping":54},{"user_id":207,"name":"XPullaHiiri","steam_id":76561198031652375,"connected_time":2452000000000,"state":"active","ping":84},{"user_id":223,"name":"God's Goofiest Goober","steam_id":76561198103175187,"connected_time":680000000000,"state":"active","ping":60},{"user_id":127,"name":"gamerkiddo","steam_id":76561198047380360,"connected_time":8183000000000,"state":"active","ping":59},{"user_id":231,"name":"Carlo","steam_id":76561198276491098,"connected_time":292000000000,"state":"active","ping":60},{"user_id":228,"name":"Lemon","steam_id":76561198188535947,"connected_time":522000000000,"state":"active","ping":74},{"user_id":232,"name":"xavier","steam_id":76561198076494034,"connected_time":199000000000,"state":"active","ping":57},{"user_id":220,"name":"Kiyessu","steam_id":76561198394767847,"connected_time":853000000000,"state":"active","ping":87},{"user_id":79,"name":"Coac","steam_id":76561198085265740,"connected_time":12432000000000,"state":"active","ping":73},{"user_id":181,"name":"Mael-chan\u003c3","steam_id":76561197996852498,"connected_time":4288000000000,"state":"active","ping":45},{"user_id":216,"name":"Trendyboy","steam_id":76561197994908436,"connected_time":969000000000,"state":"active","ping":53},{"user_id":221,"name":"Amoru","steam_id":76561198798161817,"connected_time":852000000000,"state":"active","ping":82},{"user_id":224,"name":"jmp","steam_id":76561198168283286,"connected_time":673000000000,"state":"active","ping":70},{"user_id":222,"name":"Dave The Sloth","steam_id":76561199135831355,"connected_time":851000000000,"state":"active","ping":59},{"user_id":227,"name":"LuckyHappyGuy","steam_id":76561198353023996,"connected_time":638000000000,"state":"active","ping":72},{"user_id":225,"name":"murderwow","steam_id":76561198024566944,"connected_time":661000000000,"state":"active","ping":98},{"user_id":229,"name":"nordstream bomber","steam_id":76561199401283123,"connected_time":522000000000,"state":"active","ping":52}]},{"server_id":23,"name":"Uncletopia | Frankfurt | 7 | Stopwatch","name_short":"frk-7","host":"frk-1.de.uncletopia.com","port":27075,"enabled":true,"region":"eu","cc":"de","latitude":50.110924,"longitude":8.682127,"reserved":0,"last_update":"0001-01-01T00:00:00Z","name_a2s":"Uncletopia | Frankfurt | 7 | Stopwatch","protocol":17,"map":"koth_lakeside_final","folder":"tf","game":"Team Fortress","app_id":440,"player_count":0,"max_players":24,"Bots":0,"server_type":"Dedicated","server_os":"Linux","password":true,"vac":true,"version":"7961495","steam_id":85568392924742827,"keywords":["cp","nocrits","nodmgspread","uncletopia"],"game_id":440,"stv_port":27076,"stv_name":"Uncletopia | Frankfurt | 7 | Stopwatch | STV","players":null},{"server_id":24,"name":"Uncletopia | Frankfurt | 8 | Community","name_short":"frk-8","host":"frk-1.de.uncletopia.com","port":27085,"enabled":true,"region":"eu","cc":"de","latitude":50.110924,"longitude":8.682127,"reserved":0,"last_update":"0001-01-01T00:00:00Z","name_a2s":"Uncletopia | Frankfurt | 8 | Community","protocol":17,"map":"workshop/koth_jamram_rc1a.ugc2964065613","folder":"tf","game":"Team Fortress","app_id":440,"player_count":0,"max_players":24,"Bots":0,"server_type":"Dedicated","server_os":"Linux","password":true,"vac":true,"version":"7961495","steam_id":85568392924742828,"keywords":["cp","nocrits","nodmgspread","uncletopia"],"game_id":440,"stv_port":27086,"stv_name":"Uncletopia | Frankfurt | 8 | Community | STV","players":null},{"server_id":202,"name":"Uncletopia | Hong Kong | 1 | All Maps","name_short":"hgk-1","host":"hgk-1.hk.uncletopia.com","port":27015,"enabled":true,"region":"asia","cc":"hk","latitude":22.302711,"longitude":114.177216,"reserved":0,"last_update":"0001-01-01T00:00:00Z","name_a2s":"Uncletopia | Hong Kong | 1 | All Maps","protocol":17,"map":"pl_borneo","folder":"tf","game":"Team Fortress","app_id":440,"player_count":23,"max_players":24,"Bots":0,"server_type":"Dedicated","server_os":"Linux","password":true,"vac":true,"version":"7961495","steam_id":85568392924494504,"keywords":["nocrits","nodmgspread","payload","uncletopia"],"game_id":440,"stv_port":27016,"stv_name":"Uncletopia | Hong Kong | 1 | All Maps | STV","players":[{"user_id":551,"name":"RizzySizzle","steam_id":76561199443552014,"connected_time":388000000000,"state":"active","ping":69},{"user_id":456,"name":"Grifter","steam_id":76561198092369812,"connected_time":3056000000000,"state":"active","ping":82},{"user_id":553,"name":"Briktsi","steam_id":76561198239125304,"connected_time":18000000000,"state":"spawning","ping":91},{"user_id":552,"name":"toad‚ô°","steam_id":76561198082199290,"connected_time":58000000000,"state":"active","ping":44},{"user_id":543,"name":"StewB„ÉÑ","steam_id":76561198131423270,"connected_time":1325000000000,"state":"active","ping":69},{"user_id":455,"name":"lerroy","steam_id":76561199137927625,"connected_time":3704000000000,"state":"active","ping":97},{"user_id":545,"name":"Jangli","steam_id":76561198103923652,"connected_time":1303000000000,"state":"active","ping":163},{"user_id":453,"name":"beeoh","steam_id":76561198088242177,"connected_time":4134000000000,"state":"active","ping":91},{"user_id":380,"name":"Pillboi","steam_id":76561198011172886,"connected_time":10621000000000,"state":"active","ping":42},{"user_id":471,"name":"Ivy 2.0","steam_id":76561199020222424,"connected_time":2606000000000,"state":"active","ping":64},{"user_id":467,"name":"Samoyed","steam_id":76561198299150410,"connected_time":2642000000000,"state":"active","ping":77},{"user_id":421,"name":"Avered","steam_id":76561199480939609,"connected_time":6335000000000,"state":"active","ping":75},{"user_id":397,"name":"Ïø†ÌÇ§","steam_id":76561197997220367,"connected_time":8978000000000,"state":"active","ping":44},{"user_id":468,"name":"Impetus","steam_id":76561198213031155,"connected_time":2637000000000,"state":"active","ping":95},{"user_id":526,"name":"killman47","steam_id":76561198348487408,"connected_time":2000000000000,"state":"active","ping":42},{"user_id":549,"name":"average 2fort enjoyer","steam_id":76561198062112214,"connected_time":1035000000000,"state":"active","ping":117},{"user_id":457,"name":"Momoxhien","steam_id":76561198414997429,"connected_time":2799000000000,"state":"active","ping":60},{"user_id":544,"name":"ÊØç„ÅÆËÇâÂõ£Â≠ê@hao123.com","steam_id":76561198069561896,"connected_time":1322000000000,"state":"active","ping":44},{"user_id":423,"name":"Banana Milk","steam_id":76561198005156257,"connected_time":5734000000000,"state":"active","ping":125},{"user_id":428,"name":"Mystery cheese üßÄ","steam_id":76561198304002409,"connected_time":5290000000000,"state":"active","ping":78},{"user_id":541,"name":"j_rex","steam_id":76561198132473926,"connected_time":1502000000000,"state":"active","ping":56},{"user_id":550,"name":"13MAN","steam_id":76561198900023603,"connected_time":1010000000000,"state":"active","ping":86},{"user_id":442,"name":"Puddin","steam_id":76561198140052918,"connected_time":4844000000000,"state":"active","ping":80}]},{"server_id":1,"name":"Uncletopia | Los Angeles | 1 | All Maps","name_short":"lax-1","host":"lax-1.us.uncletopia.com","port":27015,"enabled":true,"region":"us-west","cc":"us","latitude":33.94279,"longitude":-118.41004,"reserved":0,"last_update":"0001-01-01T00:00:00Z","name_a2s":"Uncletopia | Los Angeles | 1 | All Maps","protocol":17,"map":"koth_highpass","folder":"tf","game":"Team Fortress","app_id":440,"player_count":0,"max_players":24,"Bots":0,"server_type":"Dedicated","server_os":"Linux","password":true,"vac":true,"version":"7961495","steam_id":85568392924469991,"keywords":["cp","nocrits","nodmgspread","uncletopia"],"game_id":440,"stv_port":27016,"stv_name":"Uncletopia | Los Angeles | 1 | All Maps | STV","players":null},{"server_id":112,"name":"Uncletopia | Los Angeles | 2 | All Maps","name_short":"lax-2","host":"lax-1.us.uncletopia.com","port":27025,"enabled":true,"region":"us-west","cc":"us","latitude":33.94279,"longitude":-118.41004,"reserved":0,"last_update":"0001-01-01T00:00:00Z","name_a2s":"Uncletopia | Los Angeles | 2 | All Maps","protocol":17,"map":"koth_cascade","folder":"tf","game":"Team Fortress","app_id":440,"player_count":0,"max_players":24,"Bots":0,"server_type":"Dedicated","server_os":"Linux","password":true,"vac":true,"version":"7961495","steam_id":85568392924469992,"keywords":["cp","nocrits","nodmgspread","uncletopia"],"game_id":440,"stv_port":27026,"stv_name":"Uncletopia | Los Angeles | 2 | All Maps | STV","players":null},{"server_id":324,"name":"Uncletopia | Los Angeles | 3 | All Maps","name_short":"lax-3","host":"lax-1.us.uncletopia.com","port":27035,"enabled":true,"region":"us-west","cc":"us","latitude":33.94279,"longitude":-118.41004,"reserved":0,"last_update":"0001-01-01T00:00:00Z","name_a2s":"Uncletopia | Los Angeles | 3 | All Maps","protocol":17,"map":"pl_hoodoo_final","folder":"tf","game":"Team Fortress","app_id":440,"player_count":3,"max_players":24,"Bots":0,"server_type":"Dedicated","server_os":"Linux","password":true,"vac":true,"version":"7961495","steam_id":85568392924510198,"keywords":["nocrits","nodmgspread","payload","uncletopia"],"game_id":440,"stv_port":27036,"stv_name":"Uncletopia | Los Angeles | 3 | All Maps | STV","players":[{"user_id":7,"name":"Oktayey","steam_id":76561198143213426,"connected_time":1702000000000,"state":"active","ping":51},{"user_id":8,"name":"Bobletoob","steam_id":76561199184464900,"connected_time":1695000000000,"state":"active","ping":44},{"user_id":9,"name":"Nibotshooter","steam_id":76561199284825579,"connected_time":1682000000000,"state":"active","ping":64}]},{"server_id":25,"name":"Uncletopia | Los Angeles | 4 | Stopwatch","name_short":"lax-4","host":"lax-1.us.uncletopia.com","port":27045,"enabled":true,"region":"us-west","cc":"us","latitude":33.94279,"longitude":-118.41004,"reserved":0,"last_update":"0001-01-01T00:00:00Z","name_a2s":"Uncletopia | Los Angeles | 4 | Stopwatch","protocol":17,"map":"pl_upward","folder":"tf","game":"Team Fortress","app_id":440,"player_count":0,"max_players":24,"Bots":0,"server_type":"Dedicated","server_os":"Linux","password":true,"vac":true,"version":"7961495","steam_id":85568392924510199,"keywords":["nocrits","nodmgspread","payload","uncletopia"],"game_id":440,"stv_port":27046,"stv_name":"Uncletopia | Los Angeles | 4 | Stopwatch | STV","players":null},{"server_id":11,"name":"Uncletopia | London | 1 | All Maps","name_short":"lon-1","host":"lon-1.uk.uncletopia.com","port":27015,"enabled":true,"region":"eu","cc":"gb","latitude":51.509865,"longitude":-0.118092,"reserved":0,"last_update":"0001-01-01T00:00:00Z","name_a2s":"Uncletopia | London | 1 | All Maps","protocol":17,"map":"cp_sunshine","folder":"tf","game":"Team Fortress","app_id":440,"player_count":24,"max_players":24,"Bots":0,"server_type":"Dedicated","server_os":"Linux","password":true,"vac":true,"version":"7961495","steam_id":85568392924367362,"keywords":["cp","nocrits","nodmgspread","uncletopia"],"game_id":440,"stv_port":27016,"stv_name":"Uncletopia | London | 1 | All Maps | STV","players":[{"user_id":391,"name":"Archer","steam_id":76561197994239444,"connected_time":707000000000,"state":"active","ping":107},{"user_id":409,"name":"hitbox criminal","steam_id":76561198079277466,"connected_time":164000000000,"state":"active","ping":74},{"user_id":375,"name":"Cosmetic brain","steam_id":76561198055936410,"connected_time":1890000000000,"state":"active","ping":74},{"user_id":399,"name":"the grongle","steam_id":76561198989398023,"connected_time":549000000000,"state":"active","ping":125},{"user_id":395,"name":"Albon","steam_id":76561198060378881,"connected_time":621000000000,"state":"active","ping":62},{"user_id":410,"name":"Mr. Potato the 11th","steam_id":76561198163246758,"connected_time":49000000000,"state":"active","ping":62},{"user_id":397,"name":"Globglogabgalab","steam_id":76561198057502177,"connected_time":603000000000,"state":"active","ping":67},{"user_id":363,"name":"SPONGE","steam_id":76561198040933472,"connected_time":2861000000000,"state":"active","ping":62},{"user_id":387,"name":"john fortress","steam_id":76561198013237629,"connected_time":1102000000000,"state":"active","ping":93},{"user_id":376,"name":"yuno appreciator","steam_id":76561198083286511,"connected_time":1834000000000,"state":"active","ping":38},{"user_id":326,"name":"bolsonaro","steam_id":76561198074917015,"connected_time":4114000000000,"state":"active","ping":83},{"user_id":320,"name":"eNine","steam_id":76561198890193313,"connected_time":4518000000000,"state":"active","ping":59},{"user_id":328,"name":"snegir OFICIAL","steam_id":76561198043601838,"connected_time":3799000000000,"state":"active","ping":60},{"user_id":408,"name":"spy's arent real","steam_id":76561198165871469,"connected_time":273000000000,"state":"active","ping":57},{"user_id":406,"name":"yeahfam","steam_id":76561198330481190,"connected_time":285000000000,"state":"active","ping":49},{"user_id":327,"name":"itransition UKRAINE","steam_id":76561198080912087,"connected_time":4094000000000,"state":"active","ping":69},{"user_id":343,"name":"ritsu doan fan","steam_id":76561198107460765,"connected_time":3384000000000,"state":"active","ping":46},{"user_id":402,"name":"silicon based life form","steam_id":76561199127121346,"connected_time":451000000000,"state":"active","ping":44},{"user_id":403,"name":"the stupid","steam_id":76561199089904076,"connected_time":414000000000,"state":"active","ping":82},{"user_id":384,"name":"Th3Celestial","steam_id":76561198353312252,"connected_time":1244000000000,"state":"active","ping":45},{"user_id":407,"name":"Krabs","steam_id":76561198161679477,"connected_time":281000000000,"state":"active","ping":44},{"user_id":366,"name":"spencer pooties","steam_id":76561198123044544,"connected_time":2660000000000,"state":"active","ping":66},{"user_id":405,"name":"Tispy","steam_id":76561199207410049,"connected_time":389000000000,"state":"active","ping":75},{"user_id":335,"name":"hiiiii haiiii hello","steam_id":76561198106049954,"connected_time":3524000000000,"state":"active","ping":79}]},{"server_id":114,"name":"Uncletopia | London | 2 | All Maps","name_short":"lon-2","host":"lon-1.uk.uncletopia.com","port":27025,"enabled":true,"region":"eu","cc":"gb","latitude":51.509865,"longitude":-0.118092,"reserved":0,"last_update":"0001-01-01T00:00:00Z","name_a2s":"Uncletopia | London | 2 | All Maps","protocol":17,"map":"cp_sunshine","folder":"tf","game":"Team Fortress","app_id":440,"player_count":24,"max_players":24,"Bots":0,"server_type":"Dedicated","server_os":"Linux","password":true,"vac":true,"version":"7961495","steam_id":85568392924470941,"keywords":["cp","nocrits","nodmgspread","uncletopia"],"game_id":440,"stv_port":27026,"stv_name":"Uncletopia | London | 2 | All Maps | STV","players":[{"user_id":113,"name":"Spinya","steam_id":76561198086653667,"connected_time":5790000000000,"state":"active","ping":58},{"user_id":157,"name":"Allister","steam_id":76561197999823352,"connected_time":1779000000000,"state":"active","ping":117},{"user_id":180,"name":"WinterBucket","steam_id":76561198381313801,"connected_time":413000000000,"state":"active","ping":53},{"user_id":181,"name":"J'adore dorian","steam_id":76561198314919758,"connected_time":379000000000,"state":"active","ping":52},{"user_id":182,"name":"Liamish11","steam_id":76561198176235318,"connected_time":368000000000,"state":"active","ping":79},{"user_id":135,"name":"—Ç–µ—Å—Ç–æ—Å—Ç–µ—Ä–æ–Ω–≤–∏–∑–ª\ufffd","steam_id":76561198107146733,"connected_time":4225000000000,"state":"active","ping":87},{"user_id":168,"name":"say gex","steam_id":76561199080869203,"connected_time":1309000000000,"state":"active","ping":64},{"user_id":144,"name":"Chish n' Fips","steam_id":76561198012300440,"connected_time":3153000000000,"state":"active","ping":47},{"user_id":125,"name":"zayd","steam_id":76561198895235231,"connected_time":4974000000000,"state":"active","ping":47},{"user_id":80,"name":"Ullr","steam_id":76561198140547483,"connected_time":8347000000000,"state":"active","ping":38},{"user_id":124,"name":"Ephix","steam_id":76561197977164055,"connected_time":5069000000000,"state":"active","ping":50},{"user_id":183,"name":"ZnCl","steam_id":76561198194413141,"connected_time":339000000000,"state":"active","ping":60},{"user_id":169,"name":"Trollstoy","steam_id":76561198072017175,"connected_time":1235000000000,"state":"active","ping":45},{"user_id":159,"name":"E2-E4","steam_id":76561198184990375,"connected_time":1754000000000,"state":"active","ping":78},{"user_id":184,"name":"hmm","steam_id":76561199388213538,"connected_time":321000000000,"state":"active","ping":107},{"user_id":81,"name":"clunk","steam_id":76561198836460767,"connected_time":8297000000000,"state":"active","ping":75},{"user_id":185,"name":"TOP G","steam_id":76561198138928548,"connected_time":308000000000,"state":"active","ping":61},{"user_id":171,"name":"ShaggyTax8930","steam_id":76561198880156558,"connected_time":1096000000000,"state":"active","ping":142},{"user_id":175,"name":"Dolcelatte","steam_id":76561198038501770,"connected_time":968000000000,"state":"active","ping":60},{"user_id":173,"name":"kikithenorthwind","steam_id":76561199013581278,"connected_time":1038000000000,"state":"active","ping":83},{"user_id":186,"name":"ILoveKey2","steam_id":76561198814559564,"connected_time":296000000000,"state":"active","ping":75},{"user_id":176,"name":"co","steam_id":76561198188225497,"connected_time":856000000000,"state":"active","ping":46},{"user_id":189,"name":"supersniper25","steam_id":76561199403878383,"connected_time":10000000000,"state":"spawning","ping":170},{"user_id":188,"name":"Mr. Hunts","steam_id":76561197981910397,"connected_time":218000000000,"state":"active","ping":60}]},{"server_id":320,"name":"Uncletopia | London | 3 | All Maps","name_short":"lon-3","host":"lon-1.uk.uncletopia.com","port":27035,"enabled":true,"region":"eu","cc":"gb","latitude":51.509865,"longitude":-0.118092,"reserved":0,"last_update":"0001-01-01T00:00:00Z","name_a2s":"Uncletopia | London | 3 | All Maps","protocol":17,"map":"koth_cascade","folder":"tf","game":"Team Fortress","app_id":440,"player_count":0,"max_players":24,"Bots":0,"server_type":"Dedicated","server_os":"Linux","password":true,"vac":true,"version":"7961495","steam_id":85568392924510192,"keywords":["cp","nocrits","nodmgspread","uncletopia"],"game_id":440,"stv_port":27036,"stv_name":"Uncletopia | London | 3 | All Maps | STV","players":null},{"server_id":321,"name":"Uncletopia | London | 4 | All Maps","name_short":"lon-4","host":"lon-1.uk.uncletopia.com","port":27045,"enabled":true,"region":"eu","cc":"gb","latitude":51.509865,"longitude":-0.118092,"reserved":0,"last_update":"0001-01-01T00:00:00Z","name_a2s":"Uncletopia | London | 4 | All Maps","protocol":17,"map":"cp_mountainlab","folder":"tf","game":"Team Fortress","app_id":440,"player_count":0,"max_players":24,"Bots":0,"server_type":"Dedicated","server_os":"Linux","password":true,"vac":true,"version":"7961495","steam_id":85568392924510193,"keywords":["cp","nocrits","nodmgspread","uncletopia"],"game_id":440,"stv_port":27046,"stv_name":"Uncletopia | London | 4 | All Maps | STV","players":null},{"server_id":21,"name":"Uncletopia | London | 5 | All Maps","name_short":"lon-5","host":"lon-1.uk.uncletopia.com","port":27055,"enabled":true,"region":"eu","cc":"gb","latitude":51.509865,"longitude":-0.118092,"reserved":0,"last_update":"0001-01-01T00:00:00Z","name_a2s":"Uncletopia | London | 5 | All Maps","protocol":17,"map":"koth_cascade","folder":"tf","game":"Team Fortress","app_id":440,"player_count":0,"max_players":24,"Bots":0,"server_type":"Dedicated","server_os":"Linux","password":true,"vac":true,"version":"7961495","steam_id":85568392924742829,"keywords":["cp","nocrits","nodmgspread","uncletopia"],"game_id":440,"stv_port":27056,"stv_name":"Uncletopia | London | 5 | All Maps | STV","players":null},{"server_id":22,"name":"Uncletopia | London | 6 | All Maps","name_short":"lon-6","host":"lon-1.uk.uncletopia.com","port":27065,"enabled":true,"region":"eu","cc":"gb","latitude":51.509865,"longitude":-0.118092,"reserved":0,"last_update":"0001-01-01T00:00:00Z","name_a2s":"Uncletopia | London | 6 | All Maps","protocol":17,"map":"cp_sunshine","folder":"tf","game":"Team Fortress","app_id":440,"player_count":0,"max_players":24,"Bots":0,"server_type":"Dedicated","server_os":"Linux","password":true,"vac":true,"version":"7961495","steam_id":85568392924742830,"keywords":["cp","nocrits","nodmgspread","uncletopia"],"game_id":440,"stv_port":27066,"stv_name":"Uncletopia | London | 6 | All Maps | STV","players":null},{"server_id":40,"name":"Uncletopia | London | 7 | Stopwatch","name_short":"lon-7","host":"lon-1.uk.uncletopia.com","port":27075,"enabled":true,"region":"eu","cc":"gb","latitude":51.509865,"longitude":-0.118092,"reserved":0,"last_update":"0001-01-01T00:00:00Z","name_a2s":"Uncletopia | London | 7 | Stopwatch","protocol":17,"map":"workshop/koth_jamram_rc1a.ugc2964065613","folder":"tf","game":"Team Fortress","app_id":440,"player_count":0,"max_players":24,"Bots":0,"server_type":"Dedicated","server_os":"Linux","password":true,"vac":true,"version":"7961495","steam_id":85568392924964314,"keywords":["cp","nocrits","nodmgspread","uncletopia"],"game_id":440,"stv_port":27076,"stv_name":"Uncletopia | London | 7 | Stopwatch | STV","players":null},{"server_id":41,"name":"Uncletopia | London | 8 | Community","name_short":"lon-8","host":"lon-1.uk.uncletopia.com","port":27085,"enabled":true,"region":"eu","cc":"gb","latitude":51.509865,"longitude":-0.118092,"reserved":0,"last_update":"0001-01-01T00:00:00Z","name_a2s":"Uncletopia | London | 8 | Community","protocol":17,"map":"workshop/cp_fulgur_rc2a.ugc2068252300","folder":"tf","game":"Team Fortress","app_id":440,"player_count":0,"max_players":24,"Bots":0,"server_type":"Dedicated","server_os":"Linux","password":true,"vac":true,"version":"7961495","steam_id":85568392924964315,"keywords":["cp","nocrits","nodmgspread","uncletopia"],"game_id":440,"stv_port":27086,"stv_name":"Uncletopia | London | 8 | Community | STV","players":null},{"server_id":300,"name":"Uncletopia | Montr√©al | 1 | One Thousand Uncles","name_short":"mtl-1","host":"mtl-1.ca.uncletopia.com","port":27015,"enabled":true,"region":"us-east","cc":"ca","latitude":45.50889,"longitude":-73.56167,"reserved":0,"last_update":"0001-01-01T00:00:00Z","name_a2s":"Uncletopia | Montr√©al | 1 | One Thousand Uncles","protocol":17,"map":"pl_chilly","folder":"tf","game":"Team Fortress","app_id":440,"player_count":0,"max_players":32,"Bots":0,"server_type":"Dedicated","server_os":"Linux","password":true,"vac":true,"version":"7961495","steam_id":85568392924500087,"keywords":["alltalk","danepve","increased_maxplayers","norespawntime","payload","uncletopia"],"game_id":440,"stv_port":0,"stv_name":"","players":null},{"server_id":301,"name":"Uncletopia | Montr√©al | 2 | One Thousand Uncles","name_short":"mtl-2","host":"mtl-1.ca.uncletopia.com","port":27025,"enabled":true,"region":"us-east","cc":"ca","latitude":45.50889,"longitude":-73.56167,"reserved":0,"last_update":"0001-01-01T00:00:00Z","name_a2s":"Uncletopia | Montr√©al | 2 | One Thousand Uncles","protocol":17,"map":"pl_chilly","folder":"tf","game":"Team Fortress","app_id":440,"player_count":0,"max_players":32,"Bots":0,"server_type":"Dedicated","server_os":"Linux","password":true,"vac":true,"version":"7961495","steam_id":85568392924500088,"keywords":["alltalk","danepve","increased_maxplayers","norespawntime","payload","uncletopia"],"game_id":440,"stv_port":0,"stv_name":"","players":null},{"server_id":302,"name":"Uncletopia | Montr√©al | 3 | One Thousand Uncles","name_short":"mtl-3","host":"mtl-1.ca.uncletopia.com","port":27035,"enabled":true,"region":"us-east","cc":"ca","latitude":45.50889,"longitude":-73.56167,"reserved":0,"last_update":"0001-01-01T00:00:00Z","name_a2s":"Uncletopia | Montr√©al | 3 | One Thousand Uncles","protocol":17,"map":"pl_goldrush","folder":"tf","game":"Team Fortress","app_id":440,"player_count":0,"max_players":32,"Bots":0,"server_type":"Dedicated","server_os":"Linux","password":true,"vac":true,"version":"7961495","steam_id":85568392924500089,"keywords":["alltalk","danepve","increased_maxplayers","norespawntime","payload","uncletopia"],"game_id":440,"stv_port":0,"stv_name":"","players":null},{"server_id":13,"name":"Uncletopia | New York City | 1 | All Maps","name_short":"nyc-1","host":"nyc-1.us.uncletopia.com","port":27015,"enabled":true,"region":"us-east","cc":"us","latitude":40.73061,"longitude":-73.93524,"reserved":0,"last_update":"0001-01-01T00:00:00Z","name_a2s":"Uncletopia | New York City | 1 | All Maps","protocol":17,"map":"koth_brazil","folder":"tf","game":"Team Fortress","app_id":440,"player_count":0,"max_players":24,"Bots":0,"server_type":"Dedicated","server_os":"Linux","password":true,"vac":true,"version":"7961495","steam_id":85568392924469993,"keywords":["cp","nocrits","nodmgspread","uncletopia"],"game_id":440,"stv_port":27016,"stv_name":"Uncletopia | New York City | 1 | All Maps | STV","players":null},{"server_id":14,"name":"Uncletopia | New York City | 2 | All Maps","name_short":"nyc-2","host":"nyc-1.us.uncletopia.com","port":27025,"enabled":true,"region":"us-east","cc":"us","latitude":40.73061,"longitude":-73.93524,"reserved":0,"last_update":"0001-01-01T00:00:00Z","name_a2s":"Uncletopia | New York City | 2 | All Maps","protocol":17,"map":"pl_upward","folder":"tf","game":"Team Fortress","app_id":440,"player_count":0,"max_players":24,"Bots":0,"server_type":"Dedicated","server_os":"Linux","password":true,"vac":true,"version":"7961495","steam_id":85568392924469994,"keywords":["nocrits","nodmgspread","payload","uncletopia"],"game_id":440,"stv_port":27026,"stv_name":"Uncletopia | New York City | 2 | All Maps | STV","players":null},{"server_id":15,"name":"Uncletopia | New York City | 3 | Stopwatch","name_short":"nyc-3","host":"nyc-1.us.uncletopia.com","port":27035,"enabled":true,"region":"us-east","cc":"us","latitude":40.73061,"longitude":-73.93524,"reserved":0,"last_update":"0001-01-01T00:00:00Z","name_a2s":"Uncletopia | New York City | 3 | Stopwatch","protocol":17,"map":"workshop/koth_product_final.ugc454272353","folder":"tf","game":"Team Fortress","app_id":440,"player_count":0,"max_players":24,"Bots":0,"server_type":"Dedicated","server_os":"Linux","password":true,"vac":true,"version":"7961495","steam_id":85568392924742820,"keywords":["cp","nocrits","nodmgspread","uncletopia"],"game_id":440,"stv_port":27036,"stv_name":"Uncletopia | New York City | 3 | Stopwatch | STV","players":null},{"server_id":16,"name":"Uncletopia | New York City | 4 | Community","name_short":"nyc-4","host":"nyc-1.us.uncletopia.com","port":27045,"enabled":true,"region":"us-east","cc":"us","latitude":40.73061,"longitude":-73.93524,"reserved":0,"last_update":"0001-01-01T00:00:00Z","name_a2s":"Uncletopia | New York City | 4 | Community","protocol":17,"map":"workshop/cp_indulge.ugc528106646","folder":"tf","game":"Team Fortress","app_id":440,"player_count":0,"max_players":24,"Bots":0,"server_type":"Dedicated","server_os":"Linux","password":true,"vac":true,"version":"7961495","steam_id":85568392924742821,"keywords":["cp","nocrits","nodmgspread","uncletopia"],"game_id":440,"stv_port":27046,"stv_name":"Uncletopia | New York City | 4 | Community | STV","players":null},{"server_id":142,"name":"Uncletopia | S√£o Paulo | 1 | All Maps","name_short":"sao-1","host":"sao-1.br.uncletopia.com","port":27015,"enabled":true,"region":"sa","cc":"br","latitude":-23.533773,"longitude":-46.62529,"reserved":0,"last_update":"0001-01-01T00:00:00Z","name_a2s":"Uncletopia | S√£o Paulo | 1 | All Maps","protocol":17,"map":"cp_granary","folder":"tf","game":"Team Fortress","app_id":440,"player_count":0,"max_players":24,"Bots":0,"server_type":"Dedicated","server_os":"Linux","password":true,"vac":true,"version":"7961495","steam_id":85568392924469996,"keywords":["cp","nocrits","nodmgspread","uncletopia"],"game_id":440,"stv_port":27016,"stv_name":"Uncletopia | S√£o Paulo | 1 | All Maps | STV","players":null},{"server_id":143,"name":"Uncletopia | S√£o Paulo | 2 | Community","name_short":"sao-2","host":"sao-2.br.uncletopia.com","port":27015,"enabled":true,"region":"sa","cc":"br","latitude":-23.533773,"longitude":-46.62529,"reserved":0,"last_update":"0001-01-01T00:00:00Z","name_a2s":"Uncletopia | S√£o Paulo | 2 | Community","protocol":17,"map":"workshop/cp_logjam_rc12.ugc454812035","folder":"tf","game":"Team Fortress","app_id":440,"player_count":0,"max_players":24,"Bots":0,"server_type":"Dedicated","server_os":"Linux","password":true,"vac":true,"version":"7961495","steam_id":85568392924485349,"keywords":["cp","nocrits","nodmgspread","uncletopia"],"game_id":440,"stv_port":27016,"stv_name":"Uncletopia | S√£o Paulo | 2 | Community | STV","players":null},{"server_id":7,"name":"Uncletopia | Seattle | 1 | All Maps","name_short":"sea-1","host":"sea-1.us.uncletopia.com","port":27015,"enabled":true,"region":"us-west","cc":"us","latitude":47.608013,"longitude":-122.33517,"reserved":0,"last_update":"0001-01-01T00:00:00Z","name_a2s":"Uncletopia | Seattle | 1 | All Maps","protocol":17,"map":"koth_suijin","folder":"tf","game":"Team Fortress","app_id":440,"player_count":0,"max_players":24,"Bots":0,"server_type":"Dedicated","server_os":"Linux","password":true,"vac":true,"version":"7961495","steam_id":85568392924469997,"keywords":["cp","nocrits","nodmgspread","uncletopia"],"game_id":440,"stv_port":27016,"stv_name":"Uncletopia | Seattle | 1 | All Maps | STV","players":null},{"server_id":119,"name":"Uncletopia | Seattle | 2 | All Maps","name_short":"sea-2","host":"sea-1.us.uncletopia.com","port":27025,"enabled":true,"region":"us-west","cc":"us","latitude":47.608013,"longitude":-122.33517,"reserved":0,"last_update":"0001-01-01T00:00:00Z","name_a2s":"Uncletopia | Seattle | 2 | All Maps","protocol":17,"map":"koth_lakeside_final","folder":"tf","game":"Team Fortress","app_id":440,"player_count":0,"max_players":24,"Bots":0,"server_type":"Dedicated","server_os":"Linux","password":true,"vac":true,"version":"7961495","steam_id":85568392924469998,"keywords":["cp","nocrits","nodmgspread","uncletopia"],"game_id":440,"stv_port":27026,"stv_name":"Uncletopia | Seattle | 2 | All Maps | STV","players":null},{"server_id":406,"name":"Uncletopia | Seattle | 3 | Stopwatch","name_short":"sea-3","host":"sea-1.us.uncletopia.com","port":27035,"enabled":true,"region":"us-west","cc":"us","latitude":47.608013,"longitude":-122.33517,"reserved":0,"last_update":"0001-01-01T00:00:00Z","name_a2s":"Uncletopia | Seattle | 3 | Stopwatch","protocol":17,"map":"cp_gullywash_final1","folder":"tf","game":"Team Fortress","app_id":440,"player_count":0,"max_players":24,"Bots":0,"server_type":"Dedicated","server_os":"Linux","password":true,"vac":true,"version":"7961495","steam_id":85568392924515217,"keywords":["cp","nocrits","nodmgspread","uncletopia"],"game_id":440,"stv_port":27036,"stv_name":"Uncletopia | Seattle | 3 | Stopwatch | STV","players":null},{"server_id":17,"name":"Uncletopia | San Francisco | 1 | All Maps","name_short":"sfo-1","host":"sfo-1.us.uncletopia.com","port":27015,"enabled":true,"region":"us-west","cc":"us","latitude":37.77397,"longitude":-122.4313,"reserved":0,"last_update":"0001-01-01T00:00:00Z","name_a2s":"Uncletopia | San Francisco | 1 | All Maps","protocol":17,"map":"koth_highpass","folder":"tf","game":"Team Fortress","app_id":440,"player_count":0,"max_players":24,"Bots":0,"server_type":"Dedicated","server_os":"Linux","password":true,"vac":true,"version":"7961495","steam_id":85568392924469999,"keywords":["cp","nocrits","nodmgspread","uncletopia"],"game_id":440,"stv_port":27016,"stv_name":"Uncletopia | San Francisco | 1 | All Maps | STV","players":null},{"server_id":18,"name":"Uncletopia | San Francisco | 2 | All Maps","name_short":"sfo-2","host":"sfo-1.us.uncletopia.com","port":27025,"enabled":true,"region":"us-west","cc":"us","latitude":37.77397,"longitude":-122.4313,"reserved":0,"last_update":"0001-01-01T00:00:00Z","name_a2s":"Uncletopia | San Francisco | 2 | All Maps","protocol":17,"map":"cp_freight_final1","folder":"tf","game":"Team Fortress","app_id":440,"player_count":0,"max_players":24,"Bots":0,"server_type":"Dedicated","server_os":"Linux","password":true,"vac":true,"version":"7961495","steam_id":85568392924470000,"keywords":["cp","nocrits","nodmgspread","uncletopia"],"game_id":440,"stv_port":27026,"stv_name":"Uncletopia | San Francisco | 2 | All Maps | STV","players":null},{"server_id":19,"name":"Uncletopia | San Francisco | 3 | Stopwatch","name_short":"sfo-3","host":"sfo-1.us.uncletopia.com","port":27035,"enabled":true,"region":"us-west","cc":"us","latitude":37.77397,"longitude":-122.4313,"reserved":0,"last_update":"0001-01-01T00:00:00Z","name_a2s":"Uncletopia | San Francisco | 3 | Stopwatch","protocol":17,"map":"workshop/koth_product_final.ugc454272353","folder":"tf","game":"Team Fortress","app_id":440,"player_count":0,"max_players":24,"Bots":0,"server_type":"Dedicated","server_os":"Linux","password":true,"vac":true,"version":"7961495","steam_id":85568392924742824,"keywords":["cp","nocrits","nodmgspread","uncletopia"],"game_id":440,"stv_port":27036,"stv_name":"Uncletopia | San Francisco | 3 | Stopwatch | STV","players":null},{"server_id":20,"name":"Uncletopia | San Francisco | 4 | Community","name_short":"sfo-4","host":"sfo-1.us.uncletopia.com","port":27045,"enabled":true,"region":"us-west","cc":"us","latitude":37.77397,"longitude":-122.4313,"reserved":0,"last_update":"0001-01-01T00:00:00Z","name_a2s":"Uncletopia | San Francisco | 4 | Community","protocol":17,"map":"workshop/pl_cactuscanyon_redux_final2.ugc2579644293","folder":"tf","game":"Team Fortress","app_id":440,"player_count":0,"max_players":24,"Bots":0,"server_type":"Dedicated","server_os":"Linux","password":true,"vac":true,"version":"7961495","steam_id":85568392924742826,"keywords":["nocrits","nodmgspread","payload","uncletopia"],"game_id":440,"stv_port":27046,"stv_name":"Uncletopia | San Francisco | 4 | Community | STV","players":null},{"server_id":141,"name":"Uncletopia | Sydney | 1 | All Maps","name_short":"syd-1","host":"syd-1.au.uncletopia.com","port":27015,"enabled":true,"region":"au","cc":"au","latitude":-33.865143,"longitude":151.2099,"reserved":0,"last_update":"0001-01-01T00:00:00Z","name_a2s":"Uncletopia | Sydney | 1 | All Maps","protocol":17,"map":"pl_swiftwater_final1","folder":"tf","game":"Team Fortress","app_id":440,"player_count":5,"max_players":24,"Bots":0,"server_type":"Dedicated","server_os":"Linux","password":true,"vac":true,"version":"7961495","steam_id":85568392924470001,"keywords":["nocrits","nodmgspread","payload","uncletopia"],"game_id":440,"stv_port":27016,"stv_name":"Uncletopia | Sydney | 1 | All Maps | STV","players":[{"user_id":480,"name":"A F R O","steam_id":76561198094559666,"connected_time":123000000000,"state":"active","ping":47},{"user_id":479,"name":"Superjackman#SaveTF2","steam_id":76561199137727688,"connected_time":305000000000,"state":"active","ping":142},{"user_id":451,"name":"Keybae","steam_id":76561198073212780,"connected_time":4452000000000,"state":"active","ping":63},{"user_id":452,"name":"purple","steam_id":76561198098003480,"connected_time":4443000000000,"state":"active","ping":117},{"user_id":453,"name":"Reedy","steam_id":76561198155994395,"connected_time":4390000000000,"state":"active","ping":59}]},{"server_id":123,"name":"Uncletopia | Sydney | 2 | All Maps","name_short":"syd-2","host":"syd-1.au.uncletopia.com","port":27025,"enabled":true,"region":"au","cc":"au","latitude":-33.865143,"longitude":151.2099,"reserved":0,"last_update":"0001-01-01T00:00:00Z","name_a2s":"Uncletopia | Sydney | 2 | All Maps","protocol":17,"map":"pl_barnblitz","folder":"tf","game":"Team Fortress","app_id":440,"player_count":0,"max_players":24,"Bots":0,"server_type":"Dedicated","server_os":"Linux","password":true,"vac":true,"version":"7961495","steam_id":85568392924470002,"keywords":["nocrits","nodmgspread","payload","uncletopia"],"game_id":440,"stv_port":27026,"stv_name":"Uncletopia | Sydney | 2 | All Maps | STV","players":null},{"server_id":395,"name":"Uncletopia | Sydney | 3 | All Maps","name_short":"syd-3","host":"syd-1.au.uncletopia.com","port":27035,"enabled":true,"region":"au","cc":"au","latitude":-33.865143,"longitude":151.2099,"reserved":0,"last_update":"0001-01-01T00:00:00Z","name_a2s":"Uncletopia | Sydney | 3 | All Maps","protocol":17,"map":"koth_lakeside_final","folder":"tf","game":"Team Fortress","app_id":440,"player_count":0,"max_players":24,"Bots":0,"server_type":"Dedicated","server_os":"Linux","password":true,"vac":true,"version":"7961495","steam_id":85568392925194467,"keywords":["cp","nocrits","nodmgspread","uncletopia"],"game_id":440,"stv_port":27036,"stv_name":"Uncletopia | Sydney | 3 | All Maps | STV","players":null},{"server_id":396,"name":"Uncletopia | Sydney | 4 | All Maps","name_short":"syd-4","host":"syd-1.au.uncletopia.com","port":27045,"enabled":true,"region":"au","cc":"au","latitude":-33.865143,"longitude":151.2099,"reserved":0,"last_update":"0001-01-01T00:00:00Z","name_a2s":"Uncletopia | Sydney | 4 | All Maps","protocol":17,"map":"pl_snowycoast","folder":"tf","game":"Team Fortress","app_id":440,"player_count":0,"max_players":24,"Bots":0,"server_type":"Dedicated","server_os":"Linux","password":true,"vac":true,"version":"7961495","steam_id":85568392925397958,"keywords":["nocrits","nodmgspread","payload","uncletopia"],"game_id":440,"stv_port":27046,"stv_name":"Uncletopia | Sydney | 4 | All Maps | STV","players":null},{"server_id":58,"name":"Uncletopia | Sydney | 5 | Stopwatch","name_short":"syd-5","host":"syd-1.au.uncletopia.com","port":27055,"enabled":true,"region":"au","cc":"au","latitude":-33.865143,"longitude":151.2099,"reserved":0,"last_update":"0001-01-01T00:00:00Z","name_a2s":"Uncletopia | Sydney | 5 | Stopwatch","protocol":17,"map":"koth_highpass","folder":"tf","game":"Team Fortress","app_id":440,"player_count":0,"max_players":24,"Bots":0,"server_type":"Dedicated","server_os":"Linux","password":true,"vac":true,"version":"7961495","steam_id":85568392925397959,"keywords":["cp","nocrits","nodmgspread","uncletopia"],"game_id":440,"stv_port":27056,"stv_name":"Uncletopia | Sydney | 5 | Stopwatch | STV","players":null},{"server_id":59,"name":"Uncletopia | Sydney | 6 | Community","name_short":"syd-6","host":"syd-1.au.uncletopia.com","port":27065,"enabled":true,"region":"au","cc":"au","latitude":-33.865143,"longitude":151.2099,"reserved":0,"last_update":"0001-01-01T00:00:00Z","name_a2s":"Uncletopia | Sydney | 6 | Community","protocol":17,"map":"workshop/koth_trenchfoot_ab1.ugc731436616","folder":"tf","game":"Team Fortress","app_id":440,"player_count":0,"max_players":24,"Bots":0,"server_type":"Dedicated","server_os":"Linux","password":true,"vac":true,"version":"7961495","steam_id":85568392925397960,"keywords":["cp","nocrits","nodmgspread","uncletopia"],"game_id":440,"stv_port":27066,"stv_name":"Uncletopia | Sydney | 6 | Community | STV","players":null},{"server_id":49,"name":"Uncletopia | Warsaw | 1 | One Thousand Uncles","name_short":"waw-1","host":"waw-1.pl.uncletopia.com","port":27015,"enabled":true,"region":"eu","cc":"pl","latitude":52.2297,"longitude":21.017532,"reserved":0,"last_update":"0001-01-01T00:00:00Z","name_a2s":"Uncletopia | Warsaw | 1 | One Thousand Uncles","protocol":17,"map":"cp_egypt_final","folder":"tf","game":"Team Fortress","app_id":440,"player_count":31,"max_players":32,"Bots":16,"server_type":"Dedicated","server_os":"Linux","password":true,"vac":true,"version":"7961495","steam_id":85568392925397850,"keywords":["alltalk","bots","cp","danepve","increased_maxplayers","norespawntime","uncletopia"],"game_id":440,"stv_port":0,"stv_name":"","players":[{"user_id":517,"name":"Benzo Fury","steam_id":76561198025259336,"connected_time":178000000000,"state":"active","ping":71},{"user_id":505,"name":"The f2p enjoyer","steam_id":76561199100077788,"connected_time":2565000000000,"state":"active","ping":71},{"user_id":474,"name":"aaaaaa","steam_id":76561198086304421,"connected_time":5675000000000,"state":"active","ping":86},{"user_id":481,"name":"Ukr–•–ª—î–±","steam_id":76561198388896707,"connected_time":4643000000000,"state":"active","ping":73},{"user_id":507,"name":"Not a dolphin #savetf2","steam_id":76561199119369490,"connected_time":1736000000000,"state":"active","ping":86},{"user_id":520,"name":"otam","steam_id":76561198274460980,"connected_time":79000000000,"state":"active","ping":62},{"user_id":449,"name":"serbanstein","steam_id":76561199112672194,"connected_time":7060000000000,"state":"active","ping":95},{"user_id":514,"name":"Presuntinho","steam_id":76561198964098577,"connected_time":508000000000,"state":"active","ping":89},{"user_id":355,"name":"the baddest boy in btd5","steam_id":76561199487914508,"connected_time":13748000000000,"state":"active","ping":39},{"user_id":508,"name":"CurlyPaty - [YouTube]","steam_id":76561198125025171,"connected_time":1165000000000,"state":"active","ping":34},{"user_id":509,"name":"Claw","steam_id":76561198060985181,"connected_time":1051000000000,"state":"active","ping":88},{"user_id":510,"name":"Hoflett","steam_id":76561198873156806,"connected_time":997000000000,"state":"active","ping":95},{"user_id":519,"name":"Fatmagic Mukbang ASMR","steam_id":76561198063492110,"connected_time":123000000000,"state":"active","ping":92},{"user_id":521,"name":"mineofmaggots","steam_id":76561199418921451,"connected_time":27000000000,"state":"spawning","ping":44},{"user_id":522,"name":"MattJettskie","steam_id":76561199229493583,"connected_time":23000000000,"state":"spawning","ping":179},{"user_id":523,"name":"Elix","steam_id":76561198157179447,"connected_time":16000000000,"state":"active","ping":127}]},{"server_id":50,"name":"Uncletopia | Warsaw | 2 | One Thousand Uncles","name_short":"waw-2","host":"waw-1.pl.uncletopia.com","port":27025,"enabled":true,"region":"eu","cc":"pl","latitude":52.2297,"longitude":21.017532,"reserved":0,"last_update":"0001-01-01T00:00:00Z","name_a2s":"Uncletopia | Warsaw | 2 | One Thousand Uncles","protocol":17,"map":"cp_mossrock","folder":"tf","game":"Team Fortress","app_id":440,"player_count":24,"max_players":32,"Bots":16,"server_type":"Dedicated","server_os":"Linux","password":true,"vac":true,"version":"7961495","steam_id":85568392925397851,"keywords":["alltalk","bots","cp","danepve","increased_maxplayers","norespawntime","uncletopia"],"game_id":440,"stv_port":0,"stv_name":"","players":[{"user_id":208,"name":"207Coolio","steam_id":76561198059275069,"connected_time":1186000000000,"state":"active","ping":186},{"user_id":231,"name":"Zodaick","steam_id":76561198083662129,"connected_time":391000000000,"state":"active","ping":63},{"user_id":232,"name":"not a good idea","steam_id":76561198032259680,"connected_time":225000000000,"state":"active","ping":159},{"user_id":202,"name":"Crimson_Cookie","steam_id":76561199124321966,"connected_time":1835000000000,"state":"active","ping":140},{"user_id":211,"name":"Eldritch abomination","steam_id":76561198244108784,"connected_time":869000000000,"state":"active","ping":47},{"user_id":229,"name":"The Troglodyte","steam_id":76561199119744358,"connected_time":527000000000,"state":"active","ping":75},{"user_id":230,"name":"100PLAK","steam_id":76561198882383568,"connected_time":503000000000,"state":"active","ping":68},{"user_id":212,"name":"cake gaming","steam_id":76561199373966090,"connected_time":573000000000,"state":"active","ping":44}]},{"server_id":51,"name":"Uncletopia | Warsaw | 3 | All Maps","name_short":"waw-3","host":"waw-1.pl.uncletopia.com","port":27035,"enabled":true,"region":"eu","cc":"pl","latitude":52.2297,"longitude":21.017532,"reserved":0,"last_update":"0001-01-01T00:00:00Z","name_a2s":"Uncletopia | Warsaw | 3 | All Maps","protocol":17,"map":"cp_mountainlab","folder":"tf","game":"Team Fortress","app_id":440,"player_count":0,"max_players":24,"Bots":0,"server_type":"Dedicated","server_os":"Linux","password":true,"vac":true,"version":"7961495","steam_id":85568392925397852,"keywords":["cp","nocrits","nodmgspread","uncletopia"],"game_id":440,"stv_port":27036,"stv_name":"Uncletopia | Warsaw | 3 | All Maps | STV","players":null},{"server_id":52,"name":"Uncletopia | Warsaw | 4 | All Maps","name_short":"waw-4","host":"waw-1.pl.uncletopia.com","port":27045,"enabled":true,"region":"eu","cc":"pl","latitude":52.2297,"longitude":21.017532,"reserved":0,"last_update":"0001-01-01T00:00:00Z","name_a2s":"Uncletopia | Warsaw | 4 | All Maps","protocol":17,"map":"pl_upward","folder":"tf","game":"Team Fortress","app_id":440,"player_count":1,"max_players":24,"Bots":0,"server_type":"Dedicated","server_os":"Linux","password":true,"vac":true,"version":"7961495","steam_id":85568392925397853,"keywords":["nocrits","nodmgspread","payload","uncletopia"],"game_id":440,"stv_port":27046,"stv_name":"Uncletopia | Warsaw | 4 | All Maps | STV","players":[{"user_id":6,"name":"Grom5509","steam_id":76561199483955958,"connected_time":36000000000,"state":"active","ping":45}]},{"server_id":53,"name":"Uncletopia | Warsaw | 5 | Stopwatch","name_short":"waw-5","host":"waw-1.pl.uncletopia.com","port":27055,"enabled":true,"region":"eu","cc":"pl","latitude":52.2297,"longitude":21.017532,"reserved":0,"last_update":"0001-01-01T00:00:00Z","name_a2s":"Uncletopia | Warsaw | 5 | Stopwatch","protocol":17,"map":"koth_lakeside_final","folder":"tf","game":"Team Fortress","app_id":440,"player_count":3,"max_players":24,"Bots":0,"server_type":"Dedicated","server_os":"Linux","password":true,"vac":true,"version":"7961495","steam_id":85568392925397854,"keywords":["cp","nocrits","nodmgspread","uncletopia"],"game_id":440,"stv_port":27056,"stv_name":"Uncletopia | Warsaw | 5 | Stopwatch | STV","players":[{"user_id":4,"name":"Roddy St. James","steam_id":76561199139267147,"connected_time":1084000000000,"state":"active","ping":73},{"user_id":5,"name":"Archosi","steam_id":76561199016126938,"connected_time":1075000000000,"state":"active","ping":66},{"user_id":6,"name":"Danielpro3434","steam_id":76561199422933234,"connected_time":673000000000,"state":"active","ping":40}]},{"server_id":54,"name":"Uncletopia | Warsaw | 6 | Community","name_short":"waw-6","host":"waw-1.pl.uncletopia.com","port":27065,"enabled":true,"region":"eu","cc":"pl","latitude":52.2297,"longitude":21.017532,"reserved":0,"last_update":"0001-01-01T00:00:00Z","name_a2s":"Uncletopia | Warsaw | 6 | Community","protocol":17,"map":"workshop/koth_trenchfoot_ab1.ugc731436616","folder":"tf","game":"Team Fortress","app_id":440,"player_count":0,"max_players":24,"Bots":0,"server_type":"Dedicated","server_os":"Linux","password":true,"vac":true,"version":"7961495","steam_id":85568392925397856,"keywords":["cp","nocrits","nodmgspread","uncletopia"],"game_id":440,"stv_port":27066,"stv_name":"Uncletopia | Warsaw | 6 | Community | STV","players":null}]}