{"status":true,"message":"","result":[{"server_id":9,"name":"Uncletopia | Atlanta | 1 | All Maps","name_short":"atl-1","host":"atl-1.us.uncletopia.com","port":27015,"enabled":true,"region":"us-east","cc":"us","latitude":33.753746,"longitude":-84.38633,"reserved":0,"last_update":"0001-01-01T00:00:00Z","name_a2s":"Uncletopia | Atlanta | 1 | All Maps","protocol":17,"map":"pl_snowycoast","folder":"tf","game":"Team Fortress","app_id":440,"player_count":24,"max_players":24,"Bots":0,"server_type":"Dedicated","server_os":"Linux","password":true,"vac":true,"version":"7757534","steam_id":85568392924469982,"keywords":["nocrits","nodmgspread","payload","uncletopia"],"game_id":440,"stv_port":27016,"stv_name":"Uncletopia | Atlanta | 1 | All Maps | STV","players":[{"user_id":639,"name":"PhatBoi","steam_id":76561198055859578,"connected_time":903000000000,"state":"active","ping":94},{"user_id":606,"name":"BLU1 | cola","steam_id":76561198374390458,"connected_time":4707000000000,"state":"active","ping":56},{"user_id":620,"name":"RED1 | eish","steam_id":76561198089463603,"connected_time":3014000000000,"state":"active","ping":119},{"user_id":610,"name":"RED1 | nomad","steam_id":76561197998740399,"connected_time":4464000000000,"state":"active","ping":72},{"user_id":604,"name":"ÁÅ´Êòü | Marsy","steam_id":76561198014979892,"connected_time":4712000000000,"state":"active","ping":65},{"user_id":634,"name":"BotchyAlarm8","steam_id":76561198092682129,"connected_time":1026000000000,"state":"active","ping":78},{"user_id":608,"name":"RED1 | Lylith","steam_id":76561198386687546,"connected_time":4638000000000,"state":"active","ping":48},{"user_id":635,"name":"Spy_Is_Pye","steam_id":76561199439622967,"connected_time":1008000000000,"state":"active","ping":71},{"user_id":632,"name":"Bandicario","steam_id":76561198432036026,"connected_time":1396000000000,"state":"active","ping":58},{"user_id":518,"name":"RED1 | Le4n!!!","steam_id":76561198045522596,"connected_time":17438000000000,"state":"active","ping":66},{"user_id":645,"name":"shaderoses","steam_id":76561198070800500,"connected_time":5000000000,"state":"spawning","ping":69},{"user_id":568,"name":"BLU1 Save your wifi","steam_id":76561198286147372,"connected_time":10117000000000,"state":"active","ping":57},{"user_id":627,"name":"ash","steam_id":76561198127890645,"connected_time":1953000000000,"state":"active","ping":70},{"user_id":558,"name":"stink","steam_id":76561198099318923,"connected_time":11435000000000,"state":"active","ping":86},{"user_id":642,"name":"gettysburg","steam_id":76561198016157051,"connected_time":495000000000,"state":"active","ping":49},{"user_id":628,"name":"Karma","steam_id":76561198030565234,"connected_time":1921000000000,"state":"active","ping":71},{"user_id":636,"name":"Stuart Little 2","steam_id":76561198097272509,"connected_time":1007000000000,"state":"active","ping":36},{"user_id":615,"name":"luxin","steam_id":76561198399383047,"connected_time":3378000000000,"state":"active","ping":55},{"user_id":641,"name":"hunterbunney (TRUE BUT REAL)","steam_id":76561198070672899,"connected_time":802000000000,"state":"active","ping":58},{"user_id":638,"name":"xZackAttack27x","steam_id":76561198035446639,"connected_time":957000000000,"state":"active","ping":61},{"user_id":564,"name":"melancholy","steam_id":76561198024301465,"connected_time":10183000000000,"state":"active","ping":47},{"user_id":640,"name":"Watt Dafuq","steam_id":76561198194402925,"connected_time":872000000000,"state":"active","ping":65},{"user_id":644,"name":"remake dino crisis","steam_id":76561198003376593,"connected_time":272000000000,"state":"active","ping":87},{"user_id":623,"name":"Spiffyputt","steam_id":76561198439345687,"connected_time":2930000000000,"state":"active","ping":69}]},{"server_id":400,"name":"Uncletopia | Atlanta | 3 | Stopwatch Beta","name_short":"atl-3","host":"atl-1.us.uncletopia.com","port":27035,"enabled":true,"region":"us-east","cc":"us","latitude":33.753746,"longitude":-84.38633,"reserved":0,"last_update":"0001-01-01T00:00:00Z","name_a2s":"Uncletopia | Atlanta | 3 | Stopwatch Beta","protocol":17,"map":"workshop/pl_barnblitz_pro7.ugc582280235","folder":"tf","game":"Team Fortress","app_id":440,"player_count":0,"max_players":24,"Bots":0,"server_type":"Dedicated","server_os":"Linux","password":true,"vac":true,"version":"7757534","steam_id":85568392924515187,"keywords":["nocrits","nodmgspread","payload","uncletopia"],"game_id":440,"stv_port":27036,"stv_name":"Uncletopia | Atlanta | 3 | Stopwatch Beta | STV","players":null},{"server_id":401,"name":"Uncletopia | Atlanta | 4 | No Payload","name_short":"atl-4","host":"atl-1.us.uncletopia.com","port":27045,"enabled":true,"region":"us-east","cc":"us","latitude":33.753746,"longitude":-84.38633,"reserved":0,"last_update":"0001-01-01T00:00:00Z","name_a2s":"Uncletopia | Atlanta | 4 | No Payload","protocol":17,"map":"pl_pier","folder":"tf","game":"Team Fortress","app_id":440,"player_count":0,"max_players":24,"Bots":0,"server_type":"Dedicated","server_os":"Linux","password":true,"vac":true,"version":"7723704","steam_id":85568392924515188,"keywords":["nocrits","nodmgspread","payload","uncletopia"],"game_id":440,"stv_port":27046,"stv_name":"Uncletopia | Atlanta | 4 | No Payload | STV","players":null},{"server_id":2,"name":"Uncletopia | Chicago | 1 | All Maps","name_short":"chi-1","host":"chi-1.us.uncletopia.com","port":27015,"enabled":true,"region":"us-central","cc":"us","latitude":41.881832,"longitude":-87.62318,"reserved":0,"last_update":"0001-01-01T00:00:00Z","name_a2s":"Uncletopia | Chicago | 1 | All Maps","protocol":17,"map":"cp_powerhouse","folder":"tf","game":"Team Fortress","app_id":440,"player_count":20,"max_players":24,"Bots":0,"server_type":"Dedicated","server_os":"Linux","password":true,"vac":true,"version":"7757534","steam_id":85568392924469984,"keywords":["cp","nocrits","nodmgspread","uncletopia"],"game_id":440,"stv_port":27016,"stv_name":"Uncletopia | Chicago | 1 | All Maps | STV","players":[{"user_id":857,"name":"Malex","steam_id":76561198012216805,"connected_time":30000000000,"state":"active","ping":46},{"user_id":808,"name":"blob","steam_id":76561198122375328,"connected_time":1950000000000,"state":"active","ping":59},{"user_id":854,"name":"loco503","steam_id":76561198827495121,"connected_time":63000000000,"state":"active","ping":103},{"user_id":860,"name":"F R O G","steam_id":76561198166604331,"connected_time":19000000000,"state":"active","ping":68},{"user_id":851,"name":"earthbound393","steam_id":76561199444276547,"connected_time":378000000000,"state":"active","ping":100},{"user_id":856,"name":"psychosuit","steam_id":76561199109551331,"connected_time":56000000000,"state":"active","ping":86},{"user_id":859,"name":"{FITH}‚Ñ¢ Halcyon","steam_id":76561198049132808,"connected_time":25000000000,"state":"active","ping":71},{"user_id":847,"name":"CoconutRice","steam_id":76561198114909164,"connected_time":712000000000,"state":"active","ping":45},{"user_id":862,"name":"flora","steam_id":76561197994492154,"connected_time":4000000000,"state":"spawning","ping":162},{"user_id":861,"name":"Jujitsu82","steam_id":76561198445522556,"connected_time":14000000000,"state":"active","ping":81},{"user_id":841,"name":"Patisserie","steam_id":76561198239169752,"connected_time":1162000000000,"state":"active","ping":62},{"user_id":850,"name":"But First You've Got To Get Mad","steam_id":76561197973496224,"connected_time":570000000000,"state":"active","ping":60},{"user_id":832,"name":"LordOfTheNoobs","steam_id":76561197962697523,"connected_time":1493000000000,"state":"active","ping":69},{"user_id":835,"name":"peanut butter jelly DA LONG WAY","steam_id":76561198079416036,"connected_time":1345000000000,"state":"active","ping":40},{"user_id":815,"name":"king of bogers","steam_id":76561198045731295,"connected_time":1889000000000,"state":"active","ping":60},{"user_id":783,"name":"primordialheath","steam_id":76561199386942638,"connected_time":3685000000000,"state":"active","ping":63},{"user_id":796,"name":"Nicholas Deckolas","steam_id":76561198005301468,"connected_time":2655000000000,"state":"active","ping":83},{"user_id":802,"name":"._.","steam_id":76561198210196856,"connected_time":2422000000000,"state":"active","ping":104},{"user_id":848,"name":"Suspicious Trench Coat","steam_id":76561198044362988,"connected_time":678000000000,"state":"active","ping":48},{"user_id":818,"name":"Notorious Criminal Prawo Jazdy","steam_id":76561198339011254,"connected_time":1828000000000,"state":"active","ping":86}]},{"server_id":106,"name":"Uncletopia | Chicago | 2 | All Maps","name_short":"chi-2","host":"chi-1.us.uncletopia.com","port":27025,"enabled":true,"region":"us-central","cc":"us","latitude":41.881832,"longitude":-87.62318,"reserved":0,"last_update":"0001-01-01T00:00:00Z","name_a2s":"Uncletopia | Chicago | 2 | All Maps","protocol":17,"map":"cp_snakewater_final1","folder":"tf","game":"Team Fortress","app_id":440,"player_count":16,"max_players":24,"Bots":0,"server_type":"Dedicated","server_os":"Linux","password":true,"vac":true,"version":"7757534","steam_id":85568392924469985,"keywords":["cp","nocrits","nodmgspread","uncletopia"],"game_id":440,"stv_port":27026,"stv_name":"Uncletopia | Chicago | 2 | All Maps | STV","players":[{"user_id":804,"name":"gabagool","steam_id":76561198012131766,"connected_time":2353000000000,"state":"active","ping":49},{"user_id":813,"name":"monke","steam_id":76561198035138859,"connected_time":1278000000000,"state":"active","ping":81},{"user_id":829,"name":"KittyToy","steam_id":76561198043990701,"connected_time":272000000000,"state":"active","ping":114},{"user_id":827,"name":"Lukerp","steam_id":76561198875469297,"connected_time":328000000000,"state":"active","ping":53},{"user_id":764,"name":"internet crush","steam_id":76561198068406937,"connected_time":4694000000000,"state":"active","ping":70},{"user_id":820,"name":"Goblin Mode","steam_id":76561198064870076,"connected_time":774000000000,"state":"active","ping":86},{"user_id":832,"name":"jodie.blend","steam_id":76561198140701807,"connected_time":107000000000,"state":"active","ping":122},{"user_id":833,"name":"I Rush ‚Åß‚ÅßRussians","steam_id":76561198119454013,"connected_time":91000000000,"state":"active","ping":75},{"user_id":828,"name":"nintenbro64","steam_id":76561198091282261,"connected_time":286000000000,"state":"active","ping":57},{"user_id":768,"name":"Hawkeye","steam_id":76561198037535203,"connected_time":4658000000000,"state":"active","ping":54},{"user_id":770,"name":"Astro","steam_id":76561198116667442,"connected_time":4564000000000,"state":"active","ping":83},{"user_id":810,"name":"trash beast","steam_id":76561198015792736,"connected_time":1650000000000,"state":"active","ping":73},{"user_id":772,"name":"TartMeringue","steam_id":76561198986757576,"connected_time":4536000000000,"state":"active","ping":83},{"user_id":805,"name":"Kapitan Bomba","steam_id":76561199102087660,"connected_time":2339000000000,"state":"active","ping":64},{"user_id":788,"name":"Lucy","steam_id":76561198032590343,"connected_time":3749000000000,"state":"active","ping":90},{"user_id":821,"name":"brn","steam_id":76561198118211523,"connected_time":673000000000,"state":"active","ping":56}]},{"server_id":402,"name":"Uncletopia | Chicago | 3 | All Maps","name_short":"chi-3","host":"chi-1.us.uncletopia.com","port":27035,"enabled":true,"region":"us-central","cc":"us","latitude":41.881832,"longitude":-87.62318,"reserved":0,"last_update":"0001-01-01T00:00:00Z","name_a2s":"Uncletopia | Chicago | 3 | All Maps","protocol":17,"map":"pl_swiftwater_final1","folder":"tf","game":"Team Fortress","app_id":440,"player_count":9,"max_players":24,"Bots":0,"server_type":"Dedicated","server_os":"Linux","password":true,"vac":true,"version":"7757534","steam_id":85568392924515191,"keywords":["nocrits","nodmgspread","payload","uncletopia"],"game_id":440,"stv_port":27036,"stv_name":"Uncletopia | Chicago | 3 | All Maps | STV","players":[{"user_id":602,"name":"Deviljinin","steam_id":76561198127549413,"connected_time":4995000000000,"state":"active","ping":55},{"user_id":638,"name":"watchfull","steam_id":76561198433266742,"connected_time":75000000000,"state":"active","ping":107},{"user_id":639,"name":"Elegant Ejaculation","steam_id":76561198014190878,"connected_time":28000000000,"state":"spawning","ping":109},{"user_id":632,"name":"kezia","steam_id":76561198059815894,"connected_time":877000000000,"state":"active","ping":41},{"user_id":586,"name":"Summer","steam_id":76561198121692871,"connected_time":5762000000000,"state":"active","ping":60},{"user_id":622,"name":"Scout","steam_id":76561198149172070,"connected_time":2082000000000,"state":"active","ping":62},{"user_id":629,"name":"FruicyJuit","steam_id":76561198080704911,"connected_time":1214000000000,"state":"active","ping":56},{"user_id":620,"name":"Drake from State Farm","steam_id":76561199069029812,"connected_time":2525000000000,"state":"active","ping":104},{"user_id":628,"name":"Dewth","steam_id":76561198083907105,"connected_time":1390000000000,"state":"active","ping":99}]},{"server_id":403,"name":"Uncletopia | Chicago | 4 | All Maps","name_short":"chi-4","host":"chi-1.us.uncletopia.com","port":27045,"enabled":true,"region":"us-central","cc":"us","latitude":41.881832,"longitude":-87.62318,"reserved":0,"last_update":"0001-01-01T00:00:00Z","name_a2s":"Uncletopia | Chicago | 4 | All Maps","protocol":17,"map":"ctf_turbine","folder":"tf","game":"Team Fortress","app_id":440,"player_count":24,"max_players":24,"Bots":0,"server_type":"Dedicated","server_os":"Linux","password":true,"vac":true,"version":"7757534","steam_id":85568392924515193,"keywords":["ctf","nocrits","nodmgspread","uncletopia"],"game_id":440,"stv_port":27046,"stv_name":"Uncletopia | Chicago | 4 | All Maps | STV","players":[{"user_id":648,"name":"three three","steam_id":76561198177354155,"connected_time":1792000000000,"state":"active","ping":66},{"user_id":651,"name":"Wild_Rumpus","steam_id":76561198066393719,"connected_time":1599000000000,"state":"active","ping":58},{"user_id":664,"name":"Pop","steam_id":76561198070547748,"connected_time":773000000000,"state":"active","ping":55},{"user_id":660,"name":"TheStŒªrryNocturne","steam_id":76561198124907026,"connected_time":1199000000000,"state":"active","ping":66},{"user_id":619,"name":"SlimGrady","steam_id":76561198451231329,"connected_time":3203000000000,"state":"active","ping":65},{"user_id":675,"name":"The Muffin Man","steam_id":76561199088286427,"connected_time":438000000000,"state":"active","ping":107},{"user_id":680,"name":"Shamaury","steam_id":76561198073773862,"connected_time":279000000000,"state":"active","ping":72},{"user_id":653,"name":"GC.sibling bane","steam_id":76561198196769297,"connected_time":1581000000000,"state":"active","ping":56},{"user_id":608,"name":"Matt.jpg","steam_id":76561198132469465,"connected_time":3574000000000,"state":"active","ping":50},{"user_id":654,"name":"GC.loafe","steam_id":76561198119679320,"connected_time":1557000000000,"state":"active","ping":55},{"user_id":587,"name":"cooltool21","steam_id":76561197996817585,"connected_time":6003000000000,"state":"active","ping":93},{"user_id":669,"name":"canine defecation","steam_id":76561198115656778,"connected_time":666000000000,"state":"active","ping":61},{"user_id":662,"name":"John Yakuza","steam_id":76561198112388117,"connected_time":887000000000,"state":"active","ping":78},{"user_id":678,"name":"N√©oGothiqueüïØ","steam_id":76561198003467269,"connected_time":389000000000,"state":"active","ping":77},{"user_id":655,"name":"Wug","steam_id":76561198084112264,"connected_time":1551000000000,"state":"active","ping":77},{"user_id":681,"name":"BurnN8or101","steam_id":76561198132668224,"connected_time":275000000000,"state":"active","ping":75},{"user_id":665,"name":"Soda","steam_id":76561198219209367,"connected_time":763000000000,"state":"active","ping":69},{"user_id":666,"name":"Fresh0c0","steam_id":76561198271933283,"connected_time":708000000000,"state":"active","ping":59},{"user_id":667,"name":"Chicanery","steam_id":76561198977589038,"connected_time":693000000000,"state":"active","ping":84},{"user_id":668,"name":"Weak","steam_id":76561198857135096,"connected_time":687000000000,"state":"active","ping":69},{"user_id":613,"name":"Furry Saul Goodman","steam_id":76561198069580305,"connected_time":3475000000000,"state":"active","ping":58},{"user_id":673,"name":"./nlopreste2.sh","steam_id":76561198042562744,"connected_time":554000000000,"state":"active","ping":61},{"user_id":674,"name":"elso","steam_id":76561198058209902,"connected_time":524000000000,"state":"active","ping":92},{"user_id":679,"name":"Mitchu The Bidness Man","steam_id":76561198102494381,"connected_time":361000000000,"state":"active","ping":60}]},{"server_id":36,"name":"Uncletopia | Chicago | 5 | All Maps","name_short":"chi-5","host":"chi-2.us.uncletopia.com","port":27015,"enabled":true,"region":"us-central","cc":"us","latitude":41.881832,"longitude":-87.62318,"reserved":0,"last_update":"0001-01-01T00:00:00Z","name_a2s":"Uncletopia | Chicago | 5 | All Maps","protocol":17,"map":"pl_rumford_event","folder":"tf","game":"Team Fortress","app_id":440,"player_count":24,"max_players":24,"Bots":0,"server_type":"Dedicated","server_os":"Linux","password":true,"vac":true,"version":"7757534","steam_id":85568392924866362,"keywords":["nocrits","nodmgspread","payload","uncletopia"],"game_id":440,"stv_port":27016,"stv_name":"Uncletopia | Chicago | 5 | All Maps | STV","players":[{"user_id":263,"name":"Mike Tyson","steam_id":76561198069668107,"connected_time":1208000000000,"state":"active","ping":119},{"user_id":257,"name":"Bear Pants","steam_id":76561198078751566,"connected_time":2016000000000,"state":"active","ping":58},{"user_id":265,"name":"Res","steam_id":76561198167207112,"connected_time":815000000000,"state":"active","ping":75},{"user_id":266,"name":"snow","steam_id":76561198018184698,"connected_time":782000000000,"state":"active","ping":69},{"user_id":281,"name":"LikeASir","steam_id":76561198042209721,"connected_time":259000000000,"state":"active","ping":45},{"user_id":177,"name":"vvichael","steam_id":76561198238148528,"connected_time":7994000000000,"state":"active","ping":71},{"user_id":253,"name":"Crazybird769","steam_id":76561198097963689,"connected_time":2339000000000,"state":"active","ping":58},{"user_id":267,"name":"Mervous Thrifty","steam_id":76561198063250819,"connected_time":779000000000,"state":"active","ping":45},{"user_id":240,"name":"melon soda","steam_id":76561198066748230,"connected_time":2764000000000,"state":"active","ping":66},{"user_id":256,"name":"[RH] Al Fire 101","steam_id":76561197975696892,"connected_time":2027000000000,"state":"active","ping":66},{"user_id":52,"name":"Phil Collins","steam_id":76561198068868644,"connected_time":17434000000000,"state":"active","ping":109},{"user_id":259,"name":"Dylan","steam_id":76561198060996590,"connected_time":1982000000000,"state":"active","ping":102},{"user_id":275,"name":"ej","steam_id":76561198059281026,"connected_time":597000000000,"state":"active","ping":104},{"user_id":269,"name":"deadpixel","steam_id":76561198150249843,"connected_time":755000000000,"state":"active","ping":50},{"user_id":279,"name":"Megadesk","steam_id":76561198078219641,"connected_time":398000000000,"state":"active","ping":85},{"user_id":282,"name":"futuresauce","steam_id":76561198273727757,"connected_time":212000000000,"state":"active","ping":100},{"user_id":262,"name":"Evil Numskull","steam_id":76561198087631219,"connected_time":1468000000000,"state":"active","ping":105},{"user_id":280,"name":"Gless","steam_id":76561198059194418,"connected_time":387000000000,"state":"active","ping":84},{"user_id":283,"name":"Country Dish Towel","steam_id":76561198068958789,"connected_time":193000000000,"state":"active","ping":71},{"user_id":254,"name":"ShadowisE","steam_id":76561197990144848,"connected_time":2298000000000,"state":"active","ping":67},{"user_id":105,"name":"ApricotOcelot","steam_id":76561198128393362,"connected_time":13664000000000,"state":"active","ping":74},{"user_id":248,"name":"mtnQ","steam_id":76561198024026924,"connected_time":2438000000000,"state":"active","ping":53},{"user_id":277,"name":"googy doogy","steam_id":76561199025852100,"connected_time":586000000000,"state":"active","ping":67},{"user_id":228,"name":"Evil rat","steam_id":76561198117181511,"connected_time":3564000000000,"state":"active","ping":58}]},{"server_id":37,"name":"Uncletopia | Chicago | 6 | All Maps","name_short":"chi-6","host":"chi-2.us.uncletopia.com","port":27025,"enabled":true,"region":"us-central","cc":"us","latitude":41.881832,"longitude":-87.62318,"reserved":0,"last_update":"0001-01-01T00:00:00Z","name_a2s":"Uncletopia | Chicago | 6 | All Maps","protocol":17,"map":"pl_badwater","folder":"tf","game":"Team Fortress","app_id":440,"player_count":24,"max_players":24,"Bots":0,"server_type":"Dedicated","server_os":"Linux","password":true,"vac":true,"version":"7757534","steam_id":85568392924866363,"keywords":["nocrits","nodmgspread","payload","uncletopia"],"game_id":440,"stv_port":27026,"stv_name":"Uncletopia | Chicago | 6 | All Maps | STV","players":[{"user_id":373,"name":"lanoc","steam_id":76561198055415367,"connected_time":1578000000000,"state":"active","ping":61},{"user_id":329,"name":"*hits the griddy*","steam_id":76561198979494052,"connected_time":4389000000000,"state":"active","ping":90},{"user_id":385,"name":"spaghetticonfetti","steam_id":76561198069600113,"connected_time":427000000000,"state":"active","ping":63},{"user_id":389,"name":"Law","steam_id":76561198169960915,"connected_time":153000000000,"state":"active","ping":81},{"user_id":387,"name":"GoFastBoat","steam_id":76561198039054496,"connected_time":401000000000,"state":"active","ping":81},{"user_id":361,"name":"volta","steam_id":76561199214283884,"connected_time":2236000000000,"state":"active","ping":94},{"user_id":362,"name":"gamer dilbert","steam_id":76561197984752473,"connected_time":2104000000000,"state":"active","ping":60},{"user_id":388,"name":"Mr. Tickle","steam_id":76561198126684647,"connected_time":388000000000,"state":"active","ping":60},{"user_id":363,"name":"MagicKing27ttv","steam_id":76561198276953046,"connected_time":2098000000000,"state":"active","ping":71},{"user_id":375,"name":"akirajimbo","steam_id":76561197979960008,"connected_time":1504000000000,"state":"active","ping":49},{"user_id":383,"name":"jeeper creepers ur a peeper","steam_id":76561198129801060,"connected_time":1157000000000,"state":"active","ping":61},{"user_id":366,"name":"Bottom Text","steam_id":76561198075447301,"connected_time":1870000000000,"state":"active","ping":71},{"user_id":382,"name":"Zippy","steam_id":76561198279229422,"connected_time":1317000000000,"state":"active","ping":54},{"user_id":342,"name":"Amish Robot","steam_id":76561198041156065,"connected_time":3911000000000,"state":"active","ping":81},{"user_id":344,"name":"CroMaLaka","steam_id":76561198380926090,"connected_time":3899000000000,"state":"active","ping":59},{"user_id":368,"name":"Gary","steam_id":76561198133309753,"connected_time":1837000000000,"state":"active","ping":63},{"user_id":305,"name":"Snoopy","steam_id":76561198273735974,"connected_time":6869000000000,"state":"active","ping":100},{"user_id":369,"name":"sithreis","steam_id":76561198000564263,"connected_time":1831000000000,"state":"active","ping":75},{"user_id":347,"name":"Mr. Toucher","steam_id":76561199121158746,"connected_time":3851000000000,"state":"active","ping":120},{"user_id":370,"name":"java","steam_id":76561198030276792,"connected_time":1825000000000,"state":"active","ping":59},{"user_id":391,"name":"pwllw","steam_id":76561198095431471,"connected_time":52000000000,"state":"active","ping":73},{"user_id":372,"name":"Iron","steam_id":76561198247918478,"connected_time":1816000000000,"state":"active","ping":64},{"user_id":384,"name":"jackpot","steam_id":76561198065339248,"connected_time":1147000000000,"state":"active","ping":103},{"user_id":349,"name":"Manuel Labor","steam_id":76561199365623849,"connected_time":3713000000000,"state":"active","ping":91}]},{"server_id":38,"name":"Uncletopia | Chicago | 7 | Stopwatch Beta","name_short":"chi-7","host":"chi-2.us.uncletopia.com","port":27035,"enabled":true,"region":"us-central","cc":"us","latitude":41.881832,"longitude":-87.62318,"reserved":0,"last_update":"0001-01-01T00:00:00Z","name_a2s":"Uncletopia | Chicago | 7 | Stopwatch Beta","protocol":17,"map":"workshop/koth_ramjam_rc1.ugc459778887","folder":"tf","game":"Team Fortress","app_id":440,"player_count":3,"max_players":24,"Bots":0,"server_type":"Dedicated","server_os":"Linux","password":true,"vac":true,"version":"7757534","steam_id":85568392924866364,"keywords":["cp","nocrits","nodmgspread","uncletopia"],"game_id":440,"stv_port":27036,"stv_name":"Uncletopia | Chicago | 7 | Stopwatch Beta | STV","players":[{"user_id":17,"name":"lquidtoastt","steam_id":76561199096349404,"connected_time":2151000000000,"state":"active","ping":44},{"user_id":18,"name":"toxic_raptor","steam_id":76561199387886048,"connected_time":2084000000000,"state":"active","ping":70},{"user_id":20,"name":"Best Soldier 321","steam_id":76561199121839635,"connected_time":1246000000000,"state":"active","ping":82}]},{"server_id":39,"name":"Uncletopia | Chicago | 8 | Community","name_short":"chi-8","host":"chi-2.us.uncletopia.com","port":27045,"enabled":true,"region":"us-central","cc":"us","latitude":41.881832,"longitude":-87.62318,"reserved":0,"last_update":"0001-01-01T00:00:00Z","name_a2s":"Uncletopia | Chicago | 8 | Community","protocol":17,"map":"workshop/koth_bagel_rc5.ugc2514036946","folder":"tf","game":"Team Fortress","app_id":440,"player_count":0,"max_players":24,"Bots":0,"server_type":"Dedicated","server_os":"Linux","password":true,"vac":true,"version":"7757534","steam_id":85568392924866365,"keywords":["cp","nocrits","nodmgspread","uncletopia"],"game_id":440,"stv_port":27046,"stv_name":"Uncletopia | Chicago | 8 | Community | STV","players":null},{"server_id":8,"name":"Uncletopia | Dallas | 1 | All Maps","name_short":"dal-1","host":"dal-1.us.uncletopia.com","port":27015,"enabled":true,"region":"us-central","cc":"us","latitude":32.779167,"longitude":-96.80889,"reserved":0,"last_update":"0001-01-01T00:00:00Z","name_a2s":"Uncletopia | Dallas | 1 | All Maps","protocol":17,"map":"pl_badwater","folder":"tf","game":"Team Fortress","app_id":440,"player_count":18,"max_players":24,"Bots":0,"server_type":"Dedicated","server_os":"Linux","password":true,"vac":true,"version":"7757534","steam_id":85568392924469986,"keywords":["nocrits","nodmgspread","payload","uncletopia"],"game_id":440,"stv_port":27016,"stv_name":"Uncletopia | Dallas | 1 | All Maps | STV","players":[{"user_id":644,"name":"+","steam_id":76561198262422184,"connected_time":3988000000000,"state":"active","ping":38},{"user_id":668,"name":"FG7","steam_id":76561198381197197,"connected_time":1842000000000,"state":"active","ping":98},{"user_id":666,"name":"{ST} Oxythemoron","steam_id":76561198060089965,"connected_time":2586000000000,"state":"active","ping":65},{"user_id":565,"name":"The Robot Menace","steam_id":76561198043390413,"connected_time":9284000000000,"state":"active","ping":58},{"user_id":619,"name":"Lamy","steam_id":76561198348354629,"connected_time":6809000000000,"state":"active","ping":63},{"user_id":568,"name":"Mitty","steam_id":76561198014177684,"connected_time":9137000000000,"state":"active","ping":85},{"user_id":683,"name":"peee pee man","steam_id":76561198044979205,"connected_time":565000000000,"state":"active","ping":86},{"user_id":667,"name":"Greg Boberton 2012","steam_id":76561198983566026,"connected_time":1863000000000,"state":"active","ping":79},{"user_id":623,"name":"TheTruthOfTheCessationOfDukkha","steam_id":76561198214370515,"connected_time":5867000000000,"state":"active","ping":68},{"user_id":677,"name":"Pleiades, the Sorceror","steam_id":76561198079590693,"connected_time":963000000000,"state":"active","ping":69},{"user_id":566,"name":"Grinski","steam_id":76561198054787727,"connected_time":9277000000000,"state":"active","ping":101},{"user_id":672,"name":"gancho","steam_id":76561198170706982,"connected_time":1673000000000,"state":"active","ping":31},{"user_id":628,"name":"Dreamy Sweat from 2hu","steam_id":76561198094602446,"connected_time":5662000000000,"state":"active","ping":65},{"user_id":682,"name":"Project_Counter","steam_id":76561198152786076,"connected_time":647000000000,"state":"active","ping":54},{"user_id":665,"name":"Dragonofponies","steam_id":76561199016800803,"connected_time":2615000000000,"state":"active","ping":54},{"user_id":678,"name":"Cardboardcoin","steam_id":76561199421284163,"connected_time":934000000000,"state":"active","ping":119},{"user_id":659,"name":"Etomb","steam_id":76561198210017208,"connected_time":2989000000000,"state":"active","ping":100},{"user_id":569,"name":"„ÄåJimbo Reference„Äç","steam_id":76561198016078541,"connected_time":9123000000000,"state":"active","ping":84}]},{"server_id":108,"name":"Uncletopia | Dallas | 2 | All Maps","name_short":"dal-2","host":"dal-1.us.uncletopia.com","port":27025,"enabled":true,"region":"us-central","cc":"us","latitude":32.779167,"longitude":-96.80889,"reserved":0,"last_update":"0001-01-01T00:00:00Z","name_a2s":"Uncletopia | Dallas | 2 | All Maps","protocol":17,"map":"pl_swiftwater_final1","folder":"tf","game":"Team Fortress","app_id":440,"player_count":0,"max_players":24,"Bots":0,"server_type":"Dedicated","server_os":"Linux","password":true,"vac":true,"version":"7757534","steam_id":85568392924469988,"keywords":["nocrits","nodmgspread","payload","uncletopia"],"game_id":440,"stv_port":27026,"stv_name":"Uncletopia | Dallas | 2 | All Maps | STV","players":null},{"server_id":5,"name":"Uncletopia | Frankfurt | 1 | All Maps","name_short":"frk-1","host":"frk-1.de.uncletopia.com","port":27015,"enabled":true,"region":"eu","cc":"de","latitude":50.110924,"longitude":8.682127,"reserved":0,"last_update":"0001-01-01T00:00:00Z","name_a2s":"Uncletopia | Frankfurt | 1 | All Maps","protocol":17,"map":"pl_pier","folder":"tf","game":"Team Fortress","app_id":440,"player_count":0,"max_players":24,"Bots":0,"server_type":"Dedicated","server_os":"Linux","password":true,"vac":true,"version":"7757534","steam_id":85568392924469989,"keywords":["nocrits","nodmgspread","payload","uncletopia"],"game_id":440,"stv_port":27016,"stv_name":"Uncletopia | Frankfurt | 1 | All Maps | STV","players":null},{"server_id":110,"name":"Uncletopia | Frankfurt | 2 | All Maps","name_short":"frk-2","host":"frk-1.de.uncletopia.com","port":27025,"enabled":true,"region":"eu","cc":"de","latitude":50.110924,"longitude":8.682127,"reserved":0,"last_update":"0001-01-01T00:00:00Z","name_a2s":"Uncletopia | Frankfurt | 2 | All Maps","protocol":17,"map":"cp_altitude","folder":"tf","game":"Team Fortress","app_id":440,"player_count":0,"max_players":24,"Bots":0,"server_type":"Dedicated","server_os":"Linux","password":true,"vac":true,"version":"7757534","steam_id":85568392924469990,"keywords":["cp","nocrits","nodmgspread","uncletopia"],"game_id":440,"stv_port":27026,"stv_name":"Uncletopia | Frankfurt | 2 | All Maps | STV","players":null},{"server_id":308,"name":"Uncletopia | Frankfurt | 3 | All Maps","name_short":"frk-3","host":"frk-1.de.uncletopia.com","port":27035,"enabled":true,"region":"eu","cc":"de","latitude":50.110924,"longitude":8.682127,"reserved":0,"last_update":"0001-01-01T00:00:00Z","name_a2s":"Uncletopia | Frankfurt | 3 | All Maps","protocol":17,"map":"pl_barnblitz","folder":"tf","game":"Team Fortress","app_id":440,"player_count":0,"max_players":24,"Bots":0,"server_type":"Dedicated","server_os":"Linux","password":true,"vac":true,"version":"7757534","steam_id":85568392924504274,"keywords":["nocrits","nodmgspread","payload","uncletopia"],"game_id":440,"stv_port":27036,"stv_name":"Uncletopia | Frankfurt | 3 | All Maps | STV","players":null},{"server_id":309,"name":"Uncletopia | Frankfurt | 4 | All Maps","name_short":"frk-4","host":"frk-1.de.uncletopia.com","port":27045,"enabled":true,"region":"eu","cc":"de","latitude":50.110924,"longitude":8.682127,"reserved":0,"last_update":"0001-01-01T00:00:00Z","name_a2s":"Uncletopia | Frankfurt | 4 | All Maps","protocol":17,"map":"pl_snowycoast","folder":"tf","game":"Team Fortress","app_id":440,"player_count":0,"max_players":24,"Bots":0,"server_type":"Dedicated","server_os":"Linux","password":true,"vac":true,"version":"7757534","steam_id":85568392924504275,"keywords":["nocrits","nodmgspread","payload","uncletopia"],"game_id":440,"stv_port":27046,"stv_name":"Uncletopia | Frankfurt | 4 | All Maps | STV","players":null},{"server_id":310,"name":"Uncletopia | Frankfurt | 5 | All Maps","name_short":"frk-5","host":"frk-1.de.uncletopia.com","port":27055,"enabled":true,"region":"eu","cc":"de","latitude":50.110924,"longitude":8.682127,"reserved":0,"last_update":"0001-01-01T00:00:00Z","name_a2s":"Uncletopia | Frankfurt | 5 | All Maps","protocol":17,"map":"cp_altitude","folder":"tf","game":"Team Fortress","app_id":440,"player_count":0,"max_players":24,"Bots":0,"server_type":"Dedicated","server_os":"Linux","password":true,"vac":true,"version":"7757534","steam_id":85568392924504277,"keywords":["cp","nocrits","nodmgspread","uncletopia"],"game_id":440,"stv_port":27056,"stv_name":"Uncletopia | Frankfurt | 5 | All Maps | STV","players":null},{"server_id":311,"name":"Uncletopia | Frankfurt | 6 | All Maps","name_short":"frk-6","host":"frk-1.de.uncletopia.com","port":27065,"enabled":true,"region":"eu","cc":"de","latitude":50.110924,"longitude":8.682127,"reserved":0,"last_update":"0001-01-01T00:00:00Z","name_a2s":"Uncletopia | Frankfurt | 6 | All Maps","protocol":17,"map":"koth_highpass","folder":"tf","game":"Team Fortress","app_id":440,"player_count":0,"max_players":24,"Bots":0,"server_type":"Dedicated","server_os":"Linux","password":true,"vac":true,"version":"7757534","steam_id":85568392924504278,"keywords":["cp","nocrits","nodmgspread","uncletopia"],"game_id":440,"stv_port":27066,"stv_name":"Uncletopia | Frankfurt | 6 | All Maps | STV","players":null},{"server_id":23,"name":"Uncletopia | Frankfurt | 7 | Stopwatch Beta","name_short":"frk-7","host":"frk-1.de.uncletopia.com","port":27075,"enabled":true,"region":"eu","cc":"de","latitude":50.110924,"longitude":8.682127,"reserved":0,"last_update":"0001-01-01T00:00:00Z","name_a2s":"Uncletopia | Frankfurt | 7 | Stopwatch Beta","protocol":17,"map":"pl_borneo","folder":"tf","game":"Team Fortress","app_id":440,"player_count":0,"max_players":24,"Bots":0,"server_type":"Dedicated","server_os":"Linux","password":true,"vac":true,"version":"7757534","steam_id":85568392924742827,"keywords":["nocrits","nodmgspread","payload","uncletopia"],"game_id":440,"stv_port":27076,"stv_name":"Uncletopia | Frankfurt | 7 | Stopwatch Beta | STV","players":null},{"server_id":24,"name":"Uncletopia | Frankfurt | 8 | Community","name_short":"frk-8","host":"frk-1.de.uncletopia.com","port":27085,"enabled":true,"region":"eu","cc":"de","latitude":50.110924,"longitude":8.682127,"reserved":0,"last_update":"0001-01-01T00:00:00Z","name_a2s":"Uncletopia | Frankfurt | 8 | Community","protocol":17,"map":"koth_cascade","folder":"tf","game":"Team Fortress","app_id":440,"player_count":0,"max_players":24,"Bots":0,"server_type":"Dedicated","server_os":"Linux","password":true,"vac":true,"version":"7757534","steam_id":85568392924742828,"keywords":["cp","nocrits","nodmgspread","uncletopia"],"game_id":440,"stv_port":27086,"stv_name":"Uncletopia | Frankfurt | 8 | Community | STV","players":null},{"server_id":202,"name":"Uncletopia | Hong Kong | 1 | All Maps","name_short":"hgk-1","host":"hgk-1.hk.uncletopia.com","port":27015,"enabled":true,"region":"asia","cc":"hk","latitude":22.302711,"longitude":114.177216,"reserved":0,"last_update":"0001-01-01T00:00:00Z","name_a2s":"Uncletopia | Hong Kong | 1 | All Maps","protocol":17,"map":"cp_gorge","folder":"tf","game":"Team Fortress","app_id":440,"player_count":24,"max_players":24,"Bots":0,"server_type":"Dedicated","server_os":"Linux","password":true,"vac":true,"version":"7757534","steam_id":85568392924494504,"keywords":["cp","nocrits","nodmgspread","uncletopia"],"game_id":440,"stv_port":27016,"stv_name":"Uncletopia | Hong Kong | 1 | All Maps | STV","players":[{"user_id":220,"name":"PissDrinker98","steam_id":76561198856157761,"connected_time":408000000000,"state":"active","ping":111},{"user_id":213,"name":"Mega 00F","steam_id":76561198962485791,"connected_time":832000000000,"state":"active","ping":124},{"user_id":124,"name":"Bertengkar","steam_id":76561198213031155,"connected_time":7667000000000,"state":"active","ping":94},{"user_id":199,"name":"irylfaith","steam_id":76561199071455481,"connected_time":1889000000000,"state":"active","ping":98},{"user_id":224,"name":"Owmyn","steam_id":76561199239651098,"connected_time":91000000000,"state":"active","ping":106},{"user_id":208,"name":"banana","steam_id":76561199205336397,"connected_time":1493000000000,"state":"active","ping":90},{"user_id":216,"name":"Lym0n","steam_id":76561199192420260,"connected_time":792000000000,"state":"active","ping":110},{"user_id":166,"name":":D","steam_id":76561198009692495,"connected_time":5324000000000,"state":"active","ping":89},{"user_id":182,"name":"‚úßBaKa BAzooKA‚úß(‚óï‚ñø‚óï )","steam_id":76561198061628689,"connected_time":4335000000000,"state":"active","ping":49},{"user_id":218,"name":"Dumbledore asked calmly","steam_id":76561198164137234,"connected_time":583000000000,"state":"active","ping":182},{"user_id":211,"name":"momosneakeradventure","steam_id":76561199046440440,"connected_time":1273000000000,"state":"active","ping":41},{"user_id":192,"name":"LudE","steam_id":76561198828840546,"connected_time":3261000000000,"state":"active","ping":79},{"user_id":193,"name":"spinach (new mouse)","steam_id":76561198042539541,"connected_time":3220000000000,"state":"active","ping":83},{"user_id":176,"name":"Momoxhien","steam_id":76561198414997429,"connected_time":5055000000000,"state":"active","ping":62},{"user_id":190,"name":":)","steam_id":76561198437941450,"connected_time":3500000000000,"state":"active","ping":96},{"user_id":219,"name":"Milk‚ù§ (most loved guy in ut)","steam_id":76561198163911560,"connected_time":583000000000,"state":"active","ping":160},{"user_id":196,"name":"Lu","steam_id":76561198320532821,"connected_time":2868000000000,"state":"active","ping":62},{"user_id":210,"name":"iced","steam_id":76561198999114004,"connected_time":1345000000000,"state":"active","ping":100},{"user_id":179,"name":"loreley","steam_id":76561198230213828,"connected_time":4558000000000,"state":"active","ping":60},{"user_id":206,"name":"Smick","steam_id":76561199184927159,"connected_time":1655000000000,"state":"active","ping":120},{"user_id":98,"name":"ÁÖôÊµ∑ | Enkai","steam_id":76561198050460825,"connected_time":9371000000000,"state":"active","ping":76},{"user_id":214,"name":"caramelCase","steam_id":76561198871689972,"connected_time":826000000000,"state":"active","ping":139},{"user_id":130,"name":"Urotsuki","steam_id":76561198074339034,"connected_time":6798000000000,"state":"active","ping":76},{"user_id":223,"name":"…îu·ó°‡∂û …ü∆®u·íê","steam_id":76561199031283970,"connected_time":298000000000,"state":"active","ping":78}]},{"server_id":1,"name":"Uncletopia | Los Angeles | 1 | All Maps","name_short":"lax-1","host":"lax-1.us.uncletopia.com","port":27015,"enabled":true,"region":"us-west","cc":"us","latitude":33.94279,"longitude":-118.41004,"reserved":0,"last_update":"0001-01-01T00:00:00Z","name_a2s":"Uncletopia | Los Angeles | 1 | All Maps","protocol":17,"map":"cp_altitude","folder":"tf","game":"Team Fortress","app_id":440,"player_count":15,"max_players":24,"Bots":0,"server_type":"Dedicated","server_os":"Linux","password":true,"vac":true,"version":"7757534","steam_id":85568392924469991,"keywords":["nocrits","nodmgspread","payload","uncletopia"],"game_id":440,"stv_port":27016,"stv_name":"Uncletopia | Los Angeles | 1 | All Maps | STV","players":[{"user_id":551,"name":"SoupDelivery","steam_id":76561198064906818,"connected_time":156000000000,"state":"connecting","ping":79},{"user_id":553,"name":"[SLAG]redgunnit","steam_id":76561198058053644,"connected_time":19000000000,"state":"connecting","ping":105},{"user_id":498,"name":"bad spy player","steam_id":76561198873699671,"connected_time":3646000000000,"state":"connecting","ping":81},{"user_id":524,"name":"Friggy","steam_id":76561198131467867,"connected_time":2268000000000,"state":"connecting","ping":61},{"user_id":431,"name":"Mothma","steam_id":76561198353789504,"connected_time":8331000000000,"state":"connecting","ping":81},{"user_id":546,"name":"Camohno","steam_id":76561198283519918,"connected_time":907000000000,"state":"connecting","ping":78},{"user_id":536,"name":"Feel the bern","steam_id":76561198078824519,"connected_time":1370000000000,"state":"connecting","ping":64},{"user_id":537,"name":"Mr. Stockington","steam_id":76561198091354032,"connected_time":1363000000000,"state":"connecting","ping":51},{"user_id":550,"name":"owlchaser22","steam_id":76561199246481583,"connected_time":335000000000,"state":"connecting","ping":108},{"user_id":522,"name":"drool","steam_id":76561199045901994,"connected_time":2386000000000,"state":"connecting","ping":69},{"user_id":552,"name":"The Greedy Grinner","steam_id":76561198124964175,"connected_time":145000000000,"state":"connecting","ping":55},{"user_id":517,"name":"2 Point Tom","steam_id":76561198087617008,"connected_time":2735000000000,"state":"connecting","ping":100},{"user_id":542,"name":"AmyPercent","steam_id":76561198071896932,"connected_time":1230000000000,"state":"connecting","ping":107}]},{"server_id":112,"name":"Uncletopia | Los Angeles | 2 | All Maps","name_short":"lax-2","host":"lax-1.us.uncletopia.com","port":27025,"enabled":true,"region":"us-west","cc":"us","latitude":33.94279,"longitude":-118.41004,"reserved":0,"last_update":"0001-01-01T00:00:00Z","name_a2s":"Uncletopia | Los Angeles | 2 | All Maps","protocol":17,"map":"pl_barnblitz","folder":"tf","game":"Team Fortress","app_id":440,"player_count":25,"max_players":24,"Bots":0,"server_type":"Dedicated","server_os":"Linux","password":true,"vac":true,"version":"7757534","steam_id":85568392924469992,"keywords":["nocrits","nodmgspread","payload","uncletopia"],"game_id":440,"stv_port":27026,"stv_name":"Uncletopia | Los Angeles | 2 | All Maps | STV","players":[{"user_id":186,"name":"Phantom Thief","steam_id":76561198254482947,"connected_time":707000000000,"state":"active","ping":57},{"user_id":200,"name":"wilson7*","steam_id":76561198109989416,"connected_time":263000000000,"state":"active","ping":78},{"user_id":181,"name":"Punished Jeff #NeverSimpAgain","steam_id":76561198304252584,"connected_time":961000000000,"state":"active","ping":69},{"user_id":151,"name":"cheese man","steam_id":76561199016285746,"connected_time":3775000000000,"state":"active","ping":53},{"user_id":182,"name":"silver","steam_id":76561199020503397,"connected_time":915000000000,"state":"active","ping":46},{"user_id":202,"name":"Jack from Jack in The Box","steam_id":76561199083594971,"connected_time":167000000000,"state":"active","ping":52},{"user_id":178,"name":"delight","steam_id":76561197980280272,"connected_time":1662000000000,"state":"active","ping":71},{"user_id":171,"name":"WaffleCake","steam_id":76561199116787657,"connected_time":2663000000000,"state":"active","ping":82},{"user_id":154,"name":"Night of the Living Boobs‚Ñ¢","steam_id":76561198086447265,"connected_time":3710000000000,"state":"active","ping":46},{"user_id":193,"name":"TAMBERSPACE","steam_id":76561198248665352,"connected_time":521000000000,"state":"active","ping":84},{"user_id":188,"name":"Anthrax Consumer","steam_id":76561198099296029,"connected_time":672000000000,"state":"active","ping":65},{"user_id":124,"name":"Can You Feel It Mr.Krabs","steam_id":76561198128302414,"connected_time":6206000000000,"state":"active","ping":49},{"user_id":201,"name":"Godot 102","steam_id":76561198083079903,"connected_time":211000000000,"state":"active","ping":77},{"user_id":180,"name":"Kuudere","steam_id":76561198075028016,"connected_time":1467000000000,"state":"active","ping":74},{"user_id":190,"name":"Sh3ba Spaniel","steam_id":76561198047412394,"connected_time":637000000000,"state":"active","ping":110},{"user_id":191,"name":"HeroOfTime","steam_id":76561199096218001,"connected_time":602000000000,"state":"active","ping":53},{"user_id":192,"name":"(1)berserker_tf2 ttv","steam_id":76561198303464488,"connected_time":565000000000,"state":"active","ping":85},{"user_id":211,"name":"thepopeofshame","steam_id":76561199047823974,"connected_time":8000000000,"state":"spawning","ping":29},{"user_id":195,"name":"May may :)","steam_id":76561198816778484,"connected_time":488000000000,"state":"active","ping":121},{"user_id":196,"name":"TomTheF00l","steam_id":76561198829932650,"connected_time":464000000000,"state":"active","ping":107},{"user_id":176,"name":"hedahman","steam_id":76561198052398134,"connected_time":2107000000000,"state":"active","ping":72},{"user_id":197,"name":"SuaveFrenchman","steam_id":76561198043762683,"connected_time":420000000000,"state":"active","ping":60},{"user_id":48,"name":"YourWishes","steam_id":76561198154414336,"connected_time":13031000000000,"state":"active","ping":48},{"user_id":146,"name":"Beary Adorable","steam_id":76561198023815802,"connected_time":4322000000000,"state":"active","ping":86},{"user_id":89,"name":"p9 jorts","steam_id":76561199041179985,"connected_time":8303000000000,"state":"active","ping":86}]},{"server_id":324,"name":"Uncletopia | Los Angeles | 3 | All Maps","name_short":"lax-3","host":"lax-1.us.uncletopia.com","port":27035,"enabled":true,"region":"us-west","cc":"us","latitude":33.94279,"longitude":-118.41004,"reserved":0,"last_update":"0001-01-01T00:00:00Z","name_a2s":"Uncletopia | Los Angeles | 3 | All Maps","protocol":17,"map":"pl_snowycoast","folder":"tf","game":"Team Fortress","app_id":440,"player_count":18,"max_players":24,"Bots":0,"server_type":"Dedicated","server_os":"Linux","password":true,"vac":true,"version":"7757534","steam_id":85568392924510198,"keywords":["nocrits","nodmgspread","payload","uncletopia"],"game_id":440,"stv_port":27036,"stv_name":"Uncletopia | Los Angeles | 3 | All Maps | STV","players":[{"user_id":122,"name":"Sad Sapling","steam_id":76561198075612150,"connected_time":1093000000000,"state":"active","ping":41},{"user_id":134,"name":"HOG RIDER","steam_id":76561198298589502,"connected_time":276000000000,"state":"active","ping":45},{"user_id":123,"name":"nyoah","steam_id":76561198834915248,"connected_time":1084000000000,"state":"active","ping":53},{"user_id":121,"name":"Yorai20XX","steam_id":76561198082235591,"connected_time":1120000000000,"state":"active","ping":51},{"user_id":131,"name":"Derpy","steam_id":76561198864934138,"connected_time":653000000000,"state":"active","ping":98},{"user_id":100,"name":"ice cream (ÂÜ∞Ê∑áÊ∑ã)","steam_id":76561198976530881,"connected_time":2121000000000,"state":"active","ping":29},{"user_id":135,"name":"Fu Qian Qian","steam_id":76561199081837220,"connected_time":63000000000,"state":"active","ping":95},{"user_id":60,"name":"Cute Gatito","steam_id":76561198351147780,"connected_time":5935000000000,"state":"active","ping":45},{"user_id":34,"name":"Tummy Sunday","steam_id":76561198031336957,"connected_time":6970000000000,"state":"active","ping":90},{"user_id":124,"name":"Thequirka","steam_id":76561198968058652,"connected_time":964000000000,"state":"active","ping":74},{"user_id":36,"name":"Oliver Klozoff","steam_id":76561198024788419,"connected_time":6884000000000,"state":"active","ping":468},{"user_id":130,"name":"i suck at tf2","steam_id":76561199320075758,"connected_time":739000000000,"state":"active","ping":57},{"user_id":132,"name":"Wheat","steam_id":76561198106270789,"connected_time":442000000000,"state":"active","ping":95},{"user_id":112,"name":"Nugakku","steam_id":76561198082346219,"connected_time":1638000000000,"state":"active","ping":54},{"user_id":113,"name":"foucault","steam_id":76561198043411930,"connected_time":1623000000000,"state":"active","ping":49},{"user_id":119,"name":"doctor sex md","steam_id":76561198150678175,"connected_time":1453000000000,"state":"active","ping":51},{"user_id":129,"name":"The Caretaker","steam_id":76561198125241411,"connected_time":749000000000,"state":"active","ping":64},{"user_id":120,"name":"SneakyRocks","steam_id":76561198201694213,"connected_time":1395000000000,"state":"active","ping":51}]},{"server_id":25,"name":"Uncletopia | Los Angeles | 4 | Stopwatch Beta","name_short":"lax-4","host":"lax-1.us.uncletopia.com","port":27045,"enabled":true,"region":"us-west","cc":"us","latitude":33.94279,"longitude":-118.41004,"reserved":0,"last_update":"0001-01-01T00:00:00Z","name_a2s":"Uncletopia | Los Angeles | 4 | Stopwatch Beta","protocol":17,"map":"koth_viaduct","folder":"tf","game":"Team Fortress","app_id":440,"player_count":0,"max_players":24,"Bots":0,"server_type":"Dedicated","server_os":"Linux","password":true,"vac":true,"version":"7757534","steam_id":85568392924510199,"keywords":["cp","nocrits","nodmgspread","uncletopia"],"game_id":440,"stv_port":27046,"stv_name":"Uncletopia | Los Angeles | 4 | Stopwatch Beta | STV","players":null},{"server_id":11,"name":"Uncletopia | London | 1 | All Maps","name_short":"lon-1","host":"lon-1.uk.uncletopia.com","port":27015,"enabled":true,"region":"eu","cc":"gb","latitude":51.509865,"longitude":-0.118092,"reserved":0,"last_update":"0001-01-01T00:00:00Z","name_a2s":"Uncletopia | London | 1 | All Maps","protocol":17,"map":"pl_pier","folder":"tf","game":"Team Fortress","app_id":440,"player_count":0,"max_players":24,"Bots":0,"server_type":"Dedicated","server_os":"Linux","password":true,"vac":true,"version":"7757534","steam_id":85568392924367362,"keywords":["nocrits","nodmgspread","payload","uncletopia"],"game_id":440,"stv_port":27016,"stv_name":"Uncletopia | London | 1 | All Maps | STV","players":null},{"server_id":114,"name":"Uncletopia | London | 2 | All Maps","name_short":"lon-2","host":"lon-1.uk.uncletopia.com","port":27025,"enabled":true,"region":"eu","cc":"gb","latitude":51.509865,"longitude":-0.118092,"reserved":0,"last_update":"0001-01-01T00:00:00Z","name_a2s":"Uncletopia | London | 2 | All Maps","protocol":17,"map":"pl_borneo","folder":"tf","game":"Team Fortress","app_id":440,"player_count":23,"max_players":24,"Bots":0,"server_type":"Dedicated","server_os":"Linux","password":true,"vac":true,"version":"7757534","steam_id":85568392924470941,"keywords":["nocrits","nodmgspread","payload","uncletopia"],"game_id":440,"stv_port":27026,"stv_name":"Uncletopia | London | 2 | All Maps | STV","players":[{"user_id":3,"name":"Negurescu","steam_id":76561198128777349,"connected_time":951000000000,"state":"active","ping":78},{"user_id":4,"name":"marsel","steam_id":76561198116168271,"connected_time":948000000000,"state":"active","ping":77},{"user_id":19,"name":"The Blues Brother","steam_id":76561198043935491,"connected_time":878000000000,"state":"active","ping":99},{"user_id":12,"name":"333res","steam_id":76561198148106704,"connected_time":919000000000,"state":"active","ping":87},{"user_id":7,"name":"gagalak","steam_id":76561198089979108,"connected_time":938000000000,"state":"active","ping":99},{"user_id":8,"name":"Rave Robber","steam_id":76561199414716848,"connected_time":935000000000,"state":"active","ping":75},{"user_id":22,"name":"tenenbaum_2","steam_id":76561198075723636,"connected_time":857000000000,"state":"active","ping":66},{"user_id":10,"name":"abigail","steam_id":76561198132932617,"connected_time":932000000000,"state":"active","ping":59},{"user_id":11,"name":"Lenivets","steam_id":76561198055130573,"connected_time":925000000000,"state":"active","ping":107},{"user_id":13,"name":"Narvhal√∏","steam_id":76561198147495474,"connected_time":917000000000,"state":"active","ping":44},{"user_id":20,"name":"hud_saytext_time 0","steam_id":76561198010327228,"connected_time":872000000000,"state":"active","ping":72},{"user_id":15,"name":"Tata Cobraz0r","steam_id":76561198017693962,"connected_time":916000000000,"state":"active","ping":75},{"user_id":16,"name":"Pineapple Okan„Å§ ‚óï_‚óï ‡ºΩ\ufffd\ufffd","steam_id":76561198069199449,"connected_time":899000000000,"state":"active","ping":110},{"user_id":17,"name":"cherry","steam_id":76561199006915718,"connected_time":898000000000,"state":"active","ping":61},{"user_id":18,"name":"naleksi","steam_id":76561198018391055,"connected_time":892000000000,"state":"active","ping":100},{"user_id":24,"name":"desu!","steam_id":76561198052878585,"connected_time":854000000000,"state":"active","ping":131},{"user_id":23,"name":"Cumbustible Punda #SaveTF2","steam_id":76561197974274677,"connected_time":856000000000,"state":"active","ping":60},{"user_id":25,"name":"IceDreamer","steam_id":76561197997569989,"connected_time":761000000000,"state":"active","ping":41},{"user_id":26,"name":"_XsoM_","steam_id":76561199089719555,"connected_time":747000000000,"state":"active","ping":124},{"user_id":27,"name":"hasansaeedifar","steam_id":76561198974563618,"connected_time":693000000000,"state":"active","ping":172},{"user_id":31,"name":"Dude Time","steam_id":76561198092991160,"connected_time":393000000000,"state":"active","ping":175},{"user_id":33,"name":"Lowi","steam_id":76561198139177372,"connected_time":305000000000,"state":"active","ping":101},{"user_id":34,"name":"peaceful dyf","steam_id":76561198841517751,"connected_time":276000000000,"state":"active","ping":86}]},{"server_id":320,"name":"Uncletopia | London | 3 | All Maps","name_short":"lon-3","host":"lon-1.uk.uncletopia.com","port":27035,"enabled":true,"region":"eu","cc":"gb","latitude":51.509865,"longitude":-0.118092,"reserved":0,"last_update":"0001-01-01T00:00:00Z","name_a2s":"Uncletopia | London | 3 | All Maps","protocol":17,"map":"pl_badwater","folder":"tf","game":"Team Fortress","app_id":440,"player_count":0,"max_players":24,"Bots":0,"server_type":"Dedicated","server_os":"Linux","password":true,"vac":true,"version":"7757534","steam_id":85568392924510192,"keywords":["nocrits","nodmgspread","payload","uncletopia"],"game_id":440,"stv_port":27036,"stv_name":"Uncletopia | London | 3 | All Maps | STV","players":null},{"server_id":321,"name":"Uncletopia | London | 4 | All Maps","name_short":"lon-4","host":"lon-1.uk.uncletopia.com","port":27045,"enabled":true,"region":"eu","cc":"gb","latitude":51.509865,"longitude":-0.118092,"reserved":0,"last_update":"0001-01-01T00:00:00Z","name_a2s":"Uncletopia | London | 4 | All Maps","protocol":17,"map":"cp_snakewater_final1","folder":"tf","game":"Team Fortress","app_id":440,"player_count":0,"max_players":24,"Bots":0,"server_type":"Dedicated","server_os":"Linux","password":true,"vac":true,"version":"7757534","steam_id":85568392924510193,"keywords":["cp","nocrits","nodmgspread","uncletopia"],"game_id":440,"stv_port":27046,"stv_name":"Uncletopia | London | 4 | All Maps | STV","players":null},{"server_id":21,"name":"Uncletopia | London | 5 | All Maps","name_short":"lon-5","host":"lon-1.uk.uncletopia.com","port":27055,"enabled":true,"region":"eu","cc":"gb","latitude":51.509865,"longitude":-0.118092,"reserved":0,"last_update":"0001-01-01T00:00:00Z","name_a2s":"Uncletopia | London | 5 | All Maps","protocol":17,"map":"pl_snowycoast","folder":"tf","game":"Team Fortress","app_id":440,"player_count":0,"max_players":24,"Bots":0,"server_type":"Dedicated","server_os":"Linux","password":true,"vac":true,"version":"7757534","steam_id":85568392924742829,"keywords":["nocrits","nodmgspread","payload","uncletopia"],"game_id":440,"stv_port":27056,"stv_name":"Uncletopia | London | 5 | All Maps | STV","players":null},{"server_id":22,"name":"Uncletopia | London | 6 | All Maps","name_short":"lon-6","host":"lon-1.uk.uncletopia.com","port":27065,"enabled":true,"region":"eu","cc":"gb","latitude":51.509865,"longitude":-0.118092,"reserved":0,"last_update":"0001-01-01T00:00:00Z","name_a2s":"Uncletopia | London | 6 | All Maps","protocol":17,"map":"pl_snowycoast","folder":"tf","game":"Team Fortress","app_id":440,"player_count":0,"max_players":24,"Bots":0,"server_type":"Dedicated","server_os":"Linux","password":true,"vac":true,"version":"7757534","steam_id":85568392924742830,"keywords":["nocrits","nodmgspread","payload","uncletopia"],"game_id":440,"stv_port":27066,"stv_name":"Uncletopia | London | 6 | All Maps | STV","players":null},{"server_id":40,"name":"Uncletopia | London | 7 | No Payload","name_short":"lon-7","host":"lon-1.uk.uncletopia.com","port":27075,"enabled":true,"region":"eu","cc":"gb","latitude":51.509865,"longitude":-0.118092,"reserved":0,"last_update":"0001-01-01T00:00:00Z","name_a2s":"Uncletopia | London | 7 | No Payload","protocol":17,"map":"pl_upward","folder":"tf","game":"Team Fortress","app_id":440,"player_count":0,"max_players":24,"Bots":0,"server_type":"Dedicated","server_os":"Linux","password":true,"vac":true,"version":"7757534","steam_id":85568392924964314,"keywords":["nocrits","nodmgspread","payload","uncletopia"],"game_id":440,"stv_port":27076,"stv_name":"Uncletopia | London | 7 | No Payload | STV","players":null},{"server_id":41,"name":"Uncletopia | London | 8 | Community","name_short":"lon-8","host":"lon-1.uk.uncletopia.com","port":27085,"enabled":true,"region":"eu","cc":"gb","latitude":51.509865,"longitude":-0.118092,"reserved":0,"last_update":"0001-01-01T00:00:00Z","name_a2s":"Uncletopia | London | 8 | Community","protocol":17,"map":"cp_snakewater_final1","folder":"tf","game":"Team Fortress","app_id":440,"player_count":0,"max_players":24,"Bots":0,"server_type":"Dedicated","server_os":"Linux","password":true,"vac":true,"version":"7757534","steam_id":85568392924964315,"keywords":["cp","nocrits","nodmgspread","uncletopia"],"game_id":440,"stv_port":27086,"stv_name":"Uncletopia | London | 8 | Community | STV","players":null},{"server_id":300,"name":"Uncletopia | Montr√©al | 1 | All Maps","name_short":"mtl-1","host":"mtl-1.ca.uncletopia.com","port":27015,"enabled":true,"region":"us-east","cc":"ca","latitude":45.50889,"longitude":-73.56167,"reserved":0,"last_update":"0001-01-01T00:00:00Z","name_a2s":"Uncletopia | Montr√©al | 1 | All Maps","protocol":17,"map":"koth_highpass","folder":"tf","game":"Team Fortress","app_id":440,"player_count":0,"max_players":24,"Bots":0,"server_type":"Dedicated","server_os":"Linux","password":true,"vac":true,"version":"7757534","steam_id":85568392924500087,"keywords":["cp","nocrits","nodmgspread","uncletopia"],"game_id":440,"stv_port":27016,"stv_name":"Uncletopia | Montr√©al | 1 | All Maps | STV","players":null},{"server_id":301,"name":"Uncletopia | Montr√©al | 2 | All Maps","name_short":"mtl-2","host":"mtl-1.ca.uncletopia.com","port":27025,"enabled":true,"region":"us-east","cc":"ca","latitude":45.50889,"longitude":-73.56167,"reserved":0,"last_update":"0001-01-01T00:00:00Z","name_a2s":"Uncletopia | Montr√©al | 2 | All Maps","protocol":17,"map":"koth_lakeside_final","folder":"tf","game":"Team Fortress","app_id":440,"player_count":0,"max_players":24,"Bots":0,"server_type":"Dedicated","server_os":"Linux","password":true,"vac":true,"version":"7757534","steam_id":85568392924500088,"keywords":["cp","nocrits","nodmgspread","uncletopia"],"game_id":440,"stv_port":27026,"stv_name":"Uncletopia | Montr√©al | 2 | All Maps | STV","players":null},{"server_id":302,"name":"Uncletopia | Montr√©al | 3 | All Maps","name_short":"mtl-3","host":"mtl-1.ca.uncletopia.com","port":27035,"enabled":true,"region":"us-east","cc":"ca","latitude":45.50889,"longitude":-73.56167,"reserved":0,"last_update":"0001-01-01T00:00:00Z","name_a2s":"Uncletopia | Montr√©al | 3 | All Maps","protocol":17,"map":"koth_cascade","folder":"tf","game":"Team Fortress","app_id":440,"player_count":0,"max_players":24,"Bots":0,"server_type":"Dedicated","server_os":"Linux","password":true,"vac":true,"version":"7757534","steam_id":85568392924500089,"keywords":["cp","nocrits","nodmgspread","uncletopia"],"game_id":440,"stv_port":27036,"stv_name":"Uncletopia | Montr√©al | 3 | All Maps | STV","players":null},{"server_id":303,"name":"Uncletopia | Montr√©al | 4 | No Payload","name_short":"mtl-4","host":"mtl-1.ca.uncletopia.com","port":27045,"enabled":true,"region":"us-east","cc":"ca","latitude":45.50889,"longitude":-73.56167,"reserved":0,"last_update":"0001-01-01T00:00:00Z","name_a2s":"Uncletopia | Montr√©al | 4 | No Payload","protocol":17,"map":"koth_lakeside_final","folder":"tf","game":"Team Fortress","app_id":440,"player_count":0,"max_players":24,"Bots":0,"server_type":"Dedicated","server_os":"Linux","password":true,"vac":true,"version":"7757534","steam_id":85568392924500090,"keywords":["cp","nocrits","nodmgspread","uncletopia"],"game_id":440,"stv_port":27046,"stv_name":"Uncletopia | Montr√©al | 4 | No Payload | STV","players":null},{"server_id":13,"name":"Uncletopia | New York City | 1 | All Maps","name_short":"nyc-1","host":"nyc-1.us.uncletopia.com","port":27015,"enabled":true,"region":"us-east","cc":"us","latitude":40.73061,"longitude":-73.93524,"reserved":0,"last_update":"0001-01-01T00:00:00Z","name_a2s":"Uncletopia | New York City | 1 | All Maps","protocol":17,"map":"pl_borneo","folder":"tf","game":"Team Fortress","app_id":440,"player_count":20,"max_players":24,"Bots":0,"server_type":"Dedicated","server_os":"Linux","password":true,"vac":true,"version":"7757534","steam_id":85568392924469993,"keywords":["nocrits","nodmgspread","payload","uncletopia"],"game_id":440,"stv_port":27016,"stv_name":"Uncletopia | New York City | 1 | All Maps | STV","players":[{"user_id":631,"name":"blademiss","steam_id":76561198062083019,"connected_time":1055000000000,"state":"active","ping":109},{"user_id":599,"name":"Evan","steam_id":76561198081165364,"connected_time":3142000000000,"state":"active","ping":48},{"user_id":638,"name":"tim-","steam_id":76561199119101315,"connected_time":351000000000,"state":"active","ping":54},{"user_id":595,"name":"jorjor wells","steam_id":76561199073429082,"connected_time":3742000000000,"state":"active","ping":51},{"user_id":603,"name":"Detective Parks","steam_id":76561198153415500,"connected_time":2638000000000,"state":"active","ping":82},{"user_id":634,"name":"drizzle","steam_id":76561198099412571,"connected_time":736000000000,"state":"active","ping":44},{"user_id":647,"name":"Dullahan","steam_id":76561198119668908,"connected_time":3000000000,"state":"spawning","ping":111},{"user_id":639,"name":"alber","steam_id":76561199021737235,"connected_time":299000000000,"state":"active","ping":68},{"user_id":648,"name":"GreenApples","steam_id":76561198120559543,"connected_time":3000000000,"state":"spawning","ping":117},{"user_id":637,"name":"All 24 Pok√©mon movies at once","steam_id":76561198164738311,"connected_time":400000000000,"state":"active","ping":81},{"user_id":635,"name":"ScoobyBlue","steam_id":76561198054656885,"connected_time":683000000000,"state":"active","ping":74},{"user_id":629,"name":"problack","steam_id":76561198000514719,"connected_time":1072000000000,"state":"active","ping":136},{"user_id":500,"name":"flappyflap2","steam_id":76561198285048973,"connected_time":11109000000000,"state":"active","ping":45},{"user_id":642,"name":"295.3","steam_id":76561198126358045,"connected_time":290000000000,"state":"active","ping":56},{"user_id":553,"name":"A Puppy","steam_id":76561198828184456,"connected_time":7900000000000,"state":"active","ping":45},{"user_id":618,"name":"Buck","steam_id":76561198064244796,"connected_time":1816000000000,"state":"active","ping":46},{"user_id":645,"name":"dex","steam_id":76561198065019864,"connected_time":34000000000,"state":"active","ping":159},{"user_id":625,"name":"Filthy Hobo","steam_id":76561198174373015,"connected_time":1352000000000,"state":"active","ping":103},{"user_id":636,"name":"High Quality Ice","steam_id":76561198969178047,"connected_time":479000000000,"state":"active","ping":48},{"user_id":643,"name":"pablo.drain2005","steam_id":76561199253405698,"connected_time":290000000000,"state":"active","ping":117}]},{"server_id":14,"name":"Uncletopia | New York City | 2 | All Maps","name_short":"nyc-2","host":"nyc-1.us.uncletopia.com","port":27025,"enabled":true,"region":"us-east","cc":"us","latitude":40.73061,"longitude":-73.93524,"reserved":0,"last_update":"0001-01-01T00:00:00Z","name_a2s":"Uncletopia | New York City | 2 | All Maps","protocol":17,"map":"pl_snowycoast","folder":"tf","game":"Team Fortress","app_id":440,"player_count":19,"max_players":24,"Bots":0,"server_type":"Dedicated","server_os":"Linux","password":true,"vac":true,"version":"7757534","steam_id":85568392924469994,"keywords":["nocrits","nodmgspread","payload","uncletopia"],"game_id":440,"stv_port":27026,"stv_name":"Uncletopia | New York City | 2 | All Maps | STV","players":[{"user_id":555,"name":"Chesh","steam_id":76561197990316722,"connected_time":509000000000,"state":"active","ping":70},{"user_id":552,"name":"Ghost","steam_id":76561198110914180,"connected_time":1629000000000,"state":"active","ping":178},{"user_id":537,"name":"ROGUE-PLANET","steam_id":76561198116023052,"connected_time":2716000000000,"state":"active","ping":75},{"user_id":539,"name":"deepwoken","steam_id":76561198055439054,"connected_time":2399000000000,"state":"active","ping":60},{"user_id":558,"name":"CubeDio","steam_id":76561198403403639,"connected_time":405000000000,"state":"active","ping":116},{"user_id":559,"name":"mika","steam_id":76561198842235715,"connected_time":383000000000,"state":"active","ping":117},{"user_id":560,"name":"Snazzi","steam_id":76561198085208276,"connected_time":375000000000,"state":"active","ping":72},{"user_id":561,"name":"kris736","steam_id":76561198038208255,"connected_time":375000000000,"state":"active","ping":66},{"user_id":513,"name":"what","steam_id":76561198082336619,"connected_time":3391000000000,"state":"active","ping":60},{"user_id":562,"name":"febfowl","steam_id":76561198023888890,"connected_time":360000000000,"state":"active","ping":78},{"user_id":567,"name":"task","steam_id":76561198284992433,"connected_time":47000000000,"state":"active","ping":64},{"user_id":568,"name":"frank","steam_id":76561198045436159,"connected_time":47000000000,"state":"active","ping":58},{"user_id":569,"name":"eis","steam_id":76561198830293087,"connected_time":25000000000,"state":"active","ping":66},{"user_id":549,"name":"cigarette","steam_id":76561198317827526,"connected_time":2035000000000,"state":"active","ping":68},{"user_id":550,"name":"Saturn","steam_id":76561198211622632,"connected_time":1973000000000,"state":"active","ping":48},{"user_id":554,"name":"tired","steam_id":76561198073153936,"connected_time":783000000000,"state":"active","ping":77},{"user_id":551,"name":"Largelad","steam_id":76561198024042970,"connected_time":1959000000000,"state":"active","ping":94},{"user_id":531,"name":"matkaster","steam_id":76561197998546486,"connected_time":2893000000000,"state":"active","ping":77},{"user_id":532,"name":"alexthepenguin7","steam_id":76561198390154448,"connected_time":2879000000000,"state":"active","ping":77}]},{"server_id":15,"name":"Uncletopia | New York City | 3 | Stopwatch Beta","name_short":"nyc-3","host":"nyc-1.us.uncletopia.com","port":27035,"enabled":true,"region":"us-east","cc":"us","latitude":40.73061,"longitude":-73.93524,"reserved":0,"last_update":"0001-01-01T00:00:00Z","name_a2s":"Uncletopia | New York City | 3 | Stopwatch Beta","protocol":17,"map":"workshop/koth_clearcut_b15.ugc2107050255","folder":"tf","game":"Team Fortress","app_id":440,"player_count":0,"max_players":24,"Bots":0,"server_type":"Dedicated","server_os":"Linux","password":true,"vac":true,"version":"7757534","steam_id":85568392924742820,"keywords":["cp","nocrits","nodmgspread","uncletopia"],"game_id":440,"stv_port":27036,"stv_name":"Uncletopia | New York City | 3 | Stopwatch Beta | STV","players":null},{"server_id":16,"name":"Uncletopia | New York City | 4 | Community","name_short":"nyc-4","host":"nyc-1.us.uncletopia.com","port":27045,"enabled":true,"region":"us-east","cc":"us","latitude":40.73061,"longitude":-73.93524,"reserved":0,"last_update":"0001-01-01T00:00:00Z","name_a2s":"Uncletopia | New York City | 4 | Community","protocol":17,"map":"workshop/pl_barnblitz_pro7.ugc582280235","folder":"tf","game":"Team Fortress","app_id":440,"player_count":0,"max_players":24,"Bots":0,"server_type":"Dedicated","server_os":"Linux","password":true,"vac":true,"version":"7757534","steam_id":85568392924742821,"keywords":["nocrits","nodmgspread","payload","uncletopia"],"game_id":440,"stv_port":27046,"stv_name":"Uncletopia | New York City | 4 | Community | STV","players":null},{"server_id":142,"name":"Uncletopia | S√£o Paulo | 1 | All Maps","name_short":"sao-1","host":"sao-1.br.uncletopia.com","port":27015,"enabled":true,"region":"sa","cc":"br","latitude":-23.533773,"longitude":-46.62529,"reserved":0,"last_update":"0001-01-01T00:00:00Z","name_a2s":"Uncletopia | S√£o Paulo | 1 | All Maps","protocol":17,"map":"plr_pipeline","folder":"tf","game":"Team Fortress","app_id":440,"player_count":0,"max_players":24,"Bots":0,"server_type":"Dedicated","server_os":"Linux","password":true,"vac":true,"version":"7757534","steam_id":85568392924469996,"keywords":["nocrits","nodmgspread","payload","uncletopia"],"game_id":440,"stv_port":27016,"stv_name":"Uncletopia | S√£o Paulo | 1 | All Maps | STV","players":null},{"server_id":143,"name":"Uncletopia | S√£o Paulo | 2 | All Maps","name_short":"sao-2","host":"sao-2.br.uncletopia.com","port":27015,"enabled":true,"region":"sa","cc":"br","latitude":-23.533773,"longitude":-46.62529,"reserved":0,"last_update":"0001-01-01T00:00:00Z","name_a2s":"Uncletopia | S√£o Paulo | 2 | All Maps","protocol":17,"map":"koth_cascade","folder":"tf","game":"Team Fortress","app_id":440,"player_count":0,"max_players":24,"Bots":0,"server_type":"Dedicated","server_os":"Linux","password":true,"vac":true,"version":"7757534","steam_id":85568392924485349,"keywords":["cp","nocrits","nodmgspread","uncletopia"],"game_id":440,"stv_port":27016,"stv_name":"Uncletopia | S√£o Paulo | 2 | All Maps | STV","players":null},{"server_id":7,"name":"Uncletopia | Seattle | 1 | All Maps","name_short":"sea-1","host":"sea-1.us.uncletopia.com","port":27015,"enabled":true,"region":"us-west","cc":"us","latitude":47.608013,"longitude":-122.33517,"reserved":0,"last_update":"0001-01-01T00:00:00Z","name_a2s":"Uncletopia | Seattle | 1 | All Maps","protocol":17,"map":"pl_swiftwater_final1","folder":"tf","game":"Team Fortress","app_id":440,"player_count":20,"max_players":24,"Bots":0,"server_type":"Dedicated","server_os":"Linux","password":true,"vac":true,"version":"7757534","steam_id":85568392924469997,"keywords":["nocrits","nodmgspread","payload","uncletopia"],"game_id":440,"stv_port":27016,"stv_name":"Uncletopia | Seattle | 1 | All Maps | STV","players":[{"user_id":810,"name":"Ghee Buttersnaps","steam_id":76561199225708271,"connected_time":68000000000,"state":"active","ping":60},{"user_id":811,"name":"SirBagettue","steam_id":76561199010270588,"connected_time":63000000000,"state":"active","ping":72},{"user_id":769,"name":"[TrC] Dackstrus","steam_id":76561197973518509,"connected_time":4612000000000,"state":"active","ping":55},{"user_id":791,"name":"Nekogaming1500","steam_id":76561198979123816,"connected_time":2562000000000,"state":"active","ping":51},{"user_id":793,"name":"[TrC] soup","steam_id":76561198043209046,"connected_time":2522000000000,"state":"active","ping":71},{"user_id":647,"name":"rat gets the cheese","steam_id":76561198031234032,"connected_time":15369000000000,"state":"active","ping":102},{"user_id":772,"name":"carmillaluvr1334","steam_id":76561198325306660,"connected_time":4589000000000,"state":"active","ping":47},{"user_id":808,"name":"mub","steam_id":76561197961943948,"connected_time":76000000000,"state":"active","ping":42},{"user_id":812,"name":"Lorberry","steam_id":76561198023706058,"connected_time":20000000000,"state":"active","ping":84},{"user_id":752,"name":"Villchip","steam_id":76561198198599982,"connected_time":7262000000000,"state":"active","ping":48},{"user_id":775,"name":"lavender","steam_id":76561199069518286,"connected_time":4536000000000,"state":"active","ping":64},{"user_id":765,"name":"Ham Radio","steam_id":76561198030613297,"connected_time":4821000000000,"state":"active","ping":107},{"user_id":798,"name":"Kirbothebrony","steam_id":76561198971911330,"connected_time":2428000000000,"state":"active","ping":126},{"user_id":803,"name":"gorlab","steam_id":76561198025089694,"connected_time":2215000000000,"state":"active","ping":60},{"user_id":800,"name":"[TrC] Nosy","steam_id":76561197978859310,"connected_time":2406000000000,"state":"active","ping":60},{"user_id":809,"name":"Furry Futon","steam_id":76561198097745857,"connected_time":73000000000,"state":"active","ping":89},{"user_id":662,"name":"Level 99 Mudcrab","steam_id":76561198077452771,"connected_time":14559000000000,"state":"active","ping":56},{"user_id":805,"name":"\u003c3","steam_id":76561198196829267,"connected_time":1799000000000,"state":"active","ping":72},{"user_id":790,"name":"YuuriDaThrilla","steam_id":76561198184814466,"connected_time":2578000000000,"state":"active","ping":30},{"user_id":807,"name":"bbbbb","steam_id":76561198095480838,"connected_time":89000000000,"state":"active","ping":45}]},{"server_id":119,"name":"Uncletopia | Seattle | 2 | All Maps","name_short":"sea-2","host":"sea-1.us.uncletopia.com","port":27025,"enabled":true,"region":"us-west","cc":"us","latitude":47.608013,"longitude":-122.33517,"reserved":0,"last_update":"0001-01-01T00:00:00Z","name_a2s":"Uncletopia | Seattle | 2 | All Maps","protocol":17,"map":"pl_frontier_final","folder":"tf","game":"Team Fortress","app_id":440,"player_count":24,"max_players":24,"Bots":0,"server_type":"Dedicated","server_os":"Linux","password":true,"vac":true,"version":"7757534","steam_id":85568392924469998,"keywords":["nocrits","nodmgspread","payload","uncletopia"],"game_id":440,"stv_port":27026,"stv_name":"Uncletopia | Seattle | 2 | All Maps | STV","players":[{"user_id":403,"name":"obamaconsumespancakes","steam_id":76561199283740228,"connected_time":994000000000,"state":"active","ping":61},{"user_id":406,"name":"ms. anthrope","steam_id":76561198063533082,"connected_time":922000000000,"state":"active","ping":44},{"user_id":402,"name":"Mike Hawk","steam_id":76561198045053326,"connected_time":1016000000000,"state":"active","ping":48},{"user_id":397,"name":"burntapplz","steam_id":76561199246260315,"connected_time":1943000000000,"state":"active","ping":95},{"user_id":382,"name":"JUSTICE!!!!!!!!!!!!!!!!!!!!!!!","steam_id":76561198334511480,"connected_time":3229000000000,"state":"active","ping":80},{"user_id":410,"name":"chompmastr","steam_id":76561199121805899,"connected_time":599000000000,"state":"active","ping":54},{"user_id":404,"name":"BroBama","steam_id":76561198203732587,"connected_time":975000000000,"state":"active","ping":123},{"user_id":401,"name":"Pneumo.","steam_id":76561197987911883,"connected_time":1194000000000,"state":"active","ping":72},{"user_id":387,"name":"CFDv20","steam_id":76561198450073779,"connected_time":2235000000000,"state":"active","ping":45},{"user_id":388,"name":"rider_of_brohan15","steam_id":76561198172978817,"connected_time":2166000000000,"state":"active","ping":69},{"user_id":411,"name":"the big pisser","steam_id":76561198143132686,"connected_time":540000000000,"state":"active","ping":74},{"user_id":390,"name":"Godsworn","steam_id":76561198046061345,"connected_time":2046000000000,"state":"active","ping":101},{"user_id":391,"name":"KingTinkerer","steam_id":76561198226856548,"connected_time":2041000000000,"state":"active","ping":74},{"user_id":335,"name":"General Fisticuffs","steam_id":76561198255721392,"connected_time":7037000000000,"state":"active","ping":104},{"user_id":405,"name":"RTK","steam_id":76561198098245753,"connected_time":949000000000,"state":"active","ping":62},{"user_id":413,"name":"UV","steam_id":76561198083936918,"connected_time":405000000000,"state":"active","ping":81},{"user_id":366,"name":"Robert E.T.","steam_id":76561197986439371,"connected_time":4313000000000,"state":"active","ping":56},{"user_id":409,"name":"Wafflemuscle","steam_id":76561198868628982,"connected_time":767000000000,"state":"active","ping":52},{"user_id":380,"name":"god approaches","steam_id":76561198081617990,"connected_time":3251000000000,"state":"active","ping":120},{"user_id":372,"name":"Google","steam_id":76561198857237473,"connected_time":4091000000000,"state":"active","ping":56},{"user_id":407,"name":"dougrocks421","steam_id":76561198165063918,"connected_time":894000000000,"state":"active","ping":44},{"user_id":383,"name":"Grim1438","steam_id":76561199218478092,"connected_time":3189000000000,"state":"active","ping":60},{"user_id":394,"name":"Chucklemaster","steam_id":76561198023645303,"connected_time":2022000000000,"state":"active","ping":52},{"user_id":396,"name":"MonkeyMan","steam_id":76561198411913979,"connected_time":1965000000000,"state":"active","ping":96}]},{"server_id":406,"name":"Uncletopia | Seattle | 3 | Stopwatch Beta","name_short":"sea-3","host":"sea-1.us.uncletopia.com","port":27035,"enabled":true,"region":"us-west","cc":"us","latitude":47.608013,"longitude":-122.33517,"reserved":0,"last_update":"0001-01-01T00:00:00Z","name_a2s":"Uncletopia | Seattle | 3 | Stopwatch Beta","protocol":17,"map":"pl_upward","folder":"tf","game":"Team Fortress","app_id":440,"player_count":0,"max_players":24,"Bots":0,"server_type":"Dedicated","server_os":"Linux","password":true,"vac":true,"version":"7757534","steam_id":85568392924515217,"keywords":["nocrits","nodmgspread","payload","uncletopia"],"game_id":440,"stv_port":27036,"stv_name":"Uncletopia | Seattle | 3 | Stopwatch Beta | STV","players":null},{"server_id":17,"name":"Uncletopia | San Francisco | 1 | All Maps","name_short":"sfo-1","host":"sfo-1.us.uncletopia.com","port":27015,"enabled":true,"region":"us-west","cc":"us","latitude":37.77397,"longitude":-122.4313,"reserved":0,"last_update":"0001-01-01T00:00:00Z","name_a2s":"Uncletopia | San Francisco | 1 | All Maps","protocol":17,"map":"pl_swiftwater_final1","folder":"tf","game":"Team Fortress","app_id":440,"player_count":24,"max_players":24,"Bots":0,"server_type":"Dedicated","server_os":"Linux","password":true,"vac":true,"version":"7757534","steam_id":85568392924469999,"keywords":["nocrits","nodmgspread","payload","uncletopia"],"game_id":440,"stv_port":27016,"stv_name":"Uncletopia | San Francisco | 1 | All Maps | STV","players":[{"user_id":93,"name":"robertistoastyargentina","steam_id":76561198324736786,"connected_time":1434000000000,"state":"active","ping":172},{"user_id":117,"name":"evan_is_sauce","steam_id":76561199086802383,"connected_time":36000000000,"state":"active","ping":132},{"user_id":115,"name":"Sparkly Venice","steam_id":76561198056445740,"connected_time":346000000000,"state":"active","ping":124},{"user_id":118,"name":"The Super Mario Bros. Movie","steam_id":76561198871692156,"connected_time":22000000000,"state":"active","ping":72},{"user_id":114,"name":"BackToSchoolAds","steam_id":76561198870281128,"connected_time":400000000000,"state":"active","ping":75},{"user_id":119,"name":"Fargo","steam_id":76561198044703931,"connected_time":16000000000,"state":"active","ping":76},{"user_id":74,"name":"El Gato Paranoico","steam_id":76561198116567116,"connected_time":2751000000000,"state":"active","ping":109},{"user_id":97,"name":"borzier","steam_id":76561198069190432,"connected_time":1195000000000,"state":"active","ping":121},{"user_id":92,"name":"Idontknow","steam_id":76561199207044048,"connected_time":1487000000000,"state":"active","ping":57},{"user_id":95,"name":"Frosted Lighted Ornament","steam_id":76561197971250619,"connected_time":1226000000000,"state":"active","ping":50},{"user_id":96,"name":"Juri Han","steam_id":76561198041678517,"connected_time":1218000000000,"state":"active","ping":55},{"user_id":98,"name":"scratching post enjoyer","steam_id":76561198204169516,"connected_time":1189000000000,"state":"active","ping":164},{"user_id":99,"name":"Irregular Quiche","steam_id":76561198090193269,"connected_time":1179000000000,"state":"active","ping":73},{"user_id":100,"name":"i ate atomic bomb","steam_id":76561198150406851,"connected_time":1164000000000,"state":"active","ping":46},{"user_id":104,"name":"Blob","steam_id":76561198283623654,"connected_time":1066000000000,"state":"active","ping":143},{"user_id":102,"name":"Smitty Werbenjagermanjensen","steam_id":76561197995190007,"connected_time":1141000000000,"state":"active","ping":64},{"user_id":85,"name":"dosimeter","steam_id":76561198039608940,"connected_time":2079000000000,"state":"active","ping":91},{"user_id":89,"name":"Buuw","steam_id":76561198085707714,"connected_time":1642000000000,"state":"active","ping":65},{"user_id":55,"name":"hoOmIN","steam_id":76561198334947079,"connected_time":3169000000000,"state":"active","ping":60},{"user_id":103,"name":"gorebastard","steam_id":76561198295113883,"connected_time":1076000000000,"state":"active","ping":79},{"user_id":113,"name":"‚õß","steam_id":76561198021308963,"connected_time":417000000000,"state":"active","ping":75},{"user_id":106,"name":"giura","steam_id":76561197986794525,"connected_time":1010000000000,"state":"active","ping":96},{"user_id":109,"name":"Rusty","steam_id":76561198055585129,"connected_time":730000000000,"state":"active","ping":61},{"user_id":110,"name":"Nuggies","steam_id":76561198272432592,"connected_time":664000000000,"state":"active","ping":60}]},{"server_id":18,"name":"Uncletopia | San Francisco | 2 | All Maps","name_short":"sfo-2","host":"sfo-1.us.uncletopia.com","port":27025,"enabled":true,"region":"us-west","cc":"us","latitude":37.77397,"longitude":-122.4313,"reserved":0,"last_update":"0001-01-01T00:00:00Z","name_a2s":"Uncletopia | San Francisco | 2 | All Maps","protocol":17,"map":"cp_process_final","folder":"tf","game":"Team Fortress","app_id":440,"player_count":0,"max_players":24,"Bots":0,"server_type":"Dedicated","server_os":"Linux","password":true,"vac":true,"version":"7757534","steam_id":85568392924470000,"keywords":["cp","nocrits","nodmgspread","uncletopia"],"game_id":440,"stv_port":27026,"stv_name":"Uncletopia | San Francisco | 2 | All Maps | STV","players":null},{"server_id":19,"name":"Uncletopia | San Francisco | 3 | Stopwatch Beta","name_short":"sfo-3","host":"sfo-1.us.uncletopia.com","port":27035,"enabled":true,"region":"us-west","cc":"us","latitude":37.77397,"longitude":-122.4313,"reserved":0,"last_update":"0001-01-01T00:00:00Z","name_a2s":"Uncletopia | San Francisco | 3 | Stopwatch Beta","protocol":17,"map":"koth_viaduct","folder":"tf","game":"Team Fortress","app_id":440,"player_count":0,"max_players":24,"Bots":0,"server_type":"Dedicated","server_os":"Linux","password":true,"vac":true,"version":"7757534","steam_id":85568392924742824,"keywords":["cp","nocrits","nodmgspread","uncletopia"],"game_id":440,"stv_port":27036,"stv_name":"Uncletopia | San Francisco | 3 | Stopwatch Beta | STV","players":null},{"server_id":20,"name":"Uncletopia | San Francisco | 4 | Community","name_short":"sfo-4","host":"sfo-1.us.uncletopia.com","port":27045,"enabled":true,"region":"us-west","cc":"us","latitude":37.77397,"longitude":-122.4313,"reserved":0,"last_update":"0001-01-01T00:00:00Z","name_a2s":"Uncletopia | San Francisco | 4 | Community","protocol":17,"map":"workshop/koth_slaughter_rc1.ugc1712845210","folder":"tf","game":"Team Fortress","app_id":440,"player_count":0,"max_players":24,"Bots":0,"server_type":"Dedicated","server_os":"Linux","password":true,"vac":true,"version":"7757534","steam_id":85568392924742826,"keywords":["cp","nocrits","nodmgspread","uncletopia"],"game_id":440,"stv_port":27046,"stv_name":"Uncletopia | San Francisco | 4 | Community | STV","players":null},{"server_id":141,"name":"Uncletopia | Sydney | 1 | All Maps","name_short":"syd-1","host":"syd-1.au.uncletopia.com","port":27015,"enabled":true,"region":"au","cc":"au","latitude":-33.865143,"longitude":151.2099,"reserved":0,"last_update":"0001-01-01T00:00:00Z","name_a2s":"Uncletopia | Sydney | 1 | All Maps","protocol":17,"map":"cp_dustbowl","folder":"tf","game":"Team Fortress","app_id":440,"player_count":23,"max_players":24,"Bots":0,"server_type":"Dedicated","server_os":"Linux","password":true,"vac":true,"version":"7757534","steam_id":85568392924470001,"keywords":["cp","nocrits","nodmgspread","uncletopia"],"game_id":440,"stv_port":27016,"stv_name":"Uncletopia | Sydney | 1 | All Maps | STV","players":[{"user_id":142,"name":"EpicGuy4227","steam_id":76561198094132328,"connected_time":565000000000,"state":"active","ping":53},{"user_id":111,"name":"Piyo.","steam_id":76561197985114373,"connected_time":2912000000000,"state":"active","ping":69},{"user_id":126,"name":"fellas in paris","steam_id":76561198046025785,"connected_time":2170000000000,"state":"active","ping":59},{"user_id":144,"name":"Jarl","steam_id":76561198102491181,"connected_time":467000000000,"state":"active","ping":74},{"user_id":143,"name":"ORNTL","steam_id":76561197965566926,"connected_time":557000000000,"state":"active","ping":32},{"user_id":141,"name":"dinxie","steam_id":76561199448765541,"connected_time":1026000000000,"state":"active","ping":142},{"user_id":138,"name":"NightSpawn","steam_id":76561199447160011,"connected_time":1173000000000,"state":"active","ping":71},{"user_id":100,"name":"thrax","steam_id":76561197992385270,"connected_time":4312000000000,"state":"active","ping":51},{"user_id":134,"name":"Jett","steam_id":76561198969434128,"connected_time":1486000000000,"state":"active","ping":78},{"user_id":133,"name":"Planari","steam_id":76561198065364610,"connected_time":1520000000000,"state":"active","ping":92},{"user_id":64,"name":"Editor_Billy","steam_id":76561199165608946,"connected_time":7017000000000,"state":"active","ping":59},{"user_id":124,"name":"The Real MVP","steam_id":76561198046510592,"connected_time":2359000000000,"state":"active","ping":84},{"user_id":139,"name":"Sinister80s","steam_id":76561198343540472,"connected_time":1171000000000,"state":"active","ping":67},{"user_id":87,"name":"bowser","steam_id":76561198271462646,"connected_time":5147000000000,"state":"active","ping":66},{"user_id":130,"name":"Professional Model Railroader","steam_id":76561199249059042,"connected_time":1659000000000,"state":"active","ping":99},{"user_id":132,"name":"Sy 4","steam_id":76561198879862702,"connected_time":1552000000000,"state":"active","ping":68},{"user_id":119,"name":"JoeNoodle6","steam_id":76561198858642295,"connected_time":2518000000000,"state":"active","ping":104},{"user_id":127,"name":"Squishy","steam_id":76561198985769205,"connected_time":2170000000000,"state":"active","ping":53},{"user_id":120,"name":"I AM THE SNAIL","steam_id":76561198039603964,"connected_time":2500000000000,"state":"active","ping":69},{"user_id":123,"name":"Assasin43","steam_id":76561198067678083,"connected_time":2404000000000,"state":"active","ping":95},{"user_id":44,"name":"FyreFeat","steam_id":76561198068428930,"connected_time":7952000000000,"state":"active","ping":57},{"user_id":125,"name":"Kaon","steam_id":76561198045370804,"connected_time":2349000000000,"state":"active","ping":63},{"user_id":140,"name":"Sir Reality","steam_id":76561198045552695,"connected_time":1170000000000,"state":"active","ping":89}]},{"server_id":123,"name":"Uncletopia | Sydney | 2 | All Maps","name_short":"syd-2","host":"syd-1.au.uncletopia.com","port":27025,"enabled":true,"region":"au","cc":"au","latitude":-33.865143,"longitude":151.2099,"reserved":0,"last_update":"0001-01-01T00:00:00Z","name_a2s":"Uncletopia | Sydney | 2 | All Maps","protocol":17,"map":"pl_barnblitz","folder":"tf","game":"Team Fortress","app_id":440,"player_count":21,"max_players":24,"Bots":0,"server_type":"Dedicated","server_os":"Linux","password":true,"vac":true,"version":"7757534","steam_id":85568392924470002,"keywords":["nocrits","nodmgspread","payload","uncletopia"],"game_id":440,"stv_port":27026,"stv_name":"Uncletopia | Sydney | 2 | All Maps | STV","players":[{"user_id":392,"name":"KillerBlow","steam_id":76561198930232832,"connected_time":1836000000000,"state":"active","ping":72},{"user_id":401,"name":"ben","steam_id":76561198223331996,"connected_time":1183000000000,"state":"active","ping":65},{"user_id":291,"name":"Bobby Bigman","steam_id":76561198044679656,"connected_time":9324000000000,"state":"active","ping":58},{"user_id":386,"name":"Oysenberry","steam_id":76561198125443335,"connected_time":2208000000000,"state":"active","ping":42},{"user_id":381,"name":"mrquestables","steam_id":76561198954911129,"connected_time":2556000000000,"state":"active","ping":78},{"user_id":384,"name":"Lone Wolf","steam_id":76561198044154658,"connected_time":2353000000000,"state":"active","ping":60},{"user_id":396,"name":"free fuse ice tea","steam_id":76561199440190709,"connected_time":1683000000000,"state":"active","ping":69},{"user_id":387,"name":"Servo Guy","steam_id":76561199069287849,"connected_time":2153000000000,"state":"active","ping":65},{"user_id":391,"name":"shrivel","steam_id":76561198129577552,"connected_time":1974000000000,"state":"active","ping":82},{"user_id":374,"name":"stevo","steam_id":76561198117749786,"connected_time":2879000000000,"state":"active","ping":86},{"user_id":371,"name":"East","steam_id":76561197998179587,"connected_time":3014000000000,"state":"active","ping":101},{"user_id":306,"name":"Consolidated Fart","steam_id":76561198924101909,"connected_time":7784000000000,"state":"active","ping":65},{"user_id":388,"name":"armCHAMP Billie Eilish feet mmm","steam_id":76561198044752424,"connected_time":2144000000000,"state":"active","ping":54},{"user_id":350,"name":"sabeuo","steam_id":76561198288259746,"connected_time":4224000000000,"state":"active","ping":54},{"user_id":404,"name":"Fuzzy","steam_id":76561198081319798,"connected_time":554000000000,"state":"active","ping":52},{"user_id":395,"name":"Nuker","steam_id":76561198207761688,"connected_time":1764000000000,"state":"active","ping":45},{"user_id":382,"name":"Crimson Aurora","steam_id":76561198157492747,"connected_time":2478000000000,"state":"active","ping":109},{"user_id":403,"name":"Anisawrus","steam_id":76561198026339834,"connected_time":613000000000,"state":"active","ping":55},{"user_id":389,"name":"Drakeo","steam_id":76561198268859184,"connected_time":2124000000000,"state":"active","ping":96},{"user_id":367,"name":"tweedie","steam_id":76561198063425523,"connected_time":3436000000000,"state":"active","ping":57},{"user_id":357,"name":"iplayforfun","steam_id":76561198861979482,"connected_time":4099000000000,"state":"active","ping":59}]},{"server_id":395,"name":"Uncletopia | Sydney | 3 | All Maps","name_short":"syd-3","host":"syd-1.au.uncletopia.com","port":27035,"enabled":true,"region":"au","cc":"au","latitude":-33.865143,"longitude":151.2099,"reserved":0,"last_update":"0001-01-01T00:00:00Z","name_a2s":"Uncletopia | Sydney | 3 | All Maps","protocol":17,"map":"pl_upward","folder":"tf","game":"Team Fortress","app_id":440,"player_count":0,"max_players":24,"Bots":0,"server_type":"Dedicated","server_os":"Linux","password":true,"vac":true,"version":"7757534","steam_id":85568392925194467,"keywords":["nocrits","nodmgspread","payload","uncletopia"],"game_id":440,"stv_port":27036,"stv_name":"Uncletopia | Sydney | 3 | All Maps | STV","players":null},{"server_id":396,"name":"Uncletopia | Sydney | 4 | All Maps","name_short":"syd-4","host":"syd-1.au.uncletopia.com","port":27045,"enabled":true,"region":"au","cc":"au","latitude":-33.865143,"longitude":151.2099,"reserved":0,"last_update":"0001-01-01T00:00:00Z","name_a2s":"Uncletopia | Sydney | 4 | All Maps","protocol":17,"map":"koth_highpass","folder":"tf","game":"Team Fortress","app_id":440,"player_count":0,"max_players":24,"Bots":0,"server_type":"Dedicated","server_os":"Linux","password":true,"vac":true,"version":"7757534","steam_id":85568392925397958,"keywords":["cp","nocrits","nodmgspread","uncletopia"],"game_id":440,"stv_port":27046,"stv_name":"Uncletopia | Sydney | 4 | All Maps | STV","players":null},{"server_id":58,"name":"Uncletopia | Sydney | 5 | Stopwatch Beta","name_short":"syd-5","host":"syd-1.au.uncletopia.com","port":27055,"enabled":true,"region":"au","cc":"au","latitude":-33.865143,"longitude":151.2099,"reserved":0,"last_update":"0001-01-01T00:00:00Z","name_a2s":"Uncletopia | Sydney | 5 | Stopwatch Beta","protocol":17,"map":"pl_barnblitz","folder":"tf","game":"Team Fortress","app_id":440,"player_count":0,"max_players":24,"Bots":0,"server_type":"Dedicated","server_os":"Linux","password":true,"vac":true,"version":"7757534","steam_id":85568392925397959,"keywords":["nocrits","nodmgspread","payload","uncletopia"],"game_id":440,"stv_port":27056,"stv_name":"Uncletopia | Sydney | 5 | Stopwatch Beta | STV","players":null},{"server_id":59,"name":"Uncletopia | Sydney | 6 | Community","name_short":"syd-6","host":"syd-1.au.uncletopia.com","port":27065,"enabled":true,"region":"au","cc":"au","latitude":-33.865143,"longitude":151.2099,"reserved":0,"last_update":"0001-01-01T00:00:00Z","name_a2s":"Uncletopia | Sydney | 6 | Community","protocol":17,"map":"workshop/koth_synthetic_rc6a.ugc1549817316","folder":"tf","game":"Team Fortress","app_id":440,"player_count":0,"max_players":24,"Bots":0,"server_type":"Dedicated","server_os":"Linux","password":true,"vac":true,"version":"7757534","steam_id":85568392925397960,"keywords":["cp","nocrits","nodmgspread","uncletopia"],"game_id":440,"stv_port":27066,"stv_name":"Uncletopia | Sydney | 6 | Community | STV","players":null},{"server_id":49,"name":"Uncletopia | Warsaw | 1 | All Maps","name_short":"waw-1","host":"waw-1.pl.uncletopia.com","port":27015,"enabled":true,"region":"eu","cc":"pl","latitude":52.2297,"longitude":21.017532,"reserved":0,"last_update":"0001-01-01T00:00:00Z","name_a2s":"","protocol":0,"map":"","folder":"","game":"","app_id":0,"player_count":0,"max_players":0,"Bots":0,"server_type":"","server_os":"","password":false,"vac":false,"version":"","steam_id":0,"keywords":null,"game_id":0,"stv_port":0,"stv_name":"","players":null},{"server_id":50,"name":"Uncletopia | Warsaw | 2 | All Maps","name_short":"waw-2","host":"waw-1.pl.uncletopia.com","port":27025,"enabled":true,"region":"eu","cc":"pl","latitude":52.2297,"longitude":21.017532,"reserved":0,"last_update":"0001-01-01T00:00:00Z","name_a2s":"Uncletopia | Warsaw | 2 | All Maps","protocol":17,"map":"cp_snakewater_final1","folder":"tf","game":"Team Fortress","app_id":440,"player_count":0,"max_players":24,"Bots":0,"server_type":"Dedicated","server_os":"Linux","password":true,"vac":true,"version":"7757534","steam_id":85568392925397851,"keywords":["cp","nocrits","nodmgspread","uncletopia"],"game_id":440,"stv_port":27026,"stv_name":"Uncletopia | Warsaw | 2 | All Maps | STV","players":null},{"server_id":51,"name":"Uncletopia | Warsaw | 3 | All Maps","name_short":"waw-3","host":"waw-1.pl.uncletopia.com","port":27035,"enabled":true,"region":"eu","cc":"pl","latitude":52.2297,"longitude":21.017532,"reserved":0,"last_update":"0001-01-01T00:00:00Z","name_a2s":"Uncletopia | Warsaw | 3 | All Maps","protocol":17,"map":"cp_sunshine","folder":"tf","game":"Team Fortress","app_id":440,"player_count":0,"max_players":24,"Bots":0,"server_type":"Dedicated","server_os":"Linux","password":true,"vac":true,"version":"7757534","steam_id":85568392925397852,"keywords":["cp","nocrits","nodmgspread","uncletopia"],"game_id":440,"stv_port":27036,"stv_name":"Uncletopia | Warsaw | 3 | All Maps | STV","players":null},{"server_id":52,"name":"Uncletopia | Warsaw | 4 | All Maps","name_short":"waw-4","host":"waw-1.pl.uncletopia.com","port":27045,"enabled":true,"region":"eu","cc":"pl","latitude":52.2297,"longitude":21.017532,"reserved":0,"last_update":"0001-01-01T00:00:00Z","name_a2s":"Uncletopia | Warsaw | 4 | All Maps","protocol":17,"map":"pl_borneo","folder":"tf","game":"Team Fortress","app_id":440,"player_count":0,"max_players":24,"Bots":0,"server_type":"Dedicated","server_os":"Linux","password":true,"vac":true,"version":"7757534","steam_id":85568392925397853,"keywords":["nocrits","nodmgspread","payload","uncletopia"],"game_id":440,"stv_port":27046,"stv_name":"Uncletopia | Warsaw | 4 | All Maps | STV","players":null},{"server_id":53,"name":"Uncletopia | Warsaw | 5 | Stopwatch Beta","name_short":"waw-5","host":"waw-1.pl.uncletopia.com","port":27055,"enabled":true,"region":"eu","cc":"pl","latitude":52.2297,"longitude":21.017532,"reserved":0,"last_update":"0001-01-01T00:00:00Z","name_a2s":"Uncletopia | Warsaw | 5 | Stopwatch Beta","protocol":17,"map":"pl_upward","folder":"tf","game":"Team Fortress","app_id":440,"player_count":0,"max_players":24,"Bots":0,"server_type":"Dedicated","server_os":"Linux","password":true,"vac":true,"version":"7757534","steam_id":85568392925397854,"keywords":["nocrits","nodmgspread","payload","uncletopia"],"game_id":440,"stv_port":27056,"stv_name":"Uncletopia | Warsaw | 5 | Stopwatch Beta | STV","players":null},{"server_id":54,"name":"Uncletopia | Warsaw | 6 | Community","name_short":"waw-6","host":"waw-1.pl.uncletopia.com","port":27065,"enabled":true,"region":"eu","cc":"pl","latitude":52.2297,"longitude":21.017532,"reserved":0,"last_update":"0001-01-01T00:00:00Z","name_a2s":"Uncletopia | Warsaw | 6 | Community","protocol":17,"map":"pl_barnblitz","folder":"tf","game":"Team Fortress","app_id":440,"player_count":0,"max_players":24,"Bots":0,"server_type":"Dedicated","server_os":"Linux","password":true,"vac":true,"version":"7757534","steam_id":85568392925397856,"keywords":["nocrits","nodmgspread","payload","uncletopia"],"game_id":440,"stv_port":27066,"stv_name":"Uncletopia | Warsaw | 6 | Community | STV","players":null}]}