{"status":true,"message":"","result":[{"server_id":9,"name":"Uncletopia | Atlanta | 1 | All Maps","name_short":"atl-1","host":"atl-1.us.uncletopia.com","port":27015,"enabled":true,"region":"us-east","cc":"us","latitude":33.753746,"longitude":-84.38633,"reserved":0,"last_update":"0001-01-01T00:00:00Z","name_a2s":"Uncletopia | Atlanta | 1 | All Maps","protocol":17,"map":"pl_upward","folder":"tf","game":"Team Fortress","app_id":440,"player_count":25,"max_players":24,"Bots":0,"server_type":"Dedicated","server_os":"Linux","password":true,"vac":true,"version":"7961495","steam_id":85568392924469982,"keywords":["nocrits","nodmgspread","payload","uncletopia"],"game_id":440,"stv_port":27016,"stv_name":"Uncletopia | Atlanta | 1 | All Maps | STV","players":[{"user_id":232,"name":"Vee (very cool)","steam_id":76561198330432889,"connected_time":2541000000000,"state":"active","ping":66},{"user_id":249,"name":"Xavibite","steam_id":76561198209380493,"connected_time":1215000000000,"state":"active","ping":62},{"user_id":189,"name":"Okpar","steam_id":76561199221067945,"connected_time":5815000000000,"state":"active","ping":74},{"user_id":187,"name":"BeastRyder","steam_id":76561198330281584,"connected_time":5820000000000,"state":"active","ping":78},{"user_id":216,"name":"B.","steam_id":76561198040445907,"connected_time":3740000000000,"state":"active","ping":61},{"user_id":46,"name":"VisibleForce","steam_id":76561198104178938,"connected_time":19768000000000,"state":"active","ping":82},{"user_id":142,"name":"Lilith","steam_id":76561198125102885,"connected_time":10714000000000,"state":"active","ping":89},{"user_id":245,"name":"Shooter of Walls","steam_id":76561197988105207,"connected_time":1351000000000,"state":"active","ping":71},{"user_id":239,"name":"Crescent","steam_id":76561198095124633,"connected_time":2192000000000,"state":"active","ping":46},{"user_id":240,"name":"Dreszerg","steam_id":76561198838757422,"connected_time":2168000000000,"state":"active","ping":81},{"user_id":254,"name":"Decolour","steam_id":76561199045608372,"connected_time":887000000000,"state":"active","ping":78},{"user_id":244,"name":"Waffle Wannabe","steam_id":76561198064510650,"connected_time":1728000000000,"state":"active","ping":69},{"user_id":238,"name":"Amy Roxwell","steam_id":76561198303391830,"connected_time":2235000000000,"state":"active","ping":103},{"user_id":247,"name":"Rhutebeer","steam_id":76561198018302761,"connected_time":1337000000000,"state":"active","ping":83},{"user_id":236,"name":"lu","steam_id":76561198080731872,"connected_time":2287000000000,"state":"active","ping":77},{"user_id":214,"name":"big steve","steam_id":76561199037050183,"connected_time":4099000000000,"state":"active","ping":98},{"user_id":265,"name":"Poo","steam_id":76561198265144507,"connected_time":537000000000,"state":"active","ping":81},{"user_id":237,"name":"ATL1 | on my hunting trip","steam_id":76561198315341646,"connected_time":2286000000000,"state":"active","ping":77},{"user_id":269,"name":"e0e0","steam_id":76561198293839750,"connected_time":364000000000,"state":"active","ping":61},{"user_id":242,"name":"ThesaltySpoon303","steam_id":76561198348070410,"connected_time":1856000000000,"state":"active","ping":72},{"user_id":286,"name":"PinkLemonade","steam_id":76561198799286228,"connected_time":44000000000,"state":"spawning","ping":62},{"user_id":243,"name":"Heathcliff","steam_id":76561198044288534,"connected_time":1856000000000,"state":"active","ping":73},{"user_id":207,"name":"Dr.Zarann","steam_id":76561198163952958,"connected_time":4220000000000,"state":"active","ping":68},{"user_id":275,"name":"(1)freyja 2","steam_id":76561198249206656,"connected_time":233000000000,"state":"active","ping":86},{"user_id":203,"name":"brotherinchrist","steam_id":76561198208369443,"connected_time":4382000000000,"state":"active","ping":44}]},{"server_id":104,"name":"Uncletopia | Atlanta | 2 | All Maps","name_short":"atl-2","host":"atl-1.us.uncletopia.com","port":27025,"enabled":true,"region":"us-east","cc":"us","latitude":33.753746,"longitude":-84.38633,"reserved":0,"last_update":"0001-01-01T00:00:00Z","name_a2s":"Uncletopia | Atlanta | 2 | All Maps","protocol":17,"map":"koth_cascade","folder":"tf","game":"Team Fortress","app_id":440,"player_count":1,"max_players":24,"Bots":0,"server_type":"Dedicated","server_os":"Linux","password":true,"vac":true,"version":"7961495","steam_id":85568392924469983,"keywords":["cp","nocrits","nodmgspread","uncletopia"],"game_id":440,"stv_port":27026,"stv_name":"Uncletopia | Atlanta | 2 | All Maps | STV","players":[{"user_id":14,"name":"ShadowWasUhOh","steam_id":76561198400361935,"connected_time":7000000000,"state":"spawning","ping":46}]},{"server_id":400,"name":"Uncletopia | Atlanta | 3 | Stopwatch","name_short":"atl-3","host":"atl-1.us.uncletopia.com","port":27035,"enabled":true,"region":"us-east","cc":"us","latitude":33.753746,"longitude":-84.38633,"reserved":0,"last_update":"0001-01-01T00:00:00Z","name_a2s":"Uncletopia | Atlanta | 3 | Stopwatch","protocol":17,"map":"koth_lakeside_final","folder":"tf","game":"Team Fortress","app_id":440,"player_count":5,"max_players":24,"Bots":0,"server_type":"Dedicated","server_os":"Linux","password":true,"vac":true,"version":"7961495","steam_id":85568392924515187,"keywords":["cp","nocrits","nodmgspread","uncletopia"],"game_id":440,"stv_port":27036,"stv_name":"Uncletopia | Atlanta | 3 | Stopwatch | STV","players":[{"user_id":19,"name":"suwako moriya","steam_id":76561198325873554,"connected_time":588000000000,"state":"active","ping":63},{"user_id":20,"name":"SirReape","steam_id":76561198096569574,"connected_time":579000000000,"state":"active","ping":117},{"user_id":22,"name":"Oxygen User","steam_id":76561199111975528,"connected_time":96000000000,"state":"active","ping":65},{"user_id":23,"name":"Guava","steam_id":76561199187764012,"connected_time":57000000000,"state":"active","ping":67},{"user_id":24,"name":"estruli","steam_id":76561198295690725,"connected_time":50000000000,"state":"active","ping":43}]},{"server_id":401,"name":"Uncletopia | Atlanta | 4 | Community","name_short":"atl-4","host":"atl-1.us.uncletopia.com","port":27045,"enabled":true,"region":"us-east","cc":"us","latitude":33.753746,"longitude":-84.38633,"reserved":0,"last_update":"0001-01-01T00:00:00Z","name_a2s":"Uncletopia | Atlanta | 4 | Community","protocol":17,"map":"workshop/cp_glacier_rc6.ugc2905735376","folder":"tf","game":"Team Fortress","app_id":440,"player_count":24,"max_players":24,"Bots":0,"server_type":"Dedicated","server_os":"Linux","password":true,"vac":true,"version":"7961495","steam_id":85568392924515188,"keywords":["cp","nocrits","nodmgspread","uncletopia"],"game_id":440,"stv_port":27046,"stv_name":"Uncletopia | Atlanta | 4 | Community | STV","players":[{"user_id":182,"name":"Kerbo","steam_id":76561198902884908,"connected_time":433000000000,"state":"active","ping":66},{"user_id":138,"name":"Whompert","steam_id":76561198042939624,"connected_time":1981000000000,"state":"active","ping":73},{"user_id":139,"name":"Shapeshiftertrue","steam_id":76561198440835095,"connected_time":1948000000000,"state":"active","ping":87},{"user_id":177,"name":"henryissoreal","steam_id":76561198128074539,"connected_time":609000000000,"state":"active","ping":89},{"user_id":170,"name":"Swifgz","steam_id":76561198162875756,"connected_time":929000000000,"state":"active","ping":65},{"user_id":184,"name":"M.C.Double","steam_id":76561198125684547,"connected_time":348000000000,"state":"active","ping":104},{"user_id":129,"name":"What's My Age Again?","steam_id":76561198035304483,"connected_time":2881000000000,"state":"active","ping":67},{"user_id":105,"name":"Notsocreative","steam_id":76561198236372202,"connected_time":4119000000000,"state":"active","ping":74},{"user_id":181,"name":"creeeeeee","steam_id":76561198392539722,"connected_time":480000000000,"state":"active","ping":80},{"user_id":148,"name":"TacoMan","steam_id":76561198049405741,"connected_time":1657000000000,"state":"active","ping":91},{"user_id":187,"name":"Slug Warrior","steam_id":76561197996052704,"connected_time":188000000000,"state":"active","ping":68},{"user_id":151,"name":"Peanuts","steam_id":76561198041978557,"connected_time":1619000000000,"state":"active","ping":93},{"user_id":147,"name":"Λlex","steam_id":76561198024967421,"connected_time":1673000000000,"state":"active","ping":98},{"user_id":166,"name":"king dedede","steam_id":76561198965562679,"connected_time":1184000000000,"state":"active","ping":71},{"user_id":172,"name":"meowfang","steam_id":76561198123056791,"connected_time":796000000000,"state":"active","ping":75},{"user_id":149,"name":"julser1023","steam_id":76561198273552636,"connected_time":1653000000000,"state":"active","ping":131},{"user_id":185,"name":"old sloth cheese","steam_id":76561198248696144,"connected_time":335000000000,"state":"active","ping":91},{"user_id":173,"name":"Oni","steam_id":76561198112066584,"connected_time":787000000000,"state":"active","ping":53},{"user_id":188,"name":"Teostra","steam_id":76561198150201869,"connected_time":142000000000,"state":"active","ping":71},{"user_id":180,"name":"monke12344","steam_id":76561199274757725,"connected_time":553000000000,"state":"active","ping":76},{"user_id":186,"name":"Grify","steam_id":76561198012292317,"connected_time":319000000000,"state":"active","ping":71},{"user_id":155,"name":"SisterKnight","steam_id":76561198126137797,"connected_time":1573000000000,"state":"active","ping":122},{"user_id":156,"name":"mdos","steam_id":76561198332133944,"connected_time":1566000000000,"state":"active","ping":74},{"user_id":176,"name":"Soldier","steam_id":76561199078537280,"connected_time":714000000000,"state":"active","ping":46}]},{"server_id":2,"name":"Uncletopia | Chicago | 1 | All Maps","name_short":"chi-1","host":"chi-1.us.uncletopia.com","port":27015,"enabled":true,"region":"us-central","cc":"us","latitude":41.881832,"longitude":-87.62318,"reserved":0,"last_update":"0001-01-01T00:00:00Z","name_a2s":"Uncletopia | Chicago | 1 | All Maps","protocol":17,"map":"cp_foundry","folder":"tf","game":"Team Fortress","app_id":440,"player_count":23,"max_players":24,"Bots":0,"server_type":"Dedicated","server_os":"Linux","password":true,"vac":true,"version":"7961495","steam_id":85568392924469984,"keywords":["nocrits","nodmgspread","payload","uncletopia"],"game_id":440,"stv_port":27016,"stv_name":"Uncletopia | Chicago | 1 | All Maps | STV","players":[{"user_id":229,"name":"tek lintowe fan","steam_id":76561198206177593,"connected_time":1036000000000,"state":"connecting","ping":126},{"user_id":254,"name":"Rx Auntie","steam_id":76561198051618393,"connected_time":14000000000,"state":"connecting","ping":57},{"user_id":214,"name":"rosebud frozen peas","steam_id":76561198049256017,"connected_time":2585000000000,"state":"connecting","ping":83},{"user_id":226,"name":"Amari","steam_id":76561198272446730,"connected_time":1077000000000,"state":"connecting","ping":67},{"user_id":166,"name":"Rex","steam_id":76561198138365053,"connected_time":6603000000000,"state":"connecting","ping":146},{"user_id":252,"name":"OH BOY","steam_id":76561199052273428,"connected_time":22000000000,"state":"connecting","ping":44},{"user_id":211,"name":"popfulmail","steam_id":76561198865971290,"connected_time":2624000000000,"state":"connecting","ping":89},{"user_id":130,"name":"Ras","steam_id":76561198123546775,"connected_time":10747000000000,"state":"connecting","ping":73},{"user_id":228,"name":"leonardo doujinshi","steam_id":76561198025810326,"connected_time":1066000000000,"state":"connecting","ping":96},{"user_id":224,"name":"Kero","steam_id":76561198343231436,"connected_time":1094000000000,"state":"connecting","ping":70},{"user_id":145,"name":"Greg_M74","steam_id":76561198823492311,"connected_time":9433000000000,"state":"connecting","ping":96},{"user_id":253,"name":"sumo dumplings","steam_id":76561198115553314,"connected_time":18000000000,"state":"connecting","ping":71},{"user_id":249,"name":"Horseshoe Pete","steam_id":76561198263163548,"connected_time":305000000000,"state":"connecting","ping":75},{"user_id":227,"name":"Sizenberg","steam_id":76561198115842661,"connected_time":1074000000000,"state":"connecting","ping":72},{"user_id":196,"name":"Rick Astley Is A F2P?","steam_id":76561199258805660,"connected_time":4066000000000,"state":"connecting","ping":76},{"user_id":251,"name":"Gay Porn Stuntman","steam_id":76561198844362758,"connected_time":278000000000,"state":"connecting","ping":70},{"user_id":190,"name":"jpuzza","steam_id":76561198035535731,"connected_time":4437000000000,"state":"connecting","ping":73},{"user_id":232,"name":"flamingcookies","steam_id":76561198280864779,"connected_time":786000000000,"state":"connecting","ping":69},{"user_id":197,"name":"Tito","steam_id":76561198041702529,"connected_time":3961000000000,"state":"connecting","ping":93},{"user_id":238,"name":"Gluestick","steam_id":76561199013430308,"connected_time":494000000000,"state":"connecting","ping":93},{"user_id":202,"name":"cotton candy ghooost","steam_id":76561198058998371,"connected_time":2977000000000,"state":"connecting","ping":66}]},{"server_id":106,"name":"Uncletopia | Chicago | 2 | All Maps","name_short":"chi-2","host":"chi-1.us.uncletopia.com","port":27025,"enabled":true,"region":"us-central","cc":"us","latitude":41.881832,"longitude":-87.62318,"reserved":0,"last_update":"0001-01-01T00:00:00Z","name_a2s":"Uncletopia | Chicago | 2 | All Maps","protocol":17,"map":"pl_borneo","folder":"tf","game":"Team Fortress","app_id":440,"player_count":24,"max_players":24,"Bots":0,"server_type":"Dedicated","server_os":"Linux","password":true,"vac":true,"version":"7961495","steam_id":85568392924469985,"keywords":["nocrits","nodmgspread","payload","uncletopia"],"game_id":440,"stv_port":27026,"stv_name":"Uncletopia | Chicago | 2 | All Maps | STV","players":[{"user_id":230,"name":"Shaper Loks","steam_id":76561198207958144,"connected_time":477000000000,"state":"active","ping":96},{"user_id":224,"name":"Gibby","steam_id":76561199336569123,"connected_time":835000000000,"state":"active","ping":122},{"user_id":219,"name":"Bee","steam_id":76561198074681324,"connected_time":1015000000000,"state":"active","ping":62},{"user_id":231,"name":"あらしのよるに","steam_id":76561198062934599,"connected_time":450000000000,"state":"active","ping":141},{"user_id":187,"name":"sheep","steam_id":76561198172943006,"connected_time":3461000000000,"state":"active","ping":47},{"user_id":228,"name":"Robert","steam_id":76561198133200895,"connected_time":593000000000,"state":"active","ping":59},{"user_id":232,"name":"Daddy Topps","steam_id":76561198203594332,"connected_time":444000000000,"state":"active","ping":84},{"user_id":194,"name":"Techne","steam_id":76561198090486583,"connected_time":2633000000000,"state":"active","ping":96},{"user_id":161,"name":"skoops","steam_id":76561198083276946,"connected_time":5128000000000,"state":"active","ping":70},{"user_id":229,"name":"FunGi","steam_id":76561198881418662,"connected_time":549000000000,"state":"active","ping":83},{"user_id":209,"name":"PureBadger","steam_id":76561198005656454,"connected_time":1747000000000,"state":"active","ping":86},{"user_id":218,"name":"Arthur SSJ2","steam_id":76561198043678479,"connected_time":1267000000000,"state":"active","ping":45},{"user_id":221,"name":"Jasper™","steam_id":76561198260018463,"connected_time":974000000000,"state":"active","ping":78},{"user_id":190,"name":"doop","steam_id":76561198370487545,"connected_time":2972000000000,"state":"active","ping":82},{"user_id":199,"name":"NUt","steam_id":76561198031007966,"connected_time":2228000000000,"state":"active","ping":62},{"user_id":176,"name":"Nestor","steam_id":76561198070782619,"connected_time":3961000000000,"state":"active","ping":74},{"user_id":204,"name":"Comrade_Stalin","steam_id":76561198166782637,"connected_time":2006000000000,"state":"active","ping":70},{"user_id":214,"name":"TheLonliestThelonius","steam_id":76561198097657243,"connected_time":1504000000000,"state":"active","ping":138},{"user_id":222,"name":"totoro","steam_id":76561198210420871,"connected_time":973000000000,"state":"active","ping":45},{"user_id":233,"name":"kjc105","steam_id":76561198880364422,"connected_time":434000000000,"state":"active","ping":86},{"user_id":217,"name":"Howard Hamlin","steam_id":76561198881039861,"connected_time":1333000000000,"state":"active","ping":55},{"user_id":201,"name":"a Jojo Fan","steam_id":76561198863432523,"connected_time":2180000000000,"state":"active","ping":120},{"user_id":211,"name":"Vampire Juicebox","steam_id":76561198148652081,"connected_time":1616000000000,"state":"active","ping":78},{"user_id":212,"name":"Glanderson booper","steam_id":76561198021223747,"connected_time":1616000000000,"state":"active","ping":105}]},{"server_id":402,"name":"Uncletopia | Chicago | 3 | All Maps","name_short":"chi-3","host":"chi-1.us.uncletopia.com","port":27035,"enabled":true,"region":"us-central","cc":"us","latitude":41.881832,"longitude":-87.62318,"reserved":0,"last_update":"0001-01-01T00:00:00Z","name_a2s":"Uncletopia | Chicago | 3 | All Maps","protocol":17,"map":"pl_hoodoo_final","folder":"tf","game":"Team Fortress","app_id":440,"player_count":24,"max_players":24,"Bots":0,"server_type":"Dedicated","server_os":"Linux","password":true,"vac":true,"version":"7961495","steam_id":85568392924515191,"keywords":["nocrits","nodmgspread","payload","uncletopia"],"game_id":440,"stv_port":27036,"stv_name":"Uncletopia | Chicago | 3 | All Maps | STV","players":[{"user_id":423,"name":"Quark","steam_id":76561198328155605,"connected_time":790000000000,"state":"active","ping":52},{"user_id":317,"name":"vv","steam_id":76561198134813102,"connected_time":9535000000000,"state":"active","ping":54},{"user_id":426,"name":"beats staeb","steam_id":76561199245717718,"connected_time":521000000000,"state":"active","ping":56},{"user_id":434,"name":"OldRavensFan","steam_id":76561198043919562,"connected_time":121000000000,"state":"active","ping":67},{"user_id":427,"name":"Tophu","steam_id":76561198380229671,"connected_time":521000000000,"state":"active","ping":65},{"user_id":431,"name":"marpl","steam_id":76561198413295670,"connected_time":375000000000,"state":"active","ping":73},{"user_id":411,"name":"Tethered","steam_id":76561199237582239,"connected_time":2050000000000,"state":"active","ping":105},{"user_id":421,"name":"MrMan","steam_id":76561198029343598,"connected_time":929000000000,"state":"active","ping":60},{"user_id":374,"name":"..!","steam_id":76561198882483441,"connected_time":4753000000000,"state":"active","ping":84},{"user_id":412,"name":"Candy Sparkles","steam_id":76561198126871264,"connected_time":1937000000000,"state":"active","ping":85},{"user_id":403,"name":"Iron Fellow","steam_id":76561198366893329,"connected_time":2442000000000,"state":"active","ping":84},{"user_id":384,"name":"Nobody","steam_id":76561198286486517,"connected_time":4105000000000,"state":"active","ping":60},{"user_id":432,"name":"hackersan","steam_id":76561199130583553,"connected_time":284000000000,"state":"active","ping":68},{"user_id":386,"name":"afk on my second monitor","steam_id":76561197992498834,"connected_time":4080000000000,"state":"active","ping":72},{"user_id":402,"name":"Funky Kong Jr.","steam_id":76561199351137762,"connected_time":2458000000000,"state":"active","ping":93},{"user_id":355,"name":"Haha you didn't watch your back","steam_id":76561197987073279,"connected_time":6490000000000,"state":"active","ping":80},{"user_id":435,"name":"Mix56374","steam_id":76561199093717909,"connected_time":10000000000,"state":"active","ping":116},{"user_id":429,"name":"anotherl2","steam_id":76561198354418895,"connected_time":464000000000,"state":"active","ping":96},{"user_id":433,"name":"krueger","steam_id":76561198268654031,"connected_time":209000000000,"state":"active","ping":50},{"user_id":430,"name":"Captain Malarkey","steam_id":76561198869924281,"connected_time":459000000000,"state":"active","ping":77},{"user_id":369,"name":"LerN","steam_id":76561198083463877,"connected_time":6003000000000,"state":"active","ping":52},{"user_id":418,"name":"CheeseCake488","steam_id":76561199407617942,"connected_time":1415000000000,"state":"active","ping":127},{"user_id":413,"name":"President Atticus","steam_id":76561198157557477,"connected_time":1883000000000,"state":"active","ping":185},{"user_id":397,"name":"Mr.Bady","steam_id":76561199094651706,"connected_time":2956000000000,"state":"active","ping":77}]},{"server_id":403,"name":"Uncletopia | Chicago | 4 | All Maps","name_short":"chi-4","host":"chi-1.us.uncletopia.com","port":27045,"enabled":true,"region":"us-central","cc":"us","latitude":41.881832,"longitude":-87.62318,"reserved":0,"last_update":"0001-01-01T00:00:00Z","name_a2s":"Uncletopia | Chicago | 4 | All Maps","protocol":17,"map":"pl_barnblitz","folder":"tf","game":"Team Fortress","app_id":440,"player_count":24,"max_players":24,"Bots":0,"server_type":"Dedicated","server_os":"Linux","password":true,"vac":true,"version":"7961495","steam_id":85568392924515193,"keywords":["nocrits","nodmgspread","payload","uncletopia"],"game_id":440,"stv_port":27046,"stv_name":"Uncletopia | Chicago | 4 | All Maps | STV","players":[{"user_id":158,"name":"YouR dad","steam_id":76561198044013623,"connected_time":2209000000000,"state":"active","ping":71},{"user_id":177,"name":"Unk","steam_id":76561198031717617,"connected_time":1512000000000,"state":"active","ping":52},{"user_id":183,"name":"Mog","steam_id":76561198025575870,"connected_time":865000000000,"state":"active","ping":61},{"user_id":179,"name":"participant","steam_id":76561198820716379,"connected_time":1436000000000,"state":"active","ping":74},{"user_id":184,"name":"BookBurner23","steam_id":76561198034771185,"connected_time":838000000000,"state":"active","ping":63},{"user_id":171,"name":"Arcane Flame","steam_id":76561198360024422,"connected_time":1931000000000,"state":"active","ping":117},{"user_id":176,"name":"Shrimp Fried Rice","steam_id":76561198247688228,"connected_time":1600000000000,"state":"active","ping":105},{"user_id":185,"name":"corntent","steam_id":76561198824847948,"connected_time":832000000000,"state":"active","ping":60},{"user_id":178,"name":"Meeeeeddddddiiiiiiccccccc","steam_id":76561198092354979,"connected_time":1492000000000,"state":"active","ping":60},{"user_id":186,"name":"antony","steam_id":76561198126424424,"connected_time":803000000000,"state":"active","ping":76},{"user_id":79,"name":"Dead Face","steam_id":76561198857643139,"connected_time":7485000000000,"state":"active","ping":59},{"user_id":187,"name":"definitely (not) a twink","steam_id":76561199208833695,"connected_time":796000000000,"state":"active","ping":87},{"user_id":193,"name":"Veck (turns 24 on Friday)","steam_id":76561198110057765,"connected_time":390000000000,"state":"active","ping":60},{"user_id":181,"name":"★★thastephen★★","steam_id":76561198080289775,"connected_time":1171000000000,"state":"active","ping":103},{"user_id":189,"name":"Big Bill Haywood","steam_id":76561198142290733,"connected_time":786000000000,"state":"active","ping":71},{"user_id":196,"name":"dj magdogrozen","steam_id":76561198984131011,"connected_time":221000000000,"state":"active","ping":59},{"user_id":197,"name":"Pattar","steam_id":76561198146276146,"connected_time":143000000000,"state":"active","ping":62},{"user_id":164,"name":"Cosmic Torgue","steam_id":76561198828724945,"connected_time":2148000000000,"state":"active","ping":87},{"user_id":95,"name":"hearthian","steam_id":76561198113235260,"connected_time":6195000000000,"state":"active","ping":101},{"user_id":194,"name":"TuSuperVieja24","steam_id":76561198940737217,"connected_time":364000000000,"state":"active","ping":133},{"user_id":143,"name":"A Mysterious Gift","steam_id":76561198077838946,"connected_time":2784000000000,"state":"active","ping":73},{"user_id":144,"name":"CyborgHexapus4","steam_id":76561198160335724,"connected_time":2777000000000,"state":"active","ping":281},{"user_id":149,"name":"cyren caster","steam_id":76561198204509499,"connected_time":2692000000000,"state":"active","ping":101},{"user_id":175,"name":"Tokyo_Timeshift_","steam_id":76561198048677523,"connected_time":1634000000000,"state":"active","ping":53}]},{"server_id":36,"name":"Uncletopia | Chicago | 5 | All Maps","name_short":"chi-5","host":"chi-2.us.uncletopia.com","port":27015,"enabled":true,"region":"us-central","cc":"us","latitude":41.881832,"longitude":-87.62318,"reserved":0,"last_update":"0001-01-01T00:00:00Z","name_a2s":"Uncletopia | Chicago | 5 | All Maps","protocol":17,"map":"cp_process_final","folder":"tf","game":"Team Fortress","app_id":440,"player_count":24,"max_players":24,"Bots":0,"server_type":"Dedicated","server_os":"Linux","password":true,"vac":true,"version":"7961495","steam_id":85568392924866362,"keywords":["cp","nocrits","nodmgspread","uncletopia"],"game_id":440,"stv_port":27016,"stv_name":"Uncletopia | Chicago | 5 | All Maps | STV","players":[{"user_id":94,"name":"jimmyfnaf172198yay","steam_id":76561198311446636,"connected_time":135000000000,"state":"active","ping":64},{"user_id":85,"name":"shannongram influencer","steam_id":76561198143132686,"connected_time":1404000000000,"state":"active","ping":89},{"user_id":45,"name":"Sirgioblayde","steam_id":76561198059445113,"connected_time":4094000000000,"state":"active","ping":81},{"user_id":69,"name":"Merchant","steam_id":76561198130468663,"connected_time":2002000000000,"state":"active","ping":58},{"user_id":13,"name":"Java_Siege_","steam_id":76561199090000728,"connected_time":4872000000000,"state":"active","ping":85},{"user_id":73,"name":"simcye","steam_id":76561198010991761,"connected_time":1927000000000,"state":"active","ping":90},{"user_id":72,"name":"the pizza","steam_id":76561198221331476,"connected_time":1947000000000,"state":"active","ping":89},{"user_id":74,"name":"Mina","steam_id":76561198126891683,"connected_time":1925000000000,"state":"active","ping":56},{"user_id":97,"name":"✨✨ BOILING PIZZA ✨✨","steam_id":76561198354108114,"connected_time":45000000000,"state":"spawning","ping":66},{"user_id":24,"name":"The Jar","steam_id":76561198146013385,"connected_time":4455000000000,"state":"active","ping":70},{"user_id":96,"name":"Jacks Medicine","steam_id":76561199066483489,"connected_time":65000000000,"state":"active","ping":66},{"user_id":81,"name":"Mr.brapswason","steam_id":76561198313133260,"connected_time":1818000000000,"state":"active","ping":46},{"user_id":98,"name":"Coup de Grass","steam_id":76561198011643226,"connected_time":22000000000,"state":"active","ping":77},{"user_id":91,"name":"wepry","steam_id":76561198114091417,"connected_time":298000000000,"state":"active","ping":58},{"user_id":95,"name":"mr, mean","steam_id":76561198095048900,"connected_time":83000000000,"state":"active","ping":56},{"user_id":78,"name":"POLICE","steam_id":76561198120757569,"connected_time":1877000000000,"state":"active","ping":72},{"user_id":79,"name":"GMFD! Juustin","steam_id":76561198121922413,"connected_time":1858000000000,"state":"active","ping":103},{"user_id":34,"name":"god's cutest warrior","steam_id":76561198058574934,"connected_time":4246000000000,"state":"active","ping":77},{"user_id":35,"name":"really hot pocket","steam_id":76561198239297686,"connected_time":4239000000000,"state":"active","ping":65},{"user_id":89,"name":"Yon","steam_id":76561198098631397,"connected_time":1070000000000,"state":"active","ping":47},{"user_id":40,"name":"corbitgun","steam_id":76561198340302508,"connected_time":4167000000000,"state":"active","ping":44},{"user_id":60,"name":"whitr","steam_id":76561198043981478,"connected_time":2839000000000,"state":"active","ping":103},{"user_id":83,"name":"toastman","steam_id":76561198207073088,"connected_time":1809000000000,"state":"active","ping":68},{"user_id":93,"name":"Cup # 17","steam_id":76561198132633180,"connected_time":275000000000,"state":"active","ping":75}]},{"server_id":37,"name":"Uncletopia | Chicago | 6 | All Maps","name_short":"chi-6","host":"chi-2.us.uncletopia.com","port":27025,"enabled":true,"region":"us-central","cc":"us","latitude":41.881832,"longitude":-87.62318,"reserved":0,"last_update":"0001-01-01T00:00:00Z","name_a2s":"Uncletopia | Chicago | 6 | All Maps","protocol":17,"map":"pl_badwater","folder":"tf","game":"Team Fortress","app_id":440,"player_count":22,"max_players":24,"Bots":0,"server_type":"Dedicated","server_os":"Linux","password":true,"vac":true,"version":"7961495","steam_id":85568392924866363,"keywords":["nocrits","nodmgspread","payload","uncletopia"],"game_id":440,"stv_port":27026,"stv_name":"Uncletopia | Chicago | 6 | All Maps | STV","players":[{"user_id":62,"name":"Aster","steam_id":76561198037920420,"connected_time":721000000000,"state":"active","ping":72},{"user_id":58,"name":"AkimboAoki","steam_id":76561198158323058,"connected_time":980000000000,"state":"active","ping":92},{"user_id":64,"name":"vitriol","steam_id":76561199159038358,"connected_time":693000000000,"state":"active","ping":68},{"user_id":41,"name":"kritik","steam_id":76561198075216115,"connected_time":1948000000000,"state":"active","ping":151},{"user_id":61,"name":"carrot cake","steam_id":76561198055174915,"connected_time":726000000000,"state":"active","ping":67},{"user_id":54,"name":"Propaniac Gaming ☑","steam_id":76561198133963270,"connected_time":1509000000000,"state":"active","ping":59},{"user_id":74,"name":"Shibo","steam_id":76561198168517216,"connected_time":36000000000,"state":"active","ping":176},{"user_id":43,"name":"Sea raider","steam_id":76561198123982355,"connected_time":1839000000000,"state":"active","ping":92},{"user_id":68,"name":"no","steam_id":76561198072115209,"connected_time":441000000000,"state":"active","ping":64},{"user_id":75,"name":"swan","steam_id":76561198012569200,"connected_time":32000000000,"state":"active","ping":69},{"user_id":52,"name":"Mr.Wisteria","steam_id":76561198067400444,"connected_time":1558000000000,"state":"active","ping":67},{"user_id":28,"name":"EJ","steam_id":76561198204023180,"connected_time":2301000000000,"state":"active","ping":74},{"user_id":65,"name":"Bippums","steam_id":76561198366406729,"connected_time":669000000000,"state":"active","ping":89},{"user_id":44,"name":"Duncan Idaho","steam_id":76561197988963861,"connected_time":1819000000000,"state":"active","ping":71},{"user_id":55,"name":"fresco","steam_id":76561199101199477,"connected_time":1336000000000,"state":"active","ping":65},{"user_id":53,"name":"woooflet","steam_id":76561199208387179,"connected_time":1549000000000,"state":"active","ping":64},{"user_id":33,"name":"Jonah Hill from 21 Jump Street","steam_id":76561198811130843,"connected_time":2180000000000,"state":"active","ping":81},{"user_id":47,"name":"peanut butter","steam_id":76561198117839474,"connected_time":1710000000000,"state":"active","ping":73},{"user_id":71,"name":"playguy carter","steam_id":76561198080679337,"connected_time":185000000000,"state":"active","ping":47},{"user_id":67,"name":"Jango","steam_id":76561198084589742,"connected_time":547000000000,"state":"active","ping":80},{"user_id":45,"name":"Mihalys","steam_id":76561198076645019,"connected_time":1818000000000,"state":"active","ping":64},{"user_id":59,"name":"Tom Crúaich","steam_id":76561197999439911,"connected_time":978000000000,"state":"active","ping":76}]},{"server_id":38,"name":"Uncletopia | Chicago | 7 | Stopwatch","name_short":"chi-7","host":"chi-2.us.uncletopia.com","port":27035,"enabled":true,"region":"us-central","cc":"us","latitude":41.881832,"longitude":-87.62318,"reserved":0,"last_update":"0001-01-01T00:00:00Z","name_a2s":"Uncletopia | Chicago | 7 | Stopwatch","protocol":17,"map":"workshop/koth_clearcut_b15.ugc2107050255","folder":"tf","game":"Team Fortress","app_id":440,"player_count":4,"max_players":24,"Bots":0,"server_type":"Dedicated","server_os":"Linux","password":true,"vac":true,"version":"7961495","steam_id":85568392924866364,"keywords":["cp","nocrits","nodmgspread","uncletopia"],"game_id":440,"stv_port":27036,"stv_name":"Uncletopia | Chicago | 7 | Stopwatch | STV","players":[{"user_id":8,"name":"9gon Danmar33","steam_id":76561198056453091,"connected_time":1231000000000,"state":"active","ping":45},{"user_id":10,"name":"SXL !!!!!!","steam_id":76561198150627999,"connected_time":1174000000000,"state":"active","ping":78},{"user_id":11,"name":"9gon Rez LeRoux","steam_id":76561198451503538,"connected_time":1111000000000,"state":"active","ping":71},{"user_id":12,"name":"9gon Salt","steam_id":76561198116645978,"connected_time":777000000000,"state":"active","ping":46}]},{"server_id":39,"name":"Uncletopia | Chicago | 8 | Community","name_short":"chi-8","host":"chi-2.us.uncletopia.com","port":27045,"enabled":true,"region":"us-central","cc":"us","latitude":41.881832,"longitude":-87.62318,"reserved":0,"last_update":"0001-01-01T00:00:00Z","name_a2s":"Uncletopia | Chicago | 8 | Community","protocol":17,"map":"pl_pier","folder":"tf","game":"Team Fortress","app_id":440,"player_count":0,"max_players":24,"Bots":0,"server_type":"Dedicated","server_os":"Linux","password":true,"vac":true,"version":"7961495","steam_id":85568392924866365,"keywords":["nocrits","nodmgspread","payload","uncletopia"],"game_id":440,"stv_port":27046,"stv_name":"Uncletopia | Chicago | 8 | Community | STV","players":null},{"server_id":8,"name":"Uncletopia | Dallas | 1 | All Maps","name_short":"dal-1","host":"dal-1.us.uncletopia.com","port":27015,"enabled":true,"region":"us-central","cc":"us","latitude":32.779167,"longitude":-96.80889,"reserved":0,"last_update":"0001-01-01T00:00:00Z","name_a2s":"Uncletopia | Dallas | 1 | All Maps","protocol":17,"map":"cp_powerhouse","folder":"tf","game":"Team Fortress","app_id":440,"player_count":26,"max_players":24,"Bots":0,"server_type":"Dedicated","server_os":"Linux","password":true,"vac":true,"version":"7961495","steam_id":85568392924469986,"keywords":["cp","nocrits","nodmgspread","uncletopia"],"game_id":440,"stv_port":27016,"stv_name":"Uncletopia | Dallas | 1 | All Maps | STV","players":[{"user_id":271,"name":"Greasy Guavas","steam_id":76561198089650428,"connected_time":906000000000,"state":"active","ping":59},{"user_id":240,"name":"OddSlaush","steam_id":76561198043898488,"connected_time":2369000000000,"state":"active","ping":73},{"user_id":162,"name":"DISENGAGE!","steam_id":76561198044856349,"connected_time":7478000000000,"state":"active","ping":63},{"user_id":284,"name":"A better name","steam_id":76561198357330520,"connected_time":298000000000,"state":"active","ping":71},{"user_id":285,"name":"SgtSardine","steam_id":76561198254729868,"connected_time":292000000000,"state":"connecting","ping":0},{"user_id":276,"name":"TacoMan4Life","steam_id":76561198832562728,"connected_time":641000000000,"state":"active","ping":91},{"user_id":277,"name":"tophatter","steam_id":76561199487676443,"connected_time":633000000000,"state":"active","ping":71},{"user_id":278,"name":"37 septillion tapeworms","steam_id":76561198186128723,"connected_time":544000000000,"state":"active","ping":50},{"user_id":279,"name":"Zaid","steam_id":76561199142840666,"connected_time":470000000000,"state":"active","ping":148},{"user_id":281,"name":"Simply_Komeiji","steam_id":76561198354177703,"connected_time":403000000000,"state":"active","ping":69},{"user_id":245,"name":"krill yourself","steam_id":76561198095121758,"connected_time":2121000000000,"state":"active","ping":87},{"user_id":249,"name":"the keebler","steam_id":76561199486326945,"connected_time":2072000000000,"state":"active","ping":76},{"user_id":241,"name":"Ojen","steam_id":76561197998414482,"connected_time":2158000000000,"state":"active","ping":86},{"user_id":291,"name":"Demianeithor","steam_id":76561198800036537,"connected_time":247000000000,"state":"active","ping":76},{"user_id":165,"name":"sobaka","steam_id":76561198116008934,"connected_time":6775000000000,"state":"active","ping":88},{"user_id":247,"name":"BananaMangoFestival2013","steam_id":76561198218558897,"connected_time":2095000000000,"state":"active","ping":150},{"user_id":261,"name":"Menace to Sobriety","steam_id":76561198245103000,"connected_time":1311000000000,"state":"active","ping":87},{"user_id":265,"name":"Universe Man","steam_id":76561197997710655,"connected_time":1249000000000,"state":"active","ping":87},{"user_id":248,"name":"GoldtoothFour","steam_id":76561198055529332,"connected_time":2087000000000,"state":"active","ping":73},{"user_id":274,"name":"shakoiwa","steam_id":76561199059441773,"connected_time":786000000000,"state":"active","ping":89},{"user_id":268,"name":"rainbowdash1978","steam_id":76561198049420969,"connected_time":1064000000000,"state":"active","ping":50},{"user_id":273,"name":"Comrade","steam_id":76561199056721863,"connected_time":834000000000,"state":"active","ping":81},{"user_id":289,"name":"spo0n","steam_id":76561198959711398,"connected_time":270000000000,"state":"active","ping":57},{"user_id":287,"name":"(1)stanker","steam_id":76561198969143876,"connected_time":283000000000,"state":"active","ping":63},{"user_id":270,"name":"SomeRandomBetaFish","steam_id":76561198827731399,"connected_time":970000000000,"state":"active","ping":112},{"user_id":304,"name":"reknud lft","steam_id":76561198066114874,"connected_time":3000000000,"state":"spawning","ping":102}]},{"server_id":108,"name":"Uncletopia | Dallas | 2 | All Maps","name_short":"dal-2","host":"dal-1.us.uncletopia.com","port":27025,"enabled":true,"region":"us-central","cc":"us","latitude":32.779167,"longitude":-96.80889,"reserved":0,"last_update":"0001-01-01T00:00:00Z","name_a2s":"Uncletopia | Dallas | 2 | All Maps","protocol":17,"map":"koth_cascade","folder":"tf","game":"Team Fortress","app_id":440,"player_count":0,"max_players":24,"Bots":0,"server_type":"Dedicated","server_os":"Linux","password":true,"vac":true,"version":"7961495","steam_id":85568392924469988,"keywords":["cp","nocrits","nodmgspread","uncletopia"],"game_id":440,"stv_port":27026,"stv_name":"Uncletopia | Dallas | 2 | All Maps | STV","players":null},{"server_id":404,"name":"Uncletopia | Dallas | 3 | All Maps","name_short":"dal-3","host":"dal-1.us.uncletopia.com","port":27035,"enabled":true,"region":"us-central","cc":"us","latitude":32.779167,"longitude":-96.80889,"reserved":0,"last_update":"0001-01-01T00:00:00Z","name_a2s":"Uncletopia | Dallas | 3 | All Maps","protocol":17,"map":"koth_lakeside_final","folder":"tf","game":"Team Fortress","app_id":440,"player_count":5,"max_players":24,"Bots":0,"server_type":"Dedicated","server_os":"Linux","password":true,"vac":true,"version":"7961495","steam_id":85568392924515219,"keywords":["cp","nocrits","nodmgspread","uncletopia"],"game_id":440,"stv_port":27036,"stv_name":"Uncletopia | Dallas | 3 | All Maps | STV","players":[{"user_id":7,"name":"zenbee","steam_id":76561198136259319,"connected_time":838000000000,"state":"active","ping":38},{"user_id":8,"name":"BeautifulDeer","steam_id":76561198119588300,"connected_time":179000000000,"state":"active","ping":49},{"user_id":9,"name":"fregley","steam_id":76561198060070002,"connected_time":79000000000,"state":"active","ping":61},{"user_id":10,"name":"Manny Heffley","steam_id":76561198135137213,"connected_time":70000000000,"state":"active","ping":45},{"user_id":11,"name":"asm_ghost","steam_id":76561199205363547,"connected_time":57000000000,"state":"active","ping":92}]},{"server_id":405,"name":"Uncletopia | Dallas | 4 | Community","name_short":"dal-4","host":"dal-1.us.uncletopia.com","port":27045,"enabled":true,"region":"us-central","cc":"us","latitude":32.779167,"longitude":-96.80889,"reserved":0,"last_update":"0001-01-01T00:00:00Z","name_a2s":"Uncletopia | Dallas | 4 | Community","protocol":17,"map":"workshop/pl_cashworks_final1.ugc2904065412","folder":"tf","game":"Team Fortress","app_id":440,"player_count":17,"max_players":24,"Bots":0,"server_type":"Dedicated","server_os":"Linux","password":true,"vac":true,"version":"7961495","steam_id":85568392924515220,"keywords":["nocrits","nodmgspread","payload","uncletopia"],"game_id":440,"stv_port":27046,"stv_name":"Uncletopia | Dallas | 4 | Community | STV","players":[{"user_id":48,"name":"The mook","steam_id":76561198963551905,"connected_time":94000000000,"state":"active","ping":75},{"user_id":24,"name":"Alabit","steam_id":76561198065578560,"connected_time":1207000000000,"state":"active","ping":71},{"user_id":25,"name":"plink","steam_id":76561198057829889,"connected_time":1172000000000,"state":"active","ping":45},{"user_id":15,"name":"jimmy skillet","steam_id":76561198067232126,"connected_time":1440000000000,"state":"active","ping":63},{"user_id":16,"name":"Spookiest Breakfast","steam_id":76561198995031387,"connected_time":1430000000000,"state":"active","ping":58},{"user_id":40,"name":"Wyatt","steam_id":76561199068781227,"connected_time":756000000000,"state":"active","ping":88},{"user_id":20,"name":"Femboy Menace","steam_id":76561199207174631,"connected_time":1403000000000,"state":"active","ping":119},{"user_id":43,"name":"Bartalong","steam_id":76561198075744195,"connected_time":528000000000,"state":"active","ping":111},{"user_id":32,"name":"Juan Solo","steam_id":76561198018688536,"connected_time":1049000000000,"state":"active","ping":96},{"user_id":45,"name":"JAKandBEL","steam_id":76561198213060931,"connected_time":185000000000,"state":"active","ping":79},{"user_id":42,"name":"meta slave","steam_id":76561199467334502,"connected_time":627000000000,"state":"active","ping":78},{"user_id":35,"name":"Vv","steam_id":76561199052196750,"connected_time":920000000000,"state":"spawning","ping":556},{"user_id":31,"name":"Railnation2005","steam_id":76561198189330642,"connected_time":1101000000000,"state":"active","ping":75},{"user_id":33,"name":"Star Colonel Marcus Kotare","steam_id":76561198007057303,"connected_time":1034000000000,"state":"active","ping":78},{"user_id":46,"name":"CHIEF_JUSTICE_FUCKASS","steam_id":76561199261675844,"connected_time":184000000000,"state":"active","ping":109},{"user_id":39,"name":"Trapilicious","steam_id":76561198061430457,"connected_time":793000000000,"state":"active","ping":45},{"user_id":47,"name":"_gun","steam_id":76561199281947086,"connected_time":171000000000,"state":"spawning","ping":228}]},{"server_id":5,"name":"Uncletopia | Frankfurt | 1 | All Maps","name_short":"frk-1","host":"frk-1.de.uncletopia.com","port":27015,"enabled":true,"region":"eu","cc":"de","latitude":50.110924,"longitude":8.682127,"reserved":0,"last_update":"0001-01-01T00:00:00Z","name_a2s":"Uncletopia | Frankfurt | 1 | All Maps","protocol":17,"map":"cp_mountainlab","folder":"tf","game":"Team Fortress","app_id":440,"player_count":0,"max_players":24,"Bots":0,"server_type":"Dedicated","server_os":"Linux","password":true,"vac":true,"version":"7961495","steam_id":85568392924469989,"keywords":["cp","nocrits","nodmgspread","uncletopia"],"game_id":440,"stv_port":27016,"stv_name":"Uncletopia | Frankfurt | 1 | All Maps | STV","players":null},{"server_id":110,"name":"Uncletopia | Frankfurt | 2 | All Maps","name_short":"frk-2","host":"frk-1.de.uncletopia.com","port":27025,"enabled":true,"region":"eu","cc":"de","latitude":50.110924,"longitude":8.682127,"reserved":0,"last_update":"0001-01-01T00:00:00Z","name_a2s":"Uncletopia | Frankfurt | 2 | All Maps","protocol":17,"map":"cp_altitude","folder":"tf","game":"Team Fortress","app_id":440,"player_count":24,"max_players":24,"Bots":0,"server_type":"Dedicated","server_os":"Linux","password":true,"vac":true,"version":"7961495","steam_id":85568392924469990,"keywords":["cp","nocrits","nodmgspread","uncletopia"],"game_id":440,"stv_port":27026,"stv_name":"Uncletopia | Frankfurt | 2 | All Maps | STV","players":[{"user_id":558,"name":"Teezio","steam_id":76561198107617432,"connected_time":3605000000000,"state":"active","ping":64},{"user_id":608,"name":"Rigby","steam_id":76561198021552128,"connected_time":933000000000,"state":"active","ping":99},{"user_id":573,"name":"tf2hacks.com","steam_id":76561199036865103,"connected_time":2993000000000,"state":"active","ping":87},{"user_id":610,"name":"Mury","steam_id":76561198069743049,"connected_time":740000000000,"state":"active","ping":154},{"user_id":559,"name":"Soulhawk88","steam_id":76561198009712432,"connected_time":3590000000000,"state":"active","ping":55},{"user_id":598,"name":"The Lady","steam_id":76561198029895809,"connected_time":1355000000000,"state":"active","ping":75},{"user_id":600,"name":"Steen","steam_id":76561198122992510,"connected_time":1212000000000,"state":"active","ping":49},{"user_id":624,"name":"Cap","steam_id":76561198258586329,"connected_time":119000000000,"state":"active","ping":65},{"user_id":620,"name":"bored","steam_id":76561198231470280,"connected_time":418000000000,"state":"active","ping":56},{"user_id":611,"name":"autotopilot","steam_id":76561198261922138,"connected_time":624000000000,"state":"active","ping":78},{"user_id":615,"name":"Hildreth","steam_id":76561197995254867,"connected_time":482000000000,"state":"active","ping":58},{"user_id":549,"name":"randem_","steam_id":76561198338793755,"connected_time":4176000000000,"state":"active","ping":53},{"user_id":607,"name":"Kanade♥転生","steam_id":76561198093289042,"connected_time":954000000000,"state":"active","ping":60},{"user_id":543,"name":"Cataleptic","steam_id":76561197997966949,"connected_time":4501000000000,"state":"active","ping":72},{"user_id":616,"name":"Spongelica Slobblecoque","steam_id":76561198009072273,"connected_time":481000000000,"state":"active","ping":63},{"user_id":617,"name":"Aunty Fungal Creme","steam_id":76561198046591088,"connected_time":478000000000,"state":"active","ping":71},{"user_id":618,"name":"cisgender clown","steam_id":76561199469909295,"connected_time":435000000000,"state":"active","ping":83},{"user_id":583,"name":"Enjoyer","steam_id":76561198147399855,"connected_time":2490000000000,"state":"active","ping":130},{"user_id":588,"name":"woop","steam_id":76561198985105074,"connected_time":2182000000000,"state":"active","ping":80},{"user_id":621,"name":"Çodar","steam_id":76561198235518444,"connected_time":333000000000,"state":"active","ping":47},{"user_id":609,"name":"willus212","steam_id":76561199182615246,"connected_time":878000000000,"state":"active","ping":96},{"user_id":623,"name":"Joo ♦","steam_id":76561197987609203,"connected_time":156000000000,"state":"active","ping":72},{"user_id":597,"name":"Likeia #Savetf2","steam_id":76561198005214207,"connected_time":1453000000000,"state":"active","ping":145},{"user_id":604,"name":"Duke Fishlord","steam_id":76561198079928327,"connected_time":1184000000000,"state":"active","ping":59}]},{"server_id":308,"name":"Uncletopia | Frankfurt | 3 | All Maps","name_short":"frk-3","host":"frk-1.de.uncletopia.com","port":27035,"enabled":true,"region":"eu","cc":"de","latitude":50.110924,"longitude":8.682127,"reserved":0,"last_update":"0001-01-01T00:00:00Z","name_a2s":"Uncletopia | Frankfurt | 3 | All Maps","protocol":17,"map":"pl_upward","folder":"tf","game":"Team Fortress","app_id":440,"player_count":24,"max_players":24,"Bots":0,"server_type":"Dedicated","server_os":"Linux","password":true,"vac":true,"version":"7961495","steam_id":85568392924504274,"keywords":["nocrits","nodmgspread","payload","uncletopia"],"game_id":440,"stv_port":27036,"stv_name":"Uncletopia | Frankfurt | 3 | All Maps | STV","players":[{"user_id":624,"name":"Ashen","steam_id":76561198274631806,"connected_time":160000000000,"state":"active","ping":58},{"user_id":609,"name":"fem","steam_id":76561199103444466,"connected_time":2160000000000,"state":"active","ping":76},{"user_id":538,"name":"mohemmedmokhter2005","steam_id":76561199197650506,"connected_time":6494000000000,"state":"active","ping":102},{"user_id":625,"name":"Sabour","steam_id":76561197963965445,"connected_time":139000000000,"state":"active","ping":57},{"user_id":610,"name":"decriminalise goblins","steam_id":76561198048257605,"connected_time":2086000000000,"state":"active","ping":75},{"user_id":594,"name":"CiVillain","steam_id":76561198059617732,"connected_time":3013000000000,"state":"active","ping":59},{"user_id":576,"name":"maki","steam_id":76561198354558052,"connected_time":3633000000000,"state":"active","ping":57},{"user_id":619,"name":"bryophyta","steam_id":76561197968945306,"connected_time":298000000000,"state":"active","ping":74},{"user_id":604,"name":"Bobirulez","steam_id":76561198009125458,"connected_time":2460000000000,"state":"active","ping":84},{"user_id":626,"name":"EggsKenedict","steam_id":76561198078448656,"connected_time":69000000000,"state":"active","ping":45},{"user_id":577,"name":"chrystus w dresie pumy","steam_id":76561197987691269,"connected_time":3624000000000,"state":"active","ping":74},{"user_id":612,"name":"Pvt. Prinny","steam_id":76561198030278562,"connected_time":1982000000000,"state":"active","ping":59},{"user_id":582,"name":"S. Krypt","steam_id":76561199387501738,"connected_time":3586000000000,"state":"active","ping":68},{"user_id":572,"name":"Mister","steam_id":76561199049647854,"connected_time":4220000000000,"state":"active","ping":49},{"user_id":513,"name":"Just Navlis","steam_id":76561198090479609,"connected_time":8818000000000,"state":"active","ping":45},{"user_id":620,"name":"Vonacht","steam_id":76561198016033944,"connected_time":274000000000,"state":"active","ping":67},{"user_id":617,"name":"Cabbch","steam_id":76561198045955679,"connected_time":479000000000,"state":"active","ping":59},{"user_id":497,"name":"Vershal Smershal","steam_id":76561198116223995,"connected_time":10634000000000,"state":"active","ping":58},{"user_id":621,"name":"Gugu gaga","steam_id":76561198161822358,"connected_time":246000000000,"state":"active","ping":60},{"user_id":607,"name":"CRINGU PINGU","steam_id":76561198046921199,"connected_time":2298000000000,"state":"active","ping":64},{"user_id":611,"name":"akciq ⁧⁧respect","steam_id":76561198390963456,"connected_time":2075000000000,"state":"active","ping":75},{"user_id":606,"name":"evil \u003e:)","steam_id":76561198349648942,"connected_time":2357000000000,"state":"active","ping":75},{"user_id":559,"name":"goop","steam_id":76561198190073005,"connected_time":4883000000000,"state":"active","ping":58},{"user_id":616,"name":"hananamanna","steam_id":76561198006570285,"connected_time":1271000000000,"state":"active","ping":108}]},{"server_id":309,"name":"Uncletopia | Frankfurt | 4 | All Maps","name_short":"frk-4","host":"frk-1.de.uncletopia.com","port":27045,"enabled":true,"region":"eu","cc":"de","latitude":50.110924,"longitude":8.682127,"reserved":0,"last_update":"0001-01-01T00:00:00Z","name_a2s":"Uncletopia | Frankfurt | 4 | All Maps","protocol":17,"map":"koth_highpass","folder":"tf","game":"Team Fortress","app_id":440,"player_count":0,"max_players":24,"Bots":0,"server_type":"Dedicated","server_os":"Linux","password":true,"vac":true,"version":"7961495","steam_id":85568392924504275,"keywords":["cp","nocrits","nodmgspread","uncletopia"],"game_id":440,"stv_port":27046,"stv_name":"Uncletopia | Frankfurt | 4 | All Maps | STV","players":null},{"server_id":310,"name":"Uncletopia | Frankfurt | 5 | All Maps","name_short":"frk-5","host":"frk-1.de.uncletopia.com","port":27055,"enabled":true,"region":"eu","cc":"de","latitude":50.110924,"longitude":8.682127,"reserved":0,"last_update":"0001-01-01T00:00:00Z","name_a2s":"Uncletopia | Frankfurt | 5 | All Maps","protocol":17,"map":"pl_pier","folder":"tf","game":"Team Fortress","app_id":440,"player_count":24,"max_players":24,"Bots":0,"server_type":"Dedicated","server_os":"Linux","password":true,"vac":true,"version":"7961495","steam_id":85568392924504277,"keywords":["nocrits","nodmgspread","payload","uncletopia"],"game_id":440,"stv_port":27056,"stv_name":"Uncletopia | Frankfurt | 5 | All Maps | STV","players":[{"user_id":686,"name":"git bash -er","steam_id":76561198072586494,"connected_time":661000000000,"state":"active","ping":67},{"user_id":637,"name":"Sophia","steam_id":76561198080402340,"connected_time":3477000000000,"state":"active","ping":46},{"user_id":676,"name":"Blur","steam_id":76561198062314111,"connected_time":1444000000000,"state":"active","ping":143},{"user_id":622,"name":"Archive","steam_id":76561198071255385,"connected_time":5278000000000,"state":"active","ping":85},{"user_id":677,"name":"Bombilla","steam_id":76561198084281798,"connected_time":1389000000000,"state":"active","ping":84},{"user_id":643,"name":"Shorakyn","steam_id":76561198090574640,"connected_time":3062000000000,"state":"active","ping":70},{"user_id":638,"name":"slimcake07","steam_id":76561198826766828,"connected_time":3467000000000,"state":"active","ping":53},{"user_id":644,"name":"Eithne","steam_id":76561198124147444,"connected_time":3027000000000,"state":"active","ping":63},{"user_id":673,"name":"Alice","steam_id":76561198040365065,"connected_time":1655000000000,"state":"active","ping":45},{"user_id":680,"name":"Tri-","steam_id":76561198133524794,"connected_time":1193000000000,"state":"active","ping":48},{"user_id":646,"name":"303","steam_id":76561199052840531,"connected_time":2613000000000,"state":"active","ping":124},{"user_id":684,"name":"Hyppy ja liipasin pohjaan :D","steam_id":76561198080669698,"connected_time":741000000000,"state":"active","ping":102},{"user_id":678,"name":"rummy","steam_id":76561197997573379,"connected_time":1286000000000,"state":"active","ping":57},{"user_id":666,"name":"The cock","steam_id":76561198197304886,"connected_time":2019000000000,"state":"active","ping":99},{"user_id":653,"name":"BearWithMe","steam_id":76561198032715989,"connected_time":2188000000000,"state":"active","ping":56},{"user_id":655,"name":"syms","steam_id":76561198066679812,"connected_time":2164000000000,"state":"active","ping":60},{"user_id":681,"name":"corro","steam_id":76561197982510441,"connected_time":1164000000000,"state":"active","ping":46},{"user_id":687,"name":"😈 COCKDESTROYER 😈","steam_id":76561198042846999,"connected_time":436000000000,"state":"active","ping":69},{"user_id":672,"name":"H-say","steam_id":76561198177400362,"connected_time":1674000000000,"state":"active","ping":91},{"user_id":685,"name":"Jahusi!*","steam_id":76561197992445165,"connected_time":739000000000,"state":"active","ping":57},{"user_id":682,"name":"Whisk","steam_id":76561198137228550,"connected_time":1050000000000,"state":"active","ping":167},{"user_id":663,"name":"tralalaOuiOui","steam_id":76561197963471507,"connected_time":2061000000000,"state":"active","ping":52},{"user_id":679,"name":"Mixer","steam_id":76561199020200249,"connected_time":1235000000000,"state":"active","ping":171},{"user_id":670,"name":"TheChickenman","steam_id":76561198077160025,"connected_time":1786000000000,"state":"active","ping":54}]},{"server_id":311,"name":"Uncletopia | Frankfurt | 6 | All Maps","name_short":"frk-6","host":"frk-1.de.uncletopia.com","port":27065,"enabled":true,"region":"eu","cc":"de","latitude":50.110924,"longitude":8.682127,"reserved":0,"last_update":"0001-01-01T00:00:00Z","name_a2s":"Uncletopia | Frankfurt | 6 | All Maps","protocol":17,"map":"cp_sunshine","folder":"tf","game":"Team Fortress","app_id":440,"player_count":0,"max_players":24,"Bots":0,"server_type":"Dedicated","server_os":"Linux","password":true,"vac":true,"version":"7961495","steam_id":85568392924504278,"keywords":["cp","nocrits","nodmgspread","uncletopia"],"game_id":440,"stv_port":27066,"stv_name":"Uncletopia | Frankfurt | 6 | All Maps | STV","players":null},{"server_id":23,"name":"Uncletopia | Frankfurt | 7 | Stopwatch","name_short":"frk-7","host":"frk-1.de.uncletopia.com","port":27075,"enabled":true,"region":"eu","cc":"de","latitude":50.110924,"longitude":8.682127,"reserved":0,"last_update":"0001-01-01T00:00:00Z","name_a2s":"Uncletopia | Frankfurt | 7 | Stopwatch","protocol":17,"map":"koth_lakeside_final","folder":"tf","game":"Team Fortress","app_id":440,"player_count":0,"max_players":24,"Bots":0,"server_type":"Dedicated","server_os":"Linux","password":true,"vac":true,"version":"7961495","steam_id":85568392924742827,"keywords":["cp","nocrits","nodmgspread","uncletopia"],"game_id":440,"stv_port":27076,"stv_name":"Uncletopia | Frankfurt | 7 | Stopwatch | STV","players":null},{"server_id":24,"name":"Uncletopia | Frankfurt | 8 | Community","name_short":"frk-8","host":"frk-1.de.uncletopia.com","port":27085,"enabled":true,"region":"eu","cc":"de","latitude":50.110924,"longitude":8.682127,"reserved":0,"last_update":"0001-01-01T00:00:00Z","name_a2s":"Uncletopia | Frankfurt | 8 | Community","protocol":17,"map":"workshop/cp_coilblaze_rc7.ugc1272700588","folder":"tf","game":"Team Fortress","app_id":440,"player_count":0,"max_players":24,"Bots":0,"server_type":"Dedicated","server_os":"Linux","password":true,"vac":true,"version":"7961495","steam_id":85568392924742828,"keywords":["cp","nocrits","nodmgspread","uncletopia"],"game_id":440,"stv_port":27086,"stv_name":"Uncletopia | Frankfurt | 8 | Community | STV","players":null},{"server_id":202,"name":"Uncletopia | Hong Kong | 1 | All Maps","name_short":"hgk-1","host":"hgk-1.hk.uncletopia.com","port":27015,"enabled":true,"region":"asia","cc":"hk","latitude":22.302711,"longitude":114.177216,"reserved":0,"last_update":"0001-01-01T00:00:00Z","name_a2s":"Uncletopia | Hong Kong | 1 | All Maps","protocol":17,"map":"pl_frontier_final","folder":"tf","game":"Team Fortress","app_id":440,"player_count":0,"max_players":24,"Bots":0,"server_type":"Dedicated","server_os":"Linux","password":true,"vac":true,"version":"7961495","steam_id":85568392924494504,"keywords":["nocrits","nodmgspread","payload","uncletopia"],"game_id":440,"stv_port":27016,"stv_name":"Uncletopia | Hong Kong | 1 | All Maps | STV","players":null},{"server_id":1,"name":"Uncletopia | Los Angeles | 1 | All Maps","name_short":"lax-1","host":"lax-1.us.uncletopia.com","port":27015,"enabled":true,"region":"us-west","cc":"us","latitude":33.94279,"longitude":-118.41004,"reserved":0,"last_update":"0001-01-01T00:00:00Z","name_a2s":"Uncletopia | Los Angeles | 1 | All Maps","protocol":17,"map":"cp_snakewater_final1","folder":"tf","game":"Team Fortress","app_id":440,"player_count":0,"max_players":24,"Bots":0,"server_type":"Dedicated","server_os":"Linux","password":true,"vac":true,"version":"7961495","steam_id":85568392924469991,"keywords":["cp","nocrits","nodmgspread","uncletopia"],"game_id":440,"stv_port":27016,"stv_name":"Uncletopia | Los Angeles | 1 | All Maps | STV","players":null},{"server_id":112,"name":"Uncletopia | Los Angeles | 2 | All Maps","name_short":"lax-2","host":"lax-1.us.uncletopia.com","port":27025,"enabled":true,"region":"us-west","cc":"us","latitude":33.94279,"longitude":-118.41004,"reserved":0,"last_update":"0001-01-01T00:00:00Z","name_a2s":"Uncletopia | Los Angeles | 2 | All Maps","protocol":17,"map":"cp_altitude","folder":"tf","game":"Team Fortress","app_id":440,"player_count":0,"max_players":24,"Bots":0,"server_type":"Dedicated","server_os":"Linux","password":true,"vac":true,"version":"7961495","steam_id":85568392924469992,"keywords":["cp","nocrits","nodmgspread","uncletopia"],"game_id":440,"stv_port":27026,"stv_name":"Uncletopia | Los Angeles | 2 | All Maps | STV","players":null},{"server_id":324,"name":"Uncletopia | Los Angeles | 3 | All Maps","name_short":"lax-3","host":"lax-1.us.uncletopia.com","port":27035,"enabled":true,"region":"us-west","cc":"us","latitude":33.94279,"longitude":-118.41004,"reserved":0,"last_update":"0001-01-01T00:00:00Z","name_a2s":"Uncletopia | Los Angeles | 3 | All Maps","protocol":17,"map":"pl_frontier_final","folder":"tf","game":"Team Fortress","app_id":440,"player_count":0,"max_players":24,"Bots":0,"server_type":"Dedicated","server_os":"Linux","password":true,"vac":true,"version":"7961495","steam_id":85568392924510198,"keywords":["nocrits","nodmgspread","payload","uncletopia"],"game_id":440,"stv_port":27036,"stv_name":"Uncletopia | Los Angeles | 3 | All Maps | STV","players":null},{"server_id":25,"name":"Uncletopia | Los Angeles | 4 | Stopwatch","name_short":"lax-4","host":"lax-1.us.uncletopia.com","port":27045,"enabled":true,"region":"us-west","cc":"us","latitude":33.94279,"longitude":-118.41004,"reserved":0,"last_update":"0001-01-01T00:00:00Z","name_a2s":"Uncletopia | Los Angeles | 4 | Stopwatch","protocol":17,"map":"pl_borneo","folder":"tf","game":"Team Fortress","app_id":440,"player_count":0,"max_players":24,"Bots":0,"server_type":"Dedicated","server_os":"Linux","password":true,"vac":true,"version":"7961495","steam_id":85568392924510199,"keywords":["nocrits","nodmgspread","payload","uncletopia"],"game_id":440,"stv_port":27046,"stv_name":"Uncletopia | Los Angeles | 4 | Stopwatch | STV","players":null},{"server_id":11,"name":"Uncletopia | London | 1 | All Maps","name_short":"lon-1","host":"lon-1.uk.uncletopia.com","port":27015,"enabled":true,"region":"eu","cc":"gb","latitude":51.509865,"longitude":-0.118092,"reserved":0,"last_update":"0001-01-01T00:00:00Z","name_a2s":"Uncletopia | London | 1 | All Maps","protocol":17,"map":"pl_upward","folder":"tf","game":"Team Fortress","app_id":440,"player_count":18,"max_players":24,"Bots":0,"server_type":"Dedicated","server_os":"Linux","password":true,"vac":true,"version":"7961495","steam_id":85568392924367362,"keywords":["nocrits","nodmgspread","payload","uncletopia"],"game_id":440,"stv_port":27016,"stv_name":"Uncletopia | London | 1 | All Maps | STV","players":[{"user_id":804,"name":"harper","steam_id":76561198188642265,"connected_time":20000000000,"state":"spawning","ping":48},{"user_id":796,"name":"GoatLord1","steam_id":76561198157964544,"connected_time":1022000000000,"state":"active","ping":43},{"user_id":745,"name":"gibb (official)","steam_id":76561198074097655,"connected_time":4745000000000,"state":"active","ping":57},{"user_id":722,"name":"Slifer the Sky Dragon","steam_id":76561198062255803,"connected_time":6681000000000,"state":"active","ping":63},{"user_id":802,"name":"Swip3r","steam_id":76561198039789772,"connected_time":229000000000,"state":"active","ping":33},{"user_id":747,"name":"Kphi(i)","steam_id":76561198970587061,"connected_time":4739000000000,"state":"active","ping":61},{"user_id":765,"name":"_420_StopItDudeCmon","steam_id":76561197997146481,"connected_time":3343000000000,"state":"active","ping":36},{"user_id":800,"name":"Yelowchy","steam_id":76561198199416121,"connected_time":702000000000,"state":"active","ping":66},{"user_id":786,"name":"Snowmotion","steam_id":76561198075022454,"connected_time":1744000000000,"state":"active","ping":70},{"user_id":768,"name":"owo","steam_id":76561198158209651,"connected_time":2881000000000,"state":"active","ping":48},{"user_id":792,"name":"Dale ❤","steam_id":76561197995189004,"connected_time":1518000000000,"state":"active","ping":62},{"user_id":797,"name":"jean","steam_id":76561198060780111,"connected_time":1020000000000,"state":"active","ping":74},{"user_id":729,"name":"Codex","steam_id":76561198068748584,"connected_time":6577000000000,"state":"active","ping":45},{"user_id":803,"name":"jimmy bob","steam_id":76561198319583692,"connected_time":94000000000,"state":"active","ping":58},{"user_id":778,"name":"KAIOKEN X10","steam_id":76561198147173457,"connected_time":2817000000000,"state":"active","ping":75},{"user_id":798,"name":"Aaron","steam_id":76561197990046953,"connected_time":927000000000,"state":"active","ping":60},{"user_id":707,"name":"Indomitable Truck-sama","steam_id":76561198826861582,"connected_time":8915000000000,"state":"active","ping":57},{"user_id":781,"name":"hbivnm","steam_id":76561197996468677,"connected_time":2690000000000,"state":"active","ping":59}]},{"server_id":114,"name":"Uncletopia | London | 2 | All Maps","name_short":"lon-2","host":"lon-1.uk.uncletopia.com","port":27025,"enabled":true,"region":"eu","cc":"gb","latitude":51.509865,"longitude":-0.118092,"reserved":0,"last_update":"0001-01-01T00:00:00Z","name_a2s":"Uncletopia | London | 2 | All Maps","protocol":17,"map":"pl_barnblitz","folder":"tf","game":"Team Fortress","app_id":440,"player_count":22,"max_players":24,"Bots":0,"server_type":"Dedicated","server_os":"Linux","password":true,"vac":true,"version":"7961495","steam_id":85568392924470941,"keywords":["nocrits","nodmgspread","payload","uncletopia"],"game_id":440,"stv_port":27026,"stv_name":"Uncletopia | London | 2 | All Maps | STV","players":[{"user_id":459,"name":"The Spastic Puro","steam_id":76561199186496740,"connected_time":1643000000000,"state":"active","ping":152},{"user_id":455,"name":"padillacampos","steam_id":76561198161923970,"connected_time":1805000000000,"state":"active","ping":85},{"user_id":446,"name":"LastStar ◣‸◢","steam_id":76561198131741966,"connected_time":1971000000000,"state":"active","ping":66},{"user_id":470,"name":"Maddie","steam_id":76561198165654207,"connected_time":1046000000000,"state":"active","ping":45},{"user_id":482,"name":"Bubsy 3D","steam_id":76561197988942314,"connected_time":398000000000,"state":"active","ping":33},{"user_id":471,"name":"Star in a pond","steam_id":76561198205501279,"connected_time":1022000000000,"state":"active","ping":110},{"user_id":481,"name":"Gelato","steam_id":76561198282596343,"connected_time":412000000000,"state":"active","ping":46},{"user_id":434,"name":"I'mWalkerHere","steam_id":76561199310055450,"connected_time":2935000000000,"state":"active","ping":149},{"user_id":485,"name":"randompixel","steam_id":76561198003941207,"connected_time":8000000000,"state":"spawning","ping":43},{"user_id":452,"name":"bapab","steam_id":76561198307556377,"connected_time":1871000000000,"state":"active","ping":47},{"user_id":453,"name":"Fleak","steam_id":76561197998892190,"connected_time":1862000000000,"state":"active","ping":53},{"user_id":484,"name":"throne","steam_id":76561198059723960,"connected_time":24000000000,"state":"active","ping":46},{"user_id":427,"name":"Kowa4ui_korm","steam_id":76561198000724421,"connected_time":3480000000000,"state":"active","ping":89},{"user_id":466,"name":"goblin","steam_id":76561198170334258,"connected_time":1226000000000,"state":"active","ping":131},{"user_id":479,"name":"murf","steam_id":76561199184831395,"connected_time":536000000000,"state":"active","ping":37},{"user_id":478,"name":"Haha?","steam_id":76561198056882245,"connected_time":623000000000,"state":"active","ping":42},{"user_id":463,"name":"MuchoBroke","steam_id":76561199389474207,"connected_time":1485000000000,"state":"active","ping":48},{"user_id":476,"name":"Tomboy Mold","steam_id":76561198106455841,"connected_time":840000000000,"state":"active","ping":71},{"user_id":477,"name":"Soph","steam_id":76561198131688853,"connected_time":697000000000,"state":"active","ping":45},{"user_id":419,"name":"Greg","steam_id":76561198014131702,"connected_time":3773000000000,"state":"active","ping":122},{"user_id":464,"name":"ho hoe HO","steam_id":76561198117335523,"connected_time":1464000000000,"state":"active","ping":88},{"user_id":443,"name":"spurdala","steam_id":76561198886546942,"connected_time":2514000000000,"state":"active","ping":49}]},{"server_id":320,"name":"Uncletopia | London | 3 | All Maps","name_short":"lon-3","host":"lon-1.uk.uncletopia.com","port":27035,"enabled":true,"region":"eu","cc":"gb","latitude":51.509865,"longitude":-0.118092,"reserved":0,"last_update":"0001-01-01T00:00:00Z","name_a2s":"Uncletopia | London | 3 | All Maps","protocol":17,"map":"cp_mountainlab","folder":"tf","game":"Team Fortress","app_id":440,"player_count":0,"max_players":24,"Bots":0,"server_type":"Dedicated","server_os":"Linux","password":true,"vac":true,"version":"7961495","steam_id":85568392924510192,"keywords":["cp","nocrits","nodmgspread","uncletopia"],"game_id":440,"stv_port":27036,"stv_name":"Uncletopia | London | 3 | All Maps | STV","players":null},{"server_id":321,"name":"Uncletopia | London | 4 | All Maps","name_short":"lon-4","host":"lon-1.uk.uncletopia.com","port":27045,"enabled":true,"region":"eu","cc":"gb","latitude":51.509865,"longitude":-0.118092,"reserved":0,"last_update":"0001-01-01T00:00:00Z","name_a2s":"Uncletopia | London | 4 | All Maps","protocol":17,"map":"pl_frontier_final","folder":"tf","game":"Team Fortress","app_id":440,"player_count":23,"max_players":24,"Bots":0,"server_type":"Dedicated","server_os":"Linux","password":true,"vac":true,"version":"7961495","steam_id":85568392924510193,"keywords":["nocrits","nodmgspread","payload","uncletopia"],"game_id":440,"stv_port":27046,"stv_name":"Uncletopia | London | 4 | All Maps | STV","players":[{"user_id":287,"name":"Lukas","steam_id":76561198009118452,"connected_time":113000000000,"state":"active","ping":61},{"user_id":265,"name":"[PH60] Mista White","steam_id":76561198896032630,"connected_time":1377000000000,"state":"active","ping":134},{"user_id":284,"name":"mythics","steam_id":76561199179957944,"connected_time":193000000000,"state":"active","ping":170},{"user_id":279,"name":"Dr Bondus Bolongus Dongus","steam_id":76561198378657692,"connected_time":836000000000,"state":"active","ping":46},{"user_id":269,"name":"Jayem","steam_id":76561198076470685,"connected_time":1282000000000,"state":"active","ping":64},{"user_id":266,"name":"10th","steam_id":76561198068081430,"connected_time":1321000000000,"state":"active","ping":45},{"user_id":270,"name":"gmem","steam_id":76561198070006725,"connected_time":1268000000000,"state":"active","ping":55},{"user_id":280,"name":"playvol ambient/misc/flush1 1","steam_id":76561198336955997,"connected_time":830000000000,"state":"active","ping":32},{"user_id":281,"name":"LadyMissfit","steam_id":76561198042236349,"connected_time":814000000000,"state":"active","ping":84},{"user_id":289,"name":"Lanz","steam_id":76561198126356394,"connected_time":69000000000,"state":"active","ping":62},{"user_id":282,"name":"Silver_Fox","steam_id":76561198278363715,"connected_time":754000000000,"state":"active","ping":94},{"user_id":278,"name":"Ullr","steam_id":76561198140547483,"connected_time":974000000000,"state":"active","ping":43},{"user_id":196,"name":"[Sheep] Tomco","steam_id":76561198388549261,"connected_time":5760000000000,"state":"active","ping":66},{"user_id":288,"name":"the","steam_id":76561198161070639,"connected_time":113000000000,"state":"active","ping":67},{"user_id":225,"name":"Zodaick","steam_id":76561198083662129,"connected_time":4459000000000,"state":"active","ping":56},{"user_id":230,"name":"Spliffendor","steam_id":76561198144020209,"connected_time":4284000000000,"state":"active","ping":44},{"user_id":290,"name":"Berdy","steam_id":76561198066598884,"connected_time":58000000000,"state":"active","ping":140},{"user_id":291,"name":"L=Maestro","steam_id":76561198108066852,"connected_time":49000000000,"state":"active","ping":45},{"user_id":258,"name":"Gryoss","steam_id":76561197999837111,"connected_time":2031000000000,"state":"active","ping":108},{"user_id":231,"name":"gabagool","steam_id":76561198307111838,"connected_time":4144000000000,"state":"active","ping":29},{"user_id":274,"name":"frosty","steam_id":76561198094560834,"connected_time":1201000000000,"state":"active","ping":50},{"user_id":202,"name":"overman","steam_id":76561198038348301,"connected_time":5614000000000,"state":"active","ping":70},{"user_id":253,"name":"Jonno","steam_id":76561198023443744,"connected_time":2759000000000,"state":"active","ping":65}]},{"server_id":21,"name":"Uncletopia | London | 5 | All Maps","name_short":"lon-5","host":"lon-1.uk.uncletopia.com","port":27055,"enabled":true,"region":"eu","cc":"gb","latitude":51.509865,"longitude":-0.118092,"reserved":0,"last_update":"0001-01-01T00:00:00Z","name_a2s":"Uncletopia | London | 5 | All Maps","protocol":17,"map":"cp_sunshine","folder":"tf","game":"Team Fortress","app_id":440,"player_count":23,"max_players":24,"Bots":0,"server_type":"Dedicated","server_os":"Linux","password":true,"vac":true,"version":"7961495","steam_id":85568392924742829,"keywords":["cp","nocrits","nodmgspread","uncletopia"],"game_id":440,"stv_port":27056,"stv_name":"Uncletopia | London | 5 | All Maps | STV","players":[{"user_id":206,"name":"Lim","steam_id":76561198082820168,"connected_time":674000000000,"state":"active","ping":156},{"user_id":203,"name":"lexi ★","steam_id":76561198988695461,"connected_time":752000000000,"state":"active","ping":39},{"user_id":199,"name":"⭐Wylenn⭍","steam_id":76561198024292352,"connected_time":887000000000,"state":"active","ping":69},{"user_id":200,"name":"ORACLE Apollo","steam_id":76561198079585009,"connected_time":860000000000,"state":"active","ping":33},{"user_id":204,"name":"sloppy transgirl toppy","steam_id":76561198057092208,"connected_time":729000000000,"state":"active","ping":71},{"user_id":196,"name":"Slasher","steam_id":76561198073963234,"connected_time":1077000000000,"state":"active","ping":75},{"user_id":184,"name":"FireStorm","steam_id":76561198350478325,"connected_time":1583000000000,"state":"active","ping":41},{"user_id":185,"name":"Arisu","steam_id":76561198080168182,"connected_time":1571000000000,"state":"active","ping":93},{"user_id":219,"name":"Guuse","steam_id":76561198030956814,"connected_time":161000000000,"state":"active","ping":75},{"user_id":218,"name":"Greyhunter","steam_id":76561197960884202,"connected_time":162000000000,"state":"active","ping":30},{"user_id":220,"name":"Sandshee","steam_id":76561198088574666,"connected_time":149000000000,"state":"active","ping":45},{"user_id":197,"name":"mattikus","steam_id":76561198095344132,"connected_time":1068000000000,"state":"active","ping":63},{"user_id":205,"name":"Jack","steam_id":76561198079575891,"connected_time":725000000000,"state":"active","ping":45},{"user_id":212,"name":"Rahmed","steam_id":76561198136056704,"connected_time":545000000000,"state":"active","ping":42},{"user_id":208,"name":"BeepBeep2504Yes","steam_id":76561199118854229,"connected_time":633000000000,"state":"active","ping":96},{"user_id":213,"name":"Chiers","steam_id":76561198073461642,"connected_time":530000000000,"state":"active","ping":61},{"user_id":116,"name":"Dragonfly","steam_id":76561198030307061,"connected_time":7294000000000,"state":"active","ping":66},{"user_id":210,"name":"Name","steam_id":76561197990757157,"connected_time":616000000000,"state":"active","ping":74},{"user_id":211,"name":"omnibombulator","steam_id":76561198025858897,"connected_time":560000000000,"state":"active","ping":46},{"user_id":114,"name":"Doping on Tap Water","steam_id":76561198107197128,"connected_time":7371000000000,"state":"active","ping":61},{"user_id":217,"name":"Smellin' of Troy","steam_id":76561198007653168,"connected_time":503000000000,"state":"active","ping":59},{"user_id":215,"name":"SirDirtbag","steam_id":76561198091890855,"connected_time":528000000000,"state":"active","ping":78},{"user_id":216,"name":"MOMLUVR alice","steam_id":76561198180361759,"connected_time":526000000000,"state":"active","ping":43}]},{"server_id":22,"name":"Uncletopia | London | 6 | All Maps","name_short":"lon-6","host":"lon-1.uk.uncletopia.com","port":27065,"enabled":true,"region":"eu","cc":"gb","latitude":51.509865,"longitude":-0.118092,"reserved":0,"last_update":"0001-01-01T00:00:00Z","name_a2s":"Uncletopia | London | 6 | All Maps","protocol":17,"map":"cp_dustbowl","folder":"tf","game":"Team Fortress","app_id":440,"player_count":23,"max_players":24,"Bots":0,"server_type":"Dedicated","server_os":"Linux","password":true,"vac":true,"version":"7961495","steam_id":85568392924742830,"keywords":["cp","nocrits","nodmgspread","uncletopia"],"game_id":440,"stv_port":27066,"stv_name":"Uncletopia | London | 6 | All Maps | STV","players":[{"user_id":233,"name":"Groucho","steam_id":76561198042888918,"connected_time":543000000000,"state":"active","ping":64},{"user_id":176,"name":"AftiksPL","steam_id":76561198875182686,"connected_time":5286000000000,"state":"active","ping":102},{"user_id":226,"name":"Mr.Shpee","steam_id":76561198158701474,"connected_time":1677000000000,"state":"active","ping":90},{"user_id":190,"name":"Ninjeg","steam_id":76561197995307947,"connected_time":3967000000000,"state":"active","ping":61},{"user_id":204,"name":"Kiogeki","steam_id":76561197996707843,"connected_time":3154000000000,"state":"active","ping":75},{"user_id":234,"name":"yuno appreciator","steam_id":76561198083286511,"connected_time":523000000000,"state":"active","ping":44},{"user_id":184,"name":"Economic crisis","steam_id":76561198063562843,"connected_time":4662000000000,"state":"active","ping":72},{"user_id":152,"name":"Finem Belli","steam_id":76561198227177976,"connected_time":7463000000000,"state":"active","ping":47},{"user_id":215,"name":"Big Squibbly","steam_id":76561198101451654,"connected_time":2095000000000,"state":"active","ping":46},{"user_id":229,"name":"A Fool or a Clown ?","steam_id":76561198173218318,"connected_time":874000000000,"state":"active","ping":47},{"user_id":217,"name":"jeezo","steam_id":76561198123592400,"connected_time":2038000000000,"state":"active","ping":92},{"user_id":230,"name":"Chewbacca","steam_id":76561198175030159,"connected_time":823000000000,"state":"active","ping":109},{"user_id":227,"name":"MISTER SUIIII","steam_id":76561198018330092,"connected_time":1635000000000,"state":"active","ping":86},{"user_id":205,"name":"Bubblegum","steam_id":76561198271590771,"connected_time":3150000000000,"state":"active","ping":55},{"user_id":235,"name":"XavierSweet","steam_id":76561198091781913,"connected_time":492000000000,"state":"active","ping":55},{"user_id":236,"name":"free back real estate","steam_id":76561197999437155,"connected_time":450000000000,"state":"active","ping":54},{"user_id":199,"name":"Djingis Khan","steam_id":76561197967864460,"connected_time":3547000000000,"state":"active","ping":56},{"user_id":240,"name":"Dimdum","steam_id":76561198889869520,"connected_time":156000000000,"state":"active","ping":54},{"user_id":239,"name":"Soloman","steam_id":76561199212054667,"connected_time":306000000000,"state":"active","ping":45},{"user_id":228,"name":"KarmaKid","steam_id":76561198079580094,"connected_time":1633000000000,"state":"active","ping":109},{"user_id":222,"name":"Radigan-Flanders::","steam_id":76561198100439744,"connected_time":1918000000000,"state":"active","ping":37},{"user_id":241,"name":"Hyperion","steam_id":76561198043716162,"connected_time":126000000000,"state":"active","ping":56},{"user_id":225,"name":"[T]aKer","steam_id":76561198001778013,"connected_time":1755000000000,"state":"active","ping":35}]},{"server_id":40,"name":"Uncletopia | London | 7 | Stopwatch","name_short":"lon-7","host":"lon-1.uk.uncletopia.com","port":27075,"enabled":true,"region":"eu","cc":"gb","latitude":51.509865,"longitude":-0.118092,"reserved":0,"last_update":"0001-01-01T00:00:00Z","name_a2s":"Uncletopia | London | 7 | Stopwatch","protocol":17,"map":"pl_swiftwater_final1","folder":"tf","game":"Team Fortress","app_id":440,"player_count":4,"max_players":24,"Bots":0,"server_type":"Dedicated","server_os":"Linux","password":true,"vac":true,"version":"7961495","steam_id":85568392924964314,"keywords":["nocrits","nodmgspread","payload","uncletopia"],"game_id":440,"stv_port":27076,"stv_name":"Uncletopia | London | 7 | Stopwatch | STV","players":[{"user_id":18,"name":"tadisab","steam_id":76561199484049632,"connected_time":474000000000,"state":"active","ping":144},{"user_id":19,"name":"jjkun786","steam_id":76561199438517484,"connected_time":405000000000,"state":"active","ping":79},{"user_id":13,"name":"Taskrabbits","steam_id":76561198366682546,"connected_time":3212000000000,"state":"active","ping":189},{"user_id":15,"name":"Tispy","steam_id":76561199207410049,"connected_time":2763000000000,"state":"active","ping":86}]},{"server_id":41,"name":"Uncletopia | London | 8 | Community","name_short":"lon-8","host":"lon-1.uk.uncletopia.com","port":27085,"enabled":true,"region":"eu","cc":"gb","latitude":51.509865,"longitude":-0.118092,"reserved":0,"last_update":"0001-01-01T00:00:00Z","name_a2s":"Uncletopia | London | 8 | Community","protocol":17,"map":"workshop/koth_ashville_final.ugc2130459942","folder":"tf","game":"Team Fortress","app_id":440,"player_count":0,"max_players":24,"Bots":0,"server_type":"Dedicated","server_os":"Linux","password":true,"vac":true,"version":"7961495","steam_id":85568392924964315,"keywords":["cp","nocrits","nodmgspread","uncletopia"],"game_id":440,"stv_port":27086,"stv_name":"Uncletopia | London | 8 | Community | STV","players":null},{"server_id":300,"name":"Uncletopia | Montréal | 1 | One Thousand Uncles","name_short":"mtl-1","host":"mtl-1.ca.uncletopia.com","port":27015,"enabled":true,"region":"us-east","cc":"ca","latitude":45.50889,"longitude":-73.56167,"reserved":0,"last_update":"0001-01-01T00:00:00Z","name_a2s":"","protocol":0,"map":"","folder":"","game":"","app_id":0,"player_count":0,"max_players":0,"Bots":0,"server_type":"","server_os":"","password":false,"vac":false,"version":"","steam_id":0,"keywords":null,"game_id":0,"stv_port":0,"stv_name":"","players":null},{"server_id":301,"name":"Uncletopia | Montréal | 2 | One Thousand Uncles","name_short":"mtl-2","host":"mtl-1.ca.uncletopia.com","port":27025,"enabled":true,"region":"us-east","cc":"ca","latitude":45.50889,"longitude":-73.56167,"reserved":0,"last_update":"0001-01-01T00:00:00Z","name_a2s":"","protocol":0,"map":"","folder":"","game":"","app_id":0,"player_count":0,"max_players":0,"Bots":0,"server_type":"","server_os":"","password":false,"vac":false,"version":"","steam_id":0,"keywords":null,"game_id":0,"stv_port":0,"stv_name":"","players":null},{"server_id":302,"name":"Uncletopia | Montréal | 3 | One Thousand Uncles","name_short":"mtl-3","host":"mtl-1.ca.uncletopia.com","port":27035,"enabled":true,"region":"us-east","cc":"ca","latitude":45.50889,"longitude":-73.56167,"reserved":0,"last_update":"0001-01-01T00:00:00Z","name_a2s":"","protocol":0,"map":"","folder":"","game":"","app_id":0,"player_count":0,"max_players":0,"Bots":0,"server_type":"","server_os":"","password":false,"vac":false,"version":"","steam_id":0,"keywords":null,"game_id":0,"stv_port":0,"stv_name":"","players":null},{"server_id":13,"name":"Uncletopia | New York City | 1 | All Maps","name_short":"nyc-1","host":"nyc-1.us.uncletopia.com","port":27015,"enabled":true,"region":"us-east","cc":"us","latitude":40.73061,"longitude":-73.93524,"reserved":0,"last_update":"0001-01-01T00:00:00Z","name_a2s":"Uncletopia | New York City | 1 | All Maps","protocol":17,"map":"pl_upward","folder":"tf","game":"Team Fortress","app_id":440,"player_count":24,"max_players":24,"Bots":0,"server_type":"Dedicated","server_os":"Linux","password":true,"vac":true,"version":"7961495","steam_id":85568392924469993,"keywords":["nocrits","nodmgspread","payload","uncletopia"],"game_id":440,"stv_port":27016,"stv_name":"Uncletopia | New York City | 1 | All Maps | STV","players":[{"user_id":510,"name":"you forgot the sauce","steam_id":76561198387016713,"connected_time":644000000000,"state":"active","ping":53},{"user_id":504,"name":"fish enjoyer","steam_id":76561198307447918,"connected_time":891000000000,"state":"active","ping":84},{"user_id":505,"name":"andyiscolorless","steam_id":76561199239870921,"connected_time":878000000000,"state":"active","ping":142},{"user_id":522,"name":"taigaxx","steam_id":76561198202669250,"connected_time":58000000000,"state":"active","ping":86},{"user_id":482,"name":"Brown_Dream","steam_id":76561198975766145,"connected_time":2379000000000,"state":"active","ping":66},{"user_id":497,"name":"Sundowner","steam_id":76561198283363968,"connected_time":1154000000000,"state":"active","ping":69},{"user_id":479,"name":"𝑑𝑜𝑙𝑝ℎ𝑖𝑛.","steam_id":76561198294013916,"connected_time":3083000000000,"state":"active","ping":45},{"user_id":521,"name":"Architect","steam_id":76561198015242016,"connected_time":71000000000,"state":"active","ping":58},{"user_id":493,"name":"Traincar12","steam_id":76561198126786583,"connected_time":1468000000000,"state":"active","ping":72},{"user_id":518,"name":"Xlander","steam_id":76561199345823430,"connected_time":173000000000,"state":"active","ping":48},{"user_id":520,"name":"Technomancer","steam_id":76561198137758683,"connected_time":160000000000,"state":"active","ping":88},{"user_id":480,"name":"✪Type_Alpha","steam_id":76561198122780598,"connected_time":2410000000000,"state":"active","ping":61},{"user_id":483,"name":"tonyrp360","steam_id":76561199129969202,"connected_time":2374000000000,"state":"active","ping":98},{"user_id":514,"name":"Orange Triangle","steam_id":76561198320498182,"connected_time":408000000000,"state":"active","ping":77},{"user_id":501,"name":"JellyParrot","steam_id":76561199190990163,"connected_time":1014000000000,"state":"active","ping":70},{"user_id":515,"name":"Chhaam","steam_id":76561198058508132,"connected_time":344000000000,"state":"active","ping":45},{"user_id":506,"name":"Bubbly","steam_id":76561199014095959,"connected_time":845000000000,"state":"active","ping":57},{"user_id":489,"name":"Kalief!","steam_id":76561199453123772,"connected_time":1578000000000,"state":"active","ping":59},{"user_id":517,"name":"The Hose on Upward","steam_id":76561197965092192,"connected_time":242000000000,"state":"active","ping":68},{"user_id":474,"name":"spherewithahat","steam_id":76561199122192660,"connected_time":3675000000000,"state":"active","ping":60},{"user_id":456,"name":"Naffu","steam_id":76561198036945403,"connected_time":4741000000000,"state":"active","ping":47},{"user_id":471,"name":"wool","steam_id":76561198869689933,"connected_time":3898000000000,"state":"active","ping":53},{"user_id":512,"name":"Dann1526","steam_id":76561199121864838,"connected_time":611000000000,"state":"active","ping":51},{"user_id":405,"name":"ndvr","steam_id":76561199379200102,"connected_time":9139000000000,"state":"active","ping":54}]},{"server_id":14,"name":"Uncletopia | New York City | 2 | All Maps","name_short":"nyc-2","host":"nyc-1.us.uncletopia.com","port":27025,"enabled":true,"region":"us-east","cc":"us","latitude":40.73061,"longitude":-73.93524,"reserved":0,"last_update":"0001-01-01T00:00:00Z","name_a2s":"Uncletopia | New York City | 2 | All Maps","protocol":17,"map":"pl_barnblitz","folder":"tf","game":"Team Fortress","app_id":440,"player_count":24,"max_players":24,"Bots":0,"server_type":"Dedicated","server_os":"Linux","password":true,"vac":true,"version":"7961495","steam_id":85568392924469994,"keywords":["nocrits","nodmgspread","payload","uncletopia"],"game_id":440,"stv_port":27026,"stv_name":"Uncletopia | New York City | 2 | All Maps | STV","players":[{"user_id":143,"name":"Servaos","steam_id":76561198113244990,"connected_time":609000000000,"state":"active","ping":72},{"user_id":135,"name":"H0wlr","steam_id":76561198012332824,"connected_time":1876000000000,"state":"active","ping":51},{"user_id":144,"name":"Yeonwoo","steam_id":76561199082985721,"connected_time":593000000000,"state":"active","ping":51},{"user_id":125,"name":"Breakaway","steam_id":76561198089308523,"connected_time":2307000000000,"state":"active","ping":75},{"user_id":101,"name":"BarrowBaron","steam_id":76561198013633236,"connected_time":4057000000000,"state":"active","ping":69},{"user_id":92,"name":"Five Stacks of Beef","steam_id":76561198254801231,"connected_time":5160000000000,"state":"active","ping":71},{"user_id":145,"name":"BigPapaBrogan","steam_id":76561199012814165,"connected_time":583000000000,"state":"active","ping":70},{"user_id":141,"name":"friendly salamander","steam_id":76561198888219116,"connected_time":887000000000,"state":"active","ping":57},{"user_id":111,"name":"mr poop","steam_id":76561199195196632,"connected_time":3621000000000,"state":"active","ping":89},{"user_id":146,"name":"YourFriendJessie","steam_id":76561198176883097,"connected_time":582000000000,"state":"active","ping":48},{"user_id":147,"name":"veen","steam_id":76561198084334538,"connected_time":551000000000,"state":"active","ping":52},{"user_id":155,"name":"._.","steam_id":76561198300316801,"connected_time":319000000000,"state":"active","ping":39},{"user_id":142,"name":"Grandpapi Yolpapi","steam_id":76561198010748612,"connected_time":669000000000,"state":"active","ping":84},{"user_id":149,"name":"Phocae :3","steam_id":76561199317584594,"connected_time":452000000000,"state":"active","ping":56},{"user_id":134,"name":"Portizz","steam_id":76561198095732366,"connected_time":1881000000000,"state":"active","ping":71},{"user_id":136,"name":"comet sooicidy","steam_id":76561198025173479,"connected_time":1854000000000,"state":"active","ping":87},{"user_id":150,"name":"momazos diegos","steam_id":76561199220257695,"connected_time":451000000000,"state":"active","ping":147},{"user_id":93,"name":"Toastered","steam_id":76561198178459042,"connected_time":5139000000000,"state":"active","ping":118},{"user_id":151,"name":"Overture","steam_id":76561198364564873,"connected_time":436000000000,"state":"active","ping":107},{"user_id":80,"name":"Sickduck Mcgee","steam_id":76561198028577159,"connected_time":5675000000000,"state":"active","ping":62},{"user_id":82,"name":"ExtraSoap","steam_id":76561198008712409,"connected_time":5645000000000,"state":"active","ping":50},{"user_id":152,"name":"Argo","steam_id":76561198353725622,"connected_time":411000000000,"state":"active","ping":64},{"user_id":153,"name":"MrEdman4","steam_id":76561198062233923,"connected_time":395000000000,"state":"active","ping":47},{"user_id":154,"name":"󠁳 ⁧fortnite56k","steam_id":76561198404564240,"connected_time":363000000000,"state":"active","ping":48}]},{"server_id":15,"name":"Uncletopia | New York City | 3 | Stopwatch","name_short":"nyc-3","host":"nyc-1.us.uncletopia.com","port":27035,"enabled":true,"region":"us-east","cc":"us","latitude":40.73061,"longitude":-73.93524,"reserved":0,"last_update":"0001-01-01T00:00:00Z","name_a2s":"Uncletopia | New York City | 3 | Stopwatch","protocol":17,"map":"workshop/koth_bagel_rc6.ugc2514036946","folder":"tf","game":"Team Fortress","app_id":440,"player_count":0,"max_players":24,"Bots":0,"server_type":"Dedicated","server_os":"Linux","password":true,"vac":true,"version":"7961495","steam_id":85568392924742820,"keywords":["cp","nocrits","nodmgspread","uncletopia"],"game_id":440,"stv_port":27036,"stv_name":"Uncletopia | New York City | 3 | Stopwatch | STV","players":null},{"server_id":16,"name":"Uncletopia | New York City | 4 | Community","name_short":"nyc-4","host":"nyc-1.us.uncletopia.com","port":27045,"enabled":true,"region":"us-east","cc":"us","latitude":40.73061,"longitude":-73.93524,"reserved":0,"last_update":"0001-01-01T00:00:00Z","name_a2s":"Uncletopia | New York City | 4 | Community","protocol":17,"map":"cp_altitude","folder":"tf","game":"Team Fortress","app_id":440,"player_count":0,"max_players":24,"Bots":0,"server_type":"Dedicated","server_os":"Linux","password":true,"vac":true,"version":"7961495","steam_id":85568392924742821,"keywords":["cp","nocrits","nodmgspread","uncletopia"],"game_id":440,"stv_port":27046,"stv_name":"Uncletopia | New York City | 4 | Community | STV","players":null},{"server_id":142,"name":"Uncletopia | São Paulo | 1 | All Maps","name_short":"sao-1","host":"sao-1.br.uncletopia.com","port":27015,"enabled":true,"region":"sa","cc":"br","latitude":-23.533773,"longitude":-46.62529,"reserved":0,"last_update":"0001-01-01T00:00:00Z","name_a2s":"Uncletopia | São Paulo | 1 | All Maps","protocol":17,"map":"pl_frontier_final","folder":"tf","game":"Team Fortress","app_id":440,"player_count":0,"max_players":24,"Bots":0,"server_type":"Dedicated","server_os":"Linux","password":true,"vac":true,"version":"7961495","steam_id":85568392924469996,"keywords":["nocrits","nodmgspread","payload","uncletopia"],"game_id":440,"stv_port":27016,"stv_name":"Uncletopia | São Paulo | 1 | All Maps | STV","players":null},{"server_id":143,"name":"Uncletopia | São Paulo | 2 | Community","name_short":"sao-2","host":"sao-2.br.uncletopia.com","port":27015,"enabled":true,"region":"sa","cc":"br","latitude":-23.533773,"longitude":-46.62529,"reserved":0,"last_update":"0001-01-01T00:00:00Z","name_a2s":"Uncletopia | São Paulo | 2 | Community","protocol":17,"map":"workshop/koth_synthetic_rc6a.ugc1549817316","folder":"tf","game":"Team Fortress","app_id":440,"player_count":0,"max_players":24,"Bots":0,"server_type":"Dedicated","server_os":"Linux","password":true,"vac":true,"version":"7961495","steam_id":85568392924485349,"keywords":["cp","nocrits","nodmgspread","uncletopia"],"game_id":440,"stv_port":27016,"stv_name":"Uncletopia | São Paulo | 2 | Community | STV","players":null},{"server_id":7,"name":"Uncletopia | Seattle | 1 | All Maps","name_short":"sea-1","host":"sea-1.us.uncletopia.com","port":27015,"enabled":true,"region":"us-west","cc":"us","latitude":47.608013,"longitude":-122.33517,"reserved":0,"last_update":"0001-01-01T00:00:00Z","name_a2s":"Uncletopia | Seattle | 1 | All Maps","protocol":17,"map":"cp_mossrock","folder":"tf","game":"Team Fortress","app_id":440,"player_count":24,"max_players":24,"Bots":0,"server_type":"Dedicated","server_os":"Linux","password":true,"vac":true,"version":"7961495","steam_id":85568392924469997,"keywords":["cp","nocrits","nodmgspread","uncletopia"],"game_id":440,"stv_port":27016,"stv_name":"Uncletopia | Seattle | 1 | All Maps | STV","players":[{"user_id":405,"name":"jayeskae","steam_id":76561198144220801,"connected_time":1231000000000,"state":"active","ping":48},{"user_id":404,"name":"Windows Vista Home Premium","steam_id":76561198043764863,"connected_time":1302000000000,"state":"active","ping":71},{"user_id":416,"name":"Drive-By-Fish-Guy","steam_id":76561198105513652,"connected_time":91000000000,"state":"active","ping":78},{"user_id":337,"name":"nzippy","steam_id":76561199048618678,"connected_time":5722000000000,"state":"active","ping":28},{"user_id":391,"name":"boobewtru","steam_id":76561198280655592,"connected_time":1966000000000,"state":"active","ping":45},{"user_id":396,"name":"Greskrendtregk","steam_id":76561197969553142,"connected_time":1877000000000,"state":"active","ping":52},{"user_id":398,"name":"2 Point Tom","steam_id":76561198087617008,"connected_time":1815000000000,"state":"active","ping":51},{"user_id":308,"name":"PvZ Enthusiast","steam_id":76561199089562026,"connected_time":8207000000000,"state":"active","ping":41},{"user_id":412,"name":"Dim","steam_id":76561198061411324,"connected_time":568000000000,"state":"active","ping":130},{"user_id":402,"name":"bear","steam_id":76561198909415646,"connected_time":1612000000000,"state":"active","ping":75},{"user_id":326,"name":"Rat Smoking a big cigar","steam_id":76561198090419068,"connected_time":6735000000000,"state":"active","ping":69},{"user_id":363,"name":"Defeat","steam_id":76561198065203818,"connected_time":3828000000000,"state":"active","ping":44},{"user_id":399,"name":"MrQuack","steam_id":76561198873049714,"connected_time":1796000000000,"state":"active","ping":76},{"user_id":407,"name":"Schmupp","steam_id":76561198150928115,"connected_time":817000000000,"state":"active","ping":75},{"user_id":380,"name":"An Alien Mango","steam_id":76561198864823970,"connected_time":2901000000000,"state":"active","ping":60},{"user_id":408,"name":"jerma but crying and lesbian","steam_id":76561198110661425,"connected_time":714000000000,"state":"active","ping":88},{"user_id":388,"name":"KlassicLoL","steam_id":76561198081815303,"connected_time":2214000000000,"state":"active","ping":81},{"user_id":410,"name":"Ahzain","steam_id":76561198035894333,"connected_time":608000000000,"state":"active","ping":77},{"user_id":411,"name":"Elfy","steam_id":76561199166448617,"connected_time":587000000000,"state":"active","ping":40},{"user_id":304,"name":"woodpigeon","steam_id":76561199488457138,"connected_time":8649000000000,"state":"active","ping":53},{"user_id":414,"name":"Kuwait Grips","steam_id":76561198292689973,"connected_time":496000000000,"state":"active","ping":105},{"user_id":381,"name":"Owls = Government Drones","steam_id":76561198439793697,"connected_time":2852000000000,"state":"active","ping":121},{"user_id":406,"name":"Ping","steam_id":76561199206514106,"connected_time":968000000000,"state":"active","ping":118},{"user_id":401,"name":"Congcrab","steam_id":76561198078687685,"connected_time":1758000000000,"state":"active","ping":124}]},{"server_id":119,"name":"Uncletopia | Seattle | 2 | All Maps","name_short":"sea-2","host":"sea-1.us.uncletopia.com","port":27025,"enabled":true,"region":"us-west","cc":"us","latitude":47.608013,"longitude":-122.33517,"reserved":0,"last_update":"0001-01-01T00:00:00Z","name_a2s":"Uncletopia | Seattle | 2 | All Maps","protocol":17,"map":"koth_highpass","folder":"tf","game":"Team Fortress","app_id":440,"player_count":0,"max_players":24,"Bots":0,"server_type":"Dedicated","server_os":"Linux","password":true,"vac":true,"version":"7961495","steam_id":85568392924469998,"keywords":["cp","nocrits","nodmgspread","uncletopia"],"game_id":440,"stv_port":27026,"stv_name":"Uncletopia | Seattle | 2 | All Maps | STV","players":null},{"server_id":406,"name":"Uncletopia | Seattle | 3 | Stopwatch","name_short":"sea-3","host":"sea-1.us.uncletopia.com","port":27035,"enabled":true,"region":"us-west","cc":"us","latitude":47.608013,"longitude":-122.33517,"reserved":0,"last_update":"0001-01-01T00:00:00Z","name_a2s":"Uncletopia | Seattle | 3 | Stopwatch","protocol":17,"map":"workshop/cp_process_f12.ugc2302948105","folder":"tf","game":"Team Fortress","app_id":440,"player_count":0,"max_players":24,"Bots":0,"server_type":"Dedicated","server_os":"Linux","password":true,"vac":true,"version":"7961495","steam_id":85568392924515217,"keywords":["cp","nocrits","nodmgspread","uncletopia"],"game_id":440,"stv_port":27036,"stv_name":"Uncletopia | Seattle | 3 | Stopwatch | STV","players":null},{"server_id":17,"name":"Uncletopia | San Francisco | 1 | All Maps","name_short":"sfo-1","host":"sfo-1.us.uncletopia.com","port":27015,"enabled":true,"region":"us-west","cc":"us","latitude":37.77397,"longitude":-122.4313,"reserved":0,"last_update":"0001-01-01T00:00:00Z","name_a2s":"Uncletopia | San Francisco | 1 | All Maps","protocol":17,"map":"pl_upward","folder":"tf","game":"Team Fortress","app_id":440,"player_count":24,"max_players":24,"Bots":0,"server_type":"Dedicated","server_os":"Linux","password":true,"vac":true,"version":"7961495","steam_id":85568392924469999,"keywords":["nocrits","nodmgspread","payload","uncletopia"],"game_id":440,"stv_port":27016,"stv_name":"Uncletopia | San Francisco | 1 | All Maps | STV","players":[{"user_id":344,"name":"Big Boi E","steam_id":76561198988336575,"connected_time":1074000000000,"state":"active","ping":68},{"user_id":339,"name":"Mikke","steam_id":76561198170234003,"connected_time":1218000000000,"state":"active","ping":73},{"user_id":347,"name":"Andrew Tate's Third Nipple","steam_id":76561198066142119,"connected_time":931000000000,"state":"active","ping":69},{"user_id":218,"name":"(° ͜   °)","steam_id":76561198064273568,"connected_time":9580000000000,"state":"active","ping":55},{"user_id":331,"name":"eBay","steam_id":76561198061214569,"connected_time":1441000000000,"state":"active","ping":76},{"user_id":340,"name":"photonbinding","steam_id":76561198250996330,"connected_time":1148000000000,"state":"active","ping":98},{"user_id":316,"name":"chok","steam_id":76561198242016100,"connected_time":2872000000000,"state":"active","ping":75},{"user_id":351,"name":"Le Big Spoon","steam_id":76561198835388940,"connected_time":556000000000,"state":"active","ping":64},{"user_id":261,"name":"Sudsen","steam_id":76561198370603787,"connected_time":5549000000000,"state":"active","ping":90},{"user_id":355,"name":"killjoy","steam_id":76561198234719276,"connected_time":73000000000,"state":"active","ping":43},{"user_id":312,"name":"K-2","steam_id":76561198322606535,"connected_time":3036000000000,"state":"active","ping":81},{"user_id":315,"name":"wendigo","steam_id":76561197994528974,"connected_time":2961000000000,"state":"active","ping":101},{"user_id":346,"name":"Nibotshooter","steam_id":76561199284825579,"connected_time":959000000000,"state":"active","ping":79},{"user_id":300,"name":"IronBeagle","steam_id":76561198401952007,"connected_time":3318000000000,"state":"active","ping":91},{"user_id":324,"name":"Wendall555","steam_id":76561198985637603,"connected_time":2210000000000,"state":"active","ping":56},{"user_id":354,"name":"reverie","steam_id":76561198168158637,"connected_time":122000000000,"state":"active","ping":66},{"user_id":348,"name":"roach","steam_id":76561198354811369,"connected_time":741000000000,"state":"active","ping":54},{"user_id":356,"name":"Q Whang","steam_id":76561198122479810,"connected_time":62000000000,"state":"active","ping":117},{"user_id":327,"name":"Nurew","steam_id":76561198052589498,"connected_time":2045000000000,"state":"active","ping":58},{"user_id":314,"name":"tass","steam_id":76561199254321874,"connected_time":3014000000000,"state":"active","ping":134},{"user_id":353,"name":"Brother Slime","steam_id":76561198390297486,"connected_time":335000000000,"state":"active","ping":45},{"user_id":350,"name":"Kastaling","steam_id":76561198067347356,"connected_time":656000000000,"state":"active","ping":45},{"user_id":336,"name":"moe","steam_id":76561198929586245,"connected_time":1300000000000,"state":"active","ping":49},{"user_id":338,"name":"BlazeHX","steam_id":76561198827408017,"connected_time":1295000000000,"state":"active","ping":130}]},{"server_id":18,"name":"Uncletopia | San Francisco | 2 | All Maps","name_short":"sfo-2","host":"sfo-1.us.uncletopia.com","port":27025,"enabled":true,"region":"us-west","cc":"us","latitude":37.77397,"longitude":-122.4313,"reserved":0,"last_update":"0001-01-01T00:00:00Z","name_a2s":"Uncletopia | San Francisco | 2 | All Maps","protocol":17,"map":"koth_viaduct","folder":"tf","game":"Team Fortress","app_id":440,"player_count":0,"max_players":24,"Bots":0,"server_type":"Dedicated","server_os":"Linux","password":true,"vac":true,"version":"7961495","steam_id":85568392924470000,"keywords":["cp","nocrits","nodmgspread","uncletopia"],"game_id":440,"stv_port":27026,"stv_name":"Uncletopia | San Francisco | 2 | All Maps | STV","players":null},{"server_id":19,"name":"Uncletopia | San Francisco | 3 | Stopwatch","name_short":"sfo-3","host":"sfo-1.us.uncletopia.com","port":27035,"enabled":true,"region":"us-west","cc":"us","latitude":37.77397,"longitude":-122.4313,"reserved":0,"last_update":"0001-01-01T00:00:00Z","name_a2s":"Uncletopia | San Francisco | 3 | Stopwatch","protocol":17,"map":"pl_pier","folder":"tf","game":"Team Fortress","app_id":440,"player_count":0,"max_players":24,"Bots":0,"server_type":"Dedicated","server_os":"Linux","password":true,"vac":true,"version":"7961495","steam_id":85568392924742824,"keywords":["nocrits","nodmgspread","payload","uncletopia"],"game_id":440,"stv_port":27036,"stv_name":"Uncletopia | San Francisco | 3 | Stopwatch | STV","players":null},{"server_id":20,"name":"Uncletopia | San Francisco | 4 | Community","name_short":"sfo-4","host":"sfo-1.us.uncletopia.com","port":27045,"enabled":true,"region":"us-west","cc":"us","latitude":37.77397,"longitude":-122.4313,"reserved":0,"last_update":"0001-01-01T00:00:00Z","name_a2s":"Uncletopia | San Francisco | 4 | Community","protocol":17,"map":"pl_pier","folder":"tf","game":"Team Fortress","app_id":440,"player_count":0,"max_players":24,"Bots":0,"server_type":"Dedicated","server_os":"Linux","password":true,"vac":true,"version":"7961495","steam_id":85568392924742826,"keywords":["nocrits","nodmgspread","payload","uncletopia"],"game_id":440,"stv_port":27046,"stv_name":"Uncletopia | San Francisco | 4 | Community | STV","players":null},{"server_id":141,"name":"Uncletopia | Sydney | 1 | All Maps","name_short":"syd-1","host":"syd-1.au.uncletopia.com","port":27015,"enabled":true,"region":"au","cc":"au","latitude":-33.865143,"longitude":151.2099,"reserved":0,"last_update":"0001-01-01T00:00:00Z","name_a2s":"Uncletopia | Sydney | 1 | All Maps","protocol":17,"map":"koth_viaduct","folder":"tf","game":"Team Fortress","app_id":440,"player_count":0,"max_players":24,"Bots":0,"server_type":"Dedicated","server_os":"Linux","password":true,"vac":true,"version":"7961495","steam_id":85568392924470001,"keywords":["cp","nocrits","nodmgspread","uncletopia"],"game_id":440,"stv_port":27016,"stv_name":"Uncletopia | Sydney | 1 | All Maps | STV","players":null},{"server_id":123,"name":"Uncletopia | Sydney | 2 | All Maps","name_short":"syd-2","host":"syd-1.au.uncletopia.com","port":27025,"enabled":true,"region":"au","cc":"au","latitude":-33.865143,"longitude":151.2099,"reserved":0,"last_update":"0001-01-01T00:00:00Z","name_a2s":"Uncletopia | Sydney | 2 | All Maps","protocol":17,"map":"koth_lakeside_final","folder":"tf","game":"Team Fortress","app_id":440,"player_count":0,"max_players":24,"Bots":0,"server_type":"Dedicated","server_os":"Linux","password":true,"vac":true,"version":"7961495","steam_id":85568392924470002,"keywords":["cp","nocrits","nodmgspread","uncletopia"],"game_id":440,"stv_port":27026,"stv_name":"Uncletopia | Sydney | 2 | All Maps | STV","players":null},{"server_id":395,"name":"Uncletopia | Sydney | 3 | All Maps","name_short":"syd-3","host":"syd-1.au.uncletopia.com","port":27035,"enabled":true,"region":"au","cc":"au","latitude":-33.865143,"longitude":151.2099,"reserved":0,"last_update":"0001-01-01T00:00:00Z","name_a2s":"Uncletopia | Sydney | 3 | All Maps","protocol":17,"map":"pl_frontier_final","folder":"tf","game":"Team Fortress","app_id":440,"player_count":0,"max_players":24,"Bots":0,"server_type":"Dedicated","server_os":"Linux","password":true,"vac":true,"version":"7961495","steam_id":85568392925194467,"keywords":["nocrits","nodmgspread","payload","uncletopia"],"game_id":440,"stv_port":27036,"stv_name":"Uncletopia | Sydney | 3 | All Maps | STV","players":null},{"server_id":396,"name":"Uncletopia | Sydney | 4 | All Maps","name_short":"syd-4","host":"syd-1.au.uncletopia.com","port":27045,"enabled":true,"region":"au","cc":"au","latitude":-33.865143,"longitude":151.2099,"reserved":0,"last_update":"0001-01-01T00:00:00Z","name_a2s":"Uncletopia | Sydney | 4 | All Maps","protocol":17,"map":"cp_process_final","folder":"tf","game":"Team Fortress","app_id":440,"player_count":0,"max_players":24,"Bots":0,"server_type":"Dedicated","server_os":"Linux","password":true,"vac":true,"version":"7961495","steam_id":85568392925397958,"keywords":["cp","nocrits","nodmgspread","uncletopia"],"game_id":440,"stv_port":27046,"stv_name":"Uncletopia | Sydney | 4 | All Maps | STV","players":null},{"server_id":58,"name":"Uncletopia | Sydney | 5 | Stopwatch","name_short":"syd-5","host":"syd-1.au.uncletopia.com","port":27055,"enabled":true,"region":"au","cc":"au","latitude":-33.865143,"longitude":151.2099,"reserved":0,"last_update":"0001-01-01T00:00:00Z","name_a2s":"Uncletopia | Sydney | 5 | Stopwatch","protocol":17,"map":"pl_frontier_final","folder":"tf","game":"Team Fortress","app_id":440,"player_count":0,"max_players":24,"Bots":0,"server_type":"Dedicated","server_os":"Linux","password":true,"vac":true,"version":"7961495","steam_id":85568392925397959,"keywords":["nocrits","nodmgspread","payload","uncletopia"],"game_id":440,"stv_port":27056,"stv_name":"Uncletopia | Sydney | 5 | Stopwatch | STV","players":null},{"server_id":59,"name":"Uncletopia | Sydney | 6 | Community","name_short":"syd-6","host":"syd-1.au.uncletopia.com","port":27065,"enabled":true,"region":"au","cc":"au","latitude":-33.865143,"longitude":151.2099,"reserved":0,"last_update":"0001-01-01T00:00:00Z","name_a2s":"Uncletopia | Sydney | 6 | Community","protocol":17,"map":"cp_sunshine","folder":"tf","game":"Team Fortress","app_id":440,"player_count":0,"max_players":24,"Bots":0,"server_type":"Dedicated","server_os":"Linux","password":true,"vac":true,"version":"7961495","steam_id":85568392925397960,"keywords":["cp","nocrits","nodmgspread","uncletopia"],"game_id":440,"stv_port":27066,"stv_name":"Uncletopia | Sydney | 6 | Community | STV","players":null},{"server_id":49,"name":"Uncletopia | Warsaw | 1 | One Thousand Uncles","name_short":"waw-1","host":"waw-1.pl.uncletopia.com","port":27015,"enabled":true,"region":"eu","cc":"pl","latitude":52.2297,"longitude":21.017532,"reserved":0,"last_update":"0001-01-01T00:00:00Z","name_a2s":"Uncletopia | Warsaw | 1 | One Thousand Uncles","protocol":17,"map":"pl_thundermountain","folder":"tf","game":"Team Fortress","app_id":440,"player_count":18,"max_players":32,"Bots":16,"server_type":"Dedicated","server_os":"Linux","password":true,"vac":true,"version":"7961495","steam_id":85568392925397850,"keywords":["alltalk","bots","danepve","increased_maxplayers","nocrits","norespawntime","payload","uncletopia"],"game_id":440,"stv_port":0,"stv_name":"","players":[{"user_id":587,"name":"Scout","steam_id":76561198992898803,"connected_time":1104000000000,"state":"active","ping":74},{"user_id":582,"name":"CheapMeds","steam_id":76561197990309210,"connected_time":2271000000000,"state":"active","ping":89}]},{"server_id":50,"name":"Uncletopia | Warsaw | 2 | One Thousand Uncles","name_short":"waw-2","host":"waw-1.pl.uncletopia.com","port":27025,"enabled":true,"region":"eu","cc":"pl","latitude":52.2297,"longitude":21.017532,"reserved":0,"last_update":"0001-01-01T00:00:00Z","name_a2s":"Uncletopia | Warsaw | 2 | One Thousand Uncles","protocol":17,"map":"pl_upward","folder":"tf","game":"Team Fortress","app_id":440,"player_count":0,"max_players":32,"Bots":0,"server_type":"Dedicated","server_os":"Linux","password":true,"vac":true,"version":"7961495","steam_id":85568392925397851,"keywords":["alltalk","danepve","increased_maxplayers","nocrits","norespawntime","payload","uncletopia"],"game_id":440,"stv_port":0,"stv_name":"","players":null},{"server_id":51,"name":"Uncletopia | Warsaw | 3 | All Maps","name_short":"waw-3","host":"waw-1.pl.uncletopia.com","port":27035,"enabled":true,"region":"eu","cc":"pl","latitude":52.2297,"longitude":21.017532,"reserved":0,"last_update":"0001-01-01T00:00:00Z","name_a2s":"Uncletopia | Warsaw | 3 | All Maps","protocol":17,"map":"pl_snowycoast","folder":"tf","game":"Team Fortress","app_id":440,"player_count":0,"max_players":24,"Bots":0,"server_type":"Dedicated","server_os":"Linux","password":true,"vac":true,"version":"7961495","steam_id":85568392925397852,"keywords":["nocrits","nodmgspread","payload","uncletopia"],"game_id":440,"stv_port":27036,"stv_name":"Uncletopia | Warsaw | 3 | All Maps | STV","players":null},{"server_id":52,"name":"Uncletopia | Warsaw | 4 | All Maps","name_short":"waw-4","host":"waw-1.pl.uncletopia.com","port":27045,"enabled":true,"region":"eu","cc":"pl","latitude":52.2297,"longitude":21.017532,"reserved":0,"last_update":"0001-01-01T00:00:00Z","name_a2s":"Uncletopia | Warsaw | 4 | All Maps","protocol":17,"map":"cp_mountainlab","folder":"tf","game":"Team Fortress","app_id":440,"player_count":0,"max_players":24,"Bots":0,"server_type":"Dedicated","server_os":"Linux","password":true,"vac":true,"version":"7961495","steam_id":85568392925397853,"keywords":["cp","nocrits","nodmgspread","uncletopia"],"game_id":440,"stv_port":27046,"stv_name":"Uncletopia | Warsaw | 4 | All Maps | STV","players":null},{"server_id":53,"name":"Uncletopia | Warsaw | 5 | Stopwatch","name_short":"waw-5","host":"waw-1.pl.uncletopia.com","port":27055,"enabled":true,"region":"eu","cc":"pl","latitude":52.2297,"longitude":21.017532,"reserved":0,"last_update":"0001-01-01T00:00:00Z","name_a2s":"Uncletopia | Warsaw | 5 | Stopwatch","protocol":17,"map":"koth_lakeside_final","folder":"tf","game":"Team Fortress","app_id":440,"player_count":0,"max_players":24,"Bots":0,"server_type":"Dedicated","server_os":"Linux","password":true,"vac":true,"version":"7961495","steam_id":85568392925397854,"keywords":["cp","nocrits","nodmgspread","uncletopia"],"game_id":440,"stv_port":27056,"stv_name":"Uncletopia | Warsaw | 5 | Stopwatch | STV","players":null},{"server_id":54,"name":"Uncletopia | Warsaw | 6 | Community","name_short":"waw-6","host":"waw-1.pl.uncletopia.com","port":27065,"enabled":true,"region":"eu","cc":"pl","latitude":52.2297,"longitude":21.017532,"reserved":0,"last_update":"0001-01-01T00:00:00Z","name_a2s":"Uncletopia | Warsaw | 6 | Community","protocol":17,"map":"workshop/cp_caldera_rc3.ugc2834196889","folder":"tf","game":"Team Fortress","app_id":440,"player_count":0,"max_players":24,"Bots":0,"server_type":"Dedicated","server_os":"Linux","password":true,"vac":true,"version":"7961495","steam_id":85568392925397856,"keywords":["cp","nocrits","nodmgspread","uncletopia"],"game_id":440,"stv_port":27066,"stv_name":"Uncletopia | Warsaw | 6 | Community | STV","players":null}]}