{"status":true,"message":"","result":[{"server_id":9,"name":"Uncletopia | Atlanta | 1 | All Maps","name_short":"atl-1","host":"atl-1.us.uncletopia.com","port":27015,"enabled":true,"region":"us-east","cc":"us","latitude":33.753746,"longitude":-84.38633,"reserved":0,"last_update":"0001-01-01T00:00:00Z","name_a2s":"Uncletopia | Atlanta | 1 | All Maps","protocol":17,"map":"pl_frontier_final","folder":"tf","game":"Team Fortress","app_id":440,"player_count":24,"max_players":24,"Bots":0,"server_type":"Dedicated","server_os":"Linux","password":true,"vac":true,"version":"7961495","steam_id":85568392924469982,"keywords":["nocrits","nodmgspread","payload","uncletopia"],"game_id":440,"stv_port":27016,"stv_name":"Uncletopia | Atlanta | 1 | All Maps | STV","players":null},{"server_id":104,"name":"Uncletopia | Atlanta | 2 | All Maps","name_short":"atl-2","host":"atl-1.us.uncletopia.com","port":27025,"enabled":true,"region":"us-east","cc":"us","latitude":33.753746,"longitude":-84.38633,"reserved":0,"last_update":"0001-01-01T00:00:00Z","name_a2s":"Uncletopia | Atlanta | 2 | All Maps","protocol":17,"map":"pl_barnblitz","folder":"tf","game":"Team Fortress","app_id":440,"player_count":24,"max_players":24,"Bots":0,"server_type":"Dedicated","server_os":"Linux","password":true,"vac":true,"version":"7961495","steam_id":85568392924469983,"keywords":["nocrits","nodmgspread","payload","uncletopia"],"game_id":440,"stv_port":27026,"stv_name":"Uncletopia | Atlanta | 2 | All Maps | STV","players":null},{"server_id":400,"name":"Uncletopia | Atlanta | 3 | Stopwatch","name_short":"atl-3","host":"atl-1.us.uncletopia.com","port":27035,"enabled":true,"region":"us-east","cc":"us","latitude":33.753746,"longitude":-84.38633,"reserved":0,"last_update":"0001-01-01T00:00:00Z","name_a2s":"Uncletopia | Atlanta | 3 | Stopwatch","protocol":17,"map":"koth_lakeside_final","folder":"tf","game":"Team Fortress","app_id":440,"player_count":0,"max_players":24,"Bots":0,"server_type":"Dedicated","server_os":"Linux","password":true,"vac":true,"version":"7961495","steam_id":85568392924515187,"keywords":["cp","nocrits","nodmgspread","uncletopia"],"game_id":440,"stv_port":27036,"stv_name":"Uncletopia | Atlanta | 3 | Stopwatch | STV","players":null},{"server_id":401,"name":"Uncletopia | Atlanta | 4 | Community","name_short":"atl-4","host":"atl-1.us.uncletopia.com","port":27045,"enabled":true,"region":"us-east","cc":"us","latitude":33.753746,"longitude":-84.38633,"reserved":0,"last_update":"0001-01-01T00:00:00Z","name_a2s":"Uncletopia | Atlanta | 4 | Community","protocol":17,"map":"cp_snowbase_b18","folder":"tf","game":"Team Fortress","app_id":440,"player_count":10,"max_players":24,"Bots":0,"server_type":"Dedicated","server_os":"Linux","password":true,"vac":true,"version":"7961495","steam_id":85568392924515188,"keywords":["cp","nocrits","nodmgspread","uncletopia"],"game_id":440,"stv_port":27046,"stv_name":"Uncletopia | Atlanta | 4 | Community | STV","players":null},{"server_id":2,"name":"Uncletopia | Chicago | 1 | All Maps","name_short":"chi-1","host":"chi-1.us.uncletopia.com","port":27015,"enabled":true,"region":"us-central","cc":"us","latitude":41.881832,"longitude":-87.62318,"reserved":0,"last_update":"0001-01-01T00:00:00Z","name_a2s":"Uncletopia | Chicago | 1 | All Maps","protocol":17,"map":"pl_pier","folder":"tf","game":"Team Fortress","app_id":440,"player_count":24,"max_players":24,"Bots":0,"server_type":"Dedicated","server_os":"Linux","password":true,"vac":true,"version":"7961495","steam_id":85568392924469984,"keywords":["nocrits","nodmgspread","payload","uncletopia"],"game_id":440,"stv_port":27016,"stv_name":"Uncletopia | Chicago | 1 | All Maps | STV","players":[{"user_id":829,"name":"Milkmur","steam_id":76561198210043821,"connected_time":993000000000,"state":"active","ping":65},{"user_id":834,"name":"DoubleX2000","steam_id":76561198164134387,"connected_time":733000000000,"state":"active","ping":110},{"user_id":827,"name":"[Peanuts]Linus","steam_id":76561197992887879,"connected_time":1468000000000,"state":"active","ping":45},{"user_id":811,"name":"squaggles!","steam_id":76561197994995011,"connected_time":2793000000000,"state":"active","ping":56},{"user_id":828,"name":"Bottom Trans Cowgirl","steam_id":76561198304239680,"connected_time":998000000000,"state":"active","ping":80},{"user_id":777,"name":"loser","steam_id":76561198259380127,"connected_time":5262000000000,"state":"active","ping":60},{"user_id":797,"name":"Jovo","steam_id":76561197993265970,"connected_time":4058000000000,"state":"active","ping":85},{"user_id":826,"name":"Your Local Queer Librarian","steam_id":76561198013077080,"connected_time":1514000000000,"state":"active","ping":61},{"user_id":837,"name":"Rein | Comms  Open","steam_id":76561198300340427,"connected_time":125000000000,"state":"active","ping":61},{"user_id":805,"name":"Raccoon Wizard","steam_id":76561198072562591,"connected_time":2903000000000,"state":"active","ping":93},{"user_id":809,"name":"Ford460","steam_id":76561198340774613,"connected_time":2834000000000,"state":"active","ping":117},{"user_id":835,"name":"uzr","steam_id":76561198799343084,"connected_time":248000000000,"state":"active","ping":105},{"user_id":831,"name":"ACK","steam_id":76561198130390689,"connected_time":969000000000,"state":"active","ping":122},{"user_id":816,"name":"Hey","steam_id":76561198447517893,"connected_time":2406000000000,"state":"active","ping":68},{"user_id":823,"name":"Cyndaquil Fan","steam_id":76561198799205521,"connected_time":1848000000000,"state":"active","ping":88},{"user_id":745,"name":"Raven_Ash_ (she/They)","steam_id":76561198800351148,"connected_time":8761000000000,"state":"active","ping":99},{"user_id":833,"name":"salty like Lot's wife","steam_id":76561197998619845,"connected_time":893000000000,"state":"active","ping":69},{"user_id":836,"name":"(TPT) Ghost","steam_id":76561198123262873,"connected_time":247000000000,"state":"active","ping":114},{"user_id":796,"name":"Autumn","steam_id":76561198088925274,"connected_time":4064000000000,"state":"active","ping":66},{"user_id":781,"name":"Hindmost","steam_id":76561199081837220,"connected_time":5238000000000,"state":"active","ping":88},{"user_id":832,"name":"AXZIOM","steam_id":76561198255074952,"connected_time":967000000000,"state":"active","ping":78},{"user_id":819,"name":"CrunchCisco","steam_id":76561199162724832,"connected_time":2319000000000,"state":"active","ping":83},{"user_id":825,"name":"CherriKat","steam_id":76561198821297512,"connected_time":1734000000000,"state":"active","ping":104},{"user_id":683,"name":"NukaTheRabbit {Fur}","steam_id":76561198058692928,"connected_time":13927000000000,"state":"active","ping":45}]},{"server_id":106,"name":"Uncletopia | Chicago | 2 | All Maps","name_short":"chi-2","host":"chi-1.us.uncletopia.com","port":27025,"enabled":true,"region":"us-central","cc":"us","latitude":41.881832,"longitude":-87.62318,"reserved":0,"last_update":"0001-01-01T00:00:00Z","name_a2s":"Uncletopia | Chicago | 2 | All Maps","protocol":17,"map":"pl_thundermountain","folder":"tf","game":"Team Fortress","app_id":440,"player_count":24,"max_players":24,"Bots":0,"server_type":"Dedicated","server_os":"Linux","password":true,"vac":true,"version":"7961495","steam_id":85568392924469985,"keywords":["nocrits","nodmgspread","payload","uncletopia"],"game_id":440,"stv_port":27026,"stv_name":"Uncletopia | Chicago | 2 | All Maps | STV","players":[{"user_id":856,"name":"howtobepker","steam_id":76561198115053865,"connected_time":10700000000000,"state":"active","ping":84},{"user_id":922,"name":"Dr. FlimFlam","steam_id":76561198049212986,"connected_time":3087000000000,"state":"active","ping":86},{"user_id":941,"name":"6 million bees","steam_id":76561198400438007,"connected_time":1756000000000,"state":"active","ping":49},{"user_id":900,"name":"Word To Your Mothership","steam_id":76561198034329138,"connected_time":5980000000000,"state":"active","ping":100},{"user_id":934,"name":"TacoStand985","steam_id":76561198822356815,"connected_time":2693000000000,"state":"active","ping":61},{"user_id":945,"name":"Skeleop","steam_id":76561198981106464,"connected_time":990000000000,"state":"active","ping":102},{"user_id":926,"name":"страдаю как я","steam_id":76561198021308963,"connected_time":2842000000000,"state":"active","ping":72},{"user_id":950,"name":"spaceboots","steam_id":76561197977322319,"connected_time":215000000000,"state":"active","ping":61},{"user_id":935,"name":"TheOneZoot","steam_id":76561198121944243,"connected_time":2463000000000,"state":"active","ping":80},{"user_id":886,"name":"cooljason08","steam_id":76561198248153988,"connected_time":7218000000000,"state":"active","ping":63},{"user_id":933,"name":"Combez","steam_id":76561198215028184,"connected_time":2715000000000,"state":"active","ping":75},{"user_id":905,"name":"MedRed™ #IATAH","steam_id":76561198002962970,"connected_time":4600000000000,"state":"active","ping":105},{"user_id":906,"name":"DinkleBerg","steam_id":76561198891626233,"connected_time":4413000000000,"state":"active","ping":66},{"user_id":930,"name":"Girthworm Jim","steam_id":76561198007433376,"connected_time":2769000000000,"state":"active","ping":82},{"user_id":949,"name":"FiddyFoMike","steam_id":76561198057072581,"connected_time":344000000000,"state":"active","ping":98},{"user_id":947,"name":"Warhead","steam_id":76561198067746049,"connected_time":391000000000,"state":"active","ping":108},{"user_id":931,"name":"WheelockWarlock","steam_id":76561198171456553,"connected_time":2765000000000,"state":"active","ping":96},{"user_id":943,"name":"Otto","steam_id":76561198167371080,"connected_time":1467000000000,"state":"active","ping":188},{"user_id":948,"name":"Raspylightining","steam_id":76561198148343305,"connected_time":355000000000,"state":"active","ping":49},{"user_id":918,"name":"blou :(","steam_id":76561198273483554,"connected_time":3663000000000,"state":"active","ping":61},{"user_id":864,"name":"Scooty.","steam_id":76561198138990283,"connected_time":10033000000000,"state":"active","ping":68},{"user_id":713,"name":"Lia_Rein","steam_id":76561198151569597,"connected_time":18048000000000,"state":"active","ping":138},{"user_id":871,"name":"Swash","steam_id":76561197969421355,"connected_time":9279000000000,"state":"active","ping":70},{"user_id":924,"name":"mellowhype","steam_id":76561198040675606,"connected_time":3067000000000,"state":"active","ping":77}]},{"server_id":402,"name":"Uncletopia | Chicago | 3 | All Maps","name_short":"chi-3","host":"chi-1.us.uncletopia.com","port":27035,"enabled":true,"region":"us-central","cc":"us","latitude":41.881832,"longitude":-87.62318,"reserved":0,"last_update":"0001-01-01T00:00:00Z","name_a2s":"Uncletopia | Chicago | 3 | All Maps","protocol":17,"map":"cp_snakewater_final1","folder":"tf","game":"Team Fortress","app_id":440,"player_count":23,"max_players":24,"Bots":0,"server_type":"Dedicated","server_os":"Linux","password":true,"vac":true,"version":"7961495","steam_id":85568392924515191,"keywords":["cp","nocrits","nodmgspread","uncletopia"],"game_id":440,"stv_port":27036,"stv_name":"Uncletopia | Chicago | 3 | All Maps | STV","players":[{"user_id":592,"name":"Draven","steam_id":76561198074776388,"connected_time":756000000000,"state":"active","ping":85},{"user_id":586,"name":"St. Michael","steam_id":76561198037611052,"connected_time":805000000000,"state":"active","ping":65},{"user_id":595,"name":"RusticCarp42989","steam_id":76561198361151865,"connected_time":606000000000,"state":"active","ping":115},{"user_id":584,"name":"bacon :D","steam_id":76561199121940464,"connected_time":826000000000,"state":"active","ping":95},{"user_id":588,"name":"thepokeyen","steam_id":76561198236847572,"connected_time":795000000000,"state":"active","ping":68},{"user_id":589,"name":"OrionKid","steam_id":76561198359094901,"connected_time":787000000000,"state":"active","ping":66},{"user_id":562,"name":"Waffle","steam_id":76561199000034608,"connected_time":2065000000000,"state":"active","ping":66},{"user_id":600,"name":"D.A.V.I.D","steam_id":76561199443570634,"connected_time":106000000000,"state":"active","ping":124},{"user_id":507,"name":"Rat King (Deposed)","steam_id":76561198271907916,"connected_time":5905000000000,"state":"active","ping":55},{"user_id":447,"name":"SiltyStar85","steam_id":76561198309175923,"connected_time":11871000000000,"state":"active","ping":91},{"user_id":602,"name":"Timmy Rockets","steam_id":76561198040743777,"connected_time":44000000000,"state":"active","ping":58},{"user_id":596,"name":"goopgrabber","steam_id":76561199029951083,"connected_time":579000000000,"state":"active","ping":101},{"user_id":578,"name":"Amoxicilina","steam_id":76561198168486429,"connected_time":1160000000000,"state":"active","ping":115},{"user_id":603,"name":"G.Flewit","steam_id":76561199214365392,"connected_time":40000000000,"state":"active","ping":72},{"user_id":550,"name":"Papahemmy","steam_id":76561198155470810,"connected_time":2943000000000,"state":"active","ping":64},{"user_id":582,"name":"josh","steam_id":76561198111565081,"connected_time":1051000000000,"state":"active","ping":112},{"user_id":591,"name":"Gram Tokers Count Doinkula","steam_id":76561198112811565,"connected_time":772000000000,"state":"active","ping":74},{"user_id":568,"name":"garfield","steam_id":76561198114119308,"connected_time":1931000000000,"state":"active","ping":74},{"user_id":558,"name":"caption cool","steam_id":76561197990612056,"connected_time":2216000000000,"state":"active","ping":46},{"user_id":594,"name":"max poop retention","steam_id":76561199050461421,"connected_time":660000000000,"state":"active","ping":104},{"user_id":601,"name":"frank","steam_id":76561198137777483,"connected_time":96000000000,"state":"active","ping":74},{"user_id":597,"name":"He Who Dared Say \"SuS\"","steam_id":76561198123441203,"connected_time":561000000000,"state":"active","ping":62},{"user_id":581,"name":"ttv/ItsDrPuppers","steam_id":76561198084049607,"connected_time":1101000000000,"state":"active","ping":89}]},{"server_id":403,"name":"Uncletopia | Chicago | 4 | All Maps","name_short":"chi-4","host":"chi-1.us.uncletopia.com","port":27045,"enabled":true,"region":"us-central","cc":"us","latitude":41.881832,"longitude":-87.62318,"reserved":0,"last_update":"0001-01-01T00:00:00Z","name_a2s":"Uncletopia | Chicago | 4 | All Maps","protocol":17,"map":"pl_frontier_final","folder":"tf","game":"Team Fortress","app_id":440,"player_count":23,"max_players":24,"Bots":0,"server_type":"Dedicated","server_os":"Linux","password":true,"vac":true,"version":"7961495","steam_id":85568392924515193,"keywords":["nocrits","nodmgspread","payload","uncletopia"],"game_id":440,"stv_port":27046,"stv_name":"Uncletopia | Chicago | 4 | All Maps | STV","players":[{"user_id":301,"name":"aloysius","steam_id":76561199193617048,"connected_time":8165000000000,"state":"active","ping":86},{"user_id":362,"name":"Mayan","steam_id":76561198087915957,"connected_time":1971000000000,"state":"active","ping":47},{"user_id":326,"name":"Noise from pizzatower","steam_id":76561198835144780,"connected_time":5555000000000,"state":"active","ping":73},{"user_id":374,"name":"Doctor Skeltal","steam_id":76561198120450240,"connected_time":1559000000000,"state":"active","ping":80},{"user_id":340,"name":"thecal","steam_id":76561198307893384,"connected_time":4090000000000,"state":"active","ping":47},{"user_id":308,"name":"catfish from toontown","steam_id":76561198060070002,"connected_time":7295000000000,"state":"active","ping":76},{"user_id":355,"name":"stedman slick","steam_id":76561198088599835,"connected_time":2400000000000,"state":"active","ping":78},{"user_id":231,"name":"wunkem","steam_id":76561198055948497,"connected_time":14308000000000,"state":"active","ping":65},{"user_id":363,"name":"THICCBEEF GRANDPA","steam_id":76561197993550572,"connected_time":1864000000000,"state":"active","ping":69},{"user_id":310,"name":"milk","steam_id":76561198209000640,"connected_time":6916000000000,"state":"active","ping":69},{"user_id":364,"name":"crotuslovershanks","steam_id":76561199091300223,"connected_time":1863000000000,"state":"active","ping":71},{"user_id":331,"name":"Boboblin","steam_id":76561199030131717,"connected_time":4311000000000,"state":"active","ping":90},{"user_id":383,"name":"Bendidy","steam_id":76561198041964300,"connected_time":742000000000,"state":"active","ping":111},{"user_id":371,"name":"Bingo","steam_id":76561198865253634,"connected_time":1643000000000,"state":"active","ping":59},{"user_id":343,"name":"Digresser","steam_id":76561198016426367,"connected_time":3909000000000,"state":"active","ping":58},{"user_id":380,"name":"MayKaye","steam_id":76561199016092265,"connected_time":962000000000,"state":"active","ping":100},{"user_id":384,"name":"SKForm","steam_id":76561198381500437,"connected_time":734000000000,"state":"active","ping":55},{"user_id":386,"name":"ADRIEN BRODY","steam_id":76561198009299473,"connected_time":135000000000,"state":"active","ping":67},{"user_id":378,"name":"OctoHam","steam_id":76561198143371318,"connected_time":998000000000,"state":"active","ping":99},{"user_id":369,"name":"Bread","steam_id":76561198251896612,"connected_time":1757000000000,"state":"active","ping":49},{"user_id":387,"name":"A Quiet Fartwell","steam_id":76561198397009880,"connected_time":103000000000,"state":"active","ping":67},{"user_id":382,"name":":)","steam_id":76561198210322871,"connected_time":957000000000,"state":"active","ping":109},{"user_id":376,"name":"duck, duck, LOVE","steam_id":76561198010706701,"connected_time":1463000000000,"state":"active","ping":70}]},{"server_id":36,"name":"Uncletopia | Chicago | 5 | All Maps","name_short":"chi-5","host":"chi-2.us.uncletopia.com","port":27015,"enabled":true,"region":"us-central","cc":"us","latitude":41.881832,"longitude":-87.62318,"reserved":0,"last_update":"0001-01-01T00:00:00Z","name_a2s":"Uncletopia | Chicago | 5 | All Maps","protocol":17,"map":"pl_snowycoast","folder":"tf","game":"Team Fortress","app_id":440,"player_count":24,"max_players":24,"Bots":0,"server_type":"Dedicated","server_os":"Linux","password":true,"vac":true,"version":"7961495","steam_id":85568392924866362,"keywords":["nocrits","nodmgspread","payload","uncletopia"],"game_id":440,"stv_port":27016,"stv_name":"Uncletopia | Chicago | 5 | All Maps | STV","players":[{"user_id":264,"name":"bubbablades","steam_id":76561198044259727,"connected_time":361000000000,"state":"active","ping":91},{"user_id":76,"name":"Hamz","steam_id":76561199287459211,"connected_time":16559000000000,"state":"active","ping":70},{"user_id":261,"name":"lime creator","steam_id":76561198074047574,"connected_time":492000000000,"state":"active","ping":115},{"user_id":256,"name":"Sir Arthur Wellesley","steam_id":76561198073344614,"connected_time":614000000000,"state":"active","ping":85},{"user_id":255,"name":"marsupial superstar","steam_id":76561198102148550,"connected_time":631000000000,"state":"active","ping":104},{"user_id":249,"name":"dinero","steam_id":76561198839809413,"connected_time":1093000000000,"state":"active","ping":78},{"user_id":266,"name":"SixtyFiveOhSeven","steam_id":76561198044260314,"connected_time":107000000000,"state":"active","ping":87},{"user_id":252,"name":"Zanartan","steam_id":76561198050528902,"connected_time":953000000000,"state":"active","ping":184},{"user_id":231,"name":"The Fiend","steam_id":76561199229771413,"connected_time":3495000000000,"state":"active","ping":56},{"user_id":257,"name":"Brad Bones","steam_id":76561198068129320,"connected_time":589000000000,"state":"active","ping":80},{"user_id":213,"name":"rin","steam_id":76561198155841915,"connected_time":5059000000000,"state":"active","ping":75},{"user_id":224,"name":"LVL","steam_id":76561198334403617,"connected_time":4179000000000,"state":"active","ping":59},{"user_id":152,"name":"High Medic","steam_id":76561198082405984,"connected_time":10149000000000,"state":"active","ping":63},{"user_id":262,"name":"tooba","steam_id":76561198202589758,"connected_time":471000000000,"state":"active","ping":74},{"user_id":239,"name":"Sage","steam_id":76561198143101697,"connected_time":2428000000000,"state":"active","ping":105},{"user_id":229,"name":"badboy6996","steam_id":76561197969386201,"connected_time":3547000000000,"state":"active","ping":55},{"user_id":232,"name":"MelonFelonies","steam_id":76561198804631199,"connected_time":3492000000000,"state":"active","ping":61},{"user_id":210,"name":"Cat_Soldier","steam_id":76561198799974610,"connected_time":5096000000000,"state":"active","ping":65},{"user_id":190,"name":"Fish","steam_id":76561199044619031,"connected_time":7064000000000,"state":"active","ping":67},{"user_id":265,"name":"della","steam_id":76561198118877005,"connected_time":260000000000,"state":"active","ping":45},{"user_id":247,"name":"Cold shoulder","steam_id":76561198453824178,"connected_time":1263000000000,"state":"active","ping":133},{"user_id":259,"name":"Shrebbie","steam_id":76561198875230824,"connected_time":582000000000,"state":"active","ping":61},{"user_id":186,"name":"guac","steam_id":76561198407685013,"connected_time":7275000000000,"state":"active","ping":52},{"user_id":263,"name":"StaqOverFlow-","steam_id":76561197996990527,"connected_time":443000000000,"state":"active","ping":106}]},{"server_id":37,"name":"Uncletopia | Chicago | 6 | All Maps","name_short":"chi-6","host":"chi-2.us.uncletopia.com","port":27025,"enabled":true,"region":"us-central","cc":"us","latitude":41.881832,"longitude":-87.62318,"reserved":0,"last_update":"0001-01-01T00:00:00Z","name_a2s":"Uncletopia | Chicago | 6 | All Maps","protocol":17,"map":"pl_pier","folder":"tf","game":"Team Fortress","app_id":440,"player_count":17,"max_players":24,"Bots":0,"server_type":"Dedicated","server_os":"Linux","password":true,"vac":true,"version":"7961495","steam_id":85568392924866363,"keywords":["nocrits","nodmgspread","payload","uncletopia"],"game_id":440,"stv_port":27026,"stv_name":"Uncletopia | Chicago | 6 | All Maps | STV","players":[{"user_id":650,"name":"ultralisk52","steam_id":76561198051666604,"connected_time":214000000000,"state":"active","ping":59},{"user_id":653,"name":"Santa","steam_id":76561198116497523,"connected_time":115000000000,"state":"active","ping":65},{"user_id":657,"name":"GIGAHAXX","steam_id":76561197993714726,"connected_time":22000000000,"state":"active","ping":71},{"user_id":612,"name":"Lore","steam_id":76561198098407538,"connected_time":3243000000000,"state":"active","ping":45},{"user_id":654,"name":"Vladimir Chirgin","steam_id":76561198170035235,"connected_time":73000000000,"state":"active","ping":42},{"user_id":575,"name":"Quebec","steam_id":76561198865760503,"connected_time":8498000000000,"state":"active","ping":73},{"user_id":658,"name":"SquidDaddy","steam_id":76561198096744808,"connected_time":16000000000,"state":"active","ping":68},{"user_id":643,"name":"YASAI JUICE","steam_id":76561198131971992,"connected_time":950000000000,"state":"active","ping":31},{"user_id":655,"name":"Dr. Sex","steam_id":76561198110144123,"connected_time":66000000000,"state":"active","ping":113},{"user_id":656,"name":"Bankaroo","steam_id":76561198810571270,"connected_time":40000000000,"state":"spawning","ping":116},{"user_id":604,"name":"cooper","steam_id":76561198272034065,"connected_time":3822000000000,"state":"active","ping":89},{"user_id":647,"name":"Kingcole2022","steam_id":76561198030663950,"connected_time":396000000000,"state":"active","ping":79},{"user_id":642,"name":"noellehound (she/her)","steam_id":76561198108844158,"connected_time":963000000000,"state":"active","ping":91},{"user_id":645,"name":"zpalmtree","steam_id":76561198134307620,"connected_time":798000000000,"state":"active","ping":63},{"user_id":659,"name":"I LOVE COOKIES","steam_id":76561199082237494,"connected_time":8000000000,"state":"active","ping":255},{"user_id":636,"name":"Burf","steam_id":76561198019341161,"connected_time":1664000000000,"state":"active","ping":70},{"user_id":619,"name":"Frontier Psychiatrist","steam_id":76561198038689088,"connected_time":2948000000000,"state":"active","ping":88}]},{"server_id":38,"name":"Uncletopia | Chicago | 7 | Stopwatch","name_short":"chi-7","host":"chi-2.us.uncletopia.com","port":27035,"enabled":true,"region":"us-central","cc":"us","latitude":41.881832,"longitude":-87.62318,"reserved":0,"last_update":"0001-01-01T00:00:00Z","name_a2s":"Uncletopia | Chicago | 7 | Stopwatch","protocol":17,"map":"pl_swiftwater_final1","folder":"tf","game":"Team Fortress","app_id":440,"player_count":22,"max_players":24,"Bots":0,"server_type":"Dedicated","server_os":"Linux","password":true,"vac":true,"version":"7961495","steam_id":85568392924866364,"keywords":["nocrits","nodmgspread","payload","uncletopia"],"game_id":440,"stv_port":27036,"stv_name":"Uncletopia | Chicago | 7 | Stopwatch | STV","players":[{"user_id":133,"name":"Ace Chromatica","steam_id":76561198042211131,"connected_time":6389000000000,"state":"active","ping":55},{"user_id":174,"name":"only a spoonful","steam_id":76561198113180616,"connected_time":3350000000000,"state":"active","ping":66},{"user_id":206,"name":"Post-It Paige","steam_id":76561198294059159,"connected_time":532000000000,"state":"active","ping":92},{"user_id":215,"name":"TheSnipersHat","steam_id":76561198057684066,"connected_time":164000000000,"state":"active","ping":55},{"user_id":167,"name":"chesterwnimitz","steam_id":76561198062664377,"connected_time":3734000000000,"state":"active","ping":88},{"user_id":199,"name":"Duncan Idaho","steam_id":76561197988963861,"connected_time":1665000000000,"state":"active","ping":107},{"user_id":191,"name":"Butters495","steam_id":76561197998689042,"connected_time":2378000000000,"state":"active","ping":82},{"user_id":205,"name":"Chef Jefff","steam_id":76561197972331769,"connected_time":550000000000,"state":"active","ping":79},{"user_id":161,"name":"Luxcraz","steam_id":76561198035278349,"connected_time":4068000000000,"state":"active","ping":62},{"user_id":192,"name":"schnedwob","steam_id":76561197999146588,"connected_time":2364000000000,"state":"active","ping":74},{"user_id":208,"name":"viper","steam_id":76561198839942937,"connected_time":475000000000,"state":"active","ping":60},{"user_id":209,"name":"igor","steam_id":76561198984517474,"connected_time":429000000000,"state":"active","ping":181},{"user_id":198,"name":"ImmortalProphet","steam_id":76561198012352477,"connected_time":1844000000000,"state":"active","ping":46},{"user_id":180,"name":"DuckTM","steam_id":76561198871205540,"connected_time":3197000000000,"state":"active","ping":57},{"user_id":214,"name":"cigarette salesman","steam_id":76561198067804283,"connected_time":224000000000,"state":"active","ping":82},{"user_id":210,"name":"Acuzik","steam_id":76561198045453400,"connected_time":390000000000,"state":"active","ping":42},{"user_id":211,"name":"Braingoo Hex","steam_id":76561198083094783,"connected_time":388000000000,"state":"active","ping":100},{"user_id":183,"name":"Phillip Jeffries","steam_id":76561198064052174,"connected_time":3061000000000,"state":"active","ping":62},{"user_id":187,"name":"gIBBY","steam_id":76561198080099598,"connected_time":2895000000000,"state":"active","ping":52},{"user_id":166,"name":"Morthos_Dretchsticke","steam_id":76561199050069175,"connected_time":3840000000000,"state":"active","ping":74},{"user_id":197,"name":"picklerick4736","steam_id":76561199123994658,"connected_time":2077000000000,"state":"active","ping":54},{"user_id":212,"name":"his flatulence","steam_id":76561198799404824,"connected_time":374000000000,"state":"active","ping":79}]},{"server_id":39,"name":"Uncletopia | Chicago | 8 | Community","name_short":"chi-8","host":"chi-2.us.uncletopia.com","port":27045,"enabled":true,"region":"us-central","cc":"us","latitude":41.881832,"longitude":-87.62318,"reserved":0,"last_update":"0001-01-01T00:00:00Z","name_a2s":"Uncletopia | Chicago | 8 | Community","protocol":17,"map":"workshop/cp_bruhstbowl_b6.ugc2878604990","folder":"tf","game":"Team Fortress","app_id":440,"player_count":16,"max_players":24,"Bots":0,"server_type":"Dedicated","server_os":"Linux","password":true,"vac":true,"version":"7961495","steam_id":85568392924866365,"keywords":["cp","nocrits","nodmgspread","uncletopia"],"game_id":440,"stv_port":27046,"stv_name":"Uncletopia | Chicago | 8 | Community | STV","players":[{"user_id":128,"name":"Ⓑ⓪⓪ⓣⓨⓒⓐⓚⓔⓢ","steam_id":76561198088776421,"connected_time":1473000000000,"state":"active","ping":60},{"user_id":147,"name":"Ranch on Everything","steam_id":76561199471211107,"connected_time":163000000000,"state":"active","ping":127},{"user_id":123,"name":"Acorn","steam_id":76561198353480153,"connected_time":1812000000000,"state":"active","ping":53},{"user_id":124,"name":"stiGGy","steam_id":76561198049311931,"connected_time":1664000000000,"state":"active","ping":77},{"user_id":148,"name":"Target Audience","steam_id":76561198095536103,"connected_time":133000000000,"state":"active","ping":50},{"user_id":149,"name":"Saphie (no monitor)","steam_id":76561198045740818,"connected_time":114000000000,"state":"active","ping":91},{"user_id":126,"name":"Cute and Funny","steam_id":76561198109885889,"connected_time":1652000000000,"state":"active","ping":94},{"user_id":150,"name":"Azazellotl","steam_id":76561198824814392,"connected_time":42000000000,"state":"active","ping":83},{"user_id":127,"name":"Jo-Bro","steam_id":76561198179902529,"connected_time":1615000000000,"state":"active","ping":61},{"user_id":145,"name":"Dan","steam_id":76561198205054883,"connected_time":567000000000,"state":"active","ping":100},{"user_id":116,"name":"the rizzler","steam_id":76561198012917426,"connected_time":2860000000000,"state":"active","ping":76},{"user_id":146,"name":"crayonnipple","steam_id":76561198070253331,"connected_time":566000000000,"state":"active","ping":74},{"user_id":81,"name":"Smiley Fries","steam_id":76561198052763637,"connected_time":6089000000000,"state":"active","ping":55},{"user_id":138,"name":"Kng","steam_id":76561198993248203,"connected_time":1133000000000,"state":"active","ping":89},{"user_id":82,"name":"Bob","steam_id":76561198038708273,"connected_time":6082000000000,"state":"active","ping":58},{"user_id":118,"name":"the rizzard","steam_id":76561198431594430,"connected_time":2806000000000,"state":"active","ping":60}]},{"server_id":8,"name":"Uncletopia | Dallas | 1 | All Maps","name_short":"dal-1","host":"dal-1.us.uncletopia.com","port":27015,"enabled":true,"region":"us-central","cc":"us","latitude":32.779167,"longitude":-96.80889,"reserved":0,"last_update":"0001-01-01T00:00:00Z","name_a2s":"Uncletopia | Dallas | 1 | All Maps","protocol":17,"map":"cp_dustbowl","folder":"tf","game":"Team Fortress","app_id":440,"player_count":18,"max_players":24,"Bots":0,"server_type":"Dedicated","server_os":"Linux","password":true,"vac":true,"version":"7961495","steam_id":85568392924469986,"keywords":["cp","nocrits","nodmgspread","uncletopia"],"game_id":440,"stv_port":27016,"stv_name":"Uncletopia | Dallas | 1 | All Maps | STV","players":[{"user_id":617,"name":"oyasumi","steam_id":76561198128614882,"connected_time":236000000000,"state":"active","ping":90},{"user_id":614,"name":"PhattyPhlop","steam_id":76561198153349473,"connected_time":333000000000,"state":"active","ping":59},{"user_id":618,"name":"lil parma","steam_id":76561198035922275,"connected_time":233000000000,"state":"active","ping":44},{"user_id":621,"name":"flu walrus","steam_id":76561198207940136,"connected_time":107000000000,"state":"active","ping":50},{"user_id":620,"name":"lamadre07","steam_id":76561198067337453,"connected_time":118000000000,"state":"active","ping":75},{"user_id":612,"name":"LampMan","steam_id":76561198079857527,"connected_time":397000000000,"state":"active","ping":59},{"user_id":605,"name":"troubless","steam_id":76561198335431391,"connected_time":2281000000000,"state":"active","ping":60},{"user_id":622,"name":"Portaldude626","steam_id":76561198954610452,"connected_time":62000000000,"state":"active","ping":60},{"user_id":623,"name":"elrojas4500","steam_id":76561199085282179,"connected_time":27000000000,"state":"spawning","ping":62},{"user_id":597,"name":"1-800-CLUNGE-DUMPSTER","steam_id":76561198059780866,"connected_time":2692000000000,"state":"active","ping":68},{"user_id":624,"name":"sooley","steam_id":76561198134500189,"connected_time":11000000000,"state":"spawning","ping":74},{"user_id":606,"name":"Roxie (She/Her)","steam_id":76561198283084060,"connected_time":1866000000000,"state":"active","ping":86},{"user_id":625,"name":"bombs away!","steam_id":76561198140305247,"connected_time":5000000000,"state":"spawning","ping":82},{"user_id":610,"name":"ItsCaleB","steam_id":76561198376522348,"connected_time":1355000000000,"state":"active","ping":93},{"user_id":435,"name":"THRONGLER","steam_id":76561198198563466,"connected_time":15283000000000,"state":"active","ping":38},{"user_id":544,"name":"U ω U","steam_id":76561198118802562,"connected_time":6845000000000,"state":"active","ping":91},{"user_id":592,"name":"yes","steam_id":76561199226277457,"connected_time":3186000000000,"state":"active","ping":75},{"user_id":538,"name":"H2OBourne","steam_id":76561198396293109,"connected_time":7306000000000,"state":"active","ping":67}]},{"server_id":108,"name":"Uncletopia | Dallas | 2 | All Maps","name_short":"dal-2","host":"dal-1.us.uncletopia.com","port":27025,"enabled":true,"region":"us-central","cc":"us","latitude":32.779167,"longitude":-96.80889,"reserved":0,"last_update":"0001-01-01T00:00:00Z","name_a2s":"Uncletopia | Dallas | 2 | All Maps","protocol":17,"map":"cp_dustbowl","folder":"tf","game":"Team Fortress","app_id":440,"player_count":23,"max_players":24,"Bots":0,"server_type":"Dedicated","server_os":"Linux","password":true,"vac":true,"version":"7961495","steam_id":85568392924469988,"keywords":["cp","nocrits","nodmgspread","uncletopia"],"game_id":440,"stv_port":27026,"stv_name":"Uncletopia | Dallas | 2 | All Maps | STV","players":[{"user_id":327,"name":"Gary Busey","steam_id":76561197970096950,"connected_time":8601000000000,"state":"active","ping":44},{"user_id":366,"name":"satilite","steam_id":76561199127035429,"connected_time":5662000000000,"state":"active","ping":113},{"user_id":421,"name":"Sam","steam_id":76561199057029718,"connected_time":2635000000000,"state":"active","ping":97},{"user_id":440,"name":"Charles","steam_id":76561198155322277,"connected_time":905000000000,"state":"active","ping":94},{"user_id":429,"name":"harold","steam_id":76561199016285746,"connected_time":1482000000000,"state":"active","ping":67},{"user_id":389,"name":"DeckofDragons","steam_id":76561198057398213,"connected_time":4837000000000,"state":"active","ping":71},{"user_id":431,"name":"intense radish","steam_id":76561199061038624,"connected_time":1332000000000,"state":"active","ping":75},{"user_id":430,"name":"G. Howard Dee","steam_id":76561198058382812,"connected_time":1404000000000,"state":"active","ping":74},{"user_id":452,"name":"RandomGavin?","steam_id":76561199102839784,"connected_time":33000000000,"state":"active","ping":138},{"user_id":447,"name":"-L","steam_id":76561198046074220,"connected_time":203000000000,"state":"active","ping":75},{"user_id":399,"name":"Cosmic Soup","steam_id":76561198448801117,"connected_time":3949000000000,"state":"active","ping":103},{"user_id":441,"name":"the master of cats","steam_id":76561198819255576,"connected_time":784000000000,"state":"active","ping":77},{"user_id":450,"name":"Gettiz","steam_id":76561198160801090,"connected_time":112000000000,"state":"active","ping":112},{"user_id":418,"name":"Top Score","steam_id":76561197998396236,"connected_time":2758000000000,"state":"active","ping":51},{"user_id":406,"name":"SoldMyKidneyForCollege","steam_id":76561198096329559,"connected_time":3767000000000,"state":"active","ping":85},{"user_id":436,"name":"HeroOfTime","steam_id":76561199096218001,"connected_time":1228000000000,"state":"active","ping":83},{"user_id":448,"name":"sleepy","steam_id":76561198288663776,"connected_time":195000000000,"state":"active","ping":91},{"user_id":451,"name":"Moth Beam","steam_id":76561198005069202,"connected_time":88000000000,"state":"active","ping":51},{"user_id":438,"name":"notLoona","steam_id":76561198861851215,"connected_time":1206000000000,"state":"active","ping":65},{"user_id":444,"name":"Orix15","steam_id":76561198214644492,"connected_time":489000000000,"state":"active","ping":124},{"user_id":379,"name":"Cosmic_ScreechTTV","steam_id":76561198092551523,"connected_time":5285000000000,"state":"active","ping":68},{"user_id":420,"name":"max.motors","steam_id":76561197968363752,"connected_time":2725000000000,"state":"active","ping":101},{"user_id":445,"name":"plutonium isotope","steam_id":76561198319442494,"connected_time":224000000000,"state":"active","ping":86}]},{"server_id":404,"name":"Uncletopia | Dallas | 3 | All Maps","name_short":"dal-3","host":"dal-1.us.uncletopia.com","port":27035,"enabled":true,"region":"us-central","cc":"us","latitude":32.779167,"longitude":-96.80889,"reserved":0,"last_update":"0001-01-01T00:00:00Z","name_a2s":"Uncletopia | Dallas | 3 | All Maps","protocol":17,"map":"cp_mercenarypark","folder":"tf","game":"Team Fortress","app_id":440,"player_count":23,"max_players":24,"Bots":0,"server_type":"Dedicated","server_os":"Linux","password":true,"vac":true,"version":"7961495","steam_id":85568392924515219,"keywords":["cp","nocrits","nodmgspread","uncletopia"],"game_id":440,"stv_port":27036,"stv_name":"Uncletopia | Dallas | 3 | All Maps | STV","players":[{"user_id":286,"name":"Elon Bust","steam_id":76561198053555255,"connected_time":539000000000,"state":"active","ping":61},{"user_id":201,"name":"4 life","steam_id":76561198175961598,"connected_time":7835000000000,"state":"active","ping":102},{"user_id":277,"name":"caliecat","steam_id":76561198075902571,"connected_time":1301000000000,"state":"active","ping":89},{"user_id":287,"name":"Dalsmo","steam_id":76561198062947397,"connected_time":482000000000,"state":"active","ping":63},{"user_id":256,"name":"ian","steam_id":76561198119616750,"connected_time":2638000000000,"state":"active","ping":74},{"user_id":288,"name":"Freedy","steam_id":76561199115274103,"connected_time":474000000000,"state":"active","ping":88},{"user_id":289,"name":"Motivational Man","steam_id":76561198414889101,"connected_time":404000000000,"state":"active","ping":82},{"user_id":246,"name":"This Water Slaps","steam_id":76561198079089813,"connected_time":3992000000000,"state":"active","ping":71},{"user_id":290,"name":"Argon","steam_id":76561199254804349,"connected_time":387000000000,"state":"active","ping":84},{"user_id":240,"name":"Bean Marrow","steam_id":76561198116650223,"connected_time":4376000000000,"state":"active","ping":74},{"user_id":292,"name":"Mi cara","steam_id":76561198190771759,"connected_time":336000000000,"state":"active","ping":129},{"user_id":280,"name":"plink","steam_id":76561198057829889,"connected_time":1245000000000,"state":"active","ping":53},{"user_id":293,"name":"memejd10","steam_id":76561198827996453,"connected_time":327000000000,"state":"active","ping":57},{"user_id":294,"name":"frog gaming","steam_id":76561198323926258,"connected_time":317000000000,"state":"active","ping":45},{"user_id":279,"name":"StarB","steam_id":76561198149605368,"connected_time":1274000000000,"state":"active","ping":85},{"user_id":295,"name":"Star_Mann_Jr.","steam_id":76561198071148924,"connected_time":314000000000,"state":"active","ping":88},{"user_id":253,"name":"Stacy","steam_id":76561198305817355,"connected_time":3344000000000,"state":"active","ping":85},{"user_id":296,"name":"Daaniil","steam_id":76561198815494004,"connected_time":308000000000,"state":"active","ping":113},{"user_id":170,"name":"Moonflower ✦","steam_id":76561198191782483,"connected_time":9054000000000,"state":"active","ping":51},{"user_id":248,"name":"Plains Phoenix","steam_id":76561198817161299,"connected_time":3731000000000,"state":"active","ping":57},{"user_id":272,"name":"Cebula33","steam_id":76561197984964095,"connected_time":1860000000000,"state":"active","ping":90},{"user_id":297,"name":"BlancaLamb","steam_id":76561198025646073,"connected_time":230000000000,"state":"active","ping":86},{"user_id":302,"name":"Jazz2T","steam_id":76561198154418867,"connected_time":0,"state":"connecting","ping":0}]},{"server_id":405,"name":"Uncletopia | Dallas | 4 | Community","name_short":"dal-4","host":"dal-1.us.uncletopia.com","port":27045,"enabled":true,"region":"us-central","cc":"us","latitude":32.779167,"longitude":-96.80889,"reserved":0,"last_update":"0001-01-01T00:00:00Z","name_a2s":"Uncletopia | Dallas | 4 | Community","protocol":17,"map":"workshop/koth_bagel_rc6.ugc2514036946","folder":"tf","game":"Team Fortress","app_id":440,"player_count":1,"max_players":24,"Bots":0,"server_type":"Dedicated","server_os":"Linux","password":true,"vac":true,"version":"7961495","steam_id":85568392924515220,"keywords":["cp","nocrits","nodmgspread","uncletopia"],"game_id":440,"stv_port":27046,"stv_name":"Uncletopia | Dallas | 4 | Community | STV","players":[{"user_id":14,"name":"Brightmuffin","steam_id":76561198357333409,"connected_time":742000000000,"state":"active","ping":78}]},{"server_id":5,"name":"Uncletopia | Frankfurt | 1 | All Maps","name_short":"frk-1","host":"frk-1.de.uncletopia.com","port":27015,"enabled":true,"region":"eu","cc":"de","latitude":50.110924,"longitude":8.682127,"reserved":0,"last_update":"0001-01-01T00:00:00Z","name_a2s":"Uncletopia | Frankfurt | 1 | All Maps","protocol":17,"map":"koth_highpass","folder":"tf","game":"Team Fortress","app_id":440,"player_count":0,"max_players":24,"Bots":0,"server_type":"Dedicated","server_os":"Linux","password":true,"vac":true,"version":"7961495","steam_id":85568392924469989,"keywords":["cp","nocrits","nodmgspread","uncletopia"],"game_id":440,"stv_port":27016,"stv_name":"Uncletopia | Frankfurt | 1 | All Maps | STV","players":null},{"server_id":110,"name":"Uncletopia | Frankfurt | 2 | All Maps","name_short":"frk-2","host":"frk-1.de.uncletopia.com","port":27025,"enabled":true,"region":"eu","cc":"de","latitude":50.110924,"longitude":8.682127,"reserved":0,"last_update":"0001-01-01T00:00:00Z","name_a2s":"Uncletopia | Frankfurt | 2 | All Maps","protocol":17,"map":"cp_dustbowl","folder":"tf","game":"Team Fortress","app_id":440,"player_count":0,"max_players":24,"Bots":0,"server_type":"Dedicated","server_os":"Linux","password":true,"vac":true,"version":"7961495","steam_id":85568392924469990,"keywords":["cp","nocrits","nodmgspread","uncletopia"],"game_id":440,"stv_port":27026,"stv_name":"Uncletopia | Frankfurt | 2 | All Maps | STV","players":null},{"server_id":308,"name":"Uncletopia | Frankfurt | 3 | All Maps","name_short":"frk-3","host":"frk-1.de.uncletopia.com","port":27035,"enabled":true,"region":"eu","cc":"de","latitude":50.110924,"longitude":8.682127,"reserved":0,"last_update":"0001-01-01T00:00:00Z","name_a2s":"Uncletopia | Frankfurt | 3 | All Maps","protocol":17,"map":"pl_barnblitz","folder":"tf","game":"Team Fortress","app_id":440,"player_count":0,"max_players":24,"Bots":0,"server_type":"Dedicated","server_os":"Linux","password":true,"vac":true,"version":"7961495","steam_id":85568392924504274,"keywords":["nocrits","nodmgspread","payload","uncletopia"],"game_id":440,"stv_port":27036,"stv_name":"Uncletopia | Frankfurt | 3 | All Maps | STV","players":null},{"server_id":309,"name":"Uncletopia | Frankfurt | 4 | All Maps","name_short":"frk-4","host":"frk-1.de.uncletopia.com","port":27045,"enabled":true,"region":"eu","cc":"de","latitude":50.110924,"longitude":8.682127,"reserved":0,"last_update":"0001-01-01T00:00:00Z","name_a2s":"Uncletopia | Frankfurt | 4 | All Maps","protocol":17,"map":"koth_highpass","folder":"tf","game":"Team Fortress","app_id":440,"player_count":0,"max_players":24,"Bots":0,"server_type":"Dedicated","server_os":"Linux","password":true,"vac":true,"version":"7961495","steam_id":85568392924504275,"keywords":["cp","nocrits","nodmgspread","uncletopia"],"game_id":440,"stv_port":27046,"stv_name":"Uncletopia | Frankfurt | 4 | All Maps | STV","players":null},{"server_id":310,"name":"Uncletopia | Frankfurt | 5 | All Maps","name_short":"frk-5","host":"frk-1.de.uncletopia.com","port":27055,"enabled":true,"region":"eu","cc":"de","latitude":50.110924,"longitude":8.682127,"reserved":0,"last_update":"0001-01-01T00:00:00Z","name_a2s":"Uncletopia | Frankfurt | 5 | All Maps","protocol":17,"map":"pl_badwater","folder":"tf","game":"Team Fortress","app_id":440,"player_count":0,"max_players":24,"Bots":0,"server_type":"Dedicated","server_os":"Linux","password":true,"vac":true,"version":"7961495","steam_id":85568392924504277,"keywords":["nocrits","nodmgspread","payload","uncletopia"],"game_id":440,"stv_port":27056,"stv_name":"Uncletopia | Frankfurt | 5 | All Maps | STV","players":null},{"server_id":311,"name":"Uncletopia | Frankfurt | 6 | All Maps","name_short":"frk-6","host":"frk-1.de.uncletopia.com","port":27065,"enabled":true,"region":"eu","cc":"de","latitude":50.110924,"longitude":8.682127,"reserved":0,"last_update":"0001-01-01T00:00:00Z","name_a2s":"Uncletopia | Frankfurt | 6 | All Maps","protocol":17,"map":"cp_altitude","folder":"tf","game":"Team Fortress","app_id":440,"player_count":0,"max_players":24,"Bots":0,"server_type":"Dedicated","server_os":"Linux","password":true,"vac":true,"version":"7961495","steam_id":85568392924504278,"keywords":["cp","nocrits","nodmgspread","uncletopia"],"game_id":440,"stv_port":27066,"stv_name":"Uncletopia | Frankfurt | 6 | All Maps | STV","players":null},{"server_id":23,"name":"Uncletopia | Frankfurt | 7 | Stopwatch","name_short":"frk-7","host":"frk-1.de.uncletopia.com","port":27075,"enabled":true,"region":"eu","cc":"de","latitude":50.110924,"longitude":8.682127,"reserved":0,"last_update":"0001-01-01T00:00:00Z","name_a2s":"Uncletopia | Frankfurt | 7 | Stopwatch","protocol":17,"map":"pl_frontier_final","folder":"tf","game":"Team Fortress","app_id":440,"player_count":0,"max_players":24,"Bots":0,"server_type":"Dedicated","server_os":"Linux","password":true,"vac":true,"version":"7961495","steam_id":85568392924742827,"keywords":["nocrits","nodmgspread","payload","uncletopia"],"game_id":440,"stv_port":27076,"stv_name":"Uncletopia | Frankfurt | 7 | Stopwatch | STV","players":null},{"server_id":24,"name":"Uncletopia | Frankfurt | 8 | Community","name_short":"frk-8","host":"frk-1.de.uncletopia.com","port":27085,"enabled":true,"region":"eu","cc":"de","latitude":50.110924,"longitude":8.682127,"reserved":0,"last_update":"0001-01-01T00:00:00Z","name_a2s":"Uncletopia | Frankfurt | 8 | Community","protocol":17,"map":"cp_mountainlab","folder":"tf","game":"Team Fortress","app_id":440,"player_count":0,"max_players":24,"Bots":0,"server_type":"Dedicated","server_os":"Linux","password":true,"vac":true,"version":"7961495","steam_id":85568392924742828,"keywords":["cp","nocrits","nodmgspread","uncletopia"],"game_id":440,"stv_port":27086,"stv_name":"Uncletopia | Frankfurt | 8 | Community | STV","players":null},{"server_id":202,"name":"Uncletopia | Hong Kong | 1 | All Maps","name_short":"hgk-1","host":"hgk-1.hk.uncletopia.com","port":27015,"enabled":true,"region":"asia","cc":"hk","latitude":22.302711,"longitude":114.177216,"reserved":0,"last_update":"0001-01-01T00:00:00Z","name_a2s":"Uncletopia | Hong Kong | 1 | All Maps","protocol":17,"map":"pl_upward","folder":"tf","game":"Team Fortress","app_id":440,"player_count":21,"max_players":24,"Bots":0,"server_type":"Dedicated","server_os":"Linux","password":true,"vac":true,"version":"7961495","steam_id":85568392924494504,"keywords":["nocrits","nodmgspread","payload","uncletopia"],"game_id":440,"stv_port":27016,"stv_name":"Uncletopia | Hong Kong | 1 | All Maps | STV","players":[{"user_id":83,"name":"ふわふわ毛布","steam_id":76561198088403016,"connected_time":914000000000,"state":"active","ping":103},{"user_id":70,"name":"Talkk More","steam_id":76561198305424433,"connected_time":1757000000000,"state":"active","ping":75},{"user_id":113,"name":"Prussian","steam_id":76561198974248745,"connected_time":189000000000,"state":"active","ping":54},{"user_id":71,"name":"Corhix","steam_id":76561198968706355,"connected_time":1572000000000,"state":"active","ping":55},{"user_id":115,"name":"Fakyme","steam_id":76561199222644971,"connected_time":72000000000,"state":"active","ping":69},{"user_id":48,"name":"ZiNX","steam_id":76561198125816569,"connected_time":3489000000000,"state":"active","ping":136},{"user_id":114,"name":"Creaserg","steam_id":76561198827951097,"connected_time":143000000000,"state":"active","ping":86},{"user_id":52,"name":"sea-saw day","steam_id":76561198230213828,"connected_time":3081000000000,"state":"active","ping":57},{"user_id":53,"name":"Momoxhien","steam_id":76561198414997429,"connected_time":3048000000000,"state":"active","ping":63},{"user_id":43,"name":"WORST PYRO MAIN EVER???","steam_id":76561198074339034,"connected_time":3723000000000,"state":"active","ping":73},{"user_id":76,"name":"Satnur","steam_id":76561199445694770,"connected_time":1299000000000,"state":"active","ping":201},{"user_id":63,"name":"Galaxywee","steam_id":76561198257501357,"connected_time":2428000000000,"state":"active","ping":108},{"user_id":103,"name":"derek.patriarca30","steam_id":76561199427230206,"connected_time":278000000000,"state":"active","ping":72},{"user_id":85,"name":"Bossrabeet","steam_id":76561199203075792,"connected_time":726000000000,"state":"active","ping":53},{"user_id":94,"name":"the danger","steam_id":76561198202892874,"connected_time":504000000000,"state":"active","ping":44},{"user_id":35,"name":"Gordon.Freeman","steam_id":76561198337746852,"connected_time":3906000000000,"state":"active","ping":58},{"user_id":79,"name":"Lu","steam_id":76561198320532821,"connected_time":1173000000000,"state":"active","ping":64},{"user_id":100,"name":"lesonkim2222","steam_id":76561198980570856,"connected_time":380000000000,"state":"active","ping":74},{"user_id":47,"name":"I GOT A 96 ON MY MATH","steam_id":76561199137927625,"connected_time":3626000000000,"state":"active","ping":101},{"user_id":72,"name":"You got a war face?","steam_id":76561198047057420,"connected_time":1571000000000,"state":"active","ping":141},{"user_id":101,"name":"17","steam_id":76561198241530712,"connected_time":357000000000,"state":"active","ping":61}]},{"server_id":1,"name":"Uncletopia | Los Angeles | 1 | All Maps","name_short":"lax-1","host":"lax-1.us.uncletopia.com","port":27015,"enabled":true,"region":"us-west","cc":"us","latitude":33.94279,"longitude":-118.41004,"reserved":0,"last_update":"0001-01-01T00:00:00Z","name_a2s":"Uncletopia | Los Angeles | 1 | All Maps","protocol":17,"map":"pl_pier","folder":"tf","game":"Team Fortress","app_id":440,"player_count":22,"max_players":24,"Bots":0,"server_type":"Dedicated","server_os":"Linux","password":true,"vac":true,"version":"7961495","steam_id":85568392924469991,"keywords":["nocrits","nodmgspread","payload","uncletopia"],"game_id":440,"stv_port":27016,"stv_name":"Uncletopia | Los Angeles | 1 | All Maps | STV","players":[{"user_id":344,"name":"Squigzy_","steam_id":76561198061696667,"connected_time":1145000000000,"state":"active","ping":120},{"user_id":355,"name":"cutesness.overload_\u003ew\u003c","steam_id":76561198338739253,"connected_time":6000000000,"state":"spawning","ping":50},{"user_id":339,"name":"JawnyMac","steam_id":76561198179529599,"connected_time":1504000000000,"state":"active","ping":72},{"user_id":343,"name":"John Calibur","steam_id":76561197999986606,"connected_time":1286000000000,"state":"active","ping":45},{"user_id":310,"name":"HevyCheddar","steam_id":76561199388576700,"connected_time":4442000000000,"state":"active","ping":75},{"user_id":338,"name":"Maid 'n' China","steam_id":76561198423392976,"connected_time":1556000000000,"state":"active","ping":54},{"user_id":335,"name":"sobaka","steam_id":76561198116008934,"connected_time":2159000000000,"state":"active","ping":63},{"user_id":303,"name":"ruben!","steam_id":76561198248731498,"connected_time":5170000000000,"state":"active","ping":52},{"user_id":327,"name":"Sirphantom","steam_id":76561198125415432,"connected_time":3084000000000,"state":"active","ping":61},{"user_id":308,"name":"you ain't slick","steam_id":76561199229786558,"connected_time":4522000000000,"state":"active","ping":69},{"user_id":342,"name":"Skaði","steam_id":76561198063949642,"connected_time":1390000000000,"state":"active","ping":60},{"user_id":332,"name":"123","steam_id":76561198035655773,"connected_time":2589000000000,"state":"active","ping":69},{"user_id":348,"name":"Apollo","steam_id":76561198162364702,"connected_time":501000000000,"state":"active","ping":68},{"user_id":349,"name":"Sly Marbo","steam_id":76561198135271741,"connected_time":496000000000,"state":"active","ping":78},{"user_id":336,"name":"Higuma","steam_id":76561198375229012,"connected_time":2001000000000,"state":"active","ping":63},{"user_id":331,"name":"Chilis 2 for 20","steam_id":76561198121544531,"connected_time":2809000000000,"state":"active","ping":86},{"user_id":350,"name":"monkey squirts","steam_id":76561197983101644,"connected_time":186000000000,"state":"active","ping":57},{"user_id":354,"name":"coffee veins","steam_id":76561198044004639,"connected_time":68000000000,"state":"active","ping":85},{"user_id":319,"name":"Magik","steam_id":76561198099726660,"connected_time":3573000000000,"state":"active","ping":54},{"user_id":347,"name":"Keamy","steam_id":76561199471434875,"connected_time":620000000000,"state":"active","ping":72},{"user_id":290,"name":"werolat","steam_id":76561197960544784,"connected_time":6125000000000,"state":"active","ping":61},{"user_id":352,"name":"flo rida","steam_id":76561198226169704,"connected_time":114000000000,"state":"active","ping":53}]},{"server_id":112,"name":"Uncletopia | Los Angeles | 2 | All Maps","name_short":"lax-2","host":"lax-1.us.uncletopia.com","port":27025,"enabled":true,"region":"us-west","cc":"us","latitude":33.94279,"longitude":-118.41004,"reserved":0,"last_update":"0001-01-01T00:00:00Z","name_a2s":"Uncletopia | Los Angeles | 2 | All Maps","protocol":17,"map":"pl_frontier_final","folder":"tf","game":"Team Fortress","app_id":440,"player_count":24,"max_players":24,"Bots":0,"server_type":"Dedicated","server_os":"Linux","password":true,"vac":true,"version":"7961495","steam_id":85568392924469992,"keywords":["nocrits","nodmgspread","payload","uncletopia"],"game_id":440,"stv_port":27026,"stv_name":"Uncletopia | Los Angeles | 2 | All Maps | STV","players":[{"user_id":84,"name":"BreadGod","steam_id":76561198050665205,"connected_time":381000000000,"state":"active","ping":111},{"user_id":50,"name":"DeltaForce4Life","steam_id":76561198355534614,"connected_time":3237000000000,"state":"active","ping":97},{"user_id":66,"name":"Skabbety","steam_id":76561198168044257,"connected_time":875000000000,"state":"active","ping":73},{"user_id":88,"name":"CrazySpace","steam_id":76561198183980530,"connected_time":200000000000,"state":"active","ping":60},{"user_id":63,"name":"Stewie","steam_id":76561197991798513,"connected_time":1523000000000,"state":"active","ping":190},{"user_id":79,"name":"Tetra","steam_id":76561198012329955,"connected_time":746000000000,"state":"active","ping":78},{"user_id":69,"name":"cupcakedealer69402","steam_id":76561199122061900,"connected_time":860000000000,"state":"active","ping":129},{"user_id":25,"name":"LEAN \u003c3","steam_id":76561198185286203,"connected_time":4226000000000,"state":"active","ping":77},{"user_id":85,"name":"DistantJragon","steam_id":76561198117563641,"connected_time":363000000000,"state":"active","ping":115},{"user_id":74,"name":"Camohno","steam_id":76561198283519918,"connected_time":849000000000,"state":"active","ping":69},{"user_id":28,"name":"Whip_the_Rabbit","steam_id":76561198049896057,"connected_time":4083000000000,"state":"active","ping":71},{"user_id":55,"name":"Sol","steam_id":76561198121500201,"connected_time":2603000000000,"state":"active","ping":48},{"user_id":80,"name":"Mr. Teacher (Bionicle)","steam_id":76561198047628583,"connected_time":529000000000,"state":"active","ping":64},{"user_id":77,"name":"Drake from State Farm","steam_id":76561199069029812,"connected_time":770000000000,"state":"active","ping":74},{"user_id":87,"name":"Not a \"Real\" Cop","steam_id":76561198064108447,"connected_time":321000000000,"state":"active","ping":77},{"user_id":58,"name":"Poladroid","steam_id":76561198032005291,"connected_time":2354000000000,"state":"active","ping":59},{"user_id":59,"name":"plumber","steam_id":76561198122177409,"connected_time":2343000000000,"state":"active","ping":72},{"user_id":38,"name":"MechanizedContortion","steam_id":76561199146092247,"connected_time":3586000000000,"state":"active","ping":63},{"user_id":39,"name":"35 years without a footjob...","steam_id":76561198799299193,"connected_time":3579000000000,"state":"active","ping":73},{"user_id":40,"name":"rad killl raccoon","steam_id":76561198980975595,"connected_time":3558000000000,"state":"active","ping":96},{"user_id":82,"name":"CΛM","steam_id":76561198023380573,"connected_time":454000000000,"state":"active","ping":102},{"user_id":45,"name":"Shini","steam_id":76561199066567421,"connected_time":3402000000000,"state":"active","ping":83},{"user_id":46,"name":"MancalaMadMan","steam_id":76561198347324053,"connected_time":3375000000000,"state":"active","ping":98},{"user_id":73,"name":"supcupman","steam_id":76561198051513866,"connected_time":854000000000,"state":"active","ping":69}]},{"server_id":324,"name":"Uncletopia | Los Angeles | 3 | All Maps","name_short":"lax-3","host":"lax-1.us.uncletopia.com","port":27035,"enabled":true,"region":"us-west","cc":"us","latitude":33.94279,"longitude":-118.41004,"reserved":0,"last_update":"0001-01-01T00:00:00Z","name_a2s":"Uncletopia | Los Angeles | 3 | All Maps","protocol":17,"map":"pl_snowycoast","folder":"tf","game":"Team Fortress","app_id":440,"player_count":24,"max_players":24,"Bots":0,"server_type":"Dedicated","server_os":"Linux","password":true,"vac":true,"version":"7961495","steam_id":85568392924510198,"keywords":["nocrits","nodmgspread","payload","uncletopia"],"game_id":440,"stv_port":27036,"stv_name":"Uncletopia | Los Angeles | 3 | All Maps | STV","players":[{"user_id":384,"name":"greens beans","steam_id":76561198153611491,"connected_time":6892000000000,"state":"active","ping":69},{"user_id":468,"name":"SneekiCheekiQbone","steam_id":76561198045077980,"connected_time":249000000000,"state":"active","ping":43},{"user_id":437,"name":"Maxmind24","steam_id":76561198859888778,"connected_time":2644000000000,"state":"active","ping":90},{"user_id":442,"name":"tum","steam_id":76561198084712019,"connected_time":2017000000000,"state":"active","ping":57},{"user_id":463,"name":"Sloppy Toppy Tom","steam_id":76561198321550138,"connected_time":690000000000,"state":"active","ping":112},{"user_id":447,"name":"a_lilypup","steam_id":76561198163640324,"connected_time":1752000000000,"state":"active","ping":50},{"user_id":430,"name":"SHHHHHkebab","steam_id":76561198001611431,"connected_time":3148000000000,"state":"active","ping":114},{"user_id":469,"name":"CaiGaming","steam_id":76561198313023508,"connected_time":141000000000,"state":"active","ping":74},{"user_id":428,"name":"Ti00","steam_id":76561198083342036,"connected_time":3161000000000,"state":"active","ping":107},{"user_id":424,"name":"RandomGuy","steam_id":76561198000897889,"connected_time":3293000000000,"state":"active","ping":51},{"user_id":461,"name":"Keyboardbreaker","steam_id":76561198372836132,"connected_time":707000000000,"state":"active","ping":63},{"user_id":462,"name":"An Old Lady","steam_id":76561198047480318,"connected_time":692000000000,"state":"active","ping":62},{"user_id":456,"name":"Cuno Doesn't Care!","steam_id":76561198007372782,"connected_time":1026000000000,"state":"active","ping":63},{"user_id":405,"name":"Karg","steam_id":76561198091387866,"connected_time":5670000000000,"state":"active","ping":67},{"user_id":460,"name":"Person Man","steam_id":76561198293857963,"connected_time":710000000000,"state":"active","ping":72},{"user_id":470,"name":"里芋 - Tarooo","steam_id":76561198392986348,"connected_time":126000000000,"state":"active","ping":46},{"user_id":454,"name":"Medicinal Significant Other","steam_id":76561198239771532,"connected_time":1225000000000,"state":"active","ping":121},{"user_id":395,"name":"mine diam","steam_id":76561198119123981,"connected_time":6368000000000,"state":"active","ping":72},{"user_id":444,"name":"Ronnie Pickering!","steam_id":76561198041842118,"connected_time":1938000000000,"state":"active","ping":53},{"user_id":464,"name":"pepe warlord","steam_id":76561198080819197,"connected_time":678000000000,"state":"active","ping":84},{"user_id":459,"name":"Wumpus Grumpus","steam_id":76561198045214707,"connected_time":887000000000,"state":"active","ping":84},{"user_id":458,"name":"gnome zone","steam_id":76561198883349445,"connected_time":1013000000000,"state":"active","ping":65},{"user_id":436,"name":"FunnyGoomba","steam_id":76561198279865229,"connected_time":2887000000000,"state":"active","ping":83},{"user_id":471,"name":"KickButtNess","steam_id":76561198093986236,"connected_time":57000000000,"state":"active","ping":49}]},{"server_id":25,"name":"Uncletopia | Los Angeles | 4 | Stopwatch","name_short":"lax-4","host":"lax-1.us.uncletopia.com","port":27045,"enabled":true,"region":"us-west","cc":"us","latitude":33.94279,"longitude":-118.41004,"reserved":0,"last_update":"0001-01-01T00:00:00Z","name_a2s":"Uncletopia | Los Angeles | 4 | Stopwatch","protocol":17,"map":"workshop/pl_barnblitz_pro7.ugc582280235","folder":"tf","game":"Team Fortress","app_id":440,"player_count":6,"max_players":24,"Bots":0,"server_type":"Dedicated","server_os":"Linux","password":true,"vac":true,"version":"7961495","steam_id":85568392924510199,"keywords":["nocrits","nodmgspread","payload","uncletopia"],"game_id":440,"stv_port":27046,"stv_name":"Uncletopia | Los Angeles | 4 | Stopwatch | STV","players":[{"user_id":180,"name":"Schnitz","steam_id":76561198265484253,"connected_time":849000000000,"state":"active","ping":92},{"user_id":176,"name":"cajun thotsauce","steam_id":76561198101636066,"connected_time":982000000000,"state":"active","ping":52},{"user_id":177,"name":"StrayGuitarist","steam_id":76561198091315714,"connected_time":972000000000,"state":"active","ping":87},{"user_id":181,"name":"Sugary","steam_id":76561198088267265,"connected_time":655000000000,"state":"spawning","ping":182},{"user_id":184,"name":"GoblinSoup","steam_id":76561198888203067,"connected_time":57000000000,"state":"spawning","ping":170},{"user_id":100,"name":"Erebus","steam_id":76561199061956673,"connected_time":7139000000000,"state":"spawning","ping":161}]},{"server_id":11,"name":"Uncletopia | London | 1 | All Maps","name_short":"lon-1","host":"lon-1.uk.uncletopia.com","port":27015,"enabled":true,"region":"eu","cc":"gb","latitude":51.509865,"longitude":-0.118092,"reserved":0,"last_update":"0001-01-01T00:00:00Z","name_a2s":"Uncletopia | London | 1 | All Maps","protocol":17,"map":"cp_dustbowl","folder":"tf","game":"Team Fortress","app_id":440,"player_count":0,"max_players":24,"Bots":0,"server_type":"Dedicated","server_os":"Linux","password":true,"vac":true,"version":"7961495","steam_id":85568392924367362,"keywords":["cp","nocrits","nodmgspread","uncletopia"],"game_id":440,"stv_port":27016,"stv_name":"Uncletopia | London | 1 | All Maps | STV","players":null},{"server_id":114,"name":"Uncletopia | London | 2 | All Maps","name_short":"lon-2","host":"lon-1.uk.uncletopia.com","port":27025,"enabled":true,"region":"eu","cc":"gb","latitude":51.509865,"longitude":-0.118092,"reserved":0,"last_update":"0001-01-01T00:00:00Z","name_a2s":"Uncletopia | London | 2 | All Maps","protocol":17,"map":"pl_barnblitz","folder":"tf","game":"Team Fortress","app_id":440,"player_count":0,"max_players":24,"Bots":0,"server_type":"Dedicated","server_os":"Linux","password":true,"vac":true,"version":"7961495","steam_id":85568392924470941,"keywords":["nocrits","nodmgspread","payload","uncletopia"],"game_id":440,"stv_port":27026,"stv_name":"Uncletopia | London | 2 | All Maps | STV","players":null},{"server_id":320,"name":"Uncletopia | London | 3 | All Maps","name_short":"lon-3","host":"lon-1.uk.uncletopia.com","port":27035,"enabled":true,"region":"eu","cc":"gb","latitude":51.509865,"longitude":-0.118092,"reserved":0,"last_update":"0001-01-01T00:00:00Z","name_a2s":"Uncletopia | London | 3 | All Maps","protocol":17,"map":"cp_altitude","folder":"tf","game":"Team Fortress","app_id":440,"player_count":0,"max_players":24,"Bots":0,"server_type":"Dedicated","server_os":"Linux","password":true,"vac":true,"version":"7961495","steam_id":85568392924510192,"keywords":["cp","nocrits","nodmgspread","uncletopia"],"game_id":440,"stv_port":27036,"stv_name":"Uncletopia | London | 3 | All Maps | STV","players":null},{"server_id":321,"name":"Uncletopia | London | 4 | All Maps","name_short":"lon-4","host":"lon-1.uk.uncletopia.com","port":27045,"enabled":true,"region":"eu","cc":"gb","latitude":51.509865,"longitude":-0.118092,"reserved":0,"last_update":"0001-01-01T00:00:00Z","name_a2s":"Uncletopia | London | 4 | All Maps","protocol":17,"map":"cp_snakewater_final1","folder":"tf","game":"Team Fortress","app_id":440,"player_count":0,"max_players":24,"Bots":0,"server_type":"Dedicated","server_os":"Linux","password":true,"vac":true,"version":"7961495","steam_id":85568392924510193,"keywords":["cp","nocrits","nodmgspread","uncletopia"],"game_id":440,"stv_port":27046,"stv_name":"Uncletopia | London | 4 | All Maps | STV","players":null},{"server_id":21,"name":"Uncletopia | London | 5 | All Maps","name_short":"lon-5","host":"lon-1.uk.uncletopia.com","port":27055,"enabled":true,"region":"eu","cc":"gb","latitude":51.509865,"longitude":-0.118092,"reserved":0,"last_update":"0001-01-01T00:00:00Z","name_a2s":"Uncletopia | London | 5 | All Maps","protocol":17,"map":"pl_snowycoast","folder":"tf","game":"Team Fortress","app_id":440,"player_count":4,"max_players":24,"Bots":0,"server_type":"Dedicated","server_os":"Linux","password":true,"vac":true,"version":"7961495","steam_id":85568392924742829,"keywords":["nocrits","nodmgspread","payload","uncletopia"],"game_id":440,"stv_port":27056,"stv_name":"Uncletopia | London | 5 | All Maps | STV","players":[{"user_id":574,"name":"Orange","steam_id":76561198431114889,"connected_time":848000000000,"state":"active","ping":99},{"user_id":575,"name":"notsobeda","steam_id":76561198277943630,"connected_time":774000000000,"state":"active","ping":62},{"user_id":576,"name":"ja","steam_id":76561199228540618,"connected_time":664000000000,"state":"active","ping":78},{"user_id":579,"name":"Tx_madmash","steam_id":76561198924656512,"connected_time":466000000000,"state":"active","ping":174}]},{"server_id":22,"name":"Uncletopia | London | 6 | All Maps","name_short":"lon-6","host":"lon-1.uk.uncletopia.com","port":27065,"enabled":true,"region":"eu","cc":"gb","latitude":51.509865,"longitude":-0.118092,"reserved":0,"last_update":"0001-01-01T00:00:00Z","name_a2s":"Uncletopia | London | 6 | All Maps","protocol":17,"map":"koth_lakeside_final","folder":"tf","game":"Team Fortress","app_id":440,"player_count":0,"max_players":24,"Bots":0,"server_type":"Dedicated","server_os":"Linux","password":true,"vac":true,"version":"7961495","steam_id":85568392924742830,"keywords":["cp","nocrits","nodmgspread","uncletopia"],"game_id":440,"stv_port":27066,"stv_name":"Uncletopia | London | 6 | All Maps | STV","players":null},{"server_id":40,"name":"Uncletopia | London | 7 | Stopwatch","name_short":"lon-7","host":"lon-1.uk.uncletopia.com","port":27075,"enabled":true,"region":"eu","cc":"gb","latitude":51.509865,"longitude":-0.118092,"reserved":0,"last_update":"0001-01-01T00:00:00Z","name_a2s":"Uncletopia | London | 7 | Stopwatch","protocol":17,"map":"koth_lakeside_final","folder":"tf","game":"Team Fortress","app_id":440,"player_count":0,"max_players":24,"Bots":0,"server_type":"Dedicated","server_os":"Linux","password":true,"vac":true,"version":"7961495","steam_id":85568392924964314,"keywords":["cp","nocrits","nodmgspread","uncletopia"],"game_id":440,"stv_port":27076,"stv_name":"Uncletopia | London | 7 | Stopwatch | STV","players":null},{"server_id":41,"name":"Uncletopia | London | 8 | Community","name_short":"lon-8","host":"lon-1.uk.uncletopia.com","port":27085,"enabled":true,"region":"eu","cc":"gb","latitude":51.509865,"longitude":-0.118092,"reserved":0,"last_update":"0001-01-01T00:00:00Z","name_a2s":"Uncletopia | London | 8 | Community","protocol":17,"map":"workshop/pl_eruption_b9a.ugc2807898013","folder":"tf","game":"Team Fortress","app_id":440,"player_count":0,"max_players":24,"Bots":0,"server_type":"Dedicated","server_os":"Linux","password":true,"vac":true,"version":"7961495","steam_id":85568392924964315,"keywords":["nocrits","nodmgspread","payload","uncletopia"],"game_id":440,"stv_port":27086,"stv_name":"Uncletopia | London | 8 | Community | STV","players":null},{"server_id":300,"name":"Uncletopia | Montréal | 1 | All Maps","name_short":"mtl-1","host":"mtl-1.ca.uncletopia.com","port":27015,"enabled":true,"region":"us-east","cc":"ca","latitude":45.50889,"longitude":-73.56167,"reserved":0,"last_update":"0001-01-01T00:00:00Z","name_a2s":"","protocol":0,"map":"","folder":"","game":"","app_id":0,"player_count":18,"max_players":0,"Bots":0,"server_type":"","server_os":"","password":false,"vac":false,"version":"","steam_id":0,"keywords":null,"game_id":0,"stv_port":0,"stv_name":"","players":[{"user_id":55,"name":"rivera","steam_id":76561198051058706,"connected_time":3185000000000,"state":"active","ping":45},{"user_id":84,"name":"tim-","steam_id":76561199119101315,"connected_time":543000000000,"state":"active","ping":60},{"user_id":86,"name":"Hellion","steam_id":76561198986328609,"connected_time":211000000000,"state":"active","ping":170},{"user_id":31,"name":"YesMargaret","steam_id":76561198127971751,"connected_time":4164000000000,"state":"active","ping":42},{"user_id":71,"name":"I Can't Stop Smelling My Finger","steam_id":76561198189445709,"connected_time":1406000000000,"state":"active","ping":117},{"user_id":85,"name":"flatts","steam_id":76561198094127177,"connected_time":399000000000,"state":"active","ping":60},{"user_id":72,"name":"Belts the Puppet","steam_id":76561198322969864,"connected_time":1402000000000,"state":"active","ping":85},{"user_id":69,"name":"kermit","steam_id":76561198099928281,"connected_time":1766000000000,"state":"active","ping":81},{"user_id":48,"name":"vinny6","steam_id":76561198386735728,"connected_time":3397000000000,"state":"active","ping":47},{"user_id":82,"name":"Eric4bz","steam_id":76561198054439606,"connected_time":783000000000,"state":"active","ping":131},{"user_id":58,"name":"Poyo Boyo","steam_id":76561198010201227,"connected_time":3034000000000,"state":"active","ping":60},{"user_id":38,"name":"QueenCake575","steam_id":76561198996882407,"connected_time":4023000000000,"state":"active","ping":139},{"user_id":39,"name":"erem2k","steam_id":76561198079020059,"connected_time":4004000000000,"state":"active","ping":44},{"user_id":79,"name":"CheesyPoofs","steam_id":76561197998650617,"connected_time":959000000000,"state":"active","ping":102},{"user_id":83,"name":"oppenheimer style","steam_id":76561198026664629,"connected_time":756000000000,"state":"active","ping":59},{"user_id":74,"name":"El Güey","steam_id":76561197970450546,"connected_time":1306000000000,"state":"active","ping":117},{"user_id":77,"name":"mrnotsogudguy","steam_id":76561199289893241,"connected_time":1101000000000,"state":"active","ping":78},{"user_id":80,"name":"littlegothkitty07","steam_id":76561199238425655,"connected_time":954000000000,"state":"active","ping":226}]},{"server_id":301,"name":"Uncletopia | Montréal | 2 | ???","name_short":"mtl-2","host":"mtl-1.ca.uncletopia.com","port":27025,"enabled":true,"region":"us-east","cc":"ca","latitude":45.50889,"longitude":-73.56167,"reserved":0,"last_update":"0001-01-01T00:00:00Z","name_a2s":"","protocol":0,"map":"","folder":"","game":"","app_id":0,"player_count":0,"max_players":0,"Bots":0,"server_type":"","server_os":"","password":false,"vac":false,"version":"","steam_id":0,"keywords":null,"game_id":0,"stv_port":0,"stv_name":"","players":null},{"server_id":13,"name":"Uncletopia | New York City | 1 | All Maps","name_short":"nyc-1","host":"nyc-1.us.uncletopia.com","port":27015,"enabled":true,"region":"us-east","cc":"us","latitude":40.73061,"longitude":-73.93524,"reserved":0,"last_update":"0001-01-01T00:00:00Z","name_a2s":"Uncletopia | New York City | 1 | All Maps","protocol":17,"map":"cp_process_final","folder":"tf","game":"Team Fortress","app_id":440,"player_count":18,"max_players":24,"Bots":0,"server_type":"Dedicated","server_os":"Linux","password":true,"vac":true,"version":"7961495","steam_id":85568392924469993,"keywords":["cp","nocrits","nodmgspread","uncletopia"],"game_id":440,"stv_port":27016,"stv_name":"Uncletopia | New York City | 1 | All Maps | STV","players":[{"user_id":563,"name":"Ibrahim","steam_id":76561198028320625,"connected_time":1184000000000,"state":"active","ping":56},{"user_id":558,"name":"Hideo Kojima","steam_id":76561198082582335,"connected_time":1461000000000,"state":"active","ping":47},{"user_id":553,"name":"Freddy fazballs","steam_id":76561198310677935,"connected_time":1789000000000,"state":"active","ping":70},{"user_id":564,"name":"RuinLucky","steam_id":76561199481172481,"connected_time":1178000000000,"state":"active","ping":85},{"user_id":555,"name":"Narh","steam_id":76561198025216294,"connected_time":1671000000000,"state":"active","ping":58},{"user_id":506,"name":"ndvr","steam_id":76561199379200102,"connected_time":5291000000000,"state":"active","ping":41},{"user_id":550,"name":"selling rice","steam_id":76561198063357023,"connected_time":1953000000000,"state":"active","ping":108},{"user_id":539,"name":"cran","steam_id":76561198178840075,"connected_time":2587000000000,"state":"active","ping":89},{"user_id":571,"name":"A Lost CAWs","steam_id":76561198127120212,"connected_time":333000000000,"state":"active","ping":89},{"user_id":562,"name":"The Deer Consumer","steam_id":76561198812026312,"connected_time":1273000000000,"state":"active","ping":70},{"user_id":568,"name":"Ashley","steam_id":76561198056152479,"connected_time":955000000000,"state":"active","ping":106},{"user_id":532,"name":"HUESO","steam_id":76561198276383681,"connected_time":3718000000000,"state":"active","ping":80},{"user_id":559,"name":"Chernov","steam_id":76561198014463424,"connected_time":1461000000000,"state":"active","ping":36},{"user_id":545,"name":"Lego Yoda","steam_id":76561199008362890,"connected_time":2422000000000,"state":"active","ping":49},{"user_id":566,"name":"creeper6868","steam_id":76561198441641149,"connected_time":1106000000000,"state":"active","ping":76},{"user_id":573,"name":"Zenire","steam_id":76561199087298510,"connected_time":84000000000,"state":"active","ping":123},{"user_id":560,"name":"Kallen","steam_id":76561198079693305,"connected_time":1456000000000,"state":"active","ping":117},{"user_id":541,"name":"Sim","steam_id":76561198119227922,"connected_time":2543000000000,"state":"active","ping":45}]},{"server_id":14,"name":"Uncletopia | New York City | 2 | All Maps","name_short":"nyc-2","host":"nyc-1.us.uncletopia.com","port":27025,"enabled":true,"region":"us-east","cc":"us","latitude":40.73061,"longitude":-73.93524,"reserved":0,"last_update":"0001-01-01T00:00:00Z","name_a2s":"Uncletopia | New York City | 2 | All Maps","protocol":17,"map":"pl_snowycoast","folder":"tf","game":"Team Fortress","app_id":440,"player_count":24,"max_players":24,"Bots":0,"server_type":"Dedicated","server_os":"Linux","password":true,"vac":true,"version":"7961495","steam_id":85568392924469994,"keywords":["nocrits","nodmgspread","payload","uncletopia"],"game_id":440,"stv_port":27026,"stv_name":"Uncletopia | New York City | 2 | All Maps | STV","players":[{"user_id":639,"name":"Bee","steam_id":76561198074681324,"connected_time":5694000000000,"state":"active","ping":47},{"user_id":677,"name":"Hypelipe","steam_id":76561199171330771,"connected_time":3109000000000,"state":"active","ping":116},{"user_id":585,"name":"Naffty","steam_id":76561198119734981,"connected_time":10706000000000,"state":"active","ping":99},{"user_id":705,"name":"Elixir","steam_id":76561198154415647,"connected_time":875000000000,"state":"active","ping":67},{"user_id":611,"name":"James","steam_id":76561198081313916,"connected_time":8226000000000,"state":"active","ping":68},{"user_id":704,"name":"rattlin' bog","steam_id":76561198224551028,"connected_time":1336000000000,"state":"active","ping":57},{"user_id":710,"name":"Johnny Lawrence #JohnnyMaxxing","steam_id":76561199367141671,"connected_time":442000000000,"state":"active","ping":45},{"user_id":706,"name":"Mecha","steam_id":76561198251728758,"connected_time":680000000000,"state":"active","ping":90},{"user_id":709,"name":"Kremit the Frog","steam_id":76561198075985995,"connected_time":590000000000,"state":"active","ping":59},{"user_id":689,"name":"Sgt. Pepper","steam_id":76561198063674627,"connected_time":1901000000000,"state":"active","ping":79},{"user_id":701,"name":"flintstones gummy","steam_id":76561198203171349,"connected_time":1430000000000,"state":"active","ping":57},{"user_id":654,"name":"Rodrick Knee","steam_id":76561198283021062,"connected_time":3913000000000,"state":"active","ping":76},{"user_id":629,"name":"Silvercoat's Stargazer","steam_id":76561198399525329,"connected_time":6293000000000,"state":"active","ping":71},{"user_id":674,"name":"feenman","steam_id":76561199383834799,"connected_time":3205000000000,"state":"active","ping":113},{"user_id":630,"name":"The Winter Medic","steam_id":76561198197112922,"connected_time":6258000000000,"state":"active","ping":65},{"user_id":711,"name":"Okpar","steam_id":76561199221067945,"connected_time":156000000000,"state":"active","ping":98},{"user_id":695,"name":"Terror-Billy #SaveTF2","steam_id":76561198328141870,"connected_time":1631000000000,"state":"active","ping":59},{"user_id":693,"name":"A Rope, for big pits","steam_id":76561198068044782,"connected_time":1725000000000,"state":"active","ping":53},{"user_id":696,"name":"BradB.","steam_id":76561199163905036,"connected_time":1601000000000,"state":"active","ping":77},{"user_id":682,"name":"dcqwerty","steam_id":76561198964101426,"connected_time":2884000000000,"state":"active","ping":42},{"user_id":641,"name":"Denzel McFlurry","steam_id":76561199231296521,"connected_time":5493000000000,"state":"active","ping":65},{"user_id":702,"name":"Laogh Marbh","steam_id":76561198115240256,"connected_time":1386000000000,"state":"active","ping":84},{"user_id":691,"name":"canadian birds","steam_id":76561198059466588,"connected_time":1859000000000,"state":"active","ping":51},{"user_id":703,"name":"Stupid Monkey =3","steam_id":76561198024580166,"connected_time":1381000000000,"state":"active","ping":119}]},{"server_id":15,"name":"Uncletopia | New York City | 3 | Stopwatch","name_short":"nyc-3","host":"nyc-1.us.uncletopia.com","port":27035,"enabled":true,"region":"us-east","cc":"us","latitude":40.73061,"longitude":-73.93524,"reserved":0,"last_update":"0001-01-01T00:00:00Z","name_a2s":"Uncletopia | New York City | 3 | Stopwatch","protocol":17,"map":"pl_swiftwater_final1","folder":"tf","game":"Team Fortress","app_id":440,"player_count":24,"max_players":24,"Bots":0,"server_type":"Dedicated","server_os":"Linux","password":true,"vac":true,"version":"7961495","steam_id":85568392924742820,"keywords":["nocrits","nodmgspread","payload","uncletopia"],"game_id":440,"stv_port":27036,"stv_name":"Uncletopia | New York City | 3 | Stopwatch | STV","players":[{"user_id":392,"name":"Exetior","steam_id":76561198978688451,"connected_time":191000000000,"state":"active","ping":75},{"user_id":296,"name":"Dr. Cube","steam_id":76561198025469828,"connected_time":7785000000000,"state":"active","ping":75},{"user_id":385,"name":"somewhat silly","steam_id":76561198010269150,"connected_time":716000000000,"state":"active","ping":142},{"user_id":357,"name":"ArcticRescue","steam_id":76561198055362404,"connected_time":2427000000000,"state":"active","ping":45},{"user_id":393,"name":"Funny_Bee","steam_id":76561198309392549,"connected_time":183000000000,"state":"active","ping":63},{"user_id":388,"name":"Saul Goodman","steam_id":76561199440844469,"connected_time":532000000000,"state":"active","ping":67},{"user_id":366,"name":"WhiteIce","steam_id":76561198042895118,"connected_time":1977000000000,"state":"active","ping":59},{"user_id":320,"name":"Untossed Salad","steam_id":76561198966239603,"connected_time":5785000000000,"state":"active","ping":51},{"user_id":368,"name":"Marc Antony","steam_id":76561198011366517,"connected_time":1778000000000,"state":"active","ping":47},{"user_id":323,"name":"Glonk","steam_id":76561198362627946,"connected_time":5738000000000,"state":"active","ping":58},{"user_id":305,"name":"Terror of Zanarkand","steam_id":76561198106153194,"connected_time":6747000000000,"state":"active","ping":87},{"user_id":389,"name":"RoyalKaiser RBMK -Mex-","steam_id":76561198886933897,"connected_time":481000000000,"state":"active","ping":131},{"user_id":373,"name":"Tom Crúaich","steam_id":76561197999439911,"connected_time":1478000000000,"state":"active","ping":91},{"user_id":303,"name":"Railly","steam_id":76561198357355915,"connected_time":6867000000000,"state":"active","ping":89},{"user_id":367,"name":"Lyra","steam_id":76561198156481620,"connected_time":1962000000000,"state":"active","ping":58},{"user_id":338,"name":"eMcP!","steam_id":76561198382509396,"connected_time":4499000000000,"state":"active","ping":124},{"user_id":378,"name":"vinc3nt10","steam_id":76561199122195012,"connected_time":916000000000,"state":"active","ping":121},{"user_id":339,"name":"DoggyDogWhirl","steam_id":76561198042841344,"connected_time":4472000000000,"state":"active","ping":66},{"user_id":386,"name":"Unk","steam_id":76561198031717617,"connected_time":655000000000,"state":"active","ping":33},{"user_id":380,"name":"i'm sleepy!","steam_id":76561198016826181,"connected_time":881000000000,"state":"active","ping":68},{"user_id":381,"name":"ink","steam_id":76561198081308147,"connected_time":833000000000,"state":"active","ping":76},{"user_id":390,"name":"Ike Yard","steam_id":76561197998954523,"connected_time":388000000000,"state":"active","ping":84},{"user_id":394,"name":"PinyaVI","steam_id":76561198813760694,"connected_time":152000000000,"state":"active","ping":60},{"user_id":336,"name":"Sentry Gun Main Man","steam_id":76561198327938247,"connected_time":4523000000000,"state":"active","ping":91}]},{"server_id":16,"name":"Uncletopia | New York City | 4 | Community","name_short":"nyc-4","host":"nyc-1.us.uncletopia.com","port":27045,"enabled":true,"region":"us-east","cc":"us","latitude":40.73061,"longitude":-73.93524,"reserved":0,"last_update":"0001-01-01T00:00:00Z","name_a2s":"Uncletopia | New York City | 4 | Community","protocol":17,"map":"workshop/cp_fulgur_rc2a.ugc2068252300","folder":"tf","game":"Team Fortress","app_id":440,"player_count":0,"max_players":24,"Bots":0,"server_type":"Dedicated","server_os":"Linux","password":true,"vac":true,"version":"7961495","steam_id":85568392924742821,"keywords":["cp","nocrits","nodmgspread","uncletopia"],"game_id":440,"stv_port":27046,"stv_name":"Uncletopia | New York City | 4 | Community | STV","players":null},{"server_id":142,"name":"Uncletopia | São Paulo | 1 | All Maps","name_short":"sao-1","host":"sao-1.br.uncletopia.com","port":27015,"enabled":true,"region":"sa","cc":"br","latitude":-23.533773,"longitude":-46.62529,"reserved":0,"last_update":"0001-01-01T00:00:00Z","name_a2s":"Uncletopia | São Paulo | 1 | All Maps","protocol":17,"map":"koth_lakeside_final","folder":"tf","game":"Team Fortress","app_id":440,"player_count":0,"max_players":24,"Bots":0,"server_type":"Dedicated","server_os":"Linux","password":true,"vac":true,"version":"7961495","steam_id":85568392924469996,"keywords":["cp","nocrits","nodmgspread","uncletopia"],"game_id":440,"stv_port":27016,"stv_name":"Uncletopia | São Paulo | 1 | All Maps | STV","players":null},{"server_id":143,"name":"Uncletopia | São Paulo | 2 | Community","name_short":"sao-2","host":"sao-2.br.uncletopia.com","port":27015,"enabled":true,"region":"sa","cc":"br","latitude":-23.533773,"longitude":-46.62529,"reserved":0,"last_update":"0001-01-01T00:00:00Z","name_a2s":"Uncletopia | São Paulo | 2 | Community","protocol":17,"map":"workshop/koth_bagel_rc6.ugc2514036946","folder":"tf","game":"Team Fortress","app_id":440,"player_count":0,"max_players":24,"Bots":0,"server_type":"Dedicated","server_os":"Linux","password":true,"vac":true,"version":"7961495","steam_id":85568392924485349,"keywords":["cp","nocrits","nodmgspread","uncletopia"],"game_id":440,"stv_port":27016,"stv_name":"Uncletopia | São Paulo | 2 | Community | STV","players":null},{"server_id":7,"name":"Uncletopia | Seattle | 1 | All Maps","name_short":"sea-1","host":"sea-1.us.uncletopia.com","port":27015,"enabled":true,"region":"us-west","cc":"us","latitude":47.608013,"longitude":-122.33517,"reserved":0,"last_update":"0001-01-01T00:00:00Z","name_a2s":"Uncletopia | Seattle | 1 | All Maps","protocol":17,"map":"pl_pier","folder":"tf","game":"Team Fortress","app_id":440,"player_count":0,"max_players":24,"Bots":0,"server_type":"Dedicated","server_os":"Linux","password":false,"vac":true,"version":"7961495","steam_id":85568392924469997,"keywords":["nocrits","nodmgspread","payload","uncletopia"],"game_id":440,"stv_port":27016,"stv_name":"Uncletopia | Seattle | 1 | All Maps | STV","players":null},{"server_id":119,"name":"Uncletopia | Seattle | 2 | All Maps","name_short":"sea-2","host":"sea-1.us.uncletopia.com","port":27025,"enabled":true,"region":"us-west","cc":"us","latitude":47.608013,"longitude":-122.33517,"reserved":0,"last_update":"0001-01-01T00:00:00Z","name_a2s":"Uncletopia | Seattle | 2 | All Maps","protocol":17,"map":"pl_badwater","folder":"tf","game":"Team Fortress","app_id":440,"player_count":0,"max_players":24,"Bots":0,"server_type":"Dedicated","server_os":"Linux","password":false,"vac":true,"version":"7961495","steam_id":85568392924469998,"keywords":["nocrits","nodmgspread","payload","uncletopia"],"game_id":440,"stv_port":27026,"stv_name":"Uncletopia | Seattle | 2 | All Maps | STV","players":null},{"server_id":406,"name":"Uncletopia | Seattle | 3 | Stopwatch","name_short":"sea-3","host":"sea-1.us.uncletopia.com","port":27035,"enabled":true,"region":"us-west","cc":"us","latitude":47.608013,"longitude":-122.33517,"reserved":0,"last_update":"0001-01-01T00:00:00Z","name_a2s":"Uncletopia | Seattle | 3 | Stopwatch","protocol":17,"map":"pl_pier","folder":"tf","game":"Team Fortress","app_id":440,"player_count":0,"max_players":24,"Bots":0,"server_type":"Dedicated","server_os":"Linux","password":false,"vac":true,"version":"7961495","steam_id":85568392924515217,"keywords":["nocrits","nodmgspread","payload","uncletopia"],"game_id":440,"stv_port":27036,"stv_name":"Uncletopia | Seattle | 3 | Stopwatch | STV","players":null},{"server_id":17,"name":"Uncletopia | San Francisco | 1 | All Maps","name_short":"sfo-1","host":"sfo-1.us.uncletopia.com","port":27015,"enabled":true,"region":"us-west","cc":"us","latitude":37.77397,"longitude":-122.4313,"reserved":0,"last_update":"0001-01-01T00:00:00Z","name_a2s":"Uncletopia | San Francisco | 1 | All Maps","protocol":17,"map":"koth_viaduct","folder":"tf","game":"Team Fortress","app_id":440,"player_count":0,"max_players":24,"Bots":0,"server_type":"Dedicated","server_os":"Linux","password":true,"vac":true,"version":"7961495","steam_id":85568392924469999,"keywords":["cp","nocrits","nodmgspread","uncletopia"],"game_id":440,"stv_port":27016,"stv_name":"Uncletopia | San Francisco | 1 | All Maps | STV","players":null},{"server_id":18,"name":"Uncletopia | San Francisco | 2 | All Maps","name_short":"sfo-2","host":"sfo-1.us.uncletopia.com","port":27025,"enabled":true,"region":"us-west","cc":"us","latitude":37.77397,"longitude":-122.4313,"reserved":0,"last_update":"0001-01-01T00:00:00Z","name_a2s":"Uncletopia | San Francisco | 2 | All Maps","protocol":17,"map":"pl_swiftwater_final1","folder":"tf","game":"Team Fortress","app_id":440,"player_count":2,"max_players":24,"Bots":0,"server_type":"Dedicated","server_os":"Linux","password":true,"vac":true,"version":"7961495","steam_id":85568392924470000,"keywords":["nocrits","nodmgspread","payload","uncletopia"],"game_id":440,"stv_port":27026,"stv_name":"Uncletopia | San Francisco | 2 | All Maps | STV","players":[{"user_id":42,"name":"Fork™","steam_id":76561198440233515,"connected_time":2225000000000,"state":"active","ping":111},{"user_id":30,"name":"BluCoffee","steam_id":76561198214995967,"connected_time":4024000000000,"state":"active","ping":115}]},{"server_id":19,"name":"Uncletopia | San Francisco | 3 | Stopwatch","name_short":"sfo-3","host":"sfo-1.us.uncletopia.com","port":27035,"enabled":true,"region":"us-west","cc":"us","latitude":37.77397,"longitude":-122.4313,"reserved":0,"last_update":"0001-01-01T00:00:00Z","name_a2s":"Uncletopia | San Francisco | 3 | Stopwatch","protocol":17,"map":"pl_swiftwater_final1","folder":"tf","game":"Team Fortress","app_id":440,"player_count":0,"max_players":24,"Bots":0,"server_type":"Dedicated","server_os":"Linux","password":true,"vac":true,"version":"7961495","steam_id":85568392924742824,"keywords":["nocrits","nodmgspread","payload","uncletopia"],"game_id":440,"stv_port":27036,"stv_name":"Uncletopia | San Francisco | 3 | Stopwatch | STV","players":null},{"server_id":20,"name":"Uncletopia | San Francisco | 4 | Community","name_short":"sfo-4","host":"sfo-1.us.uncletopia.com","port":27045,"enabled":true,"region":"us-west","cc":"us","latitude":37.77397,"longitude":-122.4313,"reserved":0,"last_update":"0001-01-01T00:00:00Z","name_a2s":"Uncletopia | San Francisco | 4 | Community","protocol":17,"map":"pl_pier","folder":"tf","game":"Team Fortress","app_id":440,"player_count":6,"max_players":24,"Bots":0,"server_type":"Dedicated","server_os":"Linux","password":true,"vac":true,"version":"7961495","steam_id":85568392924742826,"keywords":["nocrits","nodmgspread","payload","uncletopia"],"game_id":440,"stv_port":27046,"stv_name":"Uncletopia | San Francisco | 4 | Community | STV","players":[{"user_id":5,"name":"ilun","steam_id":76561198042913843,"connected_time":808000000000,"state":"active","ping":62},{"user_id":6,"name":"a cat plushie","steam_id":76561198080046542,"connected_time":760000000000,"state":"active","ping":63},{"user_id":7,"name":":\u003c","steam_id":76561198072789439,"connected_time":697000000000,"state":"active","ping":49},{"user_id":8,"name":":3 (rat star)","steam_id":76561198058890821,"connected_time":584000000000,"state":"active","ping":91},{"user_id":9,"name":"keithykeithers","steam_id":76561197995552615,"connected_time":352000000000,"state":"active","ping":61},{"user_id":10,"name":"Daz","steam_id":76561198041431938,"connected_time":13000000000,"state":"active","ping":90}]},{"server_id":141,"name":"Uncletopia | Sydney | 1 | All Maps","name_short":"syd-1","host":"syd-1.au.uncletopia.com","port":27015,"enabled":true,"region":"au","cc":"au","latitude":-33.865143,"longitude":151.2099,"reserved":0,"last_update":"0001-01-01T00:00:00Z","name_a2s":"Uncletopia | Sydney | 1 | All Maps","protocol":17,"map":"cp_dustbowl","folder":"tf","game":"Team Fortress","app_id":440,"player_count":24,"max_players":24,"Bots":0,"server_type":"Dedicated","server_os":"Linux","password":true,"vac":true,"version":"7961495","steam_id":85568392924470001,"keywords":["cp","nocrits","nodmgspread","uncletopia"],"game_id":440,"stv_port":27016,"stv_name":"Uncletopia | Sydney | 1 | All Maps | STV","players":[{"user_id":163,"name":"ViVi ☄","steam_id":76561198044727237,"connected_time":7654000000000,"state":"active","ping":53},{"user_id":231,"name":"Teamfighting","steam_id":76561198160135508,"connected_time":2339000000000,"state":"active","ping":53},{"user_id":259,"name":"Your Local Karen Hunter","steam_id":76561199469410668,"connected_time":898000000000,"state":"active","ping":104},{"user_id":243,"name":"good morning","steam_id":76561198895690844,"connected_time":1637000000000,"state":"active","ping":50},{"user_id":249,"name":"alex","steam_id":76561198053382248,"connected_time":1444000000000,"state":"active","ping":49},{"user_id":268,"name":"mobi","steam_id":76561198385645921,"connected_time":535000000000,"state":"active","ping":60},{"user_id":269,"name":"Duckypus","steam_id":76561198209373075,"connected_time":524000000000,"state":"active","ping":56},{"user_id":251,"name":"callum.jones2008","steam_id":76561198050053720,"connected_time":1346000000000,"state":"active","ping":85},{"user_id":162,"name":"sweet mouse ☄","steam_id":76561198013779321,"connected_time":7717000000000,"state":"active","ping":57},{"user_id":270,"name":"chip stealing cunt","steam_id":76561198045437691,"connected_time":521000000000,"state":"active","ping":59},{"user_id":265,"name":"_MAFKEES","steam_id":76561198233733104,"connected_time":606000000000,"state":"active","ping":71},{"user_id":227,"name":"Zieria","steam_id":76561199261811388,"connected_time":3062000000000,"state":"active","ping":41},{"user_id":204,"name":"LeoJoeD","steam_id":76561198161848749,"connected_time":5715000000000,"state":"active","ping":41},{"user_id":212,"name":"Sherpa","steam_id":76561198018913829,"connected_time":4938000000000,"state":"active","ping":53},{"user_id":275,"name":"Dan","steam_id":76561198045395037,"connected_time":362000000000,"state":"active","ping":69},{"user_id":279,"name":"Tiblyat","steam_id":76561198093077688,"connected_time":187000000000,"state":"active","ping":73},{"user_id":272,"name":"Aquila","steam_id":76561198042520637,"connected_time":509000000000,"state":"active","ping":38},{"user_id":273,"name":"Morgenstern","steam_id":76561198253080474,"connected_time":498000000000,"state":"active","ping":69},{"user_id":256,"name":"Marzell","steam_id":76561198151276153,"connected_time":1033000000000,"state":"active","ping":93},{"user_id":257,"name":"swag messiah","steam_id":76561198380839792,"connected_time":1025000000000,"state":"active","ping":44},{"user_id":277,"name":"cas ganister","steam_id":76561198879023728,"connected_time":267000000000,"state":"active","ping":81},{"user_id":278,"name":"ibus","steam_id":76561199026701614,"connected_time":257000000000,"state":"active","ping":57},{"user_id":263,"name":"Souljah","steam_id":76561199071657288,"connected_time":733000000000,"state":"active","ping":75},{"user_id":248,"name":"El Chupacabra","steam_id":76561198070641651,"connected_time":1537000000000,"state":"active","ping":46}]},{"server_id":123,"name":"Uncletopia | Sydney | 2 | All Maps","name_short":"syd-2","host":"syd-1.au.uncletopia.com","port":27025,"enabled":true,"region":"au","cc":"au","latitude":-33.865143,"longitude":151.2099,"reserved":0,"last_update":"0001-01-01T00:00:00Z","name_a2s":"Uncletopia | Sydney | 2 | All Maps","protocol":17,"map":"koth_lakeside_final","folder":"tf","game":"Team Fortress","app_id":440,"player_count":0,"max_players":24,"Bots":0,"server_type":"Dedicated","server_os":"Linux","password":true,"vac":true,"version":"7961495","steam_id":85568392924470002,"keywords":["cp","nocrits","nodmgspread","uncletopia"],"game_id":440,"stv_port":27026,"stv_name":"Uncletopia | Sydney | 2 | All Maps | STV","players":null},{"server_id":395,"name":"Uncletopia | Sydney | 3 | All Maps","name_short":"syd-3","host":"syd-1.au.uncletopia.com","port":27035,"enabled":true,"region":"au","cc":"au","latitude":-33.865143,"longitude":151.2099,"reserved":0,"last_update":"0001-01-01T00:00:00Z","name_a2s":"Uncletopia | Sydney | 3 | All Maps","protocol":17,"map":"pl_frontier_final","folder":"tf","game":"Team Fortress","app_id":440,"player_count":0,"max_players":24,"Bots":0,"server_type":"Dedicated","server_os":"Linux","password":true,"vac":true,"version":"7961495","steam_id":85568392925194467,"keywords":["nocrits","nodmgspread","payload","uncletopia"],"game_id":440,"stv_port":27036,"stv_name":"Uncletopia | Sydney | 3 | All Maps | STV","players":null},{"server_id":396,"name":"Uncletopia | Sydney | 4 | All Maps","name_short":"syd-4","host":"syd-1.au.uncletopia.com","port":27045,"enabled":true,"region":"au","cc":"au","latitude":-33.865143,"longitude":151.2099,"reserved":0,"last_update":"0001-01-01T00:00:00Z","name_a2s":"Uncletopia | Sydney | 4 | All Maps","protocol":17,"map":"koth_cascade","folder":"tf","game":"Team Fortress","app_id":440,"player_count":0,"max_players":24,"Bots":0,"server_type":"Dedicated","server_os":"Linux","password":true,"vac":true,"version":"7961495","steam_id":85568392925397958,"keywords":["cp","nocrits","nodmgspread","uncletopia"],"game_id":440,"stv_port":27046,"stv_name":"Uncletopia | Sydney | 4 | All Maps | STV","players":null},{"server_id":58,"name":"Uncletopia | Sydney | 5 | Stopwatch","name_short":"syd-5","host":"syd-1.au.uncletopia.com","port":27055,"enabled":true,"region":"au","cc":"au","latitude":-33.865143,"longitude":151.2099,"reserved":0,"last_update":"0001-01-01T00:00:00Z","name_a2s":"Uncletopia | Sydney | 5 | Stopwatch","protocol":17,"map":"cp_sunshine","folder":"tf","game":"Team Fortress","app_id":440,"player_count":0,"max_players":24,"Bots":0,"server_type":"Dedicated","server_os":"Linux","password":true,"vac":true,"version":"7961495","steam_id":85568392925397959,"keywords":["cp","nocrits","nodmgspread","uncletopia"],"game_id":440,"stv_port":27056,"stv_name":"Uncletopia | Sydney | 5 | Stopwatch | STV","players":null},{"server_id":59,"name":"Uncletopia | Sydney | 6 | Community","name_short":"syd-6","host":"syd-1.au.uncletopia.com","port":27065,"enabled":true,"region":"au","cc":"au","latitude":-33.865143,"longitude":151.2099,"reserved":0,"last_update":"0001-01-01T00:00:00Z","name_a2s":"Uncletopia | Sydney | 6 | Community","protocol":17,"map":"cp_sunshine","folder":"tf","game":"Team Fortress","app_id":440,"player_count":0,"max_players":24,"Bots":0,"server_type":"Dedicated","server_os":"Linux","password":true,"vac":true,"version":"7961495","steam_id":85568392925397960,"keywords":["cp","nocrits","nodmgspread","uncletopia"],"game_id":440,"stv_port":27066,"stv_name":"Uncletopia | Sydney | 6 | Community | STV","players":null},{"server_id":49,"name":"Uncletopia | Warsaw | 1 | All Maps","name_short":"waw-1","host":"waw-1.pl.uncletopia.com","port":27015,"enabled":true,"region":"eu","cc":"pl","latitude":52.2297,"longitude":21.017532,"reserved":0,"last_update":"0001-01-01T00:00:00Z","name_a2s":"Uncletopia | Warsaw | 1 | All Maps","protocol":17,"map":"koth_lakeside_final","folder":"tf","game":"Team Fortress","app_id":440,"player_count":0,"max_players":24,"Bots":0,"server_type":"Dedicated","server_os":"Linux","password":true,"vac":true,"version":"7961495","steam_id":85568392925397850,"keywords":["cp","nocrits","nodmgspread","uncletopia"],"game_id":440,"stv_port":27016,"stv_name":"Uncletopia | Warsaw | 1 | All Maps | STV","players":null},{"server_id":50,"name":"Uncletopia | Warsaw | 2 | All Maps","name_short":"waw-2","host":"waw-1.pl.uncletopia.com","port":27025,"enabled":true,"region":"eu","cc":"pl","latitude":52.2297,"longitude":21.017532,"reserved":0,"last_update":"0001-01-01T00:00:00Z","name_a2s":"Uncletopia | Warsaw | 2 | All Maps","protocol":17,"map":"pl_borneo","folder":"tf","game":"Team Fortress","app_id":440,"player_count":0,"max_players":24,"Bots":0,"server_type":"Dedicated","server_os":"Linux","password":true,"vac":true,"version":"7961495","steam_id":85568392925397851,"keywords":["nocrits","nodmgspread","payload","uncletopia"],"game_id":440,"stv_port":27026,"stv_name":"Uncletopia | Warsaw | 2 | All Maps | STV","players":null},{"server_id":51,"name":"Uncletopia | Warsaw | 3 | All Maps","name_short":"waw-3","host":"waw-1.pl.uncletopia.com","port":27035,"enabled":true,"region":"eu","cc":"pl","latitude":52.2297,"longitude":21.017532,"reserved":0,"last_update":"0001-01-01T00:00:00Z","name_a2s":"Uncletopia | Warsaw | 3 | All Maps","protocol":17,"map":"pl_barnblitz","folder":"tf","game":"Team Fortress","app_id":440,"player_count":0,"max_players":24,"Bots":0,"server_type":"Dedicated","server_os":"Linux","password":true,"vac":true,"version":"7961495","steam_id":85568392925397852,"keywords":["nocrits","nodmgspread","payload","uncletopia"],"game_id":440,"stv_port":27036,"stv_name":"Uncletopia | Warsaw | 3 | All Maps | STV","players":null},{"server_id":52,"name":"Uncletopia | Warsaw | 4 | All Maps","name_short":"waw-4","host":"waw-1.pl.uncletopia.com","port":27045,"enabled":true,"region":"eu","cc":"pl","latitude":52.2297,"longitude":21.017532,"reserved":0,"last_update":"0001-01-01T00:00:00Z","name_a2s":"Uncletopia | Warsaw | 4 | All Maps","protocol":17,"map":"pl_borneo","folder":"tf","game":"Team Fortress","app_id":440,"player_count":0,"max_players":24,"Bots":0,"server_type":"Dedicated","server_os":"Linux","password":true,"vac":true,"version":"7961495","steam_id":85568392925397853,"keywords":["nocrits","nodmgspread","payload","uncletopia"],"game_id":440,"stv_port":27046,"stv_name":"Uncletopia | Warsaw | 4 | All Maps | STV","players":null},{"server_id":53,"name":"Uncletopia | Warsaw | 5 | Stopwatch","name_short":"waw-5","host":"waw-1.pl.uncletopia.com","port":27055,"enabled":true,"region":"eu","cc":"pl","latitude":52.2297,"longitude":21.017532,"reserved":0,"last_update":"0001-01-01T00:00:00Z","name_a2s":"Uncletopia | Warsaw | 5 | Stopwatch","protocol":17,"map":"pl_barnblitz","folder":"tf","game":"Team Fortress","app_id":440,"player_count":0,"max_players":24,"Bots":0,"server_type":"Dedicated","server_os":"Linux","password":true,"vac":true,"version":"7961495","steam_id":85568392925397854,"keywords":["nocrits","nodmgspread","payload","uncletopia"],"game_id":440,"stv_port":27056,"stv_name":"Uncletopia | Warsaw | 5 | Stopwatch | STV","players":null},{"server_id":54,"name":"Uncletopia | Warsaw | 6 | Community","name_short":"waw-6","host":"waw-1.pl.uncletopia.com","port":27065,"enabled":true,"region":"eu","cc":"pl","latitude":52.2297,"longitude":21.017532,"reserved":0,"last_update":"0001-01-01T00:00:00Z","name_a2s":"Uncletopia | Warsaw | 6 | Community","protocol":17,"map":"cp_altitude","folder":"tf","game":"Team Fortress","app_id":440,"player_count":0,"max_players":24,"Bots":0,"server_type":"Dedicated","server_os":"Linux","password":true,"vac":true,"version":"7961495","steam_id":85568392925397856,"keywords":["cp","nocrits","nodmgspread","uncletopia"],"game_id":440,"stv_port":27066,"stv_name":"Uncletopia | Warsaw | 6 | Community | STV","players":null}]}