{"status":true,"message":"","result":[{"server_id":9,"name":"Uncletopia | Atlanta | 1 | All Maps","name_short":"atl-1","host":"atl-1.us.uncletopia.com","port":27015,"enabled":true,"region":"us-east","cc":"us","latitude":33.753746,"longitude":-84.38633,"reserved":0,"last_update":"0001-01-01T00:00:00Z","name_a2s":"Uncletopia | Atlanta | 1 | All Maps","protocol":17,"map":"pl_swiftwater_final1","folder":"tf","game":"Team Fortress","app_id":440,"player_count":23,"max_players":24,"Bots":0,"server_type":"Dedicated","server_os":"Linux","password":true,"vac":true,"version":"7723704","steam_id":85568392924469982,"keywords":["nocrits","nodmgspread","payload","uncletopia"],"game_id":440,"stv_port":27016,"stv_name":"Uncletopia | Atlanta | 1 | All Maps | STV","players":[{"user_id":96,"name":"Nyxael","steam_id":76561198866909642,"connected_time":1560000000000,"state":"active","ping":92},{"user_id":99,"name":"Skeleton Bones Ghoulie","steam_id":76561199138772722,"connected_time":1498000000000,"state":"active","ping":130},{"user_id":44,"name":"*","steam_id":76561198289280906,"connected_time":6850000000000,"state":"active","ping":80},{"user_id":112,"name":"sansa musa","steam_id":76561198163723555,"connected_time":955000000000,"state":"active","ping":72},{"user_id":106,"name":"Firerise9402","steam_id":76561199158500661,"connected_time":1275000000000,"state":"active","ping":63},{"user_id":46,"name":"Daksuki","steam_id":76561198084127751,"connected_time":6046000000000,"state":"active","ping":80},{"user_id":68,"name":"Try Gardening","steam_id":76561198120311340,"connected_time":3425000000000,"state":"active","ping":62},{"user_id":100,"name":"faxxy","steam_id":76561198079621240,"connected_time":1471000000000,"state":"active","ping":89},{"user_id":114,"name":"Curt4ins","steam_id":76561198058444344,"connected_time":790000000000,"state":"active","ping":91},{"user_id":98,"name":"ATL1 | Kramer","steam_id":76561198083595936,"connected_time":1511000000000,"state":"active","ping":118},{"user_id":101,"name":"TheGuyFromFortnite","steam_id":76561199099649565,"connected_time":1462000000000,"state":"active","ping":137},{"user_id":102,"name":"Open Mailbox","steam_id":76561198051933580,"connected_time":1449000000000,"state":"active","ping":81},{"user_id":153,"name":"ATL1 | p4ka","steam_id":76561198315291317,"connected_time":17000000000,"state":"active","ping":80},{"user_id":71,"name":"DuckMann","steam_id":76561198197058638,"connected_time":3260000000000,"state":"active","ping":60},{"user_id":85,"name":"Eins","steam_id":76561199030343810,"connected_time":2096000000000,"state":"active","ping":44},{"user_id":89,"name":"Probably P3","steam_id":76561198000127035,"connected_time":1903000000000,"state":"active","ping":65},{"user_id":95,"name":"Great Value Rice Crispers","steam_id":76561198211512619,"connected_time":1785000000000,"state":"active","ping":99},{"user_id":74,"name":"Atlas","steam_id":76561198127975050,"connected_time":3152000000000,"state":"active","ping":50},{"user_id":105,"name":"Nevu","steam_id":76561198378240571,"connected_time":1383000000000,"state":"active","ping":114},{"user_id":107,"name":"PadrePockets","steam_id":76561197993251606,"connected_time":1209000000000,"state":"active","ping":94},{"user_id":93,"name":"fudo myoo","steam_id":76561198456258164,"connected_time":1802000000000,"state":"active","ping":59},{"user_id":119,"name":"barry from jetpack joyride","steam_id":76561198881575174,"connected_time":366000000000,"state":"active","ping":182},{"user_id":129,"name":"Quiggles lft","steam_id":76561199177247655,"connected_time":282000000000,"state":"active","ping":59}]},{"server_id":400,"name":"Uncletopia | Atlanta | 3 | All Maps","name_short":"atl-3","host":"atl-1.us.uncletopia.com","port":27035,"enabled":true,"region":"us-east","cc":"us","latitude":33.753746,"longitude":-84.38633,"reserved":0,"last_update":"0001-01-01T00:00:00Z","name_a2s":"Uncletopia | Atlanta | 3 | All Maps","protocol":17,"map":"cp_sunshine","folder":"tf","game":"Team Fortress","app_id":440,"player_count":0,"max_players":24,"Bots":0,"server_type":"Dedicated","server_os":"Linux","password":true,"vac":true,"version":"7723704","steam_id":85568392924515187,"keywords":["cp","nocrits","nodmgspread","uncletopia"],"game_id":440,"stv_port":27036,"stv_name":"Uncletopia | Atlanta | 3 | All Maps | STV","players":null},{"server_id":401,"name":"Uncletopia | Atlanta | 4 | No Payload","name_short":"atl-4","host":"atl-1.us.uncletopia.com","port":27045,"enabled":true,"region":"us-east","cc":"us","latitude":33.753746,"longitude":-84.38633,"reserved":0,"last_update":"0001-01-01T00:00:00Z","name_a2s":"Uncletopia | Atlanta | 4 | No Payload","protocol":17,"map":"cp_mercenarypark","folder":"tf","game":"Team Fortress","app_id":440,"player_count":0,"max_players":24,"Bots":0,"server_type":"Dedicated","server_os":"Linux","password":true,"vac":true,"version":"7723704","steam_id":85568392924515188,"keywords":["cp","nocrits","nodmgspread","uncletopia"],"game_id":440,"stv_port":27046,"stv_name":"Uncletopia | Atlanta | 4 | No Payload | STV","players":null},{"server_id":2,"name":"Uncletopia | Chicago | 1 | All Maps","name_short":"chi-1","host":"chi-1.us.uncletopia.com","port":27015,"enabled":true,"region":"us-central","cc":"us","latitude":41.881832,"longitude":-87.62318,"reserved":0,"last_update":"0001-01-01T00:00:00Z","name_a2s":"Uncletopia | Chicago | 1 | All Maps","protocol":17,"map":"pl_badwater","folder":"tf","game":"Team Fortress","app_id":440,"player_count":23,"max_players":24,"Bots":0,"server_type":"Dedicated","server_os":"Linux","password":true,"vac":true,"version":"7723704","steam_id":85568392924469984,"keywords":["nocrits","nodmgspread","payload","uncletopia"],"game_id":440,"stv_port":27016,"stv_name":"Uncletopia | Chicago | 1 | All Maps | STV","players":[{"user_id":3,"name":"ÒwÓ","steam_id":76561197997304387,"connected_time":23645000000000,"state":"active","ping":73},{"user_id":265,"name":"Michaelpc1","steam_id":76561198088365519,"connected_time":1100000000000,"state":"active","ping":88},{"user_id":245,"name":"StuckInTheTV","steam_id":76561198108678046,"connected_time":2206000000000,"state":"active","ping":106},{"user_id":249,"name":"mumbles","steam_id":76561197994528974,"connected_time":2079000000000,"state":"active","ping":120},{"user_id":276,"name":"Thog","steam_id":76561198093699060,"connected_time":201000000000,"state":"active","ping":60},{"user_id":229,"name":"Sylvaris","steam_id":76561198156678773,"connected_time":3402000000000,"state":"active","ping":79},{"user_id":214,"name":"Shinu","steam_id":76561198243188782,"connected_time":4334000000000,"state":"active","ping":80},{"user_id":254,"name":"brian eno","steam_id":76561198109901138,"connected_time":1881000000000,"state":"active","ping":75},{"user_id":272,"name":"The 3rd Party","steam_id":76561198149353542,"connected_time":855000000000,"state":"active","ping":86},{"user_id":277,"name":"ShitStain(1)","steam_id":76561199190335419,"connected_time":189000000000,"state":"active","ping":157},{"user_id":270,"name":"a shrieking cloud of bats","steam_id":76561198151363063,"connected_time":994000000000,"state":"active","ping":69},{"user_id":258,"name":"ccog","steam_id":76561198009314845,"connected_time":1709000000000,"state":"active","ping":107},{"user_id":241,"name":"Kzjytsugn","steam_id":76561198130241974,"connected_time":2429000000000,"state":"active","ping":94},{"user_id":271,"name":"maxie!","steam_id":76561197962607364,"connected_time":922000000000,"state":"active","ping":67},{"user_id":251,"name":"asfd","steam_id":76561198012566405,"connected_time":1930000000000,"state":"active","ping":73},{"user_id":273,"name":"GREG","steam_id":76561198073021168,"connected_time":321000000000,"state":"active","ping":69},{"user_id":268,"name":"ṽ⧉  hank","steam_id":76561197977182378,"connected_time":1070000000000,"state":"active","ping":55},{"user_id":269,"name":"swooce","steam_id":76561198156232484,"connected_time":1069000000000,"state":"active","ping":70},{"user_id":255,"name":"Alfonso Molestro","steam_id":76561197998677099,"connected_time":1773000000000,"state":"active","ping":84},{"user_id":248,"name":"CaucasianShaq","steam_id":76561198351623516,"connected_time":2115000000000,"state":"active","ping":83},{"user_id":275,"name":"Hylic","steam_id":76561199051314589,"connected_time":273000000000,"state":"active","ping":72},{"user_id":261,"name":"flappyflap2","steam_id":76561198285048973,"connected_time":1498000000000,"state":"active","ping":60},{"user_id":263,"name":"Irontothecore","steam_id":76561198387384844,"connected_time":1330000000000,"state":"active","ping":63}]},{"server_id":106,"name":"Uncletopia | Chicago | 2 | All Maps","name_short":"chi-2","host":"chi-1.us.uncletopia.com","port":27025,"enabled":true,"region":"us-central","cc":"us","latitude":41.881832,"longitude":-87.62318,"reserved":0,"last_update":"0001-01-01T00:00:00Z","name_a2s":"Uncletopia | Chicago | 2 | All Maps","protocol":17,"map":"koth_lakeside_final","folder":"tf","game":"Team Fortress","app_id":440,"player_count":0,"max_players":24,"Bots":0,"server_type":"Dedicated","server_os":"Linux","password":true,"vac":true,"version":"7723704","steam_id":85568392924469985,"keywords":["cp","nocrits","nodmgspread","uncletopia"],"game_id":440,"stv_port":27026,"stv_name":"Uncletopia | Chicago | 2 | All Maps | STV","players":null},{"server_id":402,"name":"Uncletopia | Chicago | 3 | All Maps","name_short":"chi-3","host":"chi-1.us.uncletopia.com","port":27035,"enabled":true,"region":"us-central","cc":"us","latitude":41.881832,"longitude":-87.62318,"reserved":0,"last_update":"0001-01-01T00:00:00Z","name_a2s":"Uncletopia | Chicago | 3 | All Maps","protocol":17,"map":"pl_pier","folder":"tf","game":"Team Fortress","app_id":440,"player_count":17,"max_players":24,"Bots":0,"server_type":"Dedicated","server_os":"Linux","password":true,"vac":true,"version":"7723704","steam_id":85568392924515191,"keywords":["nocrits","nodmgspread","payload","uncletopia"],"game_id":440,"stv_port":27036,"stv_name":"Uncletopia | Chicago | 3 | All Maps | STV","players":[{"user_id":111,"name":"sioti","steam_id":76561198128796649,"connected_time":58000000000,"state":"active","ping":64},{"user_id":88,"name":"4d4","steam_id":76561198402360789,"connected_time":1457000000000,"state":"active","ping":53},{"user_id":112,"name":"recycle","steam_id":76561198819562111,"connected_time":38000000000,"state":"active","ping":46},{"user_id":103,"name":"Do Moose go Moo?","steam_id":76561198073550620,"connected_time":317000000000,"state":"active","ping":45},{"user_id":104,"name":"NotEpic","steam_id":76561198852240386,"connected_time":295000000000,"state":"active","ping":54},{"user_id":105,"name":"Squishybrick","steam_id":76561198029526606,"connected_time":258000000000,"state":"active","ping":157},{"user_id":75,"name":"TehDuck","steam_id":76561198172129394,"connected_time":2311000000000,"state":"active","ping":63},{"user_id":26,"name":"kametro4","steam_id":76561198835430429,"connected_time":5430000000000,"state":"active","ping":85},{"user_id":30,"name":"CJAIME01345","steam_id":76561199091599141,"connected_time":4712000000000,"state":"active","ping":127},{"user_id":94,"name":"Joseph Stalin","steam_id":76561198126234142,"connected_time":1059000000000,"state":"active","ping":77},{"user_id":107,"name":"¿skitt1eS?","steam_id":76561198330093211,"connected_time":147000000000,"state":"active","ping":63},{"user_id":55,"name":"Crunchy","steam_id":76561198060342804,"connected_time":3602000000000,"state":"active","ping":64},{"user_id":109,"name":"squid game","steam_id":76561199248960166,"connected_time":90000000000,"state":"active","ping":83},{"user_id":110,"name":"stonebreaker974","steam_id":76561198880243251,"connected_time":89000000000,"state":"active","ping":60},{"user_id":80,"name":"Satori Komeiji","steam_id":76561198158211423,"connected_time":2126000000000,"state":"active","ping":93},{"user_id":90,"name":"M249 | Spectre","steam_id":76561198118334485,"connected_time":1233000000000,"state":"active","ping":89},{"user_id":92,"name":"Winter the Witchie","steam_id":76561198151971178,"connected_time":1119000000000,"state":"active","ping":59}]},{"server_id":403,"name":"Uncletopia | Chicago | 4 | All Maps","name_short":"chi-4","host":"chi-1.us.uncletopia.com","port":27045,"enabled":true,"region":"us-central","cc":"us","latitude":41.881832,"longitude":-87.62318,"reserved":0,"last_update":"0001-01-01T00:00:00Z","name_a2s":"Uncletopia | Chicago | 4 | All Maps","protocol":17,"map":"cp_process_final","folder":"tf","game":"Team Fortress","app_id":440,"player_count":24,"max_players":24,"Bots":0,"server_type":"Dedicated","server_os":"Linux","password":true,"vac":true,"version":"7723704","steam_id":85568392924515193,"keywords":["cp","nocrits","nodmgspread","uncletopia"],"game_id":440,"stv_port":27046,"stv_name":"Uncletopia | Chicago | 4 | All Maps | STV","players":[{"user_id":368,"name":"CHI CHI","steam_id":76561198210322871,"connected_time":1723000000000,"state":"active","ping":105},{"user_id":351,"name":"rubb3r","steam_id":76561198096874230,"connected_time":3202000000000,"state":"active","ping":69},{"user_id":392,"name":"yup","steam_id":76561199190800520,"connected_time":176000000000,"state":"active","ping":87},{"user_id":385,"name":"Tyler\u0026Fingers","steam_id":76561198085154485,"connected_time":564000000000,"state":"active","ping":68},{"user_id":308,"name":"A Festive G J W","steam_id":76561198123359692,"connected_time":5869000000000,"state":"active","ping":56},{"user_id":326,"name":"Haydob13","steam_id":76561198110378191,"connected_time":4372000000000,"state":"active","ping":89},{"user_id":381,"name":"Ugly Mick Mars","steam_id":76561198051504563,"connected_time":970000000000,"state":"active","ping":106},{"user_id":321,"name":"Silvercoat's Stargazer","steam_id":76561198399525329,"connected_time":4475000000000,"state":"active","ping":76},{"user_id":396,"name":"Vagrant","steam_id":76561198242536886,"connected_time":63000000000,"state":"active","ping":120},{"user_id":393,"name":"ÜberBurst inVinci","steam_id":76561198044470684,"connected_time":135000000000,"state":"active","ping":120},{"user_id":379,"name":"Tromboner","steam_id":76561198101850500,"connected_time":1005000000000,"state":"active","ping":89},{"user_id":364,"name":"mafia man","steam_id":76561198057185217,"connected_time":1842000000000,"state":"active","ping":62},{"user_id":356,"name":"Samus","steam_id":76561198121933439,"connected_time":2842000000000,"state":"active","ping":68},{"user_id":380,"name":"tame","steam_id":76561198925005855,"connected_time":1001000000000,"state":"active","ping":192},{"user_id":394,"name":"Chin","steam_id":76561198247426906,"connected_time":87000000000,"state":"active","ping":76},{"user_id":348,"name":"AstroHusky","steam_id":76561197965970648,"connected_time":3424000000000,"state":"active","ping":140},{"user_id":382,"name":"festive klevin","steam_id":76561198799106535,"connected_time":924000000000,"state":"active","ping":91},{"user_id":341,"name":"spunk pap","steam_id":76561198202278895,"connected_time":3725000000000,"state":"active","ping":77},{"user_id":395,"name":"Nobody","steam_id":76561198286486517,"connected_time":85000000000,"state":"active","ping":59},{"user_id":267,"name":"Snake Handler","steam_id":76561198027198306,"connected_time":8668000000000,"state":"active","ping":58},{"user_id":388,"name":"floppy muppet","steam_id":76561198003076261,"connected_time":346000000000,"state":"active","ping":88},{"user_id":302,"name":"ItsRoy","steam_id":76561198119525485,"connected_time":6163000000000,"state":"active","ping":58},{"user_id":384,"name":"Darghul the Skeleton Lord","steam_id":76561198004140161,"connected_time":883000000000,"state":"active","ping":45},{"user_id":387,"name":"footoftheday","steam_id":76561198052712449,"connected_time":452000000000,"state":"active","ping":75}]},{"server_id":36,"name":"Uncletopia | Chicago | 5 | All Maps","name_short":"chi-5","host":"chi-2.us.uncletopia.com","port":27015,"enabled":true,"region":"us-central","cc":"us","latitude":41.881832,"longitude":-87.62318,"reserved":0,"last_update":"0001-01-01T00:00:00Z","name_a2s":"Uncletopia | Chicago | 5 | All Maps","protocol":17,"map":"koth_cascade","folder":"tf","game":"Team Fortress","app_id":440,"player_count":0,"max_players":24,"Bots":0,"server_type":"Dedicated","server_os":"Linux","password":true,"vac":true,"version":"7723704","steam_id":85568392924866362,"keywords":["cp","nocrits","nodmgspread","uncletopia"],"game_id":440,"stv_port":27016,"stv_name":"Uncletopia | Chicago | 5 | All Maps | STV","players":null},{"server_id":37,"name":"Uncletopia | Chicago | 6 | All Maps","name_short":"chi-6","host":"chi-2.us.uncletopia.com","port":27025,"enabled":true,"region":"us-central","cc":"us","latitude":41.881832,"longitude":-87.62318,"reserved":0,"last_update":"0001-01-01T00:00:00Z","name_a2s":"Uncletopia | Chicago | 6 | All Maps","protocol":17,"map":"cp_altitude","folder":"tf","game":"Team Fortress","app_id":440,"player_count":0,"max_players":24,"Bots":0,"server_type":"Dedicated","server_os":"Linux","password":true,"vac":true,"version":"7723704","steam_id":85568392924866363,"keywords":["cp","nocrits","nodmgspread","uncletopia"],"game_id":440,"stv_port":27026,"stv_name":"Uncletopia | Chicago | 6 | All Maps | STV","players":null},{"server_id":38,"name":"Uncletopia | Chicago | 7 | Stopwatch (test)","name_short":"chi-7","host":"chi-2.us.uncletopia.com","port":27035,"enabled":true,"region":"us-central","cc":"us","latitude":41.881832,"longitude":-87.62318,"reserved":0,"last_update":"0001-01-01T00:00:00Z","name_a2s":"Uncletopia | Chicago | 7 | Stopwatch (test)","protocol":17,"map":"workshop/cp_process_f11.ugc2302948105","folder":"tf","game":"Team Fortress","app_id":440,"player_count":0,"max_players":24,"Bots":0,"server_type":"Dedicated","server_os":"Linux","password":true,"vac":true,"version":"7723704","steam_id":85568392924866364,"keywords":["cp","nocrits","nodmgspread","uncletopia"],"game_id":440,"stv_port":27036,"stv_name":"Uncletopia | Chicago | 7 | Stopwatch (test) | STV","players":null},{"server_id":39,"name":"Uncletopia | Chicago | 8 | Community","name_short":"chi-8","host":"chi-2.us.uncletopia.com","port":27045,"enabled":true,"region":"us-central","cc":"us","latitude":41.881832,"longitude":-87.62318,"reserved":0,"last_update":"0001-01-01T00:00:00Z","name_a2s":"Uncletopia | Chicago | 8 | Community","protocol":17,"map":"pl_frontier_final","folder":"tf","game":"Team Fortress","app_id":440,"player_count":0,"max_players":24,"Bots":0,"server_type":"Dedicated","server_os":"Linux","password":true,"vac":true,"version":"7723704","steam_id":85568392924866365,"keywords":["nocrits","nodmgspread","payload","uncletopia"],"game_id":440,"stv_port":27046,"stv_name":"Uncletopia | Chicago | 8 | Community | STV","players":null},{"server_id":8,"name":"Uncletopia | Dallas | 1 | All Maps","name_short":"dal-1","host":"dal-1.us.uncletopia.com","port":27015,"enabled":true,"region":"us-central","cc":"us","latitude":32.779167,"longitude":-96.80889,"reserved":0,"last_update":"0001-01-01T00:00:00Z","name_a2s":"Uncletopia | Dallas | 1 | All Maps","protocol":17,"map":"pl_snowycoast","folder":"tf","game":"Team Fortress","app_id":440,"player_count":24,"max_players":24,"Bots":0,"server_type":"Dedicated","server_os":"Linux","password":true,"vac":true,"version":"7723704","steam_id":85568392924469986,"keywords":["nocrits","nodmgspread","payload","uncletopia"],"game_id":440,"stv_port":27016,"stv_name":"Uncletopia | Dallas | 1 | All Maps | STV","players":[{"user_id":362,"name":"rocketman","steam_id":76561198067173482,"connected_time":514000000000,"state":"active","ping":74},{"user_id":366,"name":"is_taken_to","steam_id":76561198802731691,"connected_time":446000000000,"state":"active","ping":84},{"user_id":367,"name":"Gentlegen","steam_id":76561198257368619,"connected_time":411000000000,"state":"active","ping":89},{"user_id":355,"name":"Toripollo","steam_id":76561198251665862,"connected_time":929000000000,"state":"active","ping":102},{"user_id":331,"name":"Agent Bowtie","steam_id":76561198175839279,"connected_time":2394000000000,"state":"active","ping":46},{"user_id":337,"name":"Jimbo","steam_id":76561198136560547,"connected_time":2026000000000,"state":"active","ping":35},{"user_id":353,"name":"Eightyy  Fourr","steam_id":76561197960374225,"connected_time":1106000000000,"state":"active","ping":53},{"user_id":332,"name":"pakispot","steam_id":76561198860676239,"connected_time":2318000000000,"state":"active","ping":63},{"user_id":333,"name":"san andreas police deparetment","steam_id":76561198411414903,"connected_time":2316000000000,"state":"active","ping":76},{"user_id":328,"name":"corbenis","steam_id":76561199012442511,"connected_time":2516000000000,"state":"active","ping":86},{"user_id":357,"name":"Strigby","steam_id":76561198004116353,"connected_time":774000000000,"state":"active","ping":69},{"user_id":334,"name":"bin","steam_id":76561199091592814,"connected_time":2265000000000,"state":"active","ping":75},{"user_id":348,"name":"Bubbles","steam_id":76561198812361950,"connected_time":1505000000000,"state":"active","ping":98},{"user_id":349,"name":"Indigolake","steam_id":76561198202215807,"connected_time":1491000000000,"state":"active","ping":105},{"user_id":350,"name":"zakk","steam_id":76561198252897010,"connected_time":1474000000000,"state":"active","ping":89},{"user_id":326,"name":"Remex","steam_id":76561198072651849,"connected_time":2605000000000,"state":"active","ping":66},{"user_id":341,"name":"mosnar","steam_id":76561199088864128,"connected_time":1842000000000,"state":"active","ping":89},{"user_id":317,"name":"Berries","steam_id":76561198109312962,"connected_time":3767000000000,"state":"active","ping":90},{"user_id":342,"name":"Funke Monke","steam_id":76561198079440976,"connected_time":1756000000000,"state":"active","ping":71},{"user_id":358,"name":"[Janitorial] Knife_Wrench","steam_id":76561197998035928,"connected_time":743000000000,"state":"active","ping":83},{"user_id":346,"name":"ApertureCity","steam_id":76561198004153607,"connected_time":1594000000000,"state":"active","ping":92},{"user_id":364,"name":"bushy","steam_id":76561198138088830,"connected_time":499000000000,"state":"active","ping":59},{"user_id":360,"name":"evil witch","steam_id":76561198279661941,"connected_time":700000000000,"state":"active","ping":81},{"user_id":370,"name":"Serenue","steam_id":76561199040361250,"connected_time":126000000000,"state":"active","ping":103}]},{"server_id":108,"name":"Uncletopia | Dallas | 2 | All Maps","name_short":"dal-2","host":"dal-1.us.uncletopia.com","port":27025,"enabled":true,"region":"us-central","cc":"us","latitude":32.779167,"longitude":-96.80889,"reserved":0,"last_update":"0001-01-01T00:00:00Z","name_a2s":"Uncletopia | Dallas | 2 | All Maps","protocol":17,"map":"cp_snakewater_final1","folder":"tf","game":"Team Fortress","app_id":440,"player_count":0,"max_players":24,"Bots":0,"server_type":"Dedicated","server_os":"Linux","password":true,"vac":true,"version":"7723704","steam_id":85568392924469988,"keywords":["cp","nocrits","nodmgspread","uncletopia"],"game_id":440,"stv_port":27026,"stv_name":"Uncletopia | Dallas | 2 | All Maps | STV","players":null},{"server_id":5,"name":"Uncletopia | Frankfurt | 1 | All Maps","name_short":"frk-1","host":"frk-1.de.uncletopia.com","port":27015,"enabled":true,"region":"eu","cc":"de","latitude":50.110924,"longitude":8.682127,"reserved":0,"last_update":"0001-01-01T00:00:00Z","name_a2s":"Uncletopia | Frankfurt | 1 | All Maps","protocol":17,"map":"cp_process_final","folder":"tf","game":"Team Fortress","app_id":440,"player_count":24,"max_players":24,"Bots":0,"server_type":"Dedicated","server_os":"Linux","password":true,"vac":true,"version":"7723704","steam_id":85568392924469989,"keywords":["cp","nocrits","nodmgspread","uncletopia"],"game_id":440,"stv_port":27016,"stv_name":"Uncletopia | Frankfurt | 1 | All Maps | STV","players":[{"user_id":311,"name":"Nick","steam_id":76561198036109469,"connected_time":3343000000000,"state":"active","ping":93},{"user_id":335,"name":"Mr. Mundy","steam_id":76561198132008918,"connected_time":1417000000000,"state":"active","ping":76},{"user_id":347,"name":"Giga Chad Revi","steam_id":76561198288444777,"connected_time":798000000000,"state":"active","ping":112},{"user_id":341,"name":"Sgt. VARD","steam_id":76561198329576763,"connected_time":1008000000000,"state":"active","ping":89},{"user_id":359,"name":"приобрёл мегадев","steam_id":76561198163244605,"connected_time":188000000000,"state":"active","ping":84},{"user_id":337,"name":"mhn2","steam_id":76561199084811841,"connected_time":1382000000000,"state":"active","ping":129},{"user_id":107,"name":"Ｒ Ｏ Ｂ Ｂ Ｅ Ｒ Ｔ","steam_id":76561198134404830,"connected_time":16891000000000,"state":"active","ping":128},{"user_id":356,"name":"adı file olan çocuk","steam_id":76561198290817537,"connected_time":390000000000,"state":"active","ping":85},{"user_id":357,"name":"M4R1O","steam_id":76561198050528464,"connected_time":383000000000,"state":"active","ping":54},{"user_id":316,"name":"SkullBurner","steam_id":76561198357531846,"connected_time":3270000000000,"state":"active","ping":74},{"user_id":352,"name":"your local rule34 artist","steam_id":76561199236179641,"connected_time":434000000000,"state":"active","ping":96},{"user_id":353,"name":"Andrea","steam_id":76561199350746762,"connected_time":434000000000,"state":"active","ping":75},{"user_id":310,"name":"firenickblood","steam_id":76561199302529256,"connected_time":3612000000000,"state":"active","ping":77},{"user_id":358,"name":"ViktorYoshi","steam_id":76561199157555246,"connected_time":368000000000,"state":"active","ping":63},{"user_id":318,"name":"Belial","steam_id":76561199021513627,"connected_time":3260000000000,"state":"active","ping":66},{"user_id":334,"name":"Economic crisis","steam_id":76561198063562843,"connected_time":1426000000000,"state":"active","ping":59},{"user_id":305,"name":"washed up","steam_id":76561198275742101,"connected_time":3979000000000,"state":"active","ping":55},{"user_id":350,"name":"aion","steam_id":76561198980665401,"connected_time":558000000000,"state":"active","ping":93},{"user_id":309,"name":"Hexagon","steam_id":76561198151205758,"connected_time":3658000000000,"state":"active","ping":59},{"user_id":348,"name":"Møjæstic |","steam_id":76561198086787066,"connected_time":685000000000,"state":"active","ping":75},{"user_id":360,"name":"ev1lboyo","steam_id":76561199199499453,"connected_time":141000000000,"state":"active","ping":79},{"user_id":295,"name":"пупсень","steam_id":76561199037894293,"connected_time":4902000000000,"state":"active","ping":74},{"user_id":330,"name":"Raiden from Metal Gear","steam_id":76561198365479202,"connected_time":2151000000000,"state":"active","ping":85},{"user_id":331,"name":"BenJantr_","steam_id":76561198882922635,"connected_time":2146000000000,"state":"active","ping":89}]},{"server_id":110,"name":"Uncletopia | Frankfurt | 2 | All Maps","name_short":"frk-2","host":"frk-1.de.uncletopia.com","port":27025,"enabled":true,"region":"eu","cc":"de","latitude":50.110924,"longitude":8.682127,"reserved":0,"last_update":"0001-01-01T00:00:00Z","name_a2s":"Uncletopia | Frankfurt | 2 | All Maps","protocol":17,"map":"koth_king","folder":"tf","game":"Team Fortress","app_id":440,"player_count":20,"max_players":24,"Bots":0,"server_type":"Dedicated","server_os":"Linux","password":true,"vac":true,"version":"7723704","steam_id":85568392924469990,"keywords":["cp","nocrits","nodmgspread","uncletopia"],"game_id":440,"stv_port":27026,"stv_name":"Uncletopia | Frankfurt | 2 | All Maps | STV","players":[{"user_id":616,"name":"Clitorina","steam_id":76561198077570815,"connected_time":114000000000,"state":"active","ping":56},{"user_id":618,"name":"Gandalf","steam_id":76561199072668363,"connected_time":51000000000,"state":"active","ping":77},{"user_id":546,"name":"FreeZ","steam_id":76561199070093469,"connected_time":4665000000000,"state":"active","ping":72},{"user_id":602,"name":"akeno best waifu","steam_id":76561198267167505,"connected_time":1060000000000,"state":"active","ping":61},{"user_id":581,"name":"Tea","steam_id":76561198799243030,"connected_time":2703000000000,"state":"active","ping":64},{"user_id":609,"name":"Use The Finger","steam_id":76561198050203563,"connected_time":784000000000,"state":"active","ping":72},{"user_id":617,"name":"Jayco","steam_id":76561198122497262,"connected_time":111000000000,"state":"active","ping":76},{"user_id":594,"name":"finger","steam_id":76561198032101031,"connected_time":1325000000000,"state":"active","ping":122},{"user_id":560,"name":"Diana Ball","steam_id":76561198382533813,"connected_time":3757000000000,"state":"active","ping":61},{"user_id":573,"name":"cigamtaf","steam_id":76561198339873745,"connected_time":3024000000000,"state":"active","ping":76},{"user_id":588,"name":"Spy","steam_id":76561198122074582,"connected_time":1616000000000,"state":"active","ping":90},{"user_id":595,"name":"ILoveMyMom420Blaze","steam_id":76561198981016492,"connected_time":1313000000000,"state":"active","ping":60},{"user_id":523,"name":"VK2124 :D","steam_id":76561198111130688,"connected_time":6163000000000,"state":"active","ping":47},{"user_id":607,"name":"cl","steam_id":76561199436640904,"connected_time":813000000000,"state":"active","ping":67},{"user_id":615,"name":"PixelHyde","steam_id":76561198040878617,"connected_time":255000000000,"state":"active","ping":64},{"user_id":612,"name":"manure merchant","steam_id":76561198010109316,"connected_time":392000000000,"state":"active","ping":57},{"user_id":608,"name":"Löysä Masa","steam_id":76561198343396172,"connected_time":805000000000,"state":"active","ping":100},{"user_id":540,"name":"KFC Enjoyer","steam_id":76561198840259819,"connected_time":5076000000000,"state":"active","ping":55},{"user_id":613,"name":"Bobo","steam_id":76561198052308399,"connected_time":359000000000,"state":"active","ping":58},{"user_id":610,"name":"Somario","steam_id":76561198046598526,"connected_time":695000000000,"state":"active","ping":64}]},{"server_id":308,"name":"Uncletopia | Frankfurt | 3 | All Maps","name_short":"frk-3","host":"frk-1.de.uncletopia.com","port":27035,"enabled":true,"region":"eu","cc":"de","latitude":50.110924,"longitude":8.682127,"reserved":0,"last_update":"0001-01-01T00:00:00Z","name_a2s":"Uncletopia | Frankfurt | 3 | All Maps","protocol":17,"map":"cp_dustbowl","folder":"tf","game":"Team Fortress","app_id":440,"player_count":14,"max_players":24,"Bots":0,"server_type":"Dedicated","server_os":"Linux","password":true,"vac":true,"version":"7723704","steam_id":85568392924504274,"keywords":["cp","nocrits","nodmgspread","uncletopia"],"game_id":440,"stv_port":27036,"stv_name":"Uncletopia | Frankfurt | 3 | All Maps | STV","players":[{"user_id":428,"name":"Fluffy","steam_id":76561198084447725,"connected_time":3457000000000,"state":"active","ping":51},{"user_id":483,"name":"SkullOrange","steam_id":76561198062702869,"connected_time":89000000000,"state":"active","ping":74},{"user_id":467,"name":"Void_Walker","steam_id":76561199401516997,"connected_time":1399000000000,"state":"active","ping":65},{"user_id":457,"name":"Aoshi","steam_id":76561198043868358,"connected_time":1982000000000,"state":"active","ping":61},{"user_id":481,"name":"mariodraghi","steam_id":76561198805093192,"connected_time":169000000000,"state":"active","ping":91},{"user_id":482,"name":"Cillian","steam_id":76561199046965320,"connected_time":146000000000,"state":"active","ping":84},{"user_id":480,"name":"the boss","steam_id":76561198353190790,"connected_time":430000000000,"state":"active","ping":71},{"user_id":484,"name":"The  cockpiece is real","steam_id":76561198099433856,"connected_time":52000000000,"state":"active","ping":57},{"user_id":475,"name":"RikyBiky","steam_id":76561198261545177,"connected_time":983000000000,"state":"active","ping":77},{"user_id":466,"name":"Festivised Paper","steam_id":76561199037749675,"connected_time":1435000000000,"state":"active","ping":51},{"user_id":473,"name":"DarkFloy","steam_id":76561198070650206,"connected_time":1000000000000,"state":"active","ping":79},{"user_id":404,"name":"Lord of the Lockerroom","steam_id":76561198080619697,"connected_time":5776000000000,"state":"active","ping":168},{"user_id":426,"name":"Octoblue64","steam_id":76561198388997283,"connected_time":3577000000000,"state":"active","ping":62},{"user_id":442,"name":"Senator Armstrong","steam_id":76561198984346408,"connected_time":2841000000000,"state":"active","ping":69}]},{"server_id":309,"name":"Uncletopia | Frankfurt | 4 | All Maps","name_short":"frk-4","host":"frk-1.de.uncletopia.com","port":27045,"enabled":true,"region":"eu","cc":"de","latitude":50.110924,"longitude":8.682127,"reserved":0,"last_update":"0001-01-01T00:00:00Z","name_a2s":"Uncletopia | Frankfurt | 4 | All Maps","protocol":17,"map":"pl_badwater","folder":"tf","game":"Team Fortress","app_id":440,"player_count":19,"max_players":24,"Bots":0,"server_type":"Dedicated","server_os":"Linux","password":true,"vac":true,"version":"7723704","steam_id":85568392924504275,"keywords":["nocrits","nodmgspread","payload","uncletopia"],"game_id":440,"stv_port":27046,"stv_name":"Uncletopia | Frankfurt | 4 | All Maps | STV","players":[{"user_id":163,"name":"Bait","steam_id":76561198335188568,"connected_time":1864000000000,"state":"active","ping":62},{"user_id":199,"name":"Husky","steam_id":76561198106313747,"connected_time":69000000000,"state":"active","ping":56},{"user_id":173,"name":"soulja boy face reveal","steam_id":76561198097820508,"connected_time":1265000000000,"state":"active","ping":56},{"user_id":165,"name":"Sticky Bomb","steam_id":76561198214267967,"connected_time":1857000000000,"state":"active","ping":71},{"user_id":200,"name":"\u003e:3","steam_id":76561198368312026,"connected_time":45000000000,"state":"spawning","ping":66},{"user_id":160,"name":"noob2007","steam_id":76561198089832813,"connected_time":2329000000000,"state":"active","ping":72},{"user_id":166,"name":"LoucasTheK9","steam_id":76561198243722286,"connected_time":1847000000000,"state":"active","ping":65},{"user_id":71,"name":"jo bidn' | ETLARTORM","steam_id":76561198869576262,"connected_time":7793000000000,"state":"active","ping":100},{"user_id":201,"name":"advanced polish lifeform","steam_id":76561198062107879,"connected_time":39000000000,"state":"active","ping":83},{"user_id":171,"name":"Alfred2.2","steam_id":76561198339314744,"connected_time":1474000000000,"state":"active","ping":56},{"user_id":168,"name":"ProfessorCrack","steam_id":76561199035475627,"connected_time":1822000000000,"state":"active","ping":78},{"user_id":161,"name":"Dodoshka","steam_id":76561198093464840,"connected_time":2016000000000,"state":"active","ping":89},{"user_id":202,"name":"hedonic treadmill","steam_id":76561199114742711,"connected_time":25000000000,"state":"spawning","ping":88},{"user_id":197,"name":"Arky","steam_id":76561198096994756,"connected_time":100000000000,"state":"spawning","ping":96},{"user_id":145,"name":"megafon","steam_id":76561198143921841,"connected_time":3379000000000,"state":"active","ping":80},{"user_id":196,"name":"Yuval","steam_id":76561198241802390,"connected_time":227000000000,"state":"active","ping":109},{"user_id":192,"name":"My name is Spencer, Di Spencer","steam_id":76561198152697674,"connected_time":375000000000,"state":"active","ping":43},{"user_id":198,"name":"G6 sherlock","steam_id":76561198802967796,"connected_time":86000000000,"state":"active","ping":109},{"user_id":190,"name":"Sylbar","steam_id":76561198065379590,"connected_time":498000000000,"state":"active","ping":62}]},{"server_id":310,"name":"Uncletopia | Frankfurt | 5 | All Maps","name_short":"frk-5","host":"frk-1.de.uncletopia.com","port":27055,"enabled":true,"region":"eu","cc":"de","latitude":50.110924,"longitude":8.682127,"reserved":0,"last_update":"0001-01-01T00:00:00Z","name_a2s":"Uncletopia | Frankfurt | 5 | All Maps","protocol":17,"map":"pl_swiftwater_final1","folder":"tf","game":"Team Fortress","app_id":440,"player_count":22,"max_players":24,"Bots":0,"server_type":"Dedicated","server_os":"Linux","password":true,"vac":true,"version":"7723704","steam_id":85568392924504277,"keywords":["nocrits","nodmgspread","payload","uncletopia"],"game_id":440,"stv_port":27056,"stv_name":"Uncletopia | Frankfurt | 5 | All Maps | STV","players":[{"user_id":342,"name":"it just ain't fair","steam_id":76561198418538887,"connected_time":3248000000000,"state":"active","ping":91},{"user_id":357,"name":"Him","steam_id":76561198086400484,"connected_time":2657000000000,"state":"active","ping":71},{"user_id":416,"name":"Milosz52","steam_id":76561199060940204,"connected_time":927000000000,"state":"active","ping":75},{"user_id":432,"name":"Jimbox Sat","steam_id":76561199088912150,"connected_time":82000000000,"state":"spawning","ping":121},{"user_id":307,"name":"Carrot Arc","steam_id":76561198164957006,"connected_time":4364000000000,"state":"active","ping":92},{"user_id":429,"name":"roblan11","steam_id":76561198066839258,"connected_time":237000000000,"state":"active","ping":66},{"user_id":426,"name":"HatManZ1","steam_id":76561199177173758,"connected_time":428000000000,"state":"active","ping":170},{"user_id":417,"name":"Holo","steam_id":76561198066985194,"connected_time":899000000000,"state":"active","ping":81},{"user_id":406,"name":"Fran","steam_id":76561199070516960,"connected_time":1445000000000,"state":"active","ping":67},{"user_id":352,"name":"Caliban","steam_id":76561197999696839,"connected_time":2986000000000,"state":"active","ping":101},{"user_id":427,"name":"☆twyn[BRK]65","steam_id":76561197993439750,"connected_time":331000000000,"state":"active","ping":60},{"user_id":404,"name":"YILK","steam_id":76561198077913307,"connected_time":1671000000000,"state":"active","ping":53},{"user_id":360,"name":"DeepBlue","steam_id":76561198140075795,"connected_time":2593000000000,"state":"active","ping":54},{"user_id":433,"name":"skrimgxral","steam_id":76561198271936950,"connected_time":70000000000,"state":"active","ping":66},{"user_id":434,"name":"Mr.Schnittlauch","steam_id":76561198295868113,"connected_time":56000000000,"state":"active","ping":63},{"user_id":435,"name":"pawcio2091","steam_id":76561198262515197,"connected_time":40000000000,"state":"spawning","ping":91},{"user_id":362,"name":"Quaker Yotes","steam_id":76561198083068263,"connected_time":2535000000000,"state":"active","ping":84},{"user_id":436,"name":"cazador","steam_id":76561198123096922,"connected_time":28000000000,"state":"active","ping":103},{"user_id":421,"name":"Josip Broz Tito","steam_id":76561198418747701,"connected_time":722000000000,"state":"active","ping":62},{"user_id":364,"name":"Venus⚢","steam_id":76561198018602969,"connected_time":2520000000000,"state":"active","ping":72},{"user_id":425,"name":"lulu","steam_id":76561199147764133,"connected_time":506000000000,"state":"active","ping":70},{"user_id":397,"name":"BenteBent","steam_id":76561198297920637,"connected_time":1829000000000,"state":"active","ping":73}]},{"server_id":311,"name":"Uncletopia | Frankfurt | 6 | All Maps","name_short":"frk-6","host":"frk-1.de.uncletopia.com","port":27065,"enabled":true,"region":"eu","cc":"de","latitude":50.110924,"longitude":8.682127,"reserved":0,"last_update":"0001-01-01T00:00:00Z","name_a2s":"Uncletopia | Frankfurt | 6 | All Maps","protocol":17,"map":"cp_process_final","folder":"tf","game":"Team Fortress","app_id":440,"player_count":23,"max_players":24,"Bots":0,"server_type":"Dedicated","server_os":"Linux","password":true,"vac":true,"version":"7723704","steam_id":85568392924504278,"keywords":["cp","nocrits","nodmgspread","uncletopia"],"game_id":440,"stv_port":27066,"stv_name":"Uncletopia | Frankfurt | 6 | All Maps | STV","players":[{"user_id":283,"name":"Blyatwork","steam_id":76561198825379598,"connected_time":944000000000,"state":"active","ping":43},{"user_id":282,"name":"why rum gone","steam_id":76561198158484784,"connected_time":976000000000,"state":"active","ping":61},{"user_id":265,"name":"Teffg","steam_id":76561198274386094,"connected_time":2340000000000,"state":"active","ping":82},{"user_id":260,"name":"The brown part of the banana","steam_id":76561198323425034,"connected_time":2540000000000,"state":"active","ping":78},{"user_id":294,"name":"Cirox","steam_id":76561198383142404,"connected_time":482000000000,"state":"active","ping":89},{"user_id":209,"name":"next gen f7ool","steam_id":76561198279952779,"connected_time":4718000000000,"state":"active","ping":157},{"user_id":268,"name":"F2P gameing","steam_id":76561198834713682,"connected_time":2226000000000,"state":"active","ping":75},{"user_id":289,"name":"War Lord","steam_id":76561199230530226,"connected_time":718000000000,"state":"active","ping":74},{"user_id":252,"name":"Aesthetic Alcoholism","steam_id":76561198044418968,"connected_time":2785000000000,"state":"active","ping":51},{"user_id":285,"name":"Lux","steam_id":76561198060417740,"connected_time":885000000000,"state":"active","ping":57},{"user_id":298,"name":"garf","steam_id":76561198162723276,"connected_time":254000000000,"state":"active","ping":112},{"user_id":235,"name":"Cereal Killer","steam_id":76561199084186097,"connected_time":3623000000000,"state":"active","ping":82},{"user_id":300,"name":"loser","steam_id":76561198874129419,"connected_time":130000000000,"state":"active","ping":111},{"user_id":287,"name":"Mr. Hunts","steam_id":76561197981910397,"connected_time":794000000000,"state":"active","ping":75},{"user_id":290,"name":"cherry","steam_id":76561199006915718,"connected_time":693000000000,"state":"active","ping":76},{"user_id":291,"name":"jerbob","steam_id":76561198277092414,"connected_time":690000000000,"state":"active","ping":70},{"user_id":231,"name":"Chysa","steam_id":76561198131794145,"connected_time":3871000000000,"state":"active","ping":64},{"user_id":211,"name":"tHE wATCHER","steam_id":76561198826314938,"connected_time":4706000000000,"state":"active","ping":163},{"user_id":278,"name":"Ben UFO","steam_id":76561198001648348,"connected_time":1477000000000,"state":"active","ping":71},{"user_id":292,"name":"Volcyy","steam_id":76561198063979124,"connected_time":687000000000,"state":"active","ping":45},{"user_id":242,"name":"Chameleongamer44","steam_id":76561198987167079,"connected_time":3282000000000,"state":"active","ping":63},{"user_id":296,"name":"cosmetical","steam_id":76561198444036574,"connected_time":470000000000,"state":"active","ping":72},{"user_id":297,"name":"g","steam_id":76561198033524151,"connected_time":310000000000,"state":"active","ping":60}]},{"server_id":23,"name":"Uncletopia | Frankfurt | 7 | No Payload","name_short":"frk-7","host":"frk-1.de.uncletopia.com","port":27075,"enabled":true,"region":"eu","cc":"de","latitude":50.110924,"longitude":8.682127,"reserved":0,"last_update":"0001-01-01T00:00:00Z","name_a2s":"Uncletopia | Frankfurt | 7 | No Payload","protocol":17,"map":"cp_mountainlab","folder":"tf","game":"Team Fortress","app_id":440,"player_count":0,"max_players":24,"Bots":0,"server_type":"Dedicated","server_os":"Linux","password":true,"vac":true,"version":"7723704","steam_id":85568392924742827,"keywords":["cp","nocrits","nodmgspread","uncletopia"],"game_id":440,"stv_port":27076,"stv_name":"Uncletopia | Frankfurt | 7 | No Payload | STV","players":null},{"server_id":24,"name":"Uncletopia | Frankfurt | 8 | Community","name_short":"frk-8","host":"frk-1.de.uncletopia.com","port":27085,"enabled":true,"region":"eu","cc":"de","latitude":50.110924,"longitude":8.682127,"reserved":0,"last_update":"0001-01-01T00:00:00Z","name_a2s":"Uncletopia | Frankfurt | 8 | Community","protocol":17,"map":"workshop/koth_slaughter_rc1.ugc1712845210","folder":"tf","game":"Team Fortress","app_id":440,"player_count":6,"max_players":24,"Bots":0,"server_type":"Dedicated","server_os":"Linux","password":true,"vac":true,"version":"7723704","steam_id":85568392924742828,"keywords":["cp","nocrits","nodmgspread","uncletopia"],"game_id":440,"stv_port":27086,"stv_name":"Uncletopia | Frankfurt | 8 | Community | STV","players":[{"user_id":21,"name":"GezmeRR TF2","steam_id":76561198043814532,"connected_time":683000000000,"state":"active","ping":45},{"user_id":22,"name":"Lord Commissar Drac","steam_id":76561198030371218,"connected_time":675000000000,"state":"active","ping":68},{"user_id":23,"name":"[hoodie]","steam_id":76561198105408624,"connected_time":649000000000,"state":"active","ping":189},{"user_id":24,"name":"Danse","steam_id":76561198065545203,"connected_time":641000000000,"state":"active","ping":84},{"user_id":25,"name":"Lord","steam_id":76561198065021271,"connected_time":629000000000,"state":"active","ping":62},{"user_id":26,"name":"DragonXneoN","steam_id":76561198005974781,"connected_time":624000000000,"state":"active","ping":64}]},{"server_id":202,"name":"Uncletopia | Hong Kong | 1 | All Maps","name_short":"hgk-1","host":"hgk-1.hk.uncletopia.com","port":27015,"enabled":true,"region":"asia","cc":"hk","latitude":22.302711,"longitude":114.177216,"reserved":0,"last_update":"0001-01-01T00:00:00Z","name_a2s":"Uncletopia | Hong Kong | 1 | All Maps","protocol":17,"map":"koth_highpass","folder":"tf","game":"Team Fortress","app_id":440,"player_count":0,"max_players":24,"Bots":0,"server_type":"Dedicated","server_os":"Linux","password":true,"vac":true,"version":"7723704","steam_id":85568392924494504,"keywords":["cp","nocrits","nodmgspread","uncletopia"],"game_id":440,"stv_port":27016,"stv_name":"Uncletopia | Hong Kong | 1 | All Maps | STV","players":null},{"server_id":1,"name":"Uncletopia | Los Angeles | 1 | All Maps","name_short":"lax-1","host":"lax-1.us.uncletopia.com","port":27015,"enabled":true,"region":"us-west","cc":"us","latitude":33.94279,"longitude":-118.41004,"reserved":0,"last_update":"0001-01-01T00:00:00Z","name_a2s":"Uncletopia | Los Angeles | 1 | All Maps","protocol":17,"map":"pl_borneo","folder":"tf","game":"Team Fortress","app_id":440,"player_count":0,"max_players":24,"Bots":0,"server_type":"Dedicated","server_os":"Linux","password":true,"vac":true,"version":"7723704","steam_id":85568392924469991,"keywords":["nocrits","nodmgspread","payload","uncletopia"],"game_id":440,"stv_port":27016,"stv_name":"Uncletopia | Los Angeles | 1 | All Maps | STV","players":null},{"server_id":112,"name":"Uncletopia | Los Angeles | 2 | All Maps","name_short":"lax-2","host":"lax-1.us.uncletopia.com","port":27025,"enabled":true,"region":"us-west","cc":"us","latitude":33.94279,"longitude":-118.41004,"reserved":0,"last_update":"0001-01-01T00:00:00Z","name_a2s":"Uncletopia | Los Angeles | 2 | All Maps","protocol":17,"map":"pl_pier","folder":"tf","game":"Team Fortress","app_id":440,"player_count":0,"max_players":24,"Bots":0,"server_type":"Dedicated","server_os":"Linux","password":true,"vac":true,"version":"7723704","steam_id":85568392924469992,"keywords":["nocrits","nodmgspread","payload","uncletopia"],"game_id":440,"stv_port":27026,"stv_name":"Uncletopia | Los Angeles | 2 | All Maps | STV","players":null},{"server_id":324,"name":"Uncletopia | Los Angeles | 3 | All Maps","name_short":"lax-3","host":"lax-1.us.uncletopia.com","port":27035,"enabled":true,"region":"us-west","cc":"us","latitude":33.94279,"longitude":-118.41004,"reserved":0,"last_update":"0001-01-01T00:00:00Z","name_a2s":"Uncletopia | Los Angeles | 3 | All Maps","protocol":17,"map":"koth_highpass","folder":"tf","game":"Team Fortress","app_id":440,"player_count":0,"max_players":24,"Bots":0,"server_type":"Dedicated","server_os":"Linux","password":true,"vac":true,"version":"7723704","steam_id":85568392924510198,"keywords":["cp","nocrits","nodmgspread","uncletopia"],"game_id":440,"stv_port":27036,"stv_name":"Uncletopia | Los Angeles | 3 | All Maps | STV","players":null},{"server_id":25,"name":"Uncletopia | Los Angeles | 4 | No Payload","name_short":"lax-4","host":"lax-1.us.uncletopia.com","port":27045,"enabled":true,"region":"us-west","cc":"us","latitude":33.94279,"longitude":-118.41004,"reserved":0,"last_update":"0001-01-01T00:00:00Z","name_a2s":"Uncletopia | Los Angeles | 4 | No Payload","protocol":17,"map":"cp_mountainlab","folder":"tf","game":"Team Fortress","app_id":440,"player_count":0,"max_players":24,"Bots":0,"server_type":"Dedicated","server_os":"Linux","password":true,"vac":true,"version":"7723704","steam_id":85568392924510199,"keywords":["cp","nocrits","nodmgspread","uncletopia"],"game_id":440,"stv_port":27046,"stv_name":"Uncletopia | Los Angeles | 4 | No Payload | STV","players":null},{"server_id":11,"name":"Uncletopia | London | 1 | All Maps","name_short":"lon-1","host":"lon-1.uk.uncletopia.com","port":27015,"enabled":true,"region":"eu","cc":"gb","latitude":51.509865,"longitude":-0.118092,"reserved":0,"last_update":"0001-01-01T00:00:00Z","name_a2s":"Uncletopia | London | 1 | All Maps","protocol":17,"map":"koth_lakeside_final","folder":"tf","game":"Team Fortress","app_id":440,"player_count":24,"max_players":24,"Bots":0,"server_type":"Dedicated","server_os":"Linux","password":true,"vac":true,"version":"7723704","steam_id":85568392924367362,"keywords":["cp","nocrits","nodmgspread","uncletopia"],"game_id":440,"stv_port":27016,"stv_name":"Uncletopia | London | 1 | All Maps | STV","players":[{"user_id":301,"name":"Savlon","steam_id":76561198011597274,"connected_time":2353000000000,"state":"active","ping":36},{"user_id":280,"name":"stonebum","steam_id":76561198057004606,"connected_time":3434000000000,"state":"active","ping":59},{"user_id":293,"name":"silicon based life form","steam_id":76561199127121346,"connected_time":2584000000000,"state":"active","ping":49},{"user_id":316,"name":"Aaron","steam_id":76561197990046953,"connected_time":1234000000000,"state":"active","ping":59},{"user_id":299,"name":"juJu","steam_id":76561198049343793,"connected_time":2452000000000,"state":"active","ping":60},{"user_id":318,"name":"xXx_Twink_Hunter_xXx","steam_id":76561198397024973,"connected_time":669000000000,"state":"active","ping":44},{"user_id":308,"name":"Gnarville","steam_id":76561198006373329,"connected_time":1863000000000,"state":"active","ping":47},{"user_id":288,"name":"Mango","steam_id":76561198139555709,"connected_time":2758000000000,"state":"active","ping":59},{"user_id":284,"name":"twitch.tv/biofun_","steam_id":76561198170609049,"connected_time":3368000000000,"state":"active","ping":60},{"user_id":295,"name":"Fat Pigeon","steam_id":76561198817940142,"connected_time":2572000000000,"state":"active","ping":46},{"user_id":319,"name":"Pauler le one","steam_id":76561198398152855,"connected_time":664000000000,"state":"active","ping":84},{"user_id":302,"name":"Dr Sex","steam_id":76561198029044617,"connected_time":2162000000000,"state":"active","ping":46},{"user_id":287,"name":"shin","steam_id":76561198039757757,"connected_time":3056000000000,"state":"active","ping":45},{"user_id":290,"name":"Cheshireycat","steam_id":76561198067204908,"connected_time":2741000000000,"state":"active","ping":55},{"user_id":206,"name":"Jam","steam_id":76561198090409013,"connected_time":9392000000000,"state":"active","ping":91},{"user_id":317,"name":"Rory","steam_id":76561198354037580,"connected_time":703000000000,"state":"active","ping":41},{"user_id":286,"name":"jingleboob","steam_id":76561198097507847,"connected_time":3259000000000,"state":"active","ping":85},{"user_id":304,"name":"Gideon","steam_id":76561198045132575,"connected_time":1972000000000,"state":"active","ping":41},{"user_id":309,"name":"Dirt Road","steam_id":76561198210372012,"connected_time":1837000000000,"state":"active","ping":132},{"user_id":322,"name":"N.","steam_id":76561198017274851,"connected_time":545000000000,"state":"active","ping":38},{"user_id":276,"name":"festive jones","steam_id":76561198073975078,"connected_time":3975000000000,"state":"active","ping":45},{"user_id":307,"name":"arowin24","steam_id":76561198077342689,"connected_time":1874000000000,"state":"active","ping":51},{"user_id":321,"name":"syla8215","steam_id":76561199007869949,"connected_time":636000000000,"state":"active","ping":70},{"user_id":294,"name":"Jeg","steam_id":76561198405291408,"connected_time":2584000000000,"state":"active","ping":74}]},{"server_id":114,"name":"Uncletopia | London | 2 | All Maps","name_short":"lon-2","host":"lon-1.uk.uncletopia.com","port":27025,"enabled":true,"region":"eu","cc":"gb","latitude":51.509865,"longitude":-0.118092,"reserved":0,"last_update":"0001-01-01T00:00:00Z","name_a2s":"Uncletopia | London | 2 | All Maps","protocol":17,"map":"cp_sunshine","folder":"tf","game":"Team Fortress","app_id":440,"player_count":24,"max_players":24,"Bots":0,"server_type":"Dedicated","server_os":"Linux","password":true,"vac":true,"version":"7723704","steam_id":85568392924470941,"keywords":["cp","nocrits","nodmgspread","uncletopia"],"game_id":440,"stv_port":27026,"stv_name":"Uncletopia | London | 2 | All Maps | STV","players":[{"user_id":63,"name":"gremlin GOD","steam_id":76561198169972571,"connected_time":647000000000,"state":"active","ping":59},{"user_id":65,"name":"AwterSix","steam_id":76561198042561678,"connected_time":611000000000,"state":"active","ping":60},{"user_id":64,"name":"Senior","steam_id":76561198065014164,"connected_time":637000000000,"state":"active","ping":45},{"user_id":66,"name":"bob","steam_id":76561199444516825,"connected_time":579000000000,"state":"active","ping":76},{"user_id":37,"name":"Davidoff","steam_id":76561199099163283,"connected_time":1613000000000,"state":"active","ping":70},{"user_id":38,"name":"Kabo","steam_id":76561198321610592,"connected_time":1608000000000,"state":"active","ping":78},{"user_id":67,"name":"pjena","steam_id":76561198207643025,"connected_time":572000000000,"state":"active","ping":62},{"user_id":40,"name":"Krismas","steam_id":76561198021772843,"connected_time":1579000000000,"state":"active","ping":57},{"user_id":41,"name":"Dragoncristal☯","steam_id":76561198136036701,"connected_time":1572000000000,"state":"active","ping":75},{"user_id":43,"name":"rigel_","steam_id":76561198148640847,"connected_time":1558000000000,"state":"active","ping":80},{"user_id":57,"name":"Salesman","steam_id":76561198045527771,"connected_time":973000000000,"state":"active","ping":53},{"user_id":46,"name":"Frazzles","steam_id":76561199228009586,"connected_time":1404000000000,"state":"active","ping":48},{"user_id":75,"name":"Aspartus","steam_id":76561198101385763,"connected_time":196000000000,"state":"active","ping":44},{"user_id":68,"name":"edmund","steam_id":76561198378470149,"connected_time":559000000000,"state":"active","ping":47},{"user_id":69,"name":"Foonguz","steam_id":76561198834610534,"connected_time":524000000000,"state":"active","ping":53},{"user_id":50,"name":"SPONGE","steam_id":76561198040933472,"connected_time":1354000000000,"state":"active","ping":61},{"user_id":51,"name":"Small Goodman","steam_id":76561198881753718,"connected_time":1304000000000,"state":"active","ping":83},{"user_id":53,"name":"TechAchech","steam_id":76561198304077408,"connected_time":1168000000000,"state":"active","ping":70},{"user_id":54,"name":"Dr.Fish","steam_id":76561198008732728,"connected_time":1163000000000,"state":"active","ping":42},{"user_id":77,"name":"kritzspam harder better faster","steam_id":76561198378235611,"connected_time":21000000000,"state":"active","ping":77},{"user_id":56,"name":"haah waaw","steam_id":76561197997807016,"connected_time":1073000000000,"state":"active","ping":90},{"user_id":76,"name":"kogned","steam_id":76561198089285145,"connected_time":83000000000,"state":"active","ping":96},{"user_id":60,"name":"Lods of Emone","steam_id":76561198188642265,"connected_time":949000000000,"state":"active","ping":90},{"user_id":71,"name":"Criterion","steam_id":76561198128829201,"connected_time":490000000000,"state":"active","ping":47}]},{"server_id":320,"name":"Uncletopia | London | 3 | All Maps","name_short":"lon-3","host":"lon-1.uk.uncletopia.com","port":27035,"enabled":true,"region":"eu","cc":"gb","latitude":51.509865,"longitude":-0.118092,"reserved":0,"last_update":"0001-01-01T00:00:00Z","name_a2s":"Uncletopia | London | 3 | All Maps","protocol":17,"map":"cp_process_final","folder":"tf","game":"Team Fortress","app_id":440,"player_count":0,"max_players":24,"Bots":0,"server_type":"Dedicated","server_os":"Linux","password":true,"vac":true,"version":"7723704","steam_id":85568392924510192,"keywords":["cp","nocrits","nodmgspread","uncletopia"],"game_id":440,"stv_port":27036,"stv_name":"Uncletopia | London | 3 | All Maps | STV","players":null},{"server_id":321,"name":"Uncletopia | London | 4 | All Maps","name_short":"lon-4","host":"lon-1.uk.uncletopia.com","port":27045,"enabled":true,"region":"eu","cc":"gb","latitude":51.509865,"longitude":-0.118092,"reserved":0,"last_update":"0001-01-01T00:00:00Z","name_a2s":"Uncletopia | London | 4 | All Maps","protocol":17,"map":"pl_badwater","folder":"tf","game":"Team Fortress","app_id":440,"player_count":0,"max_players":24,"Bots":0,"server_type":"Dedicated","server_os":"Linux","password":true,"vac":true,"version":"7723704","steam_id":85568392924510193,"keywords":["nocrits","nodmgspread","payload","uncletopia"],"game_id":440,"stv_port":27046,"stv_name":"Uncletopia | London | 4 | All Maps | STV","players":null},{"server_id":21,"name":"Uncletopia | London | 5 | All Maps","name_short":"lon-5","host":"lon-1.uk.uncletopia.com","port":27055,"enabled":true,"region":"eu","cc":"gb","latitude":51.509865,"longitude":-0.118092,"reserved":0,"last_update":"0001-01-01T00:00:00Z","name_a2s":"Uncletopia | London | 5 | All Maps","protocol":17,"map":"koth_lakeside_final","folder":"tf","game":"Team Fortress","app_id":440,"player_count":0,"max_players":24,"Bots":0,"server_type":"Dedicated","server_os":"Linux","password":true,"vac":true,"version":"7723704","steam_id":85568392924742829,"keywords":["cp","nocrits","nodmgspread","uncletopia"],"game_id":440,"stv_port":27056,"stv_name":"Uncletopia | London | 5 | All Maps | STV","players":null},{"server_id":22,"name":"Uncletopia | London | 6 | All Maps","name_short":"lon-6","host":"lon-1.uk.uncletopia.com","port":27065,"enabled":true,"region":"eu","cc":"gb","latitude":51.509865,"longitude":-0.118092,"reserved":0,"last_update":"0001-01-01T00:00:00Z","name_a2s":"Uncletopia | London | 6 | All Maps","protocol":17,"map":"koth_highpass","folder":"tf","game":"Team Fortress","app_id":440,"player_count":23,"max_players":24,"Bots":0,"server_type":"Dedicated","server_os":"Linux","password":true,"vac":true,"version":"7723704","steam_id":85568392924742830,"keywords":["cp","nocrits","nodmgspread","uncletopia"],"game_id":440,"stv_port":27066,"stv_name":"Uncletopia | London | 6 | All Maps | STV","players":[{"user_id":149,"name":"LovableLeaf","steam_id":76561198854720925,"connected_time":327000000000,"state":"active","ping":84},{"user_id":135,"name":"moser23","steam_id":76561197960543171,"connected_time":1006000000000,"state":"active","ping":49},{"user_id":155,"name":"lolmurphyy","steam_id":76561198143068715,"connected_time":172000000000,"state":"active","ping":41},{"user_id":158,"name":"Kralian","steam_id":76561198826960955,"connected_time":132000000000,"state":"active","ping":79},{"user_id":159,"name":"SausageRoll","steam_id":76561197994072622,"connected_time":0,"state":"spawning","ping":28},{"user_id":151,"name":"Diamhair","steam_id":76561198109020178,"connected_time":318000000000,"state":"active","ping":52},{"user_id":121,"name":"ChrisMightShootYou","steam_id":76561199002764196,"connected_time":1930000000000,"state":"active","ping":86},{"user_id":146,"name":"christmas eve","steam_id":76561197973182789,"connected_time":361000000000,"state":"active","ping":48},{"user_id":29,"name":"Kanny","steam_id":76561198058810184,"connected_time":5610000000000,"state":"active","ping":47},{"user_id":126,"name":"Oak","steam_id":76561198067315672,"connected_time":1621000000000,"state":"active","ping":44},{"user_id":142,"name":"Hkitchen","steam_id":76561198194779526,"connected_time":478000000000,"state":"active","ping":38},{"user_id":24,"name":"JACALAX","steam_id":76561199110532262,"connected_time":5689000000000,"state":"active","ping":49},{"user_id":157,"name":"Frank","steam_id":76561198086672774,"connected_time":143000000000,"state":"active","ping":33},{"user_id":30,"name":"Warme Perle","steam_id":76561198020071321,"connected_time":5608000000000,"state":"active","ping":55},{"user_id":148,"name":"ash","steam_id":76561198004728744,"connected_time":338000000000,"state":"active","ping":59},{"user_id":123,"name":"Yaire","steam_id":76561198017343510,"connected_time":1895000000000,"state":"active","ping":54},{"user_id":57,"name":"wardex","steam_id":76561198058776834,"connected_time":4237000000000,"state":"active","ping":58},{"user_id":150,"name":"Avitz","steam_id":76561197986150359,"connected_time":325000000000,"state":"active","ping":44},{"user_id":152,"name":"poliakov.noam","steam_id":76561199259322961,"connected_time":268000000000,"state":"active","ping":99},{"user_id":60,"name":"Black Tom","steam_id":76561198211616811,"connected_time":4158000000000,"state":"active","ping":89},{"user_id":154,"name":"clraffell","steam_id":76561198904469197,"connected_time":233000000000,"state":"active","ping":106},{"user_id":125,"name":"Lyra","steam_id":76561198043601838,"connected_time":1817000000000,"state":"active","ping":61},{"user_id":128,"name":"Smag","steam_id":76561198153675141,"connected_time":1376000000000,"state":"active","ping":54}]},{"server_id":40,"name":"Uncletopia | London | 7 | No Payload","name_short":"lon-7","host":"lon-1.uk.uncletopia.com","port":27075,"enabled":true,"region":"eu","cc":"gb","latitude":51.509865,"longitude":-0.118092,"reserved":0,"last_update":"0001-01-01T00:00:00Z","name_a2s":"Uncletopia | London | 7 | No Payload","protocol":17,"map":"koth_cascade","folder":"tf","game":"Team Fortress","app_id":440,"player_count":0,"max_players":24,"Bots":0,"server_type":"Dedicated","server_os":"Linux","password":true,"vac":true,"version":"7723704","steam_id":85568392924964314,"keywords":["cp","nocrits","nodmgspread","uncletopia"],"game_id":440,"stv_port":27076,"stv_name":"Uncletopia | London | 7 | No Payload | STV","players":null},{"server_id":41,"name":"Uncletopia | London | 8 | Community","name_short":"lon-8","host":"lon-1.uk.uncletopia.com","port":27085,"enabled":true,"region":"eu","cc":"gb","latitude":51.509865,"longitude":-0.118092,"reserved":0,"last_update":"0001-01-01T00:00:00Z","name_a2s":"Uncletopia | London | 8 | Community","protocol":17,"map":"workshop/koth_ramjam_v2_b2.ugc2865676487","folder":"tf","game":"Team Fortress","app_id":440,"player_count":0,"max_players":24,"Bots":0,"server_type":"Dedicated","server_os":"Linux","password":true,"vac":true,"version":"7723704","steam_id":85568392924964315,"keywords":["cp","nocrits","nodmgspread","uncletopia"],"game_id":440,"stv_port":27086,"stv_name":"Uncletopia | London | 8 | Community | STV","players":null},{"server_id":300,"name":"Uncletopia | Montréal | 1 | All Maps","name_short":"mtl-1","host":"mtl-1.ca.uncletopia.com","port":27015,"enabled":true,"region":"us-east","cc":"ca","latitude":45.50889,"longitude":-73.56167,"reserved":0,"last_update":"0001-01-01T00:00:00Z","name_a2s":"Uncletopia | Montréal | 1 | All Maps","protocol":17,"map":"cp_mountainlab","folder":"tf","game":"Team Fortress","app_id":440,"player_count":0,"max_players":24,"Bots":0,"server_type":"Dedicated","server_os":"Linux","password":true,"vac":true,"version":"7723704","steam_id":85568392924500087,"keywords":["cp","nocrits","nodmgspread","uncletopia"],"game_id":440,"stv_port":27016,"stv_name":"Uncletopia | Montréal | 1 | All Maps | STV","players":null},{"server_id":301,"name":"Uncletopia | Montréal | 2 | All Maps","name_short":"mtl-2","host":"mtl-1.ca.uncletopia.com","port":27025,"enabled":true,"region":"us-east","cc":"ca","latitude":45.50889,"longitude":-73.56167,"reserved":0,"last_update":"0001-01-01T00:00:00Z","name_a2s":"Uncletopia | Montréal | 2 | All Maps","protocol":17,"map":"cp_sunshine","folder":"tf","game":"Team Fortress","app_id":440,"player_count":0,"max_players":24,"Bots":0,"server_type":"Dedicated","server_os":"Linux","password":true,"vac":true,"version":"7723704","steam_id":85568392924500088,"keywords":["cp","nocrits","nodmgspread","uncletopia"],"game_id":440,"stv_port":27026,"stv_name":"Uncletopia | Montréal | 2 | All Maps | STV","players":null},{"server_id":302,"name":"Uncletopia | Montréal | 3 | All Maps","name_short":"mtl-3","host":"mtl-1.ca.uncletopia.com","port":27035,"enabled":true,"region":"us-east","cc":"ca","latitude":45.50889,"longitude":-73.56167,"reserved":0,"last_update":"0001-01-01T00:00:00Z","name_a2s":"Uncletopia | Montréal | 3 | All Maps","protocol":17,"map":"cp_dustbowl","folder":"tf","game":"Team Fortress","app_id":440,"player_count":0,"max_players":24,"Bots":0,"server_type":"Dedicated","server_os":"Linux","password":true,"vac":true,"version":"7723704","steam_id":85568392924500089,"keywords":["cp","nocrits","nodmgspread","uncletopia"],"game_id":440,"stv_port":27036,"stv_name":"Uncletopia | Montréal | 3 | All Maps | STV","players":null},{"server_id":303,"name":"Uncletopia | Montréal | 4 | No Payload","name_short":"mtl-4","host":"mtl-1.ca.uncletopia.com","port":27045,"enabled":true,"region":"us-east","cc":"ca","latitude":45.50889,"longitude":-73.56167,"reserved":0,"last_update":"0001-01-01T00:00:00Z","name_a2s":"Uncletopia | Montréal | 4 | No Payload","protocol":17,"map":"koth_nucleus","folder":"tf","game":"Team Fortress","app_id":440,"player_count":0,"max_players":24,"Bots":0,"server_type":"Dedicated","server_os":"Linux","password":true,"vac":true,"version":"7723704","steam_id":85568392924500090,"keywords":["cp","nocrits","nodmgspread","uncletopia"],"game_id":440,"stv_port":27046,"stv_name":"Uncletopia | Montréal | 4 | No Payload | STV","players":null},{"server_id":13,"name":"Uncletopia | New York City | 1 | All Maps","name_short":"nyc-1","host":"nyc-1.us.uncletopia.com","port":27015,"enabled":true,"region":"us-east","cc":"us","latitude":40.73061,"longitude":-73.93524,"reserved":0,"last_update":"0001-01-01T00:00:00Z","name_a2s":"Uncletopia | New York City | 1 | All Maps","protocol":17,"map":"plr_hightower","folder":"tf","game":"Team Fortress","app_id":440,"player_count":24,"max_players":24,"Bots":0,"server_type":"Dedicated","server_os":"Linux","password":true,"vac":true,"version":"7723704","steam_id":85568392924469993,"keywords":["nocrits","nodmgspread","payload","uncletopia"],"game_id":440,"stv_port":27016,"stv_name":"Uncletopia | New York City | 1 | All Maps | STV","players":[{"user_id":123,"name":"ToastyBish","steam_id":76561198185327309,"connected_time":5485000000000,"state":"active","ping":37},{"user_id":150,"name":"catgirl giantess in heat","steam_id":76561198439042583,"connected_time":3354000000000,"state":"active","ping":102},{"user_id":180,"name":"nipplefisher","steam_id":76561199398064035,"connected_time":430000000000,"state":"active","ping":92},{"user_id":188,"name":"Zombie","steam_id":76561199150280626,"connected_time":347000000000,"state":"active","ping":83},{"user_id":192,"name":"Winter","steam_id":76561198312741335,"connected_time":50000000000,"state":"active","ping":151},{"user_id":193,"name":"catgirl","steam_id":76561198020736672,"connected_time":28000000000,"state":"active","ping":44},{"user_id":144,"name":"basil","steam_id":76561198075758026,"connected_time":3842000000000,"state":"active","ping":90},{"user_id":115,"name":"Hipp-Dip","steam_id":76561199027874633,"connected_time":6281000000000,"state":"active","ping":40},{"user_id":171,"name":"Okayokayokayokayokayokayokayoka","steam_id":76561198118754527,"connected_time":767000000000,"state":"active","ping":120},{"user_id":172,"name":"Bounds_Of_Blood","steam_id":76561198126319526,"connected_time":747000000000,"state":"active","ping":69},{"user_id":173,"name":"🌸Red🌸","steam_id":76561198037346199,"connected_time":746000000000,"state":"active","ping":148},{"user_id":174,"name":"Cuttle's Fish","steam_id":76561198280483257,"connected_time":705000000000,"state":"active","ping":73},{"user_id":191,"name":"Wilhelmktx","steam_id":76561198158102295,"connected_time":90000000000,"state":"active","ping":68},{"user_id":177,"name":"MeLoMeN","steam_id":76561199174657436,"connected_time":563000000000,"state":"active","ping":154},{"user_id":178,"name":"pipefan413","steam_id":76561199143476809,"connected_time":539000000000,"state":"active","ping":74},{"user_id":179,"name":"Rock Kickass","steam_id":76561198450510841,"connected_time":529000000000,"state":"active","ping":112},{"user_id":183,"name":"Boag a day","steam_id":76561198107259309,"connected_time":421000000000,"state":"active","ping":44},{"user_id":154,"name":"avengedsevenfold.fan_2012","steam_id":76561198210364561,"connected_time":3139000000000,"state":"active","ping":58},{"user_id":184,"name":"Taste the waste","steam_id":76561198050582941,"connected_time":406000000000,"state":"active","ping":70},{"user_id":185,"name":"Seller of Waffles","steam_id":76561198296018138,"connected_time":381000000000,"state":"active","ping":99},{"user_id":160,"name":"Some Octopus Wizard","steam_id":76561198005470354,"connected_time":2462000000000,"state":"active","ping":86},{"user_id":186,"name":"Ecliptica","steam_id":76561198171951333,"connected_time":379000000000,"state":"active","ping":104},{"user_id":187,"name":"jerma enthusiast","steam_id":76561198359466264,"connected_time":374000000000,"state":"active","ping":81},{"user_id":189,"name":"gametard","steam_id":76561198152581241,"connected_time":328000000000,"state":"active","ping":49}]},{"server_id":14,"name":"Uncletopia | New York City | 2 | All Maps","name_short":"nyc-2","host":"nyc-1.us.uncletopia.com","port":27025,"enabled":true,"region":"us-east","cc":"us","latitude":40.73061,"longitude":-73.93524,"reserved":0,"last_update":"0001-01-01T00:00:00Z","name_a2s":"Uncletopia | New York City | 2 | All Maps","protocol":17,"map":"pl_snowycoast","folder":"tf","game":"Team Fortress","app_id":440,"player_count":0,"max_players":24,"Bots":0,"server_type":"Dedicated","server_os":"Linux","password":true,"vac":true,"version":"7723704","steam_id":85568392924469994,"keywords":["nocrits","nodmgspread","payload","uncletopia"],"game_id":440,"stv_port":27026,"stv_name":"Uncletopia | New York City | 2 | All Maps | STV","players":null},{"server_id":15,"name":"Uncletopia | New York City | 3 | All Maps","name_short":"nyc-3","host":"nyc-1.us.uncletopia.com","port":27035,"enabled":true,"region":"us-east","cc":"us","latitude":40.73061,"longitude":-73.93524,"reserved":0,"last_update":"0001-01-01T00:00:00Z","name_a2s":"Uncletopia | New York City | 3 | All Maps","protocol":17,"map":"cp_snakewater_final1","folder":"tf","game":"Team Fortress","app_id":440,"player_count":0,"max_players":24,"Bots":0,"server_type":"Dedicated","server_os":"Linux","password":true,"vac":true,"version":"7723704","steam_id":85568392924742820,"keywords":["cp","nocrits","nodmgspread","uncletopia"],"game_id":440,"stv_port":27036,"stv_name":"Uncletopia | New York City | 3 | All Maps | STV","players":null},{"server_id":16,"name":"Uncletopia | New York City | 4 | Community","name_short":"nyc-4","host":"nyc-1.us.uncletopia.com","port":27045,"enabled":true,"region":"us-east","cc":"us","latitude":40.73061,"longitude":-73.93524,"reserved":0,"last_update":"0001-01-01T00:00:00Z","name_a2s":"Uncletopia | New York City | 4 | Community","protocol":17,"map":"workshop/koth_product_final.ugc454272353","folder":"tf","game":"Team Fortress","app_id":440,"player_count":0,"max_players":24,"Bots":0,"server_type":"Dedicated","server_os":"Linux","password":true,"vac":true,"version":"7723704","steam_id":85568392924742821,"keywords":["cp","nocrits","nodmgspread","uncletopia"],"game_id":440,"stv_port":27046,"stv_name":"Uncletopia | New York City | 4 | Community | STV","players":null},{"server_id":142,"name":"Uncletopia | São Paulo | 1 | All Maps","name_short":"sao-1","host":"sao-1.br.uncletopia.com","port":27015,"enabled":true,"region":"sa","cc":"br","latitude":-23.533773,"longitude":-46.62529,"reserved":0,"last_update":"0001-01-01T00:00:00Z","name_a2s":"Uncletopia | São Paulo | 1 | All Maps","protocol":17,"map":"pl_barnblitz","folder":"tf","game":"Team Fortress","app_id":440,"player_count":9,"max_players":24,"Bots":0,"server_type":"Dedicated","server_os":"Linux","password":true,"vac":true,"version":"7723704","steam_id":85568392924469996,"keywords":["nocrits","nodmgspread","payload","uncletopia"],"game_id":440,"stv_port":27016,"stv_name":"Uncletopia | São Paulo | 1 | All Maps | STV","players":[{"user_id":23,"name":"pee man","steam_id":76561199243684443,"connected_time":906000000000,"state":"active","ping":85},{"user_id":24,"name":"Muffled Happy Noises","steam_id":76561199121323471,"connected_time":663000000000,"state":"active","ping":203},{"user_id":25,"name":"matheus_lanches","steam_id":76561199359501901,"connected_time":645000000000,"state":"active","ping":39},{"user_id":26,"name":"Kaizeetos","steam_id":76561199205767748,"connected_time":633000000000,"state":"active","ping":32},{"user_id":27,"name":"Kloz","steam_id":76561199118281242,"connected_time":625000000000,"state":"active","ping":83},{"user_id":28,"name":"East Hastings","steam_id":76561198118943620,"connected_time":421000000000,"state":"active","ping":36},{"user_id":29,"name":"Nexo Fighter","steam_id":76561199187418090,"connected_time":375000000000,"state":"active","ping":207},{"user_id":30,"name":"Vic Rattlehead","steam_id":76561199232899925,"connected_time":346000000000,"state":"active","ping":53},{"user_id":31,"name":"Thompy","steam_id":76561199409024712,"connected_time":65000000000,"state":"spawning","ping":159}]},{"server_id":143,"name":"Uncletopia | São Paulo | 2 | All Maps","name_short":"sao-2","host":"sao-2.br.uncletopia.com","port":27015,"enabled":true,"region":"sa","cc":"br","latitude":-23.533773,"longitude":-46.62529,"reserved":0,"last_update":"0001-01-01T00:00:00Z","name_a2s":"Uncletopia | São Paulo | 2 | All Maps","protocol":17,"map":"cp_mountainlab","folder":"tf","game":"Team Fortress","app_id":440,"player_count":0,"max_players":24,"Bots":0,"server_type":"Dedicated","server_os":"Linux","password":true,"vac":true,"version":"7723704","steam_id":85568392924485349,"keywords":["cp","nocrits","nodmgspread","uncletopia"],"game_id":440,"stv_port":27016,"stv_name":"Uncletopia | São Paulo | 2 | All Maps | STV","players":null},{"server_id":7,"name":"Uncletopia | Seattle | 1 | All Maps","name_short":"sea-1","host":"sea-1.us.uncletopia.com","port":27015,"enabled":true,"region":"us-west","cc":"us","latitude":47.608013,"longitude":-122.33517,"reserved":0,"last_update":"0001-01-01T00:00:00Z","name_a2s":"Uncletopia | Seattle | 1 | All Maps","protocol":17,"map":"pl_pier","folder":"tf","game":"Team Fortress","app_id":440,"player_count":0,"max_players":24,"Bots":0,"server_type":"Dedicated","server_os":"Linux","password":true,"vac":true,"version":"7723704","steam_id":85568392924469997,"keywords":["nocrits","nodmgspread","payload","uncletopia"],"game_id":440,"stv_port":27016,"stv_name":"Uncletopia | Seattle | 1 | All Maps | STV","players":null},{"server_id":119,"name":"Uncletopia | Seattle | 2 | All Maps","name_short":"sea-2","host":"sea-1.us.uncletopia.com","port":27025,"enabled":true,"region":"us-west","cc":"us","latitude":47.608013,"longitude":-122.33517,"reserved":0,"last_update":"0001-01-01T00:00:00Z","name_a2s":"Uncletopia | Seattle | 2 | All Maps","protocol":17,"map":"cp_process_final","folder":"tf","game":"Team Fortress","app_id":440,"player_count":0,"max_players":24,"Bots":0,"server_type":"Dedicated","server_os":"Linux","password":true,"vac":true,"version":"7723704","steam_id":85568392924469998,"keywords":["cp","nocrits","nodmgspread","uncletopia"],"game_id":440,"stv_port":27026,"stv_name":"Uncletopia | Seattle | 2 | All Maps | STV","players":null},{"server_id":17,"name":"Uncletopia | San Francisco | 1 | All Maps","name_short":"sfo-1","host":"sfo-1.us.uncletopia.com","port":27015,"enabled":true,"region":"us-west","cc":"us","latitude":37.77397,"longitude":-122.4313,"reserved":0,"last_update":"0001-01-01T00:00:00Z","name_a2s":"Uncletopia | San Francisco | 1 | All Maps","protocol":17,"map":"koth_viaduct","folder":"tf","game":"Team Fortress","app_id":440,"player_count":0,"max_players":24,"Bots":0,"server_type":"Dedicated","server_os":"Linux","password":true,"vac":true,"version":"7723704","steam_id":85568392924469999,"keywords":["cp","nocrits","nodmgspread","uncletopia"],"game_id":440,"stv_port":27016,"stv_name":"Uncletopia | San Francisco | 1 | All Maps | STV","players":null},{"server_id":18,"name":"Uncletopia | San Francisco | 2 | All Maps","name_short":"sfo-2","host":"sfo-1.us.uncletopia.com","port":27025,"enabled":true,"region":"us-west","cc":"us","latitude":37.77397,"longitude":-122.4313,"reserved":0,"last_update":"0001-01-01T00:00:00Z","name_a2s":"Uncletopia | San Francisco | 2 | All Maps","protocol":17,"map":"cp_dustbowl","folder":"tf","game":"Team Fortress","app_id":440,"player_count":0,"max_players":24,"Bots":0,"server_type":"Dedicated","server_os":"Linux","password":true,"vac":true,"version":"7723704","steam_id":85568392924470000,"keywords":["cp","nocrits","nodmgspread","uncletopia"],"game_id":440,"stv_port":27026,"stv_name":"Uncletopia | San Francisco | 2 | All Maps | STV","players":null},{"server_id":19,"name":"Uncletopia | San Francisco | 3 | No Payload","name_short":"sfo-3","host":"sfo-1.us.uncletopia.com","port":27035,"enabled":true,"region":"us-west","cc":"us","latitude":37.77397,"longitude":-122.4313,"reserved":0,"last_update":"0001-01-01T00:00:00Z","name_a2s":"Uncletopia | San Francisco | 3 | No Payload","protocol":17,"map":"pl_snowycoast","folder":"tf","game":"Team Fortress","app_id":440,"player_count":0,"max_players":24,"Bots":0,"server_type":"Dedicated","server_os":"Linux","password":true,"vac":true,"version":"7723704","steam_id":85568392924742824,"keywords":["nocrits","nodmgspread","payload","uncletopia"],"game_id":440,"stv_port":27036,"stv_name":"Uncletopia | San Francisco | 3 | No Payload | STV","players":null},{"server_id":20,"name":"Uncletopia | San Francisco | 4 | Community","name_short":"sfo-4","host":"sfo-1.us.uncletopia.com","port":27045,"enabled":true,"region":"us-west","cc":"us","latitude":37.77397,"longitude":-122.4313,"reserved":0,"last_update":"0001-01-01T00:00:00Z","name_a2s":"Uncletopia | San Francisco | 4 | Community","protocol":17,"map":"workshop/koth_bagel_rc5.ugc2514036946","folder":"tf","game":"Team Fortress","app_id":440,"player_count":5,"max_players":24,"Bots":0,"server_type":"Dedicated","server_os":"Linux","password":true,"vac":true,"version":"7723704","steam_id":85568392924742826,"keywords":["cp","nocrits","nodmgspread","uncletopia"],"game_id":440,"stv_port":27046,"stv_name":"Uncletopia | San Francisco | 4 | Community | STV","players":[{"user_id":3,"name":"Goofy Goober","steam_id":76561198128299594,"connected_time":4977000000000,"state":"active","ping":68},{"user_id":15,"name":"TinyGayGuitar","steam_id":76561198130737316,"connected_time":698000000000,"state":"active","ping":85},{"user_id":5,"name":"Altruisticailuridae","steam_id":76561198335295596,"connected_time":3748000000000,"state":"active","ping":63},{"user_id":16,"name":"Hindmost","steam_id":76561199081837220,"connected_time":239000000000,"state":"active","ping":88},{"user_id":14,"name":"oo","steam_id":76561198119626492,"connected_time":945000000000,"state":"active","ping":100}]},{"server_id":141,"name":"Uncletopia | Sydney | 1 | All Maps","name_short":"syd-1","host":"syd-1.au.uncletopia.com","port":27015,"enabled":true,"region":"au","cc":"au","latitude":-33.865143,"longitude":151.2099,"reserved":0,"last_update":"0001-01-01T00:00:00Z","name_a2s":"Uncletopia | Sydney | 1 | All Maps","protocol":17,"map":"pl_wutville_event","folder":"tf","game":"Team Fortress","app_id":440,"player_count":0,"max_players":24,"Bots":0,"server_type":"Dedicated","server_os":"Linux","password":true,"vac":true,"version":"7723704","steam_id":85568392924470001,"keywords":["nocrits","nodmgspread","payload","uncletopia"],"game_id":440,"stv_port":27016,"stv_name":"Uncletopia | Sydney | 1 | All Maps | STV","players":null},{"server_id":123,"name":"Uncletopia | Sydney | 2 | All Maps","name_short":"syd-2","host":"syd-1.au.uncletopia.com","port":27025,"enabled":true,"region":"au","cc":"au","latitude":-33.865143,"longitude":151.2099,"reserved":0,"last_update":"0001-01-01T00:00:00Z","name_a2s":"Uncletopia | Sydney | 2 | All Maps","protocol":17,"map":"pl_wutville_event","folder":"tf","game":"Team Fortress","app_id":440,"player_count":0,"max_players":24,"Bots":0,"server_type":"Dedicated","server_os":"Linux","password":true,"vac":true,"version":"7723704","steam_id":85568392924470002,"keywords":["nocrits","nodmgspread","payload","uncletopia"],"game_id":440,"stv_port":27026,"stv_name":"Uncletopia | Sydney | 2 | All Maps | STV","players":null},{"server_id":395,"name":"Uncletopia | Sydney | 3 | All Maps","name_short":"syd-3","host":"syd-1.au.uncletopia.com","port":27035,"enabled":true,"region":"au","cc":"au","latitude":-33.865143,"longitude":151.2099,"reserved":0,"last_update":"0001-01-01T00:00:00Z","name_a2s":"Uncletopia | Sydney | 3 | All Maps","protocol":17,"map":"pl_wutville_event","folder":"tf","game":"Team Fortress","app_id":440,"player_count":0,"max_players":24,"Bots":0,"server_type":"Dedicated","server_os":"Linux","password":true,"vac":true,"version":"7723704","steam_id":85568392925194467,"keywords":["nocrits","nodmgspread","payload","uncletopia"],"game_id":440,"stv_port":27036,"stv_name":"Uncletopia | Sydney | 3 | All Maps | STV","players":null},{"server_id":396,"name":"Uncletopia | Sydney | 4 | All Maps","name_short":"syd-4","host":"syd-1.au.uncletopia.com","port":27045,"enabled":true,"region":"au","cc":"au","latitude":-33.865143,"longitude":151.2099,"reserved":0,"last_update":"0001-01-01T00:00:00Z","name_a2s":"Uncletopia | Sydney | 4 | All Maps","protocol":17,"map":"pl_wutville_event","folder":"tf","game":"Team Fortress","app_id":440,"player_count":0,"max_players":24,"Bots":0,"server_type":"Dedicated","server_os":"Linux","password":true,"vac":true,"version":"7723704","steam_id":85568392925397958,"keywords":["nocrits","nodmgspread","payload","uncletopia"],"game_id":440,"stv_port":27046,"stv_name":"Uncletopia | Sydney | 4 | All Maps | STV","players":null},{"server_id":58,"name":"Uncletopia | Sydney | 5 | No Payload","name_short":"syd-5","host":"syd-1.au.uncletopia.com","port":27055,"enabled":true,"region":"au","cc":"au","latitude":-33.865143,"longitude":151.2099,"reserved":0,"last_update":"0001-01-01T00:00:00Z","name_a2s":"Uncletopia | Sydney | 5 | No Payload","protocol":17,"map":"ctf_2fort","folder":"tf","game":"Team Fortress","app_id":440,"player_count":0,"max_players":24,"Bots":0,"server_type":"Dedicated","server_os":"Linux","password":true,"vac":true,"version":"7723704","steam_id":85568392925397959,"keywords":["ctf","nocrits","nodmgspread","uncletopia"],"game_id":440,"stv_port":27056,"stv_name":"Uncletopia | Sydney | 5 | No Payload | STV","players":null},{"server_id":59,"name":"Uncletopia | Sydney | 6 | Community","name_short":"syd-6","host":"syd-1.au.uncletopia.com","port":27065,"enabled":true,"region":"au","cc":"au","latitude":-33.865143,"longitude":151.2099,"reserved":0,"last_update":"0001-01-01T00:00:00Z","name_a2s":"Uncletopia | Sydney | 6 | Community","protocol":17,"map":"workshop/rd_asteroid_redux_rc9.ugc2154902912","folder":"tf","game":"Team Fortress","app_id":440,"player_count":0,"max_players":24,"Bots":0,"server_type":"Dedicated","server_os":"Linux","password":true,"vac":true,"version":"7723704","steam_id":85568392925397960,"keywords":["beta","nocrits","nodmgspread","rd","uncletopia"],"game_id":440,"stv_port":27066,"stv_name":"Uncletopia | Sydney | 6 | Community | STV","players":null},{"server_id":49,"name":"Uncletopia | Warsaw | 1 | All Maps","name_short":"waw-1","host":"waw-1.pl.uncletopia.com","port":27015,"enabled":true,"region":"eu","cc":"pl","latitude":52.2297,"longitude":21.017532,"reserved":0,"last_update":"0001-01-01T00:00:00Z","name_a2s":"Uncletopia | Warsaw | 1 | All Maps","protocol":17,"map":"pl_upward","folder":"tf","game":"Team Fortress","app_id":440,"player_count":9,"max_players":24,"Bots":0,"server_type":"Dedicated","server_os":"Linux","password":true,"vac":true,"version":"7723704","steam_id":85568392925397850,"keywords":["nocrits","nodmgspread","payload","uncletopia"],"game_id":440,"stv_port":27016,"stv_name":"Uncletopia | Warsaw | 1 | All Maps | STV","players":[{"user_id":249,"name":"[x_x]","steam_id":76561198067445084,"connected_time":168000000000,"state":"active","ping":84},{"user_id":241,"name":"sun_cola","steam_id":76561199056317430,"connected_time":743000000000,"state":"active","ping":241},{"user_id":239,"name":"SawdustixPQ","steam_id":76561198815127418,"connected_time":1342000000000,"state":"active","ping":99},{"user_id":242,"name":"Mabert","steam_id":76561198436058407,"connected_time":668000000000,"state":"active","ping":56},{"user_id":243,"name":"Daan77","steam_id":76561198129940468,"connected_time":510000000000,"state":"active","ping":76},{"user_id":244,"name":"The Family Guy","steam_id":76561198891999531,"connected_time":466000000000,"state":"active","ping":90},{"user_id":245,"name":"Yobopan","steam_id":76561198088064860,"connected_time":447000000000,"state":"active","ping":75},{"user_id":250,"name":"DERBY FRANCE FINALE","steam_id":76561198084056439,"connected_time":92000000000,"state":"active","ping":63},{"user_id":248,"name":"OofWasTaken","steam_id":76561199406201224,"connected_time":310000000000,"state":"active","ping":181}]},{"server_id":50,"name":"Uncletopia | Warsaw | 2 | All Maps","name_short":"waw-2","host":"waw-1.pl.uncletopia.com","port":27025,"enabled":true,"region":"eu","cc":"pl","latitude":52.2297,"longitude":21.017532,"reserved":0,"last_update":"0001-01-01T00:00:00Z","name_a2s":"Uncletopia | Warsaw | 2 | All Maps","protocol":17,"map":"pl_frontier_final","folder":"tf","game":"Team Fortress","app_id":440,"player_count":0,"max_players":24,"Bots":0,"server_type":"Dedicated","server_os":"Linux","password":true,"vac":true,"version":"7723704","steam_id":85568392925397851,"keywords":["nocrits","nodmgspread","payload","uncletopia"],"game_id":440,"stv_port":27026,"stv_name":"Uncletopia | Warsaw | 2 | All Maps | STV","players":null},{"server_id":51,"name":"Uncletopia | Warsaw | 3 | All Maps","name_short":"waw-3","host":"waw-1.pl.uncletopia.com","port":27035,"enabled":true,"region":"eu","cc":"pl","latitude":52.2297,"longitude":21.017532,"reserved":0,"last_update":"0001-01-01T00:00:00Z","name_a2s":"Uncletopia | Warsaw | 3 | All Maps","protocol":17,"map":"koth_lakeside_final","folder":"tf","game":"Team Fortress","app_id":440,"player_count":0,"max_players":24,"Bots":0,"server_type":"Dedicated","server_os":"Linux","password":true,"vac":true,"version":"7723704","steam_id":85568392925397852,"keywords":["cp","nocrits","nodmgspread","uncletopia"],"game_id":440,"stv_port":27036,"stv_name":"Uncletopia | Warsaw | 3 | All Maps | STV","players":null},{"server_id":52,"name":"Uncletopia | Warsaw | 4 | All Maps","name_short":"waw-4","host":"waw-1.pl.uncletopia.com","port":27045,"enabled":true,"region":"eu","cc":"pl","latitude":52.2297,"longitude":21.017532,"reserved":0,"last_update":"0001-01-01T00:00:00Z","name_a2s":"Uncletopia | Warsaw | 4 | All Maps","protocol":17,"map":"pl_frontier_final","folder":"tf","game":"Team Fortress","app_id":440,"player_count":0,"max_players":24,"Bots":0,"server_type":"Dedicated","server_os":"Linux","password":true,"vac":true,"version":"7723704","steam_id":85568392925397853,"keywords":["nocrits","nodmgspread","payload","uncletopia"],"game_id":440,"stv_port":27046,"stv_name":"Uncletopia | Warsaw | 4 | All Maps | STV","players":null},{"server_id":53,"name":"Uncletopia | Warsaw | 5 | No Payload","name_short":"waw-5","host":"waw-1.pl.uncletopia.com","port":27055,"enabled":true,"region":"eu","cc":"pl","latitude":52.2297,"longitude":21.017532,"reserved":0,"last_update":"0001-01-01T00:00:00Z","name_a2s":"Uncletopia | Warsaw | 5 | No Payload","protocol":17,"map":"koth_highpass","folder":"tf","game":"Team Fortress","app_id":440,"player_count":0,"max_players":24,"Bots":0,"server_type":"Dedicated","server_os":"Linux","password":true,"vac":true,"version":"7723704","steam_id":85568392925397854,"keywords":["cp","nocrits","nodmgspread","uncletopia"],"game_id":440,"stv_port":27056,"stv_name":"Uncletopia | Warsaw | 5 | No Payload | STV","players":null},{"server_id":54,"name":"Uncletopia | Warsaw | 6 | Community","name_short":"waw-6","host":"waw-1.pl.uncletopia.com","port":27065,"enabled":true,"region":"eu","cc":"pl","latitude":52.2297,"longitude":21.017532,"reserved":0,"last_update":"0001-01-01T00:00:00Z","name_a2s":"Uncletopia | Warsaw | 6 | Community","protocol":17,"map":"koth_viaduct","folder":"tf","game":"Team Fortress","app_id":440,"player_count":0,"max_players":24,"Bots":0,"server_type":"Dedicated","server_os":"Linux","password":true,"vac":true,"version":"7723704","steam_id":85568392925397856,"keywords":["cp","nocrits","nodmgspread","uncletopia"],"game_id":440,"stv_port":27066,"stv_name":"Uncletopia | Warsaw | 6 | Community | STV","players":null}]}