{"status":true,"message":"","result":[{"server_id":9,"name":"Uncletopia | Atlanta | 1 | All Maps","name_short":"atl-1","host":"atl-1.us.uncletopia.com","port":27015,"enabled":true,"region":"us-east","cc":"us","latitude":33.753746,"longitude":-84.38633,"reserved":0,"last_update":"0001-01-01T00:00:00Z","name_a2s":"Uncletopia | Atlanta | 1 | All Maps","protocol":17,"map":"cp_gravelpit","folder":"tf","game":"Team Fortress","app_id":440,"player_count":21,"max_players":24,"Bots":0,"server_type":"Dedicated","server_os":"Linux","password":true,"vac":true,"version":"7961495","steam_id":85568392924469982,"keywords":["cp","nocrits","nodmgspread","uncletopia"],"game_id":440,"stv_port":27016,"stv_name":"Uncletopia | Atlanta | 1 | All Maps | STV","players":null},{"server_id":104,"name":"Uncletopia | Atlanta | 2 | All Maps","name_short":"atl-2","host":"atl-1.us.uncletopia.com","port":27025,"enabled":true,"region":"us-east","cc":"us","latitude":33.753746,"longitude":-84.38633,"reserved":0,"last_update":"0001-01-01T00:00:00Z","name_a2s":"Uncletopia | Atlanta | 2 | All Maps","protocol":17,"map":"pl_frontier_final","folder":"tf","game":"Team Fortress","app_id":440,"player_count":24,"max_players":24,"Bots":0,"server_type":"Dedicated","server_os":"Linux","password":true,"vac":true,"version":"7961495","steam_id":85568392924469983,"keywords":["nocrits","nodmgspread","payload","uncletopia"],"game_id":440,"stv_port":27026,"stv_name":"Uncletopia | Atlanta | 2 | All Maps | STV","players":null},{"server_id":400,"name":"Uncletopia | Atlanta | 3 | Stopwatch","name_short":"atl-3","host":"atl-1.us.uncletopia.com","port":27035,"enabled":true,"region":"us-east","cc":"us","latitude":33.753746,"longitude":-84.38633,"reserved":0,"last_update":"0001-01-01T00:00:00Z","name_a2s":"Uncletopia | Atlanta | 3 | Stopwatch","protocol":17,"map":"pl_badwater_pro_v12","folder":"tf","game":"Team Fortress","app_id":440,"player_count":24,"max_players":24,"Bots":0,"server_type":"Dedicated","server_os":"Linux","password":true,"vac":true,"version":"7961495","steam_id":85568392924515187,"keywords":["nocrits","nodmgspread","payload","uncletopia"],"game_id":440,"stv_port":27036,"stv_name":"Uncletopia | Atlanta | 3 | Stopwatch | STV","players":null},{"server_id":401,"name":"Uncletopia | Atlanta | 4 | Community","name_short":"atl-4","host":"atl-1.us.uncletopia.com","port":27045,"enabled":true,"region":"us-east","cc":"us","latitude":33.753746,"longitude":-84.38633,"reserved":0,"last_update":"0001-01-01T00:00:00Z","name_a2s":"Uncletopia | Atlanta | 4 | Community","protocol":17,"map":"cp_snowbase_b18","folder":"tf","game":"Team Fortress","app_id":440,"player_count":0,"max_players":24,"Bots":0,"server_type":"Dedicated","server_os":"Linux","password":true,"vac":true,"version":"7961495","steam_id":85568392924515188,"keywords":["cp","nocrits","nodmgspread","uncletopia"],"game_id":440,"stv_port":27046,"stv_name":"Uncletopia | Atlanta | 4 | Community | STV","players":null},{"server_id":2,"name":"Uncletopia | Chicago | 1 | All Maps","name_short":"chi-1","host":"chi-1.us.uncletopia.com","port":27015,"enabled":true,"region":"us-central","cc":"us","latitude":41.881832,"longitude":-87.62318,"reserved":0,"last_update":"0001-01-01T00:00:00Z","name_a2s":"Uncletopia | Chicago | 1 | All Maps","protocol":17,"map":"koth_harvest_final","folder":"tf","game":"Team Fortress","app_id":440,"player_count":24,"max_players":24,"Bots":0,"server_type":"Dedicated","server_os":"Linux","password":true,"vac":true,"version":"7961495","steam_id":85568392924469984,"keywords":["cp","nocrits","nodmgspread","uncletopia"],"game_id":440,"stv_port":27016,"stv_name":"Uncletopia | Chicago | 1 | All Maps | STV","players":[{"user_id":142,"name":"TheOneZoot","steam_id":76561198121944243,"connected_time":3041000000000,"state":"active","ping":69},{"user_id":169,"name":"Red-Raven","steam_id":76561197971130794,"connected_time":63000000000,"state":"active","ping":96},{"user_id":159,"name":"The local hobo","steam_id":76561198289650060,"connected_time":1597000000000,"state":"active","ping":90},{"user_id":111,"name":"Boxpipe","steam_id":76561197964501915,"connected_time":6409000000000,"state":"active","ping":45},{"user_id":106,"name":"Jerk Tryhard (roleplay)","steam_id":76561199470538309,"connected_time":7067000000000,"state":"active","ping":58},{"user_id":103,"name":"Galmart","steam_id":76561199122036524,"connected_time":7217000000000,"state":"active","ping":83},{"user_id":127,"name":"Sunny D+","steam_id":76561197999371052,"connected_time":3497000000000,"state":"active","ping":63},{"user_id":137,"name":"Filthy Acts at Reasonable Price","steam_id":76561198354615890,"connected_time":3270000000000,"state":"active","ping":57},{"user_id":165,"name":"Icarus","steam_id":76561198180484659,"connected_time":1124000000000,"state":"active","ping":80},{"user_id":167,"name":"Tuvok Shakur","steam_id":76561198018875334,"connected_time":1032000000000,"state":"active","ping":83},{"user_id":156,"name":"GrimmMelody","steam_id":76561198094153474,"connected_time":1766000000000,"state":"active","ping":72},{"user_id":166,"name":"Hylic","steam_id":76561199051314589,"connected_time":1051000000000,"state":"active","ping":64},{"user_id":147,"name":"FunGi","steam_id":76561198881418662,"connected_time":2023000000000,"state":"active","ping":83},{"user_id":53,"name":"gaming elliptical","steam_id":76561198013456569,"connected_time":11642000000000,"state":"active","ping":50},{"user_id":153,"name":"aiden","steam_id":76561198449527009,"connected_time":1838000000000,"state":"active","ping":92},{"user_id":168,"name":"nonagon infinity","steam_id":76561198397662124,"connected_time":959000000000,"state":"active","ping":92},{"user_id":163,"name":"ＲＥＤ","steam_id":76561198030282308,"connected_time":1475000000000,"state":"active","ping":101},{"user_id":128,"name":"quechua","steam_id":76561198259963310,"connected_time":3495000000000,"state":"active","ping":62},{"user_id":135,"name":"THE MEWTWO","steam_id":76561199092618496,"connected_time":3403000000000,"state":"active","ping":95},{"user_id":117,"name":"kirby7","steam_id":76561199167006749,"connected_time":5797000000000,"state":"active","ping":155},{"user_id":150,"name":"eloressa","steam_id":76561198120330867,"connected_time":1856000000000,"state":"active","ping":45},{"user_id":161,"name":"Scorpie Doodle","steam_id":76561198021845763,"connected_time":1586000000000,"state":"active","ping":59},{"user_id":164,"name":"carrot cake","steam_id":76561198055174915,"connected_time":1287000000000,"state":"active","ping":63},{"user_id":140,"name":"Mellow Yellow","steam_id":76561198406276981,"connected_time":3154000000000,"state":"active","ping":45}]},{"server_id":106,"name":"Uncletopia | Chicago | 2 | All Maps","name_short":"chi-2","host":"chi-1.us.uncletopia.com","port":27025,"enabled":true,"region":"us-central","cc":"us","latitude":41.881832,"longitude":-87.62318,"reserved":0,"last_update":"0001-01-01T00:00:00Z","name_a2s":"Uncletopia | Chicago | 2 | All Maps","protocol":17,"map":"koth_lakeside_final","folder":"tf","game":"Team Fortress","app_id":440,"player_count":9,"max_players":24,"Bots":0,"server_type":"Dedicated","server_os":"Linux","password":true,"vac":true,"version":"7961495","steam_id":85568392924469985,"keywords":["cp","nocrits","nodmgspread","uncletopia"],"game_id":440,"stv_port":27026,"stv_name":"Uncletopia | Chicago | 2 | All Maps | STV","players":[{"user_id":15,"name":"i am a funny tf2","steam_id":76561199368539607,"connected_time":517000000000,"state":"active","ping":70},{"user_id":16,"name":"RedPyro2009","steam_id":76561198935824363,"connected_time":471000000000,"state":"active","ping":157},{"user_id":17,"name":"penguinlord","steam_id":76561198305192692,"connected_time":451000000000,"state":"active","ping":45},{"user_id":18,"name":"The_RainbowTrout","steam_id":76561199309554436,"connected_time":339000000000,"state":"active","ping":149},{"user_id":19,"name":"chiswola","steam_id":76561198046920142,"connected_time":322000000000,"state":"active","ping":71},{"user_id":20,"name":"GreySweaterCat","steam_id":76561198351860293,"connected_time":271000000000,"state":"active","ping":75},{"user_id":21,"name":"Westwood","steam_id":76561199387699252,"connected_time":257000000000,"state":"active","ping":85},{"user_id":22,"name":"kingcreeper","steam_id":76561199096024712,"connected_time":209000000000,"state":"active","ping":74},{"user_id":23,"name":"thatguy_luigi","steam_id":76561198968055462,"connected_time":191000000000,"state":"active","ping":126}]},{"server_id":402,"name":"Uncletopia | Chicago | 3 | All Maps","name_short":"chi-3","host":"chi-1.us.uncletopia.com","port":27035,"enabled":true,"region":"us-central","cc":"us","latitude":41.881832,"longitude":-87.62318,"reserved":0,"last_update":"0001-01-01T00:00:00Z","name_a2s":"Uncletopia | Chicago | 3 | All Maps","protocol":17,"map":"pl_snowycoast","folder":"tf","game":"Team Fortress","app_id":440,"player_count":0,"max_players":24,"Bots":0,"server_type":"Dedicated","server_os":"Linux","password":true,"vac":true,"version":"7961495","steam_id":85568392924515191,"keywords":["nocrits","nodmgspread","payload","uncletopia"],"game_id":440,"stv_port":27036,"stv_name":"Uncletopia | Chicago | 3 | All Maps | STV","players":null},{"server_id":403,"name":"Uncletopia | Chicago | 4 | All Maps","name_short":"chi-4","host":"chi-1.us.uncletopia.com","port":27045,"enabled":true,"region":"us-central","cc":"us","latitude":41.881832,"longitude":-87.62318,"reserved":0,"last_update":"0001-01-01T00:00:00Z","name_a2s":"Uncletopia | Chicago | 4 | All Maps","protocol":17,"map":"cp_sunshine","folder":"tf","game":"Team Fortress","app_id":440,"player_count":24,"max_players":24,"Bots":0,"server_type":"Dedicated","server_os":"Linux","password":true,"vac":true,"version":"7961495","steam_id":85568392924515193,"keywords":["cp","nocrits","nodmgspread","uncletopia"],"game_id":440,"stv_port":27046,"stv_name":"Uncletopia | Chicago | 4 | All Maps | STV","players":[{"user_id":126,"name":"Kekona","steam_id":76561198005399392,"connected_time":515000000000,"state":"active","ping":100},{"user_id":116,"name":"GwenTheGiant","steam_id":76561198799005734,"connected_time":1336000000000,"state":"active","ping":79},{"user_id":123,"name":"thecal","steam_id":76561198307893384,"connected_time":974000000000,"state":"active","ping":58},{"user_id":127,"name":"roto","steam_id":76561198138735860,"connected_time":296000000000,"state":"active","ping":69},{"user_id":124,"name":"EpitapH","steam_id":76561198211642559,"connected_time":580000000000,"state":"active","ping":44},{"user_id":125,"name":"tA.CHRONIC","steam_id":76561197960760990,"connected_time":541000000000,"state":"active","ping":48},{"user_id":63,"name":"Toxic Ron","steam_id":76561198089302972,"connected_time":4847000000000,"state":"active","ping":64},{"user_id":118,"name":"for the king","steam_id":76561197973488858,"connected_time":1316000000000,"state":"active","ping":58},{"user_id":128,"name":"can you help me with my homewor","steam_id":76561198408159536,"connected_time":137000000000,"state":"active","ping":46},{"user_id":102,"name":"Slip","steam_id":76561199057232579,"connected_time":2212000000000,"state":"active","ping":46},{"user_id":87,"name":"The Rookie","steam_id":76561198015781346,"connected_time":3449000000000,"state":"active","ping":87},{"user_id":95,"name":"IMM0RTAL","steam_id":76561198013747901,"connected_time":2512000000000,"state":"active","ping":76},{"user_id":129,"name":"evasive species","steam_id":76561198068089999,"connected_time":25000000000,"state":"active","ping":49},{"user_id":104,"name":"Mainyx","steam_id":76561198811844438,"connected_time":2189000000000,"state":"active","ping":113},{"user_id":46,"name":"Blue Eyes Ace Dragon.","steam_id":76561198048214237,"connected_time":5848000000000,"state":"active","ping":61},{"user_id":105,"name":"Mimt1111","steam_id":76561198392370897,"connected_time":2182000000000,"state":"active","ping":100},{"user_id":113,"name":"What day is it?","steam_id":76561199056736682,"connected_time":1536000000000,"state":"active","ping":63},{"user_id":107,"name":"schnedwob","steam_id":76561197999146588,"connected_time":2147000000000,"state":"active","ping":75},{"user_id":79,"name":"cj da man","steam_id":76561198303575607,"connected_time":3933000000000,"state":"active","ping":85},{"user_id":108,"name":"jizz gaming","steam_id":76561198984762462,"connected_time":2132000000000,"state":"active","ping":100},{"user_id":106,"name":"Gluppo","steam_id":76561198379320087,"connected_time":2164000000000,"state":"active","ping":78},{"user_id":109,"name":"Lain","steam_id":76561198029303534,"connected_time":2116000000000,"state":"active","ping":62},{"user_id":65,"name":"King Sans","steam_id":76561198294198517,"connected_time":4836000000000,"state":"active","ping":59},{"user_id":111,"name":"mcarson28","steam_id":76561198350825786,"connected_time":1846000000000,"state":"active","ping":63}]},{"server_id":36,"name":"Uncletopia | Chicago | 5 | All Maps","name_short":"chi-5","host":"chi-2.us.uncletopia.com","port":27015,"enabled":true,"region":"us-central","cc":"us","latitude":41.881832,"longitude":-87.62318,"reserved":0,"last_update":"0001-01-01T00:00:00Z","name_a2s":"Uncletopia | Chicago | 5 | All Maps","protocol":17,"map":"koth_viaduct","folder":"tf","game":"Team Fortress","app_id":440,"player_count":0,"max_players":24,"Bots":0,"server_type":"Dedicated","server_os":"Linux","password":true,"vac":true,"version":"7961495","steam_id":85568392924866362,"keywords":["cp","nocrits","nodmgspread","uncletopia"],"game_id":440,"stv_port":27016,"stv_name":"Uncletopia | Chicago | 5 | All Maps | STV","players":null},{"server_id":37,"name":"Uncletopia | Chicago | 6 | All Maps","name_short":"chi-6","host":"chi-2.us.uncletopia.com","port":27025,"enabled":true,"region":"us-central","cc":"us","latitude":41.881832,"longitude":-87.62318,"reserved":0,"last_update":"0001-01-01T00:00:00Z","name_a2s":"Uncletopia | Chicago | 6 | All Maps","protocol":17,"map":"koth_viaduct","folder":"tf","game":"Team Fortress","app_id":440,"player_count":0,"max_players":24,"Bots":0,"server_type":"Dedicated","server_os":"Linux","password":true,"vac":true,"version":"7961495","steam_id":85568392924866363,"keywords":["cp","nocrits","nodmgspread","uncletopia"],"game_id":440,"stv_port":27026,"stv_name":"Uncletopia | Chicago | 6 | All Maps | STV","players":null},{"server_id":38,"name":"Uncletopia | Chicago | 7 | Stopwatch","name_short":"chi-7","host":"chi-2.us.uncletopia.com","port":27035,"enabled":true,"region":"us-central","cc":"us","latitude":41.881832,"longitude":-87.62318,"reserved":0,"last_update":"0001-01-01T00:00:00Z","name_a2s":"Uncletopia | Chicago | 7 | Stopwatch","protocol":17,"map":"pl_borneo","folder":"tf","game":"Team Fortress","app_id":440,"player_count":0,"max_players":24,"Bots":0,"server_type":"Dedicated","server_os":"Linux","password":true,"vac":true,"version":"7961495","steam_id":85568392924866364,"keywords":["nocrits","nodmgspread","payload","uncletopia"],"game_id":440,"stv_port":27036,"stv_name":"Uncletopia | Chicago | 7 | Stopwatch | STV","players":null},{"server_id":39,"name":"Uncletopia | Chicago | 8 | Community","name_short":"chi-8","host":"chi-2.us.uncletopia.com","port":27045,"enabled":true,"region":"us-central","cc":"us","latitude":41.881832,"longitude":-87.62318,"reserved":0,"last_update":"0001-01-01T00:00:00Z","name_a2s":"Uncletopia | Chicago | 8 | Community","protocol":17,"map":"pl_pier","folder":"tf","game":"Team Fortress","app_id":440,"player_count":0,"max_players":24,"Bots":0,"server_type":"Dedicated","server_os":"Linux","password":true,"vac":true,"version":"7961495","steam_id":85568392924866365,"keywords":["nocrits","nodmgspread","payload","uncletopia"],"game_id":440,"stv_port":27046,"stv_name":"Uncletopia | Chicago | 8 | Community | STV","players":null},{"server_id":8,"name":"Uncletopia | Dallas | 1 | All Maps","name_short":"dal-1","host":"dal-1.us.uncletopia.com","port":27015,"enabled":true,"region":"us-central","cc":"us","latitude":32.779167,"longitude":-96.80889,"reserved":0,"last_update":"0001-01-01T00:00:00Z","name_a2s":"Uncletopia | Dallas | 1 | All Maps","protocol":17,"map":"pl_frontier_final","folder":"tf","game":"Team Fortress","app_id":440,"player_count":24,"max_players":24,"Bots":0,"server_type":"Dedicated","server_os":"Linux","password":true,"vac":true,"version":"7961495","steam_id":85568392924469986,"keywords":["nocrits","nodmgspread","payload","uncletopia"],"game_id":440,"stv_port":27016,"stv_name":"Uncletopia | Dallas | 1 | All Maps | STV","players":[{"user_id":78,"name":"Metru Nui Online Game","steam_id":76561198056496183,"connected_time":2655000000000,"state":"active","ping":102},{"user_id":102,"name":"Sloth ❦","steam_id":76561197998378462,"connected_time":193000000000,"state":"active","ping":102},{"user_id":93,"name":"FizzTom","steam_id":76561199200953916,"connected_time":1559000000000,"state":"active","ping":100},{"user_id":74,"name":"Stryder","steam_id":76561199387418697,"connected_time":2815000000000,"state":"active","ping":72},{"user_id":100,"name":"RooKie","steam_id":76561198215901079,"connected_time":416000000000,"state":"active","ping":70},{"user_id":79,"name":"DELTRON ZERO","steam_id":76561198081123470,"connected_time":2534000000000,"state":"active","ping":49},{"user_id":103,"name":"Epifiny","steam_id":76561198027958086,"connected_time":192000000000,"state":"active","ping":87},{"user_id":26,"name":"flippercurve","steam_id":76561199238295034,"connected_time":5194000000000,"state":"active","ping":69},{"user_id":88,"name":"Lovedaddy","steam_id":76561198006569710,"connected_time":1929000000000,"state":"active","ping":101},{"user_id":87,"name":"Crack Addict","steam_id":76561198166681494,"connected_time":1941000000000,"state":"active","ping":45},{"user_id":81,"name":"Beezos","steam_id":76561198370692549,"connected_time":2521000000000,"state":"active","ping":99},{"user_id":104,"name":"Bankito","steam_id":76561198972260865,"connected_time":176000000000,"state":"active","ping":101},{"user_id":105,"name":"Lemonade Juice","steam_id":76561198402892608,"connected_time":129000000000,"state":"active","ping":71},{"user_id":32,"name":"Smashy","steam_id":76561198030704307,"connected_time":5067000000000,"state":"active","ping":120},{"user_id":106,"name":"Cuddle Bunny \u003c3","steam_id":76561198045525598,"connected_time":63000000000,"state":"active","ping":75},{"user_id":40,"name":"Kuyumiester","steam_id":76561198126835302,"connected_time":4807000000000,"state":"active","ping":64},{"user_id":89,"name":"Eddoflobbywaittime","steam_id":76561198257072146,"connected_time":1786000000000,"state":"active","ping":77},{"user_id":68,"name":"TheGirthquake","steam_id":76561198238895056,"connected_time":3076000000000,"state":"active","ping":49},{"user_id":101,"name":"MantisToboggan","steam_id":76561197969447887,"connected_time":376000000000,"state":"active","ping":157},{"user_id":96,"name":"OOFINSTIEN","steam_id":76561199151519055,"connected_time":1423000000000,"state":"active","ping":100},{"user_id":108,"name":"WoodySmith","steam_id":76561198069191123,"connected_time":26000000000,"state":"active","ping":91},{"user_id":41,"name":"redarcher42","steam_id":76561199027887687,"connected_time":4797000000000,"state":"active","ping":79},{"user_id":98,"name":"ZILICON","steam_id":76561199044705592,"connected_time":694000000000,"state":"active","ping":112},{"user_id":92,"name":"Greg Boberton 2012","steam_id":76561198983566026,"connected_time":1604000000000,"state":"active","ping":89}]},{"server_id":108,"name":"Uncletopia | Dallas | 2 | All Maps","name_short":"dal-2","host":"dal-1.us.uncletopia.com","port":27025,"enabled":true,"region":"us-central","cc":"us","latitude":32.779167,"longitude":-96.80889,"reserved":0,"last_update":"0001-01-01T00:00:00Z","name_a2s":"Uncletopia | Dallas | 2 | All Maps","protocol":17,"map":"cp_mercenarypark","folder":"tf","game":"Team Fortress","app_id":440,"player_count":24,"max_players":24,"Bots":0,"server_type":"Dedicated","server_os":"Linux","password":true,"vac":true,"version":"7961495","steam_id":85568392924469988,"keywords":["cp","nocrits","nodmgspread","uncletopia"],"game_id":440,"stv_port":27026,"stv_name":"Uncletopia | Dallas | 2 | All Maps | STV","players":[{"user_id":10,"name":"Insizhen","steam_id":76561198051352605,"connected_time":1689000000000,"state":"active","ping":47},{"user_id":28,"name":"fasterbum","steam_id":76561198142577444,"connected_time":914000000000,"state":"active","ping":78},{"user_id":47,"name":"GlingGlop95","steam_id":76561198386865528,"connected_time":427000000000,"state":"active","ping":79},{"user_id":12,"name":"Frojj","steam_id":76561198857770448,"connected_time":1556000000000,"state":"active","ping":127},{"user_id":22,"name":"Graon7","steam_id":76561199350604213,"connected_time":1071000000000,"state":"active","ping":108},{"user_id":45,"name":"Spicy Within Reason","steam_id":76561198066700370,"connected_time":546000000000,"state":"active","ping":107},{"user_id":15,"name":"radiantlight123","steam_id":76561198161638571,"connected_time":1490000000000,"state":"active","ping":71},{"user_id":16,"name":"Dreamzapp","steam_id":76561199084936632,"connected_time":1477000000000,"state":"active","ping":91},{"user_id":34,"name":"Konkdonk","steam_id":76561199023510263,"connected_time":725000000000,"state":"active","ping":72},{"user_id":48,"name":"pelt","steam_id":76561197993593754,"connected_time":125000000000,"state":"active","ping":73},{"user_id":23,"name":"Kos, or some say Kosm","steam_id":76561197998833309,"connected_time":1048000000000,"state":"active","ping":73},{"user_id":33,"name":"Shalom","steam_id":76561198410005222,"connected_time":734000000000,"state":"active","ping":60},{"user_id":36,"name":"name me pls","steam_id":76561199273576072,"connected_time":705000000000,"state":"active","ping":175},{"user_id":37,"name":"mkl","steam_id":76561197986401685,"connected_time":699000000000,"state":"active","ping":58},{"user_id":38,"name":"Justy","steam_id":76561198044014069,"connected_time":694000000000,"state":"active","ping":61},{"user_id":31,"name":"uncletopia dallas 2 player","steam_id":76561198412786186,"connected_time":818000000000,"state":"active","ping":64},{"user_id":32,"name":"TheSausageSwiper","steam_id":76561198972869845,"connected_time":806000000000,"state":"active","ping":102},{"user_id":39,"name":"firestabber","steam_id":76561198057055577,"connected_time":659000000000,"state":"active","ping":97},{"user_id":40,"name":"YoteDab McFapDab.jpg","steam_id":76561197984870380,"connected_time":653000000000,"state":"active","ping":85},{"user_id":41,"name":"bobkattbro","steam_id":76561199009438984,"connected_time":637000000000,"state":"active","ping":131},{"user_id":42,"name":"lpk","steam_id":76561198025478698,"connected_time":625000000000,"state":"active","ping":72},{"user_id":43,"name":"Yoshi_86","steam_id":76561198942328734,"connected_time":595000000000,"state":"active","ping":52},{"user_id":44,"name":"Sax","steam_id":76561198055425123,"connected_time":585000000000,"state":"active","ping":115},{"user_id":46,"name":"mr555","steam_id":76561199128375354,"connected_time":540000000000,"state":"active","ping":185}]},{"server_id":404,"name":"Uncletopia | Dallas | 3 | All Maps","name_short":"dal-3","host":"dal-1.us.uncletopia.com","port":27035,"enabled":true,"region":"us-central","cc":"us","latitude":32.779167,"longitude":-96.80889,"reserved":0,"last_update":"0001-01-01T00:00:00Z","name_a2s":"Uncletopia | Dallas | 3 | All Maps","protocol":17,"map":"koth_viaduct","folder":"tf","game":"Team Fortress","app_id":440,"player_count":0,"max_players":24,"Bots":0,"server_type":"Dedicated","server_os":"Linux","password":true,"vac":true,"version":"7961495","steam_id":85568392924515219,"keywords":["cp","nocrits","nodmgspread","uncletopia"],"game_id":440,"stv_port":27036,"stv_name":"Uncletopia | Dallas | 3 | All Maps | STV","players":null},{"server_id":405,"name":"Uncletopia | Dallas | 4 | Community","name_short":"dal-4","host":"dal-1.us.uncletopia.com","port":27045,"enabled":true,"region":"us-central","cc":"us","latitude":32.779167,"longitude":-96.80889,"reserved":0,"last_update":"0001-01-01T00:00:00Z","name_a2s":"Uncletopia | Dallas | 4 | Community","protocol":17,"map":"pl_pier","folder":"tf","game":"Team Fortress","app_id":440,"player_count":0,"max_players":24,"Bots":0,"server_type":"Dedicated","server_os":"Linux","password":true,"vac":true,"version":"7961495","steam_id":85568392924515220,"keywords":["nocrits","nodmgspread","payload","uncletopia"],"game_id":440,"stv_port":27046,"stv_name":"Uncletopia | Dallas | 4 | Community | STV","players":null},{"server_id":5,"name":"Uncletopia | Frankfurt | 1 | All Maps","name_short":"frk-1","host":"frk-1.de.uncletopia.com","port":27015,"enabled":true,"region":"eu","cc":"de","latitude":50.110924,"longitude":8.682127,"reserved":0,"last_update":"0001-01-01T00:00:00Z","name_a2s":"Uncletopia | Frankfurt | 1 | All Maps","protocol":17,"map":"pl_barnblitz","folder":"tf","game":"Team Fortress","app_id":440,"player_count":24,"max_players":24,"Bots":0,"server_type":"Dedicated","server_os":"Linux","password":true,"vac":true,"version":"7961495","steam_id":85568392924469989,"keywords":["nocrits","nodmgspread","payload","uncletopia"],"game_id":440,"stv_port":27016,"stv_name":"Uncletopia | Frankfurt | 1 | All Maps | STV","players":[{"user_id":654,"name":"Peskyplumber64","steam_id":76561198044458330,"connected_time":314000000000,"state":"active","ping":74},{"user_id":632,"name":"fynta","steam_id":76561198315371425,"connected_time":2079000000000,"state":"active","ping":59},{"user_id":596,"name":"MagicTITIKAKA","steam_id":76561198129509548,"connected_time":4706000000000,"state":"active","ping":102},{"user_id":628,"name":"denismaidanov","steam_id":76561198338601367,"connected_time":2709000000000,"state":"active","ping":98},{"user_id":644,"name":"otto","steam_id":76561198888223024,"connected_time":526000000000,"state":"active","ping":157},{"user_id":618,"name":"꧁༒Xenon༒꧂","steam_id":76561198120502313,"connected_time":3572000000000,"state":"active","ping":84},{"user_id":630,"name":"AdeAAa","steam_id":76561198974207724,"connected_time":2170000000000,"state":"active","ping":99},{"user_id":642,"name":"Veirū Viseris","steam_id":76561197989857176,"connected_time":817000000000,"state":"active","ping":73},{"user_id":655,"name":"PLUTO","steam_id":76561198312436128,"connected_time":75000000000,"state":"active","ping":119},{"user_id":629,"name":"Tree","steam_id":76561198054795379,"connected_time":2199000000000,"state":"active","ping":55},{"user_id":643,"name":"zeldakatze","steam_id":76561198217545485,"connected_time":765000000000,"state":"active","ping":70},{"user_id":626,"name":"MR BUBBLES","steam_id":76561198019005259,"connected_time":3065000000000,"state":"active","ping":100},{"user_id":645,"name":"Jered","steam_id":76561198834692136,"connected_time":523000000000,"state":"active","ping":183},{"user_id":631,"name":"Finem Belli","steam_id":76561198227177976,"connected_time":2125000000000,"state":"active","ping":46},{"user_id":646,"name":"Kabajsa","steam_id":76561198111264439,"connected_time":518000000000,"state":"active","ping":65},{"user_id":635,"name":"TAFI03","steam_id":76561198213082089,"connected_time":1543000000000,"state":"active","ping":59},{"user_id":627,"name":"Kolanciasty ♥","steam_id":76561198020042179,"connected_time":2801000000000,"state":"active","ping":81},{"user_id":639,"name":"Raulca25","steam_id":76561199068256964,"connected_time":1101000000000,"state":"active","ping":88},{"user_id":653,"name":"2spooky4me","steam_id":76561198043211244,"connected_time":338000000000,"state":"active","ping":55},{"user_id":636,"name":"scarybroccoli","steam_id":76561198996934524,"connected_time":1344000000000,"state":"active","ping":114},{"user_id":649,"name":"Toast","steam_id":76561199243331140,"connected_time":481000000000,"state":"active","ping":163},{"user_id":604,"name":"John","steam_id":76561198121630215,"connected_time":4274000000000,"state":"active","ping":67},{"user_id":650,"name":"xboxman3012#SAFE TF2","steam_id":76561199348441494,"connected_time":475000000000,"state":"active","ping":110},{"user_id":651,"name":"Samaj","steam_id":76561198008442806,"connected_time":475000000000,"state":"active","ping":73}]},{"server_id":110,"name":"Uncletopia | Frankfurt | 2 | All Maps","name_short":"frk-2","host":"frk-1.de.uncletopia.com","port":27025,"enabled":true,"region":"eu","cc":"de","latitude":50.110924,"longitude":8.682127,"reserved":0,"last_update":"0001-01-01T00:00:00Z","name_a2s":"Uncletopia | Frankfurt | 2 | All Maps","protocol":17,"map":"cp_dustbowl","folder":"tf","game":"Team Fortress","app_id":440,"player_count":24,"max_players":24,"Bots":0,"server_type":"Dedicated","server_os":"Linux","password":true,"vac":true,"version":"7961495","steam_id":85568392924469990,"keywords":["cp","nocrits","nodmgspread","uncletopia"],"game_id":440,"stv_port":27026,"stv_name":"Uncletopia | Frankfurt | 2 | All Maps | STV","players":[{"user_id":36,"name":"Doommsatic","steam_id":76561198264874440,"connected_time":2409000000000,"state":"active","ping":110},{"user_id":74,"name":"Akisян","steam_id":76561198078706435,"connected_time":429000000000,"state":"active","ping":75},{"user_id":63,"name":"Vischan but worse","steam_id":76561199371650805,"connected_time":998000000000,"state":"active","ping":98},{"user_id":60,"name":"DHD - Obismal","steam_id":76561198000356530,"connected_time":1034000000000,"state":"active","ping":75},{"user_id":37,"name":"HimAgain","steam_id":76561199176170276,"connected_time":2375000000000,"state":"active","ping":86},{"user_id":38,"name":"Jugie","steam_id":76561198323807875,"connected_time":2132000000000,"state":"active","ping":82},{"user_id":75,"name":"Negan Smith","steam_id":76561199114463463,"connected_time":409000000000,"state":"active","ping":94},{"user_id":72,"name":"xavier","steam_id":76561198076494034,"connected_time":571000000000,"state":"active","ping":56},{"user_id":80,"name":"BING CHILLING","steam_id":76561198065438030,"connected_time":140000000000,"state":"active","ping":130},{"user_id":77,"name":"󠀡󠀡","steam_id":76561198399390201,"connected_time":307000000000,"state":"active","ping":71},{"user_id":45,"name":"Caruzon - Obismal","steam_id":76561198036211170,"connected_time":1436000000000,"state":"active","ping":76},{"user_id":49,"name":"Macci - Obismal","steam_id":76561198050485404,"connected_time":1372000000000,"state":"active","ping":75},{"user_id":48,"name":"[CIR]Philibert","steam_id":76561198025148053,"connected_time":1387000000000,"state":"active","ping":57},{"user_id":56,"name":"Rez","steam_id":76561198410598772,"connected_time":1131000000000,"state":"active","ping":45},{"user_id":54,"name":"sinkuchan","steam_id":76561198054012474,"connected_time":1230000000000,"state":"active","ping":54},{"user_id":57,"name":"Mike","steam_id":76561198228455736,"connected_time":1125000000000,"state":"active","ping":93},{"user_id":59,"name":"D1n0Master","steam_id":76561198242499784,"connected_time":1078000000000,"state":"active","ping":72},{"user_id":61,"name":"Brakamwoan","steam_id":76561198294247550,"connected_time":1011000000000,"state":"active","ping":76},{"user_id":66,"name":"Behind you","steam_id":76561198102420849,"connected_time":884000000000,"state":"active","ping":56},{"user_id":64,"name":"I AM SUMMER SLAYCATION","steam_id":76561198179339326,"connected_time":986000000000,"state":"active","ping":79},{"user_id":67,"name":"Oceanic | tuesday maybe","steam_id":76561197979741827,"connected_time":883000000000,"state":"active","ping":68},{"user_id":68,"name":"Laybox","steam_id":76561198160275551,"connected_time":869000000000,"state":"active","ping":84},{"user_id":78,"name":"R8N - Obismal","steam_id":76561198007482714,"connected_time":287000000000,"state":"active","ping":76},{"user_id":70,"name":"Fat Pigeon","steam_id":76561198817940142,"connected_time":803000000000,"state":"active","ping":52}]},{"server_id":308,"name":"Uncletopia | Frankfurt | 3 | All Maps","name_short":"frk-3","host":"frk-1.de.uncletopia.com","port":27035,"enabled":true,"region":"eu","cc":"de","latitude":50.110924,"longitude":8.682127,"reserved":0,"last_update":"0001-01-01T00:00:00Z","name_a2s":"Uncletopia | Frankfurt | 3 | All Maps","protocol":17,"map":"pl_badwater","folder":"tf","game":"Team Fortress","app_id":440,"player_count":24,"max_players":24,"Bots":0,"server_type":"Dedicated","server_os":"Linux","password":true,"vac":true,"version":"7961495","steam_id":85568392924504274,"keywords":["nocrits","nodmgspread","payload","uncletopia"],"game_id":440,"stv_port":27036,"stv_name":"Uncletopia | Frankfurt | 3 | All Maps | STV","players":[{"user_id":336,"name":"gEyfrogsE","steam_id":76561199385772902,"connected_time":675000000000,"state":"active","ping":70},{"user_id":345,"name":"Salih","steam_id":76561198287934839,"connected_time":156000000000,"state":"active","ping":45},{"user_id":322,"name":"mq","steam_id":76561198091888948,"connected_time":2084000000000,"state":"active","ping":54},{"user_id":289,"name":"Der er myrer under min hud","steam_id":76561198204171871,"connected_time":4659000000000,"state":"active","ping":87},{"user_id":330,"name":"JayKey","steam_id":76561198008847925,"connected_time":1738000000000,"state":"active","ping":60},{"user_id":332,"name":"murderwow","steam_id":76561198024566944,"connected_time":1433000000000,"state":"active","ping":92},{"user_id":329,"name":"tony","steam_id":76561199382978934,"connected_time":1785000000000,"state":"active","ping":89},{"user_id":335,"name":"koji","steam_id":76561198051636999,"connected_time":688000000000,"state":"active","ping":54},{"user_id":325,"name":"MisterGQ","steam_id":76561198018415918,"connected_time":1979000000000,"state":"active","ping":72},{"user_id":328,"name":"Hexagon","steam_id":76561198151205758,"connected_time":1813000000000,"state":"active","ping":45},{"user_id":286,"name":"Lubi Animal","steam_id":76561199041620433,"connected_time":4783000000000,"state":"active","ping":48},{"user_id":344,"name":"h","steam_id":76561198149967445,"connected_time":240000000000,"state":"active","ping":48},{"user_id":317,"name":"Quantum","steam_id":76561198401018345,"connected_time":3062000000000,"state":"active","ping":82},{"user_id":333,"name":"Zazou","steam_id":76561198028076362,"connected_time":1198000000000,"state":"active","ping":59},{"user_id":293,"name":"Pico","steam_id":76561198063552545,"connected_time":4550000000000,"state":"active","ping":102},{"user_id":337,"name":"slifty","steam_id":76561198166682199,"connected_time":641000000000,"state":"active","ping":66},{"user_id":341,"name":"jovi_","steam_id":76561198449280552,"connected_time":480000000000,"state":"active","ping":64},{"user_id":297,"name":"SpineJuice","steam_id":76561199084272069,"connected_time":4507000000000,"state":"active","ping":70},{"user_id":321,"name":"꒰ ˶• ༝ •˶꒱","steam_id":76561198054474684,"connected_time":2152000000000,"state":"active","ping":74},{"user_id":323,"name":"Noob_with_source","steam_id":76561198870362103,"connected_time":2076000000000,"state":"active","ping":59},{"user_id":339,"name":"Nick","steam_id":76561198036109469,"connected_time":609000000000,"state":"active","ping":80},{"user_id":343,"name":"FreXx","steam_id":76561198375272077,"connected_time":253000000000,"state":"active","ping":93},{"user_id":334,"name":"sex toilet","steam_id":76561198412197820,"connected_time":920000000000,"state":"active","ping":76},{"user_id":310,"name":"Andy","steam_id":76561198046918834,"connected_time":3720000000000,"state":"active","ping":69}]},{"server_id":309,"name":"Uncletopia | Frankfurt | 4 | All Maps","name_short":"frk-4","host":"frk-1.de.uncletopia.com","port":27045,"enabled":true,"region":"eu","cc":"de","latitude":50.110924,"longitude":8.682127,"reserved":0,"last_update":"0001-01-01T00:00:00Z","name_a2s":"Uncletopia | Frankfurt | 4 | All Maps","protocol":17,"map":"pl_borneo","folder":"tf","game":"Team Fortress","app_id":440,"player_count":23,"max_players":24,"Bots":0,"server_type":"Dedicated","server_os":"Linux","password":true,"vac":true,"version":"7961495","steam_id":85568392924504275,"keywords":["nocrits","nodmgspread","payload","uncletopia"],"game_id":440,"stv_port":27046,"stv_name":"Uncletopia | Frankfurt | 4 | All Maps | STV","players":[{"user_id":448,"name":"Person","steam_id":76561199216957269,"connected_time":4254000000000,"state":"active","ping":100},{"user_id":523,"name":"Waazard","steam_id":76561198383923159,"connected_time":111000000000,"state":"active","ping":76},{"user_id":511,"name":"ᴀꜱᴋᴜʟᴀᴘ","steam_id":76561197992018795,"connected_time":1163000000000,"state":"active","ping":66},{"user_id":520,"name":"Radigan-Flanders::","steam_id":76561198100439744,"connected_time":386000000000,"state":"active","ping":48},{"user_id":496,"name":"Pootis Dispenser","steam_id":76561198818060075,"connected_time":1719000000000,"state":"active","ping":178},{"user_id":394,"name":"hhhhhh","steam_id":76561198031982574,"connected_time":7560000000000,"state":"active","ping":49},{"user_id":524,"name":"ion luca caragiale","steam_id":76561198132025408,"connected_time":98000000000,"state":"active","ping":61},{"user_id":525,"name":"plo at u","steam_id":76561198998684199,"connected_time":88000000000,"state":"active","ping":122},{"user_id":526,"name":"DrExplosive","steam_id":76561198063678579,"connected_time":56000000000,"state":"active","ping":65},{"user_id":527,"name":"Rakiru","steam_id":76561198334097259,"connected_time":37000000000,"state":"active","ping":83},{"user_id":516,"name":"an idiot","steam_id":76561198172542535,"connected_time":719000000000,"state":"active","ping":65},{"user_id":509,"name":"H1DD3 gaming","steam_id":76561198855897385,"connected_time":1248000000000,"state":"active","ping":72},{"user_id":514,"name":"antivirus.exe","steam_id":76561198152067633,"connected_time":827000000000,"state":"active","ping":176},{"user_id":528,"name":"Brick Samson","steam_id":76561198019076104,"connected_time":33000000000,"state":"active","ping":95},{"user_id":493,"name":"go casino 777","steam_id":76561198150755391,"connected_time":1877000000000,"state":"active","ping":42},{"user_id":529,"name":"Lemonade :3","steam_id":76561199109806211,"connected_time":19000000000,"state":"active","ping":216},{"user_id":501,"name":"john fortress","steam_id":76561198013237629,"connected_time":1423000000000,"state":"active","ping":96},{"user_id":488,"name":"Jonny J","steam_id":76561198027710849,"connected_time":2074000000000,"state":"active","ping":90},{"user_id":513,"name":"Redumpus Demarcus U. the 3rd","steam_id":76561199162894483,"connected_time":928000000000,"state":"active","ping":151},{"user_id":505,"name":"Der Herr Doktor","steam_id":76561198119476089,"connected_time":1379000000000,"state":"active","ping":53},{"user_id":497,"name":"mercenarypit","steam_id":76561198161935108,"connected_time":1662000000000,"state":"active","ping":62},{"user_id":522,"name":"Kraken","steam_id":76561198203568537,"connected_time":211000000000,"state":"active","ping":81},{"user_id":510,"name":"PanPatrik","steam_id":76561198293331527,"connected_time":1221000000000,"state":"active","ping":55}]},{"server_id":310,"name":"Uncletopia | Frankfurt | 5 | All Maps","name_short":"frk-5","host":"frk-1.de.uncletopia.com","port":27055,"enabled":true,"region":"eu","cc":"de","latitude":50.110924,"longitude":8.682127,"reserved":0,"last_update":"0001-01-01T00:00:00Z","name_a2s":"Uncletopia | Frankfurt | 5 | All Maps","protocol":17,"map":"pl_badwater","folder":"tf","game":"Team Fortress","app_id":440,"player_count":24,"max_players":24,"Bots":0,"server_type":"Dedicated","server_os":"Linux","password":true,"vac":true,"version":"7961495","steam_id":85568392924504277,"keywords":["nocrits","nodmgspread","payload","uncletopia"],"game_id":440,"stv_port":27056,"stv_name":"Uncletopia | Frankfurt | 5 | All Maps | STV","players":[{"user_id":368,"name":"FREE ROBUX, CLICK MY COCK","steam_id":76561198133901720,"connected_time":3951000000000,"state":"active","ping":61},{"user_id":405,"name":"ClumsyKoala81","steam_id":76561198971737523,"connected_time":662000000000,"state":"active","ping":70},{"user_id":393,"name":"powej","steam_id":76561198056381418,"connected_time":1631000000000,"state":"active","ping":52},{"user_id":406,"name":"虾扯蛋.Lonely","steam_id":76561198022989560,"connected_time":660000000000,"state":"active","ping":66},{"user_id":407,"name":"Robie","steam_id":76561198914744938,"connected_time":657000000000,"state":"active","ping":92},{"user_id":399,"name":"Volvo 740 Turbo Wagon","steam_id":76561199027564726,"connected_time":1462000000000,"state":"active","ping":65},{"user_id":403,"name":"My left foot itches","steam_id":76561198078411001,"connected_time":1072000000000,"state":"active","ping":88},{"user_id":249,"name":"Flank Scout™","steam_id":76561198148115584,"connected_time":14608000000000,"state":"active","ping":77},{"user_id":352,"name":"zaleek69","steam_id":76561198058877595,"connected_time":5600000000000,"state":"active","ping":62},{"user_id":412,"name":"Nor1h_l1zard","steam_id":76561198250011918,"connected_time":231000000000,"state":"active","ping":79},{"user_id":413,"name":"Chopperson_","steam_id":76561198873728497,"connected_time":78000000000,"state":"active","ping":100},{"user_id":400,"name":"butter hunt (caber gang)","steam_id":76561198192343263,"connected_time":1438000000000,"state":"active","ping":53},{"user_id":408,"name":"[phys] las3r_turk3n","steam_id":76561198074978213,"connected_time":648000000000,"state":"active","ping":74},{"user_id":386,"name":"Bob D","steam_id":76561198026375630,"connected_time":2918000000000,"state":"active","ping":100},{"user_id":409,"name":"Blasphemy | wilgotwall.com","steam_id":76561198012250335,"connected_time":617000000000,"state":"active","ping":71},{"user_id":363,"name":"narwhal bacon","steam_id":76561198046873337,"connected_time":4880000000000,"state":"active","ping":71},{"user_id":385,"name":"bruh","steam_id":76561198109262927,"connected_time":3055000000000,"state":"active","ping":73},{"user_id":402,"name":"mendako","steam_id":76561198295305088,"connected_time":1283000000000,"state":"active","ping":55},{"user_id":410,"name":"def","steam_id":76561198857396812,"connected_time":577000000000,"state":"active","ping":48},{"user_id":364,"name":"GTA5 FREE TORRENT +(1.5mil shar","steam_id":76561198010662796,"connected_time":4531000000000,"state":"active","ping":70},{"user_id":414,"name":"Welmerine","steam_id":76561198929264511,"connected_time":14000000000,"state":"active","ping":54},{"user_id":387,"name":"Crunchips","steam_id":76561198004336818,"connected_time":2848000000000,"state":"active","ping":90},{"user_id":220,"name":"1914","steam_id":76561198257383813,"connected_time":17229000000000,"state":"active","ping":44},{"user_id":391,"name":"Wardruna96","steam_id":76561199057083828,"connected_time":1758000000000,"state":"active","ping":80}]},{"server_id":311,"name":"Uncletopia | Frankfurt | 6 | All Maps","name_short":"frk-6","host":"frk-1.de.uncletopia.com","port":27065,"enabled":true,"region":"eu","cc":"de","latitude":50.110924,"longitude":8.682127,"reserved":0,"last_update":"0001-01-01T00:00:00Z","name_a2s":"Uncletopia | Frankfurt | 6 | All Maps","protocol":17,"map":"pl_frontier_final","folder":"tf","game":"Team Fortress","app_id":440,"player_count":22,"max_players":24,"Bots":0,"server_type":"Dedicated","server_os":"Linux","password":true,"vac":true,"version":"7961495","steam_id":85568392924504278,"keywords":["nocrits","nodmgspread","payload","uncletopia"],"game_id":440,"stv_port":27066,"stv_name":"Uncletopia | Frankfurt | 6 | All Maps | STV","players":[{"user_id":315,"name":"Optimist 50","steam_id":76561198039631442,"connected_time":1295000000000,"state":"active","ping":80},{"user_id":269,"name":"Waltism","steam_id":76561199447676489,"connected_time":3812000000000,"state":"active","ping":65},{"user_id":278,"name":"Flohr","steam_id":76561198191948841,"connected_time":2926000000000,"state":"active","ping":48},{"user_id":329,"name":"Zino","steam_id":76561197969422755,"connected_time":523000000000,"state":"active","ping":85},{"user_id":331,"name":"Zor","steam_id":76561198009851383,"connected_time":384000000000,"state":"active","ping":64},{"user_id":335,"name":"Enjoyer","steam_id":76561198147399855,"connected_time":267000000000,"state":"active","ping":131},{"user_id":332,"name":"Dr. Jabbinton","steam_id":76561198180007387,"connected_time":331000000000,"state":"active","ping":54},{"user_id":324,"name":"Gardvord","steam_id":76561198120715753,"connected_time":601000000000,"state":"active","ping":74},{"user_id":325,"name":"Beep","steam_id":76561198151248575,"connected_time":588000000000,"state":"active","ping":71},{"user_id":282,"name":"Dolcelatte","steam_id":76561198038501770,"connected_time":2804000000000,"state":"active","ping":46},{"user_id":251,"name":"REN","steam_id":76561198000596385,"connected_time":5317000000000,"state":"active","ping":67},{"user_id":336,"name":"Soverney","steam_id":76561197997961169,"connected_time":256000000000,"state":"active","ping":106},{"user_id":326,"name":"Tiobio","steam_id":76561198355473473,"connected_time":585000000000,"state":"active","ping":76},{"user_id":286,"name":"Ｍａｃｉｎｔｏｓｈ","steam_id":76561198074294565,"connected_time":2722000000000,"state":"active","ping":73},{"user_id":318,"name":"David \"Crash\" Murphy","steam_id":76561198292845505,"connected_time":1045000000000,"state":"active","ping":99},{"user_id":319,"name":"c1v","steam_id":76561199085624224,"connected_time":867000000000,"state":"active","ping":73},{"user_id":316,"name":"socaramel","steam_id":76561197984480336,"connected_time":1209000000000,"state":"active","ping":83},{"user_id":328,"name":"Bortas","steam_id":76561197972282153,"connected_time":544000000000,"state":"active","ping":75},{"user_id":291,"name":"G-LAUQUE","steam_id":76561198150060767,"connected_time":2654000000000,"state":"active","ping":56},{"user_id":333,"name":"le big mac","steam_id":76561199026378253,"connected_time":330000000000,"state":"active","ping":51},{"user_id":313,"name":"LivEssense","steam_id":76561198052476979,"connected_time":1609000000000,"state":"active","ping":75},{"user_id":294,"name":"󠁳","steam_id":76561199169154431,"connected_time":2588000000000,"state":"active","ping":48}]},{"server_id":23,"name":"Uncletopia | Frankfurt | 7 | Stopwatch","name_short":"frk-7","host":"frk-1.de.uncletopia.com","port":27075,"enabled":true,"region":"eu","cc":"de","latitude":50.110924,"longitude":8.682127,"reserved":0,"last_update":"0001-01-01T00:00:00Z","name_a2s":"Uncletopia | Frankfurt | 7 | Stopwatch","protocol":17,"map":"workshop/koth_ashville_final.ugc2130459942","folder":"tf","game":"Team Fortress","app_id":440,"player_count":0,"max_players":24,"Bots":0,"server_type":"Dedicated","server_os":"Linux","password":true,"vac":true,"version":"7961495","steam_id":85568392924742827,"keywords":["cp","nocrits","nodmgspread","uncletopia"],"game_id":440,"stv_port":27076,"stv_name":"Uncletopia | Frankfurt | 7 | Stopwatch | STV","players":null},{"server_id":24,"name":"Uncletopia | Frankfurt | 8 | Community","name_short":"frk-8","host":"frk-1.de.uncletopia.com","port":27085,"enabled":true,"region":"eu","cc":"de","latitude":50.110924,"longitude":8.682127,"reserved":0,"last_update":"0001-01-01T00:00:00Z","name_a2s":"Uncletopia | Frankfurt | 8 | Community","protocol":17,"map":"cp_mountainlab","folder":"tf","game":"Team Fortress","app_id":440,"player_count":3,"max_players":24,"Bots":0,"server_type":"Dedicated","server_os":"Linux","password":true,"vac":true,"version":"7961495","steam_id":85568392924742828,"keywords":["cp","nocrits","nodmgspread","uncletopia"],"game_id":440,"stv_port":27086,"stv_name":"Uncletopia | Frankfurt | 8 | Community | STV","players":[{"user_id":7,"name":"norespectforthedevil","steam_id":76561197998922218,"connected_time":214000000000,"state":"active","ping":111},{"user_id":8,"name":"coconte","steam_id":76561198041078773,"connected_time":204000000000,"state":"active","ping":144},{"user_id":9,"name":"The Fire","steam_id":76561199219653853,"connected_time":136000000000,"state":"active","ping":47}]},{"server_id":202,"name":"Uncletopia | Hong Kong | 1 | All Maps","name_short":"hgk-1","host":"hgk-1.hk.uncletopia.com","port":27015,"enabled":true,"region":"asia","cc":"hk","latitude":22.302711,"longitude":114.177216,"reserved":0,"last_update":"0001-01-01T00:00:00Z","name_a2s":"Uncletopia | Hong Kong | 1 | All Maps","protocol":17,"map":"pl_snowycoast","folder":"tf","game":"Team Fortress","app_id":440,"player_count":0,"max_players":24,"Bots":0,"server_type":"Dedicated","server_os":"Linux","password":true,"vac":true,"version":"7961495","steam_id":85568392924494504,"keywords":["nocrits","nodmgspread","payload","uncletopia"],"game_id":440,"stv_port":27016,"stv_name":"Uncletopia | Hong Kong | 1 | All Maps | STV","players":null},{"server_id":1,"name":"Uncletopia | Los Angeles | 1 | All Maps","name_short":"lax-1","host":"lax-1.us.uncletopia.com","port":27015,"enabled":true,"region":"us-west","cc":"us","latitude":33.94279,"longitude":-118.41004,"reserved":0,"last_update":"0001-01-01T00:00:00Z","name_a2s":"Uncletopia | Los Angeles | 1 | All Maps","protocol":17,"map":"pl_barnblitz","folder":"tf","game":"Team Fortress","app_id":440,"player_count":24,"max_players":24,"Bots":0,"server_type":"Dedicated","server_os":"Linux","password":true,"vac":true,"version":"7961495","steam_id":85568392924469991,"keywords":["nocrits","nodmgspread","payload","uncletopia"],"game_id":440,"stv_port":27016,"stv_name":"Uncletopia | Los Angeles | 1 | All Maps | STV","players":[{"user_id":176,"name":"Cyber","steam_id":76561198323298672,"connected_time":1461000000000,"state":"active","ping":78},{"user_id":171,"name":"old_gus","steam_id":76561197964214993,"connected_time":1759000000000,"state":"active","ping":47},{"user_id":145,"name":":(){ :|:\u0026 };:","steam_id":76561198115242460,"connected_time":3459000000000,"state":"active","ping":76},{"user_id":165,"name":"iFunny user","steam_id":76561198988499660,"connected_time":2008000000000,"state":"active","ping":70},{"user_id":172,"name":"Magnet Dood","steam_id":76561198364178746,"connected_time":1724000000000,"state":"active","ping":116},{"user_id":174,"name":"Rat From Human Resources","steam_id":76561198090177784,"connected_time":1652000000000,"state":"active","ping":109},{"user_id":188,"name":"ty","steam_id":76561198113817130,"connected_time":525000000000,"state":"active","ping":88},{"user_id":162,"name":":p","steam_id":76561198047786061,"connected_time":2231000000000,"state":"active","ping":79},{"user_id":157,"name":"w a o w","steam_id":76561198060769385,"connected_time":2355000000000,"state":"active","ping":57},{"user_id":178,"name":"Buswolley","steam_id":76561197995205571,"connected_time":1270000000000,"state":"active","ping":60},{"user_id":193,"name":"Limerumpus","steam_id":76561198138113676,"connected_time":59000000000,"state":"active","ping":96},{"user_id":150,"name":"silver","steam_id":76561199020503397,"connected_time":3150000000000,"state":"active","ping":46},{"user_id":185,"name":"james may","steam_id":76561198043857339,"connected_time":565000000000,"state":"active","ping":45},{"user_id":191,"name":"doghouse","steam_id":76561198000319035,"connected_time":297000000000,"state":"active","ping":67},{"user_id":189,"name":"baked garfield","steam_id":76561198069874720,"connected_time":512000000000,"state":"active","ping":90},{"user_id":186,"name":"Chirp","steam_id":76561198240780230,"connected_time":565000000000,"state":"active","ping":51},{"user_id":116,"name":"Platinum","steam_id":76561198348354629,"connected_time":5152000000000,"state":"active","ping":47},{"user_id":183,"name":"Wolfking450","steam_id":76561198399975373,"connected_time":777000000000,"state":"active","ping":119},{"user_id":192,"name":"RadioRave","steam_id":76561198240837534,"connected_time":224000000000,"state":"active","ping":51},{"user_id":177,"name":"vifi269","steam_id":76561198283749166,"connected_time":1323000000000,"state":"active","ping":104},{"user_id":184,"name":"Birby","steam_id":76561198884009768,"connected_time":743000000000,"state":"active","ping":63},{"user_id":141,"name":"Doom501st","steam_id":76561198868481547,"connected_time":3631000000000,"state":"active","ping":126},{"user_id":190,"name":"a goose","steam_id":76561197995403717,"connected_time":432000000000,"state":"active","ping":55},{"user_id":179,"name":"Jamie Hyneman","steam_id":76561199196036481,"connected_time":1265000000000,"state":"active","ping":94}]},{"server_id":112,"name":"Uncletopia | Los Angeles | 2 | All Maps","name_short":"lax-2","host":"lax-1.us.uncletopia.com","port":27025,"enabled":true,"region":"us-west","cc":"us","latitude":33.94279,"longitude":-118.41004,"reserved":0,"last_update":"0001-01-01T00:00:00Z","name_a2s":"Uncletopia | Los Angeles | 2 | All Maps","protocol":17,"map":"cp_process_final","folder":"tf","game":"Team Fortress","app_id":440,"player_count":0,"max_players":24,"Bots":0,"server_type":"Dedicated","server_os":"Linux","password":true,"vac":true,"version":"7961495","steam_id":85568392924469992,"keywords":["cp","nocrits","nodmgspread","uncletopia"],"game_id":440,"stv_port":27026,"stv_name":"Uncletopia | Los Angeles | 2 | All Maps | STV","players":null},{"server_id":324,"name":"Uncletopia | Los Angeles | 3 | All Maps","name_short":"lax-3","host":"lax-1.us.uncletopia.com","port":27035,"enabled":true,"region":"us-west","cc":"us","latitude":33.94279,"longitude":-118.41004,"reserved":0,"last_update":"0001-01-01T00:00:00Z","name_a2s":"Uncletopia | Los Angeles | 3 | All Maps","protocol":17,"map":"pl_frontier_final","folder":"tf","game":"Team Fortress","app_id":440,"player_count":0,"max_players":24,"Bots":0,"server_type":"Dedicated","server_os":"Linux","password":true,"vac":true,"version":"7961495","steam_id":85568392924510198,"keywords":["nocrits","nodmgspread","payload","uncletopia"],"game_id":440,"stv_port":27036,"stv_name":"Uncletopia | Los Angeles | 3 | All Maps | STV","players":null},{"server_id":25,"name":"Uncletopia | Los Angeles | 4 | Stopwatch","name_short":"lax-4","host":"lax-1.us.uncletopia.com","port":27045,"enabled":true,"region":"us-west","cc":"us","latitude":33.94279,"longitude":-118.41004,"reserved":0,"last_update":"0001-01-01T00:00:00Z","name_a2s":"Uncletopia | Los Angeles | 4 | Stopwatch","protocol":17,"map":"pl_barnblitz","folder":"tf","game":"Team Fortress","app_id":440,"player_count":0,"max_players":24,"Bots":0,"server_type":"Dedicated","server_os":"Linux","password":true,"vac":true,"version":"7961495","steam_id":85568392924510199,"keywords":["nocrits","nodmgspread","payload","uncletopia"],"game_id":440,"stv_port":27046,"stv_name":"Uncletopia | Los Angeles | 4 | Stopwatch | STV","players":null},{"server_id":11,"name":"Uncletopia | London | 1 | All Maps","name_short":"lon-1","host":"lon-1.uk.uncletopia.com","port":27015,"enabled":true,"region":"eu","cc":"gb","latitude":51.509865,"longitude":-0.118092,"reserved":0,"last_update":"0001-01-01T00:00:00Z","name_a2s":"Uncletopia | London | 1 | All Maps","protocol":17,"map":"pl_pier","folder":"tf","game":"Team Fortress","app_id":440,"player_count":23,"max_players":24,"Bots":0,"server_type":"Dedicated","server_os":"Linux","password":true,"vac":true,"version":"7961495","steam_id":85568392924367362,"keywords":["nocrits","nodmgspread","payload","uncletopia"],"game_id":440,"stv_port":27016,"stv_name":"Uncletopia | London | 1 | All Maps | STV","players":[{"user_id":359,"name":"coom (2016)","steam_id":76561198890193313,"connected_time":4089000000000,"state":"active","ping":49},{"user_id":381,"name":"Vivian From Paper Mario","steam_id":76561198077624205,"connected_time":1088000000000,"state":"active","ping":70},{"user_id":374,"name":"Pantroglodytestherapy","steam_id":76561198236015392,"connected_time":2093000000000,"state":"active","ping":119},{"user_id":375,"name":"Dark ^^","steam_id":76561198036241064,"connected_time":2059000000000,"state":"active","ping":70},{"user_id":378,"name":"✪ Danny","steam_id":76561198104483241,"connected_time":1435000000000,"state":"active","ping":54},{"user_id":372,"name":"Son Goku","steam_id":76561199383437138,"connected_time":2125000000000,"state":"active","ping":119},{"user_id":385,"name":"Emerald","steam_id":76561199141384216,"connected_time":677000000000,"state":"active","ping":46},{"user_id":386,"name":"Mini","steam_id":76561197968634073,"connected_time":542000000000,"state":"active","ping":93},{"user_id":369,"name":"shooer!","steam_id":76561198110531281,"connected_time":2195000000000,"state":"active","ping":69},{"user_id":392,"name":"odran","steam_id":76561199122931272,"connected_time":14000000000,"state":"spawning","ping":74},{"user_id":380,"name":"Darth Falcon","steam_id":76561199033727636,"connected_time":1109000000000,"state":"active","ping":179},{"user_id":379,"name":"Marl Karx","steam_id":76561198396797516,"connected_time":1348000000000,"state":"active","ping":62},{"user_id":389,"name":"Alexandre","steam_id":76561198121784446,"connected_time":172000000000,"state":"active","ping":40},{"user_id":387,"name":"UNGRATEFUL DIP","steam_id":76561198118589297,"connected_time":539000000000,"state":"active","ping":62},{"user_id":390,"name":"Qwerty","steam_id":76561198023525894,"connected_time":138000000000,"state":"active","ping":92},{"user_id":348,"name":"hipster_doofus","steam_id":76561197970902697,"connected_time":4572000000000,"state":"active","ping":55},{"user_id":384,"name":"cuddle","steam_id":76561198805181599,"connected_time":925000000000,"state":"active","ping":46},{"user_id":357,"name":"Ricey","steam_id":76561198832961307,"connected_time":4163000000000,"state":"active","ping":46},{"user_id":388,"name":"Romultra","steam_id":76561198354105082,"connected_time":530000000000,"state":"active","ping":47},{"user_id":326,"name":"Paper","steam_id":76561199037749675,"connected_time":6114000000000,"state":"active","ping":29},{"user_id":364,"name":"jermany","steam_id":76561198126599355,"connected_time":2589000000000,"state":"active","ping":27},{"user_id":354,"name":"killer of noob, winner of game","steam_id":76561198190583242,"connected_time":4275000000000,"state":"active","ping":76},{"user_id":304,"name":"lillunya ♡","steam_id":76561198330418866,"connected_time":7109000000000,"state":"active","ping":69}]},{"server_id":114,"name":"Uncletopia | London | 2 | All Maps","name_short":"lon-2","host":"lon-1.uk.uncletopia.com","port":27025,"enabled":true,"region":"eu","cc":"gb","latitude":51.509865,"longitude":-0.118092,"reserved":0,"last_update":"0001-01-01T00:00:00Z","name_a2s":"Uncletopia | London | 2 | All Maps","protocol":17,"map":"cp_snakewater_final1","folder":"tf","game":"Team Fortress","app_id":440,"player_count":24,"max_players":24,"Bots":0,"server_type":"Dedicated","server_os":"Linux","password":true,"vac":true,"version":"7961495","steam_id":85568392924470941,"keywords":["cp","nocrits","nodmgspread","uncletopia"],"game_id":440,"stv_port":27026,"stv_name":"Uncletopia | London | 2 | All Maps | STV","players":[{"user_id":374,"name":"𐂃","steam_id":76561198874987906,"connected_time":3279000000000,"state":"active","ping":64},{"user_id":281,"name":"Flying Squirrel","steam_id":76561198005202791,"connected_time":8635000000000,"state":"active","ping":72},{"user_id":385,"name":"mild amusement","steam_id":76561198274631806,"connected_time":2670000000000,"state":"active","ping":46},{"user_id":346,"name":"grassesmode.exe","steam_id":76561198090167960,"connected_time":4989000000000,"state":"active","ping":84},{"user_id":393,"name":"PashaVerti","steam_id":76561199013963024,"connected_time":1209000000000,"state":"active","ping":76},{"user_id":370,"name":"Prism","steam_id":76561198320524819,"connected_time":3357000000000,"state":"active","ping":74},{"user_id":384,"name":"LazyBane","steam_id":76561198032359132,"connected_time":2728000000000,"state":"active","ping":45},{"user_id":407,"name":"StabbyKnife","steam_id":76561198094010004,"connected_time":505000000000,"state":"active","ping":98},{"user_id":394,"name":"WHUSSKEY","steam_id":76561198137827441,"connected_time":1182000000000,"state":"active","ping":79},{"user_id":401,"name":"darkracers","steam_id":76561198113192625,"connected_time":1079000000000,"state":"active","ping":56},{"user_id":392,"name":"Witor","steam_id":76561198127584681,"connected_time":1695000000000,"state":"active","ping":76},{"user_id":353,"name":"le epic potato","steam_id":76561198053088822,"connected_time":4424000000000,"state":"active","ping":48},{"user_id":324,"name":"dash.","steam_id":76561198084796149,"connected_time":5946000000000,"state":"active","ping":48},{"user_id":355,"name":"PANAANI","steam_id":76561198322322739,"connected_time":4369000000000,"state":"active","ping":90},{"user_id":390,"name":"TheAutisticGamer","steam_id":76561198137828769,"connected_time":2094000000000,"state":"active","ping":61},{"user_id":386,"name":"Anton Stormbreaker","steam_id":76561198041426778,"connected_time":2670000000000,"state":"active","ping":95},{"user_id":405,"name":"Pfnic","steam_id":76561198157727407,"connected_time":759000000000,"state":"active","ping":84},{"user_id":388,"name":"Oldworldjazz","steam_id":76561198184632645,"connected_time":2653000000000,"state":"active","ping":101},{"user_id":408,"name":"Spagett spook victim","steam_id":76561198124177844,"connected_time":470000000000,"state":"active","ping":55},{"user_id":297,"name":"just_adhenz1284 #SaveTF2","steam_id":76561198293654671,"connected_time":7851000000000,"state":"active","ping":159},{"user_id":398,"name":"Ozzie","steam_id":76561197992915315,"connected_time":1167000000000,"state":"active","ping":63},{"user_id":406,"name":"shirtokiya","steam_id":76561198963599425,"connected_time":635000000000,"state":"active","ping":64},{"user_id":363,"name":"zek","steam_id":76561198862763731,"connected_time":4219000000000,"state":"active","ping":64},{"user_id":403,"name":"[IX] KamilaCity","steam_id":76561198854358215,"connected_time":937000000000,"state":"active","ping":60}]},{"server_id":320,"name":"Uncletopia | London | 3 | All Maps","name_short":"lon-3","host":"lon-1.uk.uncletopia.com","port":27035,"enabled":true,"region":"eu","cc":"gb","latitude":51.509865,"longitude":-0.118092,"reserved":0,"last_update":"0001-01-01T00:00:00Z","name_a2s":"Uncletopia | London | 3 | All Maps","protocol":17,"map":"pl_pier","folder":"tf","game":"Team Fortress","app_id":440,"player_count":24,"max_players":24,"Bots":0,"server_type":"Dedicated","server_os":"Linux","password":true,"vac":true,"version":"7961495","steam_id":85568392924510192,"keywords":["nocrits","nodmgspread","payload","uncletopia"],"game_id":440,"stv_port":27036,"stv_name":"Uncletopia | London | 3 | All Maps | STV","players":[{"user_id":286,"name":"Krabs","steam_id":76561198161679477,"connected_time":487000000000,"state":"active","ping":46},{"user_id":287,"name":"VibeCat22","steam_id":76561199248330295,"connected_time":484000000000,"state":"active","ping":51},{"user_id":246,"name":"basedgod","steam_id":76561198313835012,"connected_time":3382000000000,"state":"active","ping":63},{"user_id":288,"name":"Rohnus","steam_id":76561198074049934,"connected_time":482000000000,"state":"active","ping":59},{"user_id":289,"name":"[FP] Shiken","steam_id":76561198257905663,"connected_time":382000000000,"state":"active","ping":60},{"user_id":279,"name":"Pvt. Prinny","steam_id":76561198030278562,"connected_time":1242000000000,"state":"active","ping":44},{"user_id":266,"name":"caramel❤","steam_id":76561198819353867,"connected_time":1990000000000,"state":"active","ping":33},{"user_id":290,"name":"Beep","steam_id":76561198120500488,"connected_time":376000000000,"state":"active","ping":54},{"user_id":280,"name":"Dan Dan the Furious","steam_id":76561198091032527,"connected_time":1239000000000,"state":"active","ping":54},{"user_id":274,"name":"Shourai","steam_id":76561198201192634,"connected_time":1807000000000,"state":"active","ping":37},{"user_id":294,"name":"SirNeeco \u003c3","steam_id":76561198103014203,"connected_time":252000000000,"state":"active","ping":72},{"user_id":273,"name":"medicinal man","steam_id":76561198202668788,"connected_time":1822000000000,"state":"active","ping":72},{"user_id":291,"name":"[FP] Rune","steam_id":76561198030842879,"connected_time":372000000000,"state":"active","ping":44},{"user_id":228,"name":"paypig","steam_id":76561198035137115,"connected_time":4567000000000,"state":"active","ping":50},{"user_id":261,"name":"Scobra","steam_id":76561198000734400,"connected_time":2596000000000,"state":"active","ping":118},{"user_id":268,"name":"Fran","steam_id":76561199070516960,"connected_time":1981000000000,"state":"active","ping":70},{"user_id":300,"name":"Shoeman","steam_id":76561198126726364,"connected_time":3000000000,"state":"spawning","ping":37},{"user_id":293,"name":"Hugee  くコ:彡","steam_id":76561198245495152,"connected_time":334000000000,"state":"active","ping":61},{"user_id":296,"name":"God Emperor of Mankind","steam_id":76561198300869935,"connected_time":188000000000,"state":"active","ping":50},{"user_id":297,"name":"InsectKing","steam_id":76561199013519071,"connected_time":147000000000,"state":"active","ping":43},{"user_id":298,"name":"Maron Tickles","steam_id":76561199125982967,"connected_time":31000000000,"state":"active","ping":138},{"user_id":281,"name":"flr","steam_id":76561198249327786,"connected_time":1231000000000,"state":"active","ping":67},{"user_id":299,"name":"a regular cat","steam_id":76561198164675078,"connected_time":18000000000,"state":"active","ping":60},{"user_id":210,"name":"Snowmotion","steam_id":76561198075022454,"connected_time":5843000000000,"state":"active","ping":73}]},{"server_id":321,"name":"Uncletopia | London | 4 | All Maps","name_short":"lon-4","host":"lon-1.uk.uncletopia.com","port":27045,"enabled":true,"region":"eu","cc":"gb","latitude":51.509865,"longitude":-0.118092,"reserved":0,"last_update":"0001-01-01T00:00:00Z","name_a2s":"Uncletopia | London | 4 | All Maps","protocol":17,"map":"pl_badwater","folder":"tf","game":"Team Fortress","app_id":440,"player_count":23,"max_players":24,"Bots":0,"server_type":"Dedicated","server_os":"Linux","password":true,"vac":true,"version":"7961495","steam_id":85568392924510193,"keywords":["nocrits","nodmgspread","payload","uncletopia"],"game_id":440,"stv_port":27046,"stv_name":"Uncletopia | London | 4 | All Maps | STV","players":[{"user_id":111,"name":"free back real estate","steam_id":76561197999437155,"connected_time":218000000000,"state":"active","ping":54},{"user_id":107,"name":"Joe","steam_id":76561198061717026,"connected_time":339000000000,"state":"active","ping":45},{"user_id":99,"name":"Mangal_","steam_id":76561198076089589,"connected_time":1000000000000,"state":"active","ping":114},{"user_id":109,"name":"Acekeni™ ∤ [GMD]","steam_id":76561198352700499,"connected_time":256000000000,"state":"active","ping":88},{"user_id":77,"name":"pro pates","steam_id":76561198089560908,"connected_time":2657000000000,"state":"active","ping":104},{"user_id":85,"name":"Keho","steam_id":76561198087962709,"connected_time":2338000000000,"state":"active","ping":76},{"user_id":74,"name":"Jyghc","steam_id":76561198405980575,"connected_time":2695000000000,"state":"active","ping":67},{"user_id":47,"name":"zazuza","steam_id":76561198049820905,"connected_time":4761000000000,"state":"active","ping":80},{"user_id":100,"name":"First_Legion","steam_id":76561198056848127,"connected_time":947000000000,"state":"active","ping":126},{"user_id":104,"name":"Duxxy","steam_id":76561198086796116,"connected_time":387000000000,"state":"active","ping":85},{"user_id":97,"name":".mostech","steam_id":76561198180506521,"connected_time":1263000000000,"state":"active","ping":90},{"user_id":113,"name":"Vonacht","steam_id":76561198016033944,"connected_time":37000000000,"state":"active","ping":60},{"user_id":79,"name":"twitch.tv/vision515","steam_id":76561198065293729,"connected_time":2599000000000,"state":"active","ping":174},{"user_id":114,"name":"TheAnonymeKiller","steam_id":76561198190680978,"connected_time":2000000000,"state":"spawning","ping":41},{"user_id":43,"name":"Pipp Petals2014","steam_id":76561198147668373,"connected_time":4955000000000,"state":"active","ping":70},{"user_id":44,"name":"Chicoboi","steam_id":76561198109855177,"connected_time":4949000000000,"state":"active","ping":75},{"user_id":94,"name":"iswaxan","steam_id":76561199214988157,"connected_time":1708000000000,"state":"active","ping":82},{"user_id":80,"name":"The man from the window","steam_id":76561198055949151,"connected_time":2586000000000,"state":"active","ping":50},{"user_id":102,"name":"Octomal800","steam_id":76561199453595616,"connected_time":899000000000,"state":"active","ping":128},{"user_id":110,"name":"Acanda","steam_id":76561198123246537,"connected_time":251000000000,"state":"active","ping":58},{"user_id":112,"name":"obi","steam_id":76561198040154461,"connected_time":164000000000,"state":"active","ping":74},{"user_id":58,"name":"Caramel","steam_id":76561198021214844,"connected_time":4010000000000,"state":"active","ping":46},{"user_id":59,"name":"Gent","steam_id":76561198037167890,"connected_time":3969000000000,"state":"active","ping":76}]},{"server_id":21,"name":"Uncletopia | London | 5 | All Maps","name_short":"lon-5","host":"lon-1.uk.uncletopia.com","port":27055,"enabled":true,"region":"eu","cc":"gb","latitude":51.509865,"longitude":-0.118092,"reserved":0,"last_update":"0001-01-01T00:00:00Z","name_a2s":"Uncletopia | London | 5 | All Maps","protocol":17,"map":"cp_snakewater_final1","folder":"tf","game":"Team Fortress","app_id":440,"player_count":7,"max_players":24,"Bots":0,"server_type":"Dedicated","server_os":"Linux","password":true,"vac":true,"version":"7961495","steam_id":85568392924742829,"keywords":["cp","nocrits","nodmgspread","uncletopia"],"game_id":440,"stv_port":27056,"stv_name":"Uncletopia | London | 5 | All Maps | STV","players":[{"user_id":40,"name":"plays tation 3","steam_id":76561198885548458,"connected_time":37000000000,"state":"spawning","ping":88},{"user_id":37,"name":"bluecheesemints","steam_id":76561199490357988,"connected_time":565000000000,"state":"active","ping":57},{"user_id":26,"name":"Goblin Tinkerer","steam_id":76561199195214616,"connected_time":1611000000000,"state":"active","ping":52},{"user_id":27,"name":"Ascended Noob","steam_id":76561198079411460,"connected_time":1598000000000,"state":"active","ping":54},{"user_id":28,"name":"Zx.kk","steam_id":76561199223724162,"connected_time":1570000000000,"state":"active","ping":68},{"user_id":39,"name":"BoPoe","steam_id":76561198093333882,"connected_time":98000000000,"state":"active","ping":104},{"user_id":36,"name":"Mobster Tortoise","steam_id":76561199036837091,"connected_time":724000000000,"state":"active","ping":85}]},{"server_id":22,"name":"Uncletopia | London | 6 | All Maps","name_short":"lon-6","host":"lon-1.uk.uncletopia.com","port":27065,"enabled":true,"region":"eu","cc":"gb","latitude":51.509865,"longitude":-0.118092,"reserved":0,"last_update":"0001-01-01T00:00:00Z","name_a2s":"Uncletopia | London | 6 | All Maps","protocol":17,"map":"pl_barnblitz","folder":"tf","game":"Team Fortress","app_id":440,"player_count":24,"max_players":24,"Bots":0,"server_type":"Dedicated","server_os":"Linux","password":true,"vac":true,"version":"7961495","steam_id":85568392924742830,"keywords":["nocrits","nodmgspread","payload","uncletopia"],"game_id":440,"stv_port":27066,"stv_name":"Uncletopia | London | 6 | All Maps | STV","players":[{"user_id":124,"name":"⸸aura⸸","steam_id":76561198066258544,"connected_time":2307000000000,"state":"active","ping":61},{"user_id":123,"name":"Big Ego Computer-man","steam_id":76561198087399629,"connected_time":2393000000000,"state":"active","ping":75},{"user_id":154,"name":"p8ps","steam_id":76561199137042715,"connected_time":25000000000,"state":"active","ping":149},{"user_id":111,"name":"Kinas","steam_id":76561198084438097,"connected_time":4217000000000,"state":"active","ping":116},{"user_id":125,"name":"HazelForest","steam_id":76561198171827033,"connected_time":2296000000000,"state":"active","ping":54},{"user_id":126,"name":"TimTims","steam_id":76561198065130373,"connected_time":2226000000000,"state":"active","ping":61},{"user_id":136,"name":"The Engineer","steam_id":76561199437330739,"connected_time":1908000000000,"state":"active","ping":66},{"user_id":108,"name":"ShadowTwin","steam_id":76561198046658200,"connected_time":4346000000000,"state":"active","ping":287},{"user_id":128,"name":"Jan ジャン","steam_id":76561198030180053,"connected_time":2104000000000,"state":"active","ping":88},{"user_id":146,"name":"Fatfish","steam_id":76561198989947321,"connected_time":1053000000000,"state":"active","ping":61},{"user_id":129,"name":"zayd","steam_id":76561198895235231,"connected_time":2021000000000,"state":"active","ping":50},{"user_id":105,"name":"mixxxa_french","steam_id":76561198085098243,"connected_time":4836000000000,"state":"active","ping":121},{"user_id":153,"name":"0-D","steam_id":76561198073319628,"connected_time":264000000000,"state":"active","ping":60},{"user_id":121,"name":"hr.morgaes","steam_id":76561197998085134,"connected_time":2508000000000,"state":"active","ping":86},{"user_id":141,"name":"HeavyMettleDick","steam_id":76561198001925087,"connected_time":1553000000000,"state":"active","ping":145},{"user_id":147,"name":"RLCrazyCat3","steam_id":76561197983757878,"connected_time":1027000000000,"state":"active","ping":57},{"user_id":149,"name":"Hyperion","steam_id":76561198043716162,"connected_time":956000000000,"state":"active","ping":59},{"user_id":143,"name":"Kelly","steam_id":76561198118161493,"connected_time":1498000000000,"state":"active","ping":68},{"user_id":150,"name":"Remenos","steam_id":76561198029337778,"connected_time":950000000000,"state":"active","ping":98},{"user_id":137,"name":"Open Salami","steam_id":76561198351223374,"connected_time":1903000000000,"state":"active","ping":77},{"user_id":145,"name":"Mister","steam_id":76561199049647854,"connected_time":1405000000000,"state":"active","ping":45},{"user_id":151,"name":"Lukas","steam_id":76561198009118452,"connected_time":936000000000,"state":"active","ping":66},{"user_id":142,"name":"The Sex Defender","steam_id":76561198165732391,"connected_time":1533000000000,"state":"active","ping":85},{"user_id":117,"name":"transgender e-girl","steam_id":76561198168589809,"connected_time":3303000000000,"state":"active","ping":57}]},{"server_id":40,"name":"Uncletopia | London | 7 | Stopwatch","name_short":"lon-7","host":"lon-1.uk.uncletopia.com","port":27075,"enabled":true,"region":"eu","cc":"gb","latitude":51.509865,"longitude":-0.118092,"reserved":0,"last_update":"0001-01-01T00:00:00Z","name_a2s":"Uncletopia | London | 7 | Stopwatch","protocol":17,"map":"koth_highpass","folder":"tf","game":"Team Fortress","app_id":440,"player_count":24,"max_players":24,"Bots":0,"server_type":"Dedicated","server_os":"Linux","password":true,"vac":true,"version":"7961495","steam_id":85568392924964314,"keywords":["cp","nocrits","nodmgspread","uncletopia"],"game_id":440,"stv_port":27076,"stv_name":"Uncletopia | London | 7 | Stopwatch | STV","players":[{"user_id":72,"name":"Sam","steam_id":76561197990825636,"connected_time":686000000000,"state":"active","ping":59},{"user_id":73,"name":"3L","steam_id":76561198007208996,"connected_time":609000000000,"state":"active","ping":53},{"user_id":77,"name":"halorreclaimer(PC)","steam_id":76561199230287999,"connected_time":353000000000,"state":"active","ping":52},{"user_id":46,"name":"lipaul777","steam_id":76561199090751367,"connected_time":1968000000000,"state":"active","ping":69},{"user_id":76,"name":"Tá prátaí go maith","steam_id":76561198372536459,"connected_time":455000000000,"state":"active","ping":50},{"user_id":80,"name":"Thaigrr_-","steam_id":76561198075599870,"connected_time":87000000000,"state":"active","ping":41},{"user_id":69,"name":"wG papi coolines","steam_id":76561198075312767,"connected_time":883000000000,"state":"active","ping":44},{"user_id":68,"name":"Project Negroid","steam_id":76561198120176618,"connected_time":943000000000,"state":"active","ping":86},{"user_id":70,"name":"wG auto","steam_id":76561198062247888,"connected_time":871000000000,"state":"active","ping":51},{"user_id":62,"name":"papaja","steam_id":76561199216208960,"connected_time":1169000000000,"state":"active","ping":92},{"user_id":52,"name":"Futatsuiwa Mamizou","steam_id":76561198799303596,"connected_time":1630000000000,"state":"active","ping":110},{"user_id":25,"name":"TaiFaitter","steam_id":76561198844647170,"connected_time":3660000000000,"state":"active","ping":85},{"user_id":55,"name":"rets_","steam_id":76561198061551392,"connected_time":1462000000000,"state":"active","ping":63},{"user_id":56,"name":"TheEmeraldStar","steam_id":76561198072942529,"connected_time":1397000000000,"state":"active","ping":72},{"user_id":71,"name":"wG Domo","steam_id":76561198056790920,"connected_time":833000000000,"state":"active","ping":50},{"user_id":58,"name":"F0RGTPR0X","steam_id":76561198037119829,"connected_time":1379000000000,"state":"active","ping":79},{"user_id":59,"name":"TheMightyOppressor","steam_id":76561198047461974,"connected_time":1373000000000,"state":"active","ping":47},{"user_id":74,"name":"Dr. Enforcicle (real)","steam_id":76561198964471859,"connected_time":608000000000,"state":"active","ping":144},{"user_id":75,"name":"Spongelica Slobblecoque","steam_id":76561198009072273,"connected_time":542000000000,"state":"active","ping":63},{"user_id":61,"name":"Egor Pomidor","steam_id":76561199175688390,"connected_time":1353000000000,"state":"active","ping":82},{"user_id":63,"name":"CuJIA_TPAHCJIuTA","steam_id":76561198149654361,"connected_time":1154000000000,"state":"active","ping":72},{"user_id":66,"name":"PerskuleBenener","steam_id":76561198156899375,"connected_time":1069000000000,"state":"active","ping":89},{"user_id":78,"name":"Jonkheervanflep","steam_id":76561198006853101,"connected_time":311000000000,"state":"active","ping":64},{"user_id":79,"name":"average ihop fan","steam_id":76561199211965103,"connected_time":274000000000,"state":"active","ping":119}]},{"server_id":41,"name":"Uncletopia | London | 8 | Community","name_short":"lon-8","host":"lon-1.uk.uncletopia.com","port":27085,"enabled":true,"region":"eu","cc":"gb","latitude":51.509865,"longitude":-0.118092,"reserved":0,"last_update":"0001-01-01T00:00:00Z","name_a2s":"Uncletopia | London | 8 | Community","protocol":17,"map":"workshop/koth_trenchfoot_b1a.ugc731436616","folder":"tf","game":"Team Fortress","app_id":440,"player_count":0,"max_players":24,"Bots":0,"server_type":"Dedicated","server_os":"Linux","password":true,"vac":true,"version":"7961495","steam_id":85568392924964315,"keywords":["cp","nocrits","nodmgspread","uncletopia"],"game_id":440,"stv_port":27086,"stv_name":"Uncletopia | London | 8 | Community | STV","players":null},{"server_id":300,"name":"Uncletopia | Montréal | 1 | One Thousand Uncles","name_short":"mtl-1","host":"mtl-1.ca.uncletopia.com","port":27015,"enabled":true,"region":"us-east","cc":"ca","latitude":45.50889,"longitude":-73.56167,"reserved":0,"last_update":"0001-01-01T00:00:00Z","name_a2s":"","protocol":0,"map":"","folder":"","game":"","app_id":0,"player_count":0,"max_players":0,"Bots":0,"server_type":"","server_os":"","password":false,"vac":false,"version":"","steam_id":0,"keywords":null,"game_id":0,"stv_port":0,"stv_name":"","players":null},{"server_id":301,"name":"Uncletopia | Montréal | 2 | One Thousand Uncles","name_short":"mtl-2","host":"mtl-1.ca.uncletopia.com","port":27025,"enabled":true,"region":"us-east","cc":"ca","latitude":45.50889,"longitude":-73.56167,"reserved":0,"last_update":"0001-01-01T00:00:00Z","name_a2s":"","protocol":0,"map":"","folder":"","game":"","app_id":0,"player_count":0,"max_players":0,"Bots":0,"server_type":"","server_os":"","password":false,"vac":false,"version":"","steam_id":0,"keywords":null,"game_id":0,"stv_port":0,"stv_name":"","players":null},{"server_id":302,"name":"Uncletopia | Montréal | 3 | One Thousand Uncles","name_short":"mtl-3","host":"mtl-1.ca.uncletopia.com","port":27035,"enabled":true,"region":"us-east","cc":"ca","latitude":45.50889,"longitude":-73.56167,"reserved":0,"last_update":"0001-01-01T00:00:00Z","name_a2s":"","protocol":0,"map":"","folder":"","game":"","app_id":0,"player_count":12,"max_players":0,"Bots":0,"server_type":"","server_os":"","password":false,"vac":false,"version":"","steam_id":0,"keywords":null,"game_id":0,"stv_port":0,"stv_name":"","players":[{"user_id":197,"name":"Mysterious Stranger","steam_id":76561198027779564,"connected_time":1347000000000,"state":"active","ping":65},{"user_id":195,"name":"manbearswineflu","steam_id":76561198083945137,"connected_time":1558000000000,"state":"active","ping":70},{"user_id":161,"name":"Yep","steam_id":76561198041437251,"connected_time":5572000000000,"state":"active","ping":60},{"user_id":196,"name":"do you remember poptropica?","steam_id":76561199025227085,"connected_time":1489000000000,"state":"active","ping":55},{"user_id":175,"name":"neo :)","steam_id":76561199092954930,"connected_time":2029000000000,"state":"active","ping":51},{"user_id":199,"name":"ATL1 | Krissy","steam_id":76561197960848174,"connected_time":1220000000000,"state":"active","ping":58},{"user_id":165,"name":"Lois","steam_id":76561199386119444,"connected_time":3930000000000,"state":"active","ping":77},{"user_id":166,"name":"oinkpig234","steam_id":76561198883733811,"connected_time":3826000000000,"state":"active","ping":90},{"user_id":167,"name":"Ubuntu Phone","steam_id":76561198008110407,"connected_time":3756000000000,"state":"active","ping":62},{"user_id":206,"name":"DogeEatMeat","steam_id":76561199051212534,"connected_time":49000000000,"state":"spawning","ping":85},{"user_id":177,"name":"EliminateSingleFamilyZoning","steam_id":76561198276653985,"connected_time":1891000000000,"state":"active","ping":58},{"user_id":178,"name":"Jake_Spencer","steam_id":76561198025176750,"connected_time":1703000000000,"state":"active","ping":84}]},{"server_id":13,"name":"Uncletopia | New York City | 1 | All Maps","name_short":"nyc-1","host":"nyc-1.us.uncletopia.com","port":27015,"enabled":true,"region":"us-east","cc":"us","latitude":40.73061,"longitude":-73.93524,"reserved":0,"last_update":"0001-01-01T00:00:00Z","name_a2s":"Uncletopia | New York City | 1 | All Maps","protocol":17,"map":"pl_frontier_final","folder":"tf","game":"Team Fortress","app_id":440,"player_count":24,"max_players":24,"Bots":0,"server_type":"Dedicated","server_os":"Linux","password":true,"vac":true,"version":"7961495","steam_id":85568392924469993,"keywords":["nocrits","nodmgspread","payload","uncletopia"],"game_id":440,"stv_port":27016,"stv_name":"Uncletopia | New York City | 1 | All Maps | STV","players":[{"user_id":79,"name":"GallowPole","steam_id":76561198045903539,"connected_time":608000000000,"state":"active","ping":65},{"user_id":75,"name":"AliceTF2","steam_id":76561199163341339,"connected_time":784000000000,"state":"active","ping":179},{"user_id":38,"name":"freehealthcare","steam_id":76561198800102297,"connected_time":2104000000000,"state":"active","ping":57},{"user_id":62,"name":"Flowers","steam_id":76561198031669899,"connected_time":1212000000000,"state":"active","ping":66},{"user_id":71,"name":"Hunt0rb","steam_id":76561198120527608,"connected_time":870000000000,"state":"active","ping":70},{"user_id":76,"name":"BOB","steam_id":76561198000787196,"connected_time":749000000000,"state":"active","ping":152},{"user_id":80,"name":"Cla1rv0yant","steam_id":76561198073841803,"connected_time":565000000000,"state":"active","ping":53},{"user_id":81,"name":"dj magdogrozen","steam_id":76561198984131011,"connected_time":544000000000,"state":"active","ping":63},{"user_id":68,"name":"Shroomie","steam_id":76561198806430447,"connected_time":1044000000000,"state":"active","ping":78},{"user_id":67,"name":"Spawn room medic","steam_id":76561198137744600,"connected_time":1053000000000,"state":"active","ping":147},{"user_id":69,"name":"ElPeach","steam_id":76561198845008687,"connected_time":994000000000,"state":"active","ping":66},{"user_id":77,"name":"god's wrath upon earth","steam_id":76561198873532820,"connected_time":683000000000,"state":"active","ping":69},{"user_id":90,"name":"--_Cook_--","steam_id":76561198080855748,"connected_time":436000000000,"state":"active","ping":55},{"user_id":74,"name":"Mkwhackertracker","steam_id":76561198128343704,"connected_time":820000000000,"state":"active","ping":83},{"user_id":32,"name":"Argo","steam_id":76561198353725622,"connected_time":2340000000000,"state":"active","ping":73},{"user_id":78,"name":"JustWarden","steam_id":76561198196343730,"connected_time":616000000000,"state":"active","ping":65},{"user_id":86,"name":"Raptorria","steam_id":76561198105613110,"connected_time":477000000000,"state":"active","ping":62},{"user_id":83,"name":"A Puppy","steam_id":76561198828184456,"connected_time":511000000000,"state":"active","ping":46},{"user_id":84,"name":"Tags3","steam_id":76561198115926329,"connected_time":509000000000,"state":"active","ping":69},{"user_id":85,"name":"ZodiacThundaga","steam_id":76561199025117814,"connected_time":484000000000,"state":"active","ping":81},{"user_id":87,"name":"YOU WHAT?!","steam_id":76561198418679471,"connected_time":475000000000,"state":"active","ping":59},{"user_id":91,"name":"GunManWIllSTabYou#SaveTf2","steam_id":76561199045277311,"connected_time":333000000000,"state":"active","ping":65},{"user_id":53,"name":"Donkski","steam_id":76561198406895347,"connected_time":1823000000000,"state":"active","ping":85},{"user_id":89,"name":"abom","steam_id":76561198167974713,"connected_time":471000000000,"state":"active","ping":70}]},{"server_id":14,"name":"Uncletopia | New York City | 2 | All Maps","name_short":"nyc-2","host":"nyc-1.us.uncletopia.com","port":27025,"enabled":true,"region":"us-east","cc":"us","latitude":40.73061,"longitude":-73.93524,"reserved":0,"last_update":"0001-01-01T00:00:00Z","name_a2s":"Uncletopia | New York City | 2 | All Maps","protocol":17,"map":"pl_barnblitz","folder":"tf","game":"Team Fortress","app_id":440,"player_count":24,"max_players":24,"Bots":0,"server_type":"Dedicated","server_os":"Linux","password":true,"vac":true,"version":"7961495","steam_id":85568392924469994,"keywords":["nocrits","nodmgspread","payload","uncletopia"],"game_id":440,"stv_port":27026,"stv_name":"Uncletopia | New York City | 2 | All Maps | STV","players":[{"user_id":181,"name":"Terminally Online Weeb [Dexgod]","steam_id":76561198017130786,"connected_time":1381000000000,"state":"active","ping":65},{"user_id":186,"name":"Robert","steam_id":76561198133200895,"connected_time":713000000000,"state":"active","ping":74},{"user_id":195,"name":"Poi","steam_id":76561198176914898,"connected_time":262000000000,"state":"active","ping":85},{"user_id":174,"name":"F2P Rights Activist","steam_id":76561199012786293,"connected_time":1882000000000,"state":"active","ping":87},{"user_id":190,"name":"fiddlesticks","steam_id":76561198174428289,"connected_time":471000000000,"state":"active","ping":90},{"user_id":197,"name":"Chris P. Bacon","steam_id":76561198000851038,"connected_time":122000000000,"state":"active","ping":61},{"user_id":191,"name":"karate guy","steam_id":76561198073269122,"connected_time":434000000000,"state":"active","ping":45},{"user_id":192,"name":"InfernoBane","steam_id":76561197997742994,"connected_time":384000000000,"state":"active","ping":75},{"user_id":134,"name":"Ziath","steam_id":76561198094009164,"connected_time":5485000000000,"state":"active","ping":44},{"user_id":128,"name":"Vaun","steam_id":76561198034075317,"connected_time":6017000000000,"state":"active","ping":100},{"user_id":193,"name":"Tohbeh","steam_id":76561198191173883,"connected_time":377000000000,"state":"active","ping":110},{"user_id":89,"name":"Broadsword #LGM","steam_id":76561198011160411,"connected_time":9252000000000,"state":"active","ping":79},{"user_id":187,"name":"EggDroop","steam_id":76561198129588301,"connected_time":682000000000,"state":"active","ping":67},{"user_id":168,"name":"Bandit","steam_id":76561198328421159,"connected_time":2119000000000,"state":"active","ping":55},{"user_id":179,"name":"cactail","steam_id":76561198238898732,"connected_time":1520000000000,"state":"active","ping":63},{"user_id":188,"name":"GX thedittoguy","steam_id":76561199013129784,"connected_time":503000000000,"state":"active","ping":83},{"user_id":182,"name":"You Don't Nomi.","steam_id":76561197969137836,"connected_time":1088000000000,"state":"active","ping":47},{"user_id":170,"name":"Shark","steam_id":76561198219031981,"connected_time":2071000000000,"state":"active","ping":84},{"user_id":194,"name":"MjrMovnTARGET","steam_id":76561199125908849,"connected_time":353000000000,"state":"active","ping":58},{"user_id":196,"name":"HeartsBoxcar","steam_id":76561197989851953,"connected_time":260000000000,"state":"active","ping":80},{"user_id":160,"name":"MeKaso TropStar","steam_id":76561199109895840,"connected_time":2964000000000,"state":"active","ping":54},{"user_id":171,"name":"Wilma","steam_id":76561198138420251,"connected_time":2037000000000,"state":"active","ping":87},{"user_id":172,"name":"1973 Honda Civic","steam_id":76561198366360104,"connected_time":1994000000000,"state":"active","ping":65},{"user_id":173,"name":"Punished Kong","steam_id":76561198973620882,"connected_time":1981000000000,"state":"active","ping":76}]},{"server_id":15,"name":"Uncletopia | New York City | 3 | Stopwatch","name_short":"nyc-3","host":"nyc-1.us.uncletopia.com","port":27035,"enabled":true,"region":"us-east","cc":"us","latitude":40.73061,"longitude":-73.93524,"reserved":0,"last_update":"0001-01-01T00:00:00Z","name_a2s":"Uncletopia | New York City | 3 | Stopwatch","protocol":17,"map":"workshop/pl_badwater_pro_v12.ugc2142942074","folder":"tf","game":"Team Fortress","app_id":440,"player_count":0,"max_players":24,"Bots":0,"server_type":"Dedicated","server_os":"Linux","password":true,"vac":true,"version":"7961495","steam_id":85568392924742820,"keywords":["nocrits","nodmgspread","payload","uncletopia"],"game_id":440,"stv_port":27036,"stv_name":"Uncletopia | New York City | 3 | Stopwatch | STV","players":null},{"server_id":16,"name":"Uncletopia | New York City | 4 | Community","name_short":"nyc-4","host":"nyc-1.us.uncletopia.com","port":27045,"enabled":true,"region":"us-east","cc":"us","latitude":40.73061,"longitude":-73.93524,"reserved":0,"last_update":"0001-01-01T00:00:00Z","name_a2s":"Uncletopia | New York City | 4 | Community","protocol":17,"map":"workshop/koth_product_final.ugc454272353","folder":"tf","game":"Team Fortress","app_id":440,"player_count":0,"max_players":24,"Bots":0,"server_type":"Dedicated","server_os":"Linux","password":true,"vac":true,"version":"7961495","steam_id":85568392924742821,"keywords":["cp","nocrits","nodmgspread","uncletopia"],"game_id":440,"stv_port":27046,"stv_name":"Uncletopia | New York City | 4 | Community | STV","players":null},{"server_id":142,"name":"Uncletopia | São Paulo | 1 | All Maps","name_short":"sao-1","host":"sao-1.br.uncletopia.com","port":27015,"enabled":true,"region":"sa","cc":"br","latitude":-23.533773,"longitude":-46.62529,"reserved":0,"last_update":"0001-01-01T00:00:00Z","name_a2s":"Uncletopia | São Paulo | 1 | All Maps","protocol":17,"map":"koth_lakeside_final","folder":"tf","game":"Team Fortress","app_id":440,"player_count":0,"max_players":24,"Bots":0,"server_type":"Dedicated","server_os":"Linux","password":true,"vac":true,"version":"7961495","steam_id":85568392924469996,"keywords":["cp","nocrits","nodmgspread","uncletopia"],"game_id":440,"stv_port":27016,"stv_name":"Uncletopia | São Paulo | 1 | All Maps | STV","players":null},{"server_id":143,"name":"Uncletopia | São Paulo | 2 | Community","name_short":"sao-2","host":"sao-2.br.uncletopia.com","port":27015,"enabled":true,"region":"sa","cc":"br","latitude":-23.533773,"longitude":-46.62529,"reserved":0,"last_update":"0001-01-01T00:00:00Z","name_a2s":"Uncletopia | São Paulo | 2 | Community","protocol":17,"map":"workshop/pl_divulgence_b4b.ugc2884808746","folder":"tf","game":"Team Fortress","app_id":440,"player_count":0,"max_players":24,"Bots":0,"server_type":"Dedicated","server_os":"Linux","password":true,"vac":true,"version":"7961495","steam_id":85568392924485349,"keywords":["nocrits","nodmgspread","payload","uncletopia"],"game_id":440,"stv_port":27016,"stv_name":"Uncletopia | São Paulo | 2 | Community | STV","players":null},{"server_id":7,"name":"Uncletopia | Seattle | 1 | All Maps","name_short":"sea-1","host":"sea-1.us.uncletopia.com","port":27015,"enabled":true,"region":"us-west","cc":"us","latitude":47.608013,"longitude":-122.33517,"reserved":0,"last_update":"0001-01-01T00:00:00Z","name_a2s":"Uncletopia | Seattle | 1 | All Maps","protocol":17,"map":"pl_upward","folder":"tf","game":"Team Fortress","app_id":440,"player_count":24,"max_players":24,"Bots":0,"server_type":"Dedicated","server_os":"Linux","password":true,"vac":true,"version":"7961495","steam_id":85568392924469997,"keywords":["nocrits","nodmgspread","payload","uncletopia"],"game_id":440,"stv_port":27016,"stv_name":"Uncletopia | Seattle | 1 | All Maps | STV","players":[{"user_id":89,"name":"Cloud","steam_id":76561198272454184,"connected_time":8561000000000,"state":"active","ping":164},{"user_id":189,"name":"GgDionne","steam_id":76561198079684772,"connected_time":357000000000,"state":"active","ping":48},{"user_id":178,"name":"Little Linguine","steam_id":76561198816986370,"connected_time":1421000000000,"state":"active","ping":46},{"user_id":175,"name":"mizurush","steam_id":76561198039595304,"connected_time":1858000000000,"state":"active","ping":134},{"user_id":183,"name":"Dealer","steam_id":76561198801450794,"connected_time":823000000000,"state":"active","ping":78},{"user_id":127,"name":"DragonJimmy","steam_id":76561198272966565,"connected_time":6609000000000,"state":"active","ping":85},{"user_id":162,"name":"TheMagicMrWaffle","steam_id":76561198104357256,"connected_time":3933000000000,"state":"active","ping":60},{"user_id":173,"name":"Dimple #TF2Center","steam_id":76561198980324190,"connected_time":3098000000000,"state":"active","ping":48},{"user_id":187,"name":"HailedClown","steam_id":76561199225239977,"connected_time":625000000000,"state":"active","ping":66},{"user_id":181,"name":"✪ Y V E S","steam_id":76561198299479796,"connected_time":861000000000,"state":"active","ping":71},{"user_id":139,"name":"slushy :))","steam_id":76561198135281802,"connected_time":5531000000000,"state":"active","ping":31},{"user_id":184,"name":"green bean","steam_id":76561198113099204,"connected_time":811000000000,"state":"active","ping":57},{"user_id":177,"name":"Mr8bittripper","steam_id":76561198133894229,"connected_time":1493000000000,"state":"active","ping":45},{"user_id":168,"name":"hyazZaZa","steam_id":76561199100342013,"connected_time":3718000000000,"state":"active","ping":76},{"user_id":180,"name":"ilun","steam_id":76561198042913843,"connected_time":968000000000,"state":"active","ping":60},{"user_id":174,"name":"CashGordon","steam_id":76561197975594096,"connected_time":2004000000000,"state":"active","ping":44},{"user_id":182,"name":"Madeline (She/Her)","steam_id":76561198336551859,"connected_time":854000000000,"state":"active","ping":59},{"user_id":185,"name":"Derek aka Derek","steam_id":76561198085711254,"connected_time":773000000000,"state":"active","ping":101},{"user_id":165,"name":"SoldMyKidneyForCollege","steam_id":76561198096329559,"connected_time":3904000000000,"state":"active","ping":58},{"user_id":171,"name":"australian killstreak scattergu","steam_id":76561199488457138,"connected_time":3408000000000,"state":"active","ping":60},{"user_id":190,"name":"Greskrendtregk","steam_id":76561197969553142,"connected_time":344000000000,"state":"active","ping":53},{"user_id":188,"name":"peachy","steam_id":76561198028721790,"connected_time":384000000000,"state":"active","ping":60},{"user_id":179,"name":"Preston","steam_id":76561198255721392,"connected_time":1005000000000,"state":"active","ping":113},{"user_id":143,"name":"UserLeft","steam_id":76561197998297379,"connected_time":5323000000000,"state":"active","ping":62}]},{"server_id":119,"name":"Uncletopia | Seattle | 2 | All Maps","name_short":"sea-2","host":"sea-1.us.uncletopia.com","port":27025,"enabled":true,"region":"us-west","cc":"us","latitude":47.608013,"longitude":-122.33517,"reserved":0,"last_update":"0001-01-01T00:00:00Z","name_a2s":"Uncletopia | Seattle | 2 | All Maps","protocol":17,"map":"koth_viaduct","folder":"tf","game":"Team Fortress","app_id":440,"player_count":0,"max_players":24,"Bots":0,"server_type":"Dedicated","server_os":"Linux","password":true,"vac":true,"version":"7961495","steam_id":85568392924469998,"keywords":["cp","nocrits","nodmgspread","uncletopia"],"game_id":440,"stv_port":27026,"stv_name":"Uncletopia | Seattle | 2 | All Maps | STV","players":null},{"server_id":406,"name":"Uncletopia | Seattle | 3 | Stopwatch","name_short":"sea-3","host":"sea-1.us.uncletopia.com","port":27035,"enabled":true,"region":"us-west","cc":"us","latitude":47.608013,"longitude":-122.33517,"reserved":0,"last_update":"0001-01-01T00:00:00Z","name_a2s":"Uncletopia | Seattle | 3 | Stopwatch","protocol":17,"map":"cp_process_final","folder":"tf","game":"Team Fortress","app_id":440,"player_count":0,"max_players":24,"Bots":0,"server_type":"Dedicated","server_os":"Linux","password":true,"vac":true,"version":"7961495","steam_id":85568392924515217,"keywords":["cp","nocrits","nodmgspread","uncletopia"],"game_id":440,"stv_port":27036,"stv_name":"Uncletopia | Seattle | 3 | Stopwatch | STV","players":null},{"server_id":17,"name":"Uncletopia | San Francisco | 1 | All Maps","name_short":"sfo-1","host":"sfo-1.us.uncletopia.com","port":27015,"enabled":true,"region":"us-west","cc":"us","latitude":37.77397,"longitude":-122.4313,"reserved":0,"last_update":"0001-01-01T00:00:00Z","name_a2s":"Uncletopia | San Francisco | 1 | All Maps","protocol":17,"map":"pl_badwater","folder":"tf","game":"Team Fortress","app_id":440,"player_count":4,"max_players":24,"Bots":0,"server_type":"Dedicated","server_os":"Linux","password":true,"vac":true,"version":"7961495","steam_id":85568392924469999,"keywords":["nocrits","nodmgspread","payload","uncletopia"],"game_id":440,"stv_port":27016,"stv_name":"Uncletopia | San Francisco | 1 | All Maps | STV","players":[{"user_id":15,"name":"Finger","steam_id":76561199119799113,"connected_time":1504000000000,"state":"active","ping":64},{"user_id":16,"name":"Doppelgänger","steam_id":76561198036730436,"connected_time":1242000000000,"state":"active","ping":55},{"user_id":18,"name":"crowe","steam_id":76561198142185527,"connected_time":871000000000,"state":"active","ping":41},{"user_id":8,"name":"Qipo14","steam_id":76561199470028986,"connected_time":2127000000000,"state":"active","ping":77}]},{"server_id":18,"name":"Uncletopia | San Francisco | 2 | All Maps","name_short":"sfo-2","host":"sfo-1.us.uncletopia.com","port":27025,"enabled":true,"region":"us-west","cc":"us","latitude":37.77397,"longitude":-122.4313,"reserved":0,"last_update":"0001-01-01T00:00:00Z","name_a2s":"Uncletopia | San Francisco | 2 | All Maps","protocol":17,"map":"pl_frontier_final","folder":"tf","game":"Team Fortress","app_id":440,"player_count":0,"max_players":24,"Bots":0,"server_type":"Dedicated","server_os":"Linux","password":true,"vac":true,"version":"7961495","steam_id":85568392924470000,"keywords":["nocrits","nodmgspread","payload","uncletopia"],"game_id":440,"stv_port":27026,"stv_name":"Uncletopia | San Francisco | 2 | All Maps | STV","players":null},{"server_id":19,"name":"Uncletopia | San Francisco | 3 | Stopwatch","name_short":"sfo-3","host":"sfo-1.us.uncletopia.com","port":27035,"enabled":true,"region":"us-west","cc":"us","latitude":37.77397,"longitude":-122.4313,"reserved":0,"last_update":"0001-01-01T00:00:00Z","name_a2s":"Uncletopia | San Francisco | 3 | Stopwatch","protocol":17,"map":"pl_pier","folder":"tf","game":"Team Fortress","app_id":440,"player_count":0,"max_players":24,"Bots":0,"server_type":"Dedicated","server_os":"Linux","password":true,"vac":true,"version":"7961495","steam_id":85568392924742824,"keywords":["nocrits","nodmgspread","payload","uncletopia"],"game_id":440,"stv_port":27036,"stv_name":"Uncletopia | San Francisco | 3 | Stopwatch | STV","players":null},{"server_id":20,"name":"Uncletopia | San Francisco | 4 | Community","name_short":"sfo-4","host":"sfo-1.us.uncletopia.com","port":27045,"enabled":true,"region":"us-west","cc":"us","latitude":37.77397,"longitude":-122.4313,"reserved":0,"last_update":"0001-01-01T00:00:00Z","name_a2s":"Uncletopia | San Francisco | 4 | Community","protocol":17,"map":"pl_pier","folder":"tf","game":"Team Fortress","app_id":440,"player_count":0,"max_players":24,"Bots":0,"server_type":"Dedicated","server_os":"Linux","password":true,"vac":true,"version":"7961495","steam_id":85568392924742826,"keywords":["nocrits","nodmgspread","payload","uncletopia"],"game_id":440,"stv_port":27046,"stv_name":"Uncletopia | San Francisco | 4 | Community | STV","players":null},{"server_id":141,"name":"Uncletopia | Sydney | 1 | All Maps","name_short":"syd-1","host":"syd-1.au.uncletopia.com","port":27015,"enabled":true,"region":"au","cc":"au","latitude":-33.865143,"longitude":151.2099,"reserved":0,"last_update":"0001-01-01T00:00:00Z","name_a2s":"Uncletopia | Sydney | 1 | All Maps","protocol":17,"map":"pl_barnblitz","folder":"tf","game":"Team Fortress","app_id":440,"player_count":0,"max_players":24,"Bots":0,"server_type":"Dedicated","server_os":"Linux","password":true,"vac":true,"version":"7961495","steam_id":85568392924470001,"keywords":["nocrits","nodmgspread","payload","uncletopia"],"game_id":440,"stv_port":27016,"stv_name":"Uncletopia | Sydney | 1 | All Maps | STV","players":null},{"server_id":123,"name":"Uncletopia | Sydney | 2 | All Maps","name_short":"syd-2","host":"syd-1.au.uncletopia.com","port":27025,"enabled":true,"region":"au","cc":"au","latitude":-33.865143,"longitude":151.2099,"reserved":0,"last_update":"0001-01-01T00:00:00Z","name_a2s":"Uncletopia | Sydney | 2 | All Maps","protocol":17,"map":"pl_swiftwater_final1","folder":"tf","game":"Team Fortress","app_id":440,"player_count":0,"max_players":24,"Bots":0,"server_type":"Dedicated","server_os":"Linux","password":true,"vac":true,"version":"7961495","steam_id":85568392924470002,"keywords":["nocrits","nodmgspread","payload","uncletopia"],"game_id":440,"stv_port":27026,"stv_name":"Uncletopia | Sydney | 2 | All Maps | STV","players":null},{"server_id":395,"name":"Uncletopia | Sydney | 3 | All Maps","name_short":"syd-3","host":"syd-1.au.uncletopia.com","port":27035,"enabled":true,"region":"au","cc":"au","latitude":-33.865143,"longitude":151.2099,"reserved":0,"last_update":"0001-01-01T00:00:00Z","name_a2s":"Uncletopia | Sydney | 3 | All Maps","protocol":17,"map":"pl_borneo","folder":"tf","game":"Team Fortress","app_id":440,"player_count":0,"max_players":24,"Bots":0,"server_type":"Dedicated","server_os":"Linux","password":true,"vac":true,"version":"7961495","steam_id":85568392925194467,"keywords":["nocrits","nodmgspread","payload","uncletopia"],"game_id":440,"stv_port":27036,"stv_name":"Uncletopia | Sydney | 3 | All Maps | STV","players":null},{"server_id":396,"name":"Uncletopia | Sydney | 4 | All Maps","name_short":"syd-4","host":"syd-1.au.uncletopia.com","port":27045,"enabled":true,"region":"au","cc":"au","latitude":-33.865143,"longitude":151.2099,"reserved":0,"last_update":"0001-01-01T00:00:00Z","name_a2s":"Uncletopia | Sydney | 4 | All Maps","protocol":17,"map":"koth_lakeside_final","folder":"tf","game":"Team Fortress","app_id":440,"player_count":0,"max_players":24,"Bots":0,"server_type":"Dedicated","server_os":"Linux","password":true,"vac":true,"version":"7961495","steam_id":85568392925397958,"keywords":["cp","nocrits","nodmgspread","uncletopia"],"game_id":440,"stv_port":27046,"stv_name":"Uncletopia | Sydney | 4 | All Maps | STV","players":null},{"server_id":58,"name":"Uncletopia | Sydney | 5 | Stopwatch","name_short":"syd-5","host":"syd-1.au.uncletopia.com","port":27055,"enabled":true,"region":"au","cc":"au","latitude":-33.865143,"longitude":151.2099,"reserved":0,"last_update":"0001-01-01T00:00:00Z","name_a2s":"Uncletopia | Sydney | 5 | Stopwatch","protocol":17,"map":"workshop/cp_reckoner_rc6.ugc674719999","folder":"tf","game":"Team Fortress","app_id":440,"player_count":0,"max_players":24,"Bots":0,"server_type":"Dedicated","server_os":"Linux","password":true,"vac":true,"version":"7961495","steam_id":85568392925397959,"keywords":["cp","nocrits","nodmgspread","uncletopia"],"game_id":440,"stv_port":27056,"stv_name":"Uncletopia | Sydney | 5 | Stopwatch | STV","players":null},{"server_id":59,"name":"Uncletopia | Sydney | 6 | Community","name_short":"syd-6","host":"syd-1.au.uncletopia.com","port":27065,"enabled":true,"region":"au","cc":"au","latitude":-33.865143,"longitude":151.2099,"reserved":0,"last_update":"0001-01-01T00:00:00Z","name_a2s":"Uncletopia | Sydney | 6 | Community","protocol":17,"map":"workshop/pl_badwater_pro_v12.ugc2142942074","folder":"tf","game":"Team Fortress","app_id":440,"player_count":0,"max_players":24,"Bots":0,"server_type":"Dedicated","server_os":"Linux","password":true,"vac":true,"version":"7961495","steam_id":85568392925397960,"keywords":["nocrits","nodmgspread","payload","uncletopia"],"game_id":440,"stv_port":27066,"stv_name":"Uncletopia | Sydney | 6 | Community | STV","players":null},{"server_id":49,"name":"Uncletopia | Warsaw | 1 | One Thousand Uncles","name_short":"waw-1","host":"waw-1.pl.uncletopia.com","port":27015,"enabled":true,"region":"eu","cc":"pl","latitude":52.2297,"longitude":21.017532,"reserved":0,"last_update":"0001-01-01T00:00:00Z","name_a2s":"Uncletopia | Warsaw | 1 | One Thousand Uncles","protocol":17,"map":"cp_dustbowl","folder":"tf","game":"Team Fortress","app_id":440,"player_count":28,"max_players":32,"Bots":16,"server_type":"Dedicated","server_os":"Linux","password":true,"vac":true,"version":"7961495","steam_id":85568392925397850,"keywords":["alltalk","bots","cp","danepve","increased_maxplayers","nocrits","norespawntime","uncletopia"],"game_id":440,"stv_port":0,"stv_name":"","players":[{"user_id":419,"name":"A Blåhaj Fan","steam_id":76561199029212388,"connected_time":5694000000000,"state":"active","ping":34},{"user_id":435,"name":"WOW i'm dead","steam_id":76561199082267619,"connected_time":1360000000000,"state":"active","ping":73},{"user_id":426,"name":"?TheEnd","steam_id":76561198055280327,"connected_time":3779000000000,"state":"active","ping":57},{"user_id":437,"name":"Sisyphus","steam_id":76561198146194820,"connected_time":838000000000,"state":"active","ping":60},{"user_id":450,"name":"aberrato","steam_id":76561198047206994,"connected_time":761000000000,"state":"active","ping":90},{"user_id":434,"name":"Punk","steam_id":76561198268369013,"connected_time":1875000000000,"state":"active","ping":86},{"user_id":451,"name":"night.s","steam_id":76561198326287823,"connected_time":653000000000,"state":"active","ping":95},{"user_id":452,"name":"aolkdi","steam_id":76561198025479415,"connected_time":637000000000,"state":"active","ping":134},{"user_id":453,"name":"Crimson","steam_id":76561197987552332,"connected_time":540000000000,"state":"active","ping":57},{"user_id":454,"name":"Kacperos12","steam_id":76561198044168268,"connected_time":140000000000,"state":"active","ping":72},{"user_id":455,"name":"Dr. Sex","steam_id":76561198108056121,"connected_time":134000000000,"state":"active","ping":41},{"user_id":456,"name":"Whackyone5588","steam_id":76561198846242972,"connected_time":103000000000,"state":"active","ping":220}]},{"server_id":50,"name":"Uncletopia | Warsaw | 2 | One Thousand Uncles","name_short":"waw-2","host":"waw-1.pl.uncletopia.com","port":27025,"enabled":true,"region":"eu","cc":"pl","latitude":52.2297,"longitude":21.017532,"reserved":0,"last_update":"0001-01-01T00:00:00Z","name_a2s":"Uncletopia | Warsaw | 2 | One Thousand Uncles","protocol":17,"map":"pl_goldrush","folder":"tf","game":"Team Fortress","app_id":440,"player_count":17,"max_players":32,"Bots":16,"server_type":"Dedicated","server_os":"Linux","password":true,"vac":true,"version":"7961495","steam_id":85568392925397851,"keywords":["alltalk","bots","danepve","increased_maxplayers","nocrits","norespawntime","payload","uncletopia"],"game_id":440,"stv_port":0,"stv_name":"","players":[{"user_id":4,"name":"yusufkaanutkan","steam_id":76561199445549640,"connected_time":653000000000,"state":"active","ping":122}]},{"server_id":51,"name":"Uncletopia | Warsaw | 3 | All Maps","name_short":"waw-3","host":"waw-1.pl.uncletopia.com","port":27035,"enabled":true,"region":"eu","cc":"pl","latitude":52.2297,"longitude":21.017532,"reserved":0,"last_update":"0001-01-01T00:00:00Z","name_a2s":"Uncletopia | Warsaw | 3 | All Maps","protocol":17,"map":"pl_pier","folder":"tf","game":"Team Fortress","app_id":440,"player_count":18,"max_players":24,"Bots":0,"server_type":"Dedicated","server_os":"Linux","password":true,"vac":true,"version":"7961495","steam_id":85568392925397852,"keywords":["nocrits","nodmgspread","payload","uncletopia"],"game_id":440,"stv_port":27036,"stv_name":"Uncletopia | Warsaw | 3 | All Maps | STV","players":[{"user_id":100,"name":"sauli01","steam_id":76561198069149120,"connected_time":872000000000,"state":"active","ping":87},{"user_id":10,"name":"Lakki","steam_id":76561198137595103,"connected_time":6731000000000,"state":"active","ping":81},{"user_id":11,"name":"i am injury","steam_id":76561198276854922,"connected_time":6727000000000,"state":"active","ping":95},{"user_id":92,"name":"Stinktastic Nornia","steam_id":76561198040509712,"connected_time":1553000000000,"state":"active","ping":75},{"user_id":82,"name":"KirikoneG","steam_id":76561198075752272,"connected_time":2096000000000,"state":"active","ping":115},{"user_id":95,"name":"gagalak","steam_id":76561198089979108,"connected_time":1177000000000,"state":"active","ping":90},{"user_id":19,"name":"Average Gibus Enjoyer","steam_id":76561199410300277,"connected_time":6398000000000,"state":"active","ping":89},{"user_id":99,"name":"-TA- AITOTESTO","steam_id":76561198843742968,"connected_time":882000000000,"state":"active","ping":104},{"user_id":78,"name":"TheKees301","steam_id":76561198827506371,"connected_time":2236000000000,"state":"active","ping":83},{"user_id":35,"name":"CheesingBond","steam_id":76561198034939270,"connected_time":4628000000000,"state":"active","ping":105},{"user_id":101,"name":"Ye","steam_id":76561198354719262,"connected_time":832000000000,"state":"active","ping":55},{"user_id":61,"name":"Creative","steam_id":76561198835034247,"connected_time":3656000000000,"state":"active","ping":99},{"user_id":81,"name":"Lynx","steam_id":76561199274008207,"connected_time":2179000000000,"state":"active","ping":51},{"user_id":68,"name":"Bounty","steam_id":76561198032698137,"connected_time":3064000000000,"state":"active","ping":32},{"user_id":77,"name":"LOBZIK","steam_id":76561198114830120,"connected_time":2281000000000,"state":"active","ping":57},{"user_id":79,"name":"grigobno","steam_id":76561198037018719,"connected_time":2233000000000,"state":"active","ping":104},{"user_id":90,"name":"Alexair","steam_id":76561199022206498,"connected_time":1596000000000,"state":"active","ping":51},{"user_id":104,"name":"Baruu","steam_id":76561199130278220,"connected_time":201000000000,"state":"active","ping":59}]},{"server_id":52,"name":"Uncletopia | Warsaw | 4 | All Maps","name_short":"waw-4","host":"waw-1.pl.uncletopia.com","port":27045,"enabled":true,"region":"eu","cc":"pl","latitude":52.2297,"longitude":21.017532,"reserved":0,"last_update":"0001-01-01T00:00:00Z","name_a2s":"Uncletopia | Warsaw | 4 | All Maps","protocol":17,"map":"koth_cascade","folder":"tf","game":"Team Fortress","app_id":440,"player_count":0,"max_players":24,"Bots":0,"server_type":"Dedicated","server_os":"Linux","password":true,"vac":true,"version":"7961495","steam_id":85568392925397853,"keywords":["cp","nocrits","nodmgspread","uncletopia"],"game_id":440,"stv_port":27046,"stv_name":"Uncletopia | Warsaw | 4 | All Maps | STV","players":null},{"server_id":53,"name":"Uncletopia | Warsaw | 5 | Stopwatch","name_short":"waw-5","host":"waw-1.pl.uncletopia.com","port":27055,"enabled":true,"region":"eu","cc":"pl","latitude":52.2297,"longitude":21.017532,"reserved":0,"last_update":"0001-01-01T00:00:00Z","name_a2s":"Uncletopia | Warsaw | 5 | Stopwatch","protocol":17,"map":"pl_upward","folder":"tf","game":"Team Fortress","app_id":440,"player_count":0,"max_players":24,"Bots":0,"server_type":"Dedicated","server_os":"Linux","password":true,"vac":true,"version":"7961495","steam_id":85568392925397854,"keywords":["nocrits","nodmgspread","payload","uncletopia"],"game_id":440,"stv_port":27056,"stv_name":"Uncletopia | Warsaw | 5 | Stopwatch | STV","players":null},{"server_id":54,"name":"Uncletopia | Warsaw | 6 | Community","name_short":"waw-6","host":"waw-1.pl.uncletopia.com","port":27065,"enabled":true,"region":"eu","cc":"pl","latitude":52.2297,"longitude":21.017532,"reserved":0,"last_update":"0001-01-01T00:00:00Z","name_a2s":"Uncletopia | Warsaw | 6 | Community","protocol":17,"map":"workshop/koth_kemptown_rc1.ugc767410655","folder":"tf","game":"Team Fortress","app_id":440,"player_count":0,"max_players":24,"Bots":0,"server_type":"Dedicated","server_os":"Linux","password":true,"vac":true,"version":"7961495","steam_id":85568392925397856,"keywords":["cp","nocrits","nodmgspread","uncletopia"],"game_id":440,"stv_port":27066,"stv_name":"Uncletopia | Warsaw | 6 | Community | STV","players":null}]}