{"status":true,"message":"","result":[{"server_id":9,"name":"Uncletopia | Atlanta | 1 | All Maps","name_short":"atl-1","host":"atl-1.us.uncletopia.com","port":27015,"enabled":true,"region":"us-east","cc":"us","latitude":33.753746,"longitude":-84.38633,"reserved":0,"last_update":"0001-01-01T00:00:00Z","name_a2s":"Uncletopia | Atlanta | 1 | All Maps","protocol":17,"map":"pl_frontier_final","folder":"tf","game":"Team Fortress","app_id":440,"player_count":24,"max_players":24,"Bots":0,"server_type":"Dedicated","server_os":"Linux","password":true,"vac":true,"version":"7757534","steam_id":85568392924469982,"keywords":["nocrits","nodmgspread","payload","uncletopia"],"game_id":440,"stv_port":27016,"stv_name":"Uncletopia | Atlanta | 1 | All Maps | STV","players":[{"user_id":555,"name":"Spiderfight1","steam_id":76561199189991528,"connected_time":470000000000,"state":"active","ping":74},{"user_id":558,"name":"Boogie","steam_id":76561198043626626,"connected_time":429000000000,"state":"active","ping":65},{"user_id":556,"name":"Ghostmeal","steam_id":76561198042380299,"connected_time":452000000000,"state":"active","ping":71},{"user_id":557,"name":"whirlwind","steam_id":76561198168685103,"connected_time":451000000000,"state":"active","ping":71},{"user_id":552,"name":"perfect inCell","steam_id":76561198059182316,"connected_time":1073000000000,"state":"active","ping":60},{"user_id":524,"name":"Big Narrlocke","steam_id":76561198040588362,"connected_time":2789000000000,"state":"active","ping":89},{"user_id":546,"name":"FemboyNate","steam_id":76561198146636410,"connected_time":1631000000000,"state":"active","ping":75},{"user_id":561,"name":"numbers","steam_id":76561197978023264,"connected_time":289000000000,"state":"active","ping":85},{"user_id":560,"name":"(TPT) Ghost","steam_id":76561198123262873,"connected_time":331000000000,"state":"active","ping":114},{"user_id":554,"name":"[OC2TM] CF-TF2","steam_id":76561198145893044,"connected_time":738000000000,"state":"active","ping":88},{"user_id":442,"name":"years","steam_id":76561197994098627,"connected_time":10630000000000,"state":"active","ping":115},{"user_id":519,"name":"Ojen","steam_id":76561197998414482,"connected_time":3495000000000,"state":"active","ping":92},{"user_id":535,"name":"Butthole Surfer","steam_id":76561198020526407,"connected_time":2243000000000,"state":"active","ping":131},{"user_id":567,"name":"Furfur","steam_id":76561198025179322,"connected_time":40000000000,"state":"active","ping":58},{"user_id":563,"name":"Mimu DL","steam_id":76561198083086184,"connected_time":271000000000,"state":"active","ping":121},{"user_id":564,"name":"april","steam_id":76561198388123421,"connected_time":232000000000,"state":"active","ping":90},{"user_id":491,"name":"obliviated Gamer ||-iwnl-||","steam_id":76561198044006334,"connected_time":5062000000000,"state":"active","ping":105},{"user_id":553,"name":"rizzard of oz","steam_id":76561198040907214,"connected_time":846000000000,"state":"active","ping":60},{"user_id":541,"name":"HeavenHearst","steam_id":76561198066083947,"connected_time":1762000000000,"state":"active","ping":62},{"user_id":565,"name":"demoknight tf2","steam_id":76561198070393998,"connected_time":219000000000,"state":"active","ping":81},{"user_id":492,"name":"OddSlaush","steam_id":76561198043898488,"connected_time":5058000000000,"state":"active","ping":90},{"user_id":531,"name":"Cam(era)","steam_id":76561198285054047,"connected_time":2569000000000,"state":"active","ping":79},{"user_id":534,"name":"sylvia","steam_id":76561198217119457,"connected_time":2329000000000,"state":"active","ping":92},{"user_id":566,"name":"JaGirlLucy","steam_id":76561198445396340,"connected_time":180000000000,"state":"active","ping":122}]},{"server_id":400,"name":"Uncletopia | Atlanta | 3 | Community","name_short":"atl-3","host":"atl-1.us.uncletopia.com","port":27035,"enabled":true,"region":"us-east","cc":"us","latitude":33.753746,"longitude":-84.38633,"reserved":0,"last_update":"0001-01-01T00:00:00Z","name_a2s":"Uncletopia | Atlanta | 3 | Community","protocol":17,"map":"workshop/cp_propaganda_b18.ugc1603743849","folder":"tf","game":"Team Fortress","app_id":440,"player_count":0,"max_players":24,"Bots":0,"server_type":"Dedicated","server_os":"Linux","password":true,"vac":true,"version":"7757534","steam_id":85568392924515187,"keywords":["cp","nocrits","nodmgspread","uncletopia"],"game_id":440,"stv_port":27036,"stv_name":"Uncletopia | Atlanta | 3 | Community | STV","players":null},{"server_id":401,"name":"Uncletopia | Atlanta | 4 | No Payload","name_short":"atl-4","host":"atl-1.us.uncletopia.com","port":27045,"enabled":true,"region":"us-east","cc":"us","latitude":33.753746,"longitude":-84.38633,"reserved":0,"last_update":"0001-01-01T00:00:00Z","name_a2s":"","protocol":0,"map":"","folder":"","game":"","app_id":0,"player_count":0,"max_players":0,"Bots":0,"server_type":"","server_os":"","password":false,"vac":false,"version":"","steam_id":0,"keywords":null,"game_id":0,"stv_port":0,"stv_name":"","players":null},{"server_id":2,"name":"Uncletopia | Chicago | 1 | All Maps","name_short":"chi-1","host":"chi-1.us.uncletopia.com","port":27015,"enabled":true,"region":"us-central","cc":"us","latitude":41.881832,"longitude":-87.62318,"reserved":0,"last_update":"0001-01-01T00:00:00Z","name_a2s":"Uncletopia | Chicago | 1 | All Maps","protocol":17,"map":"pl_snowycoast","folder":"tf","game":"Team Fortress","app_id":440,"player_count":24,"max_players":24,"Bots":0,"server_type":"Dedicated","server_os":"Linux","password":true,"vac":true,"version":"7757534","steam_id":85568392924469984,"keywords":["nocrits","nodmgspread","payload","uncletopia"],"game_id":440,"stv_port":27016,"stv_name":"Uncletopia | Chicago | 1 | All Maps | STV","players":[{"user_id":967,"name":"plap plap plap","steam_id":76561198054925421,"connected_time":1086000000000,"state":"active","ping":53},{"user_id":986,"name":"Jetteyes","steam_id":76561198366782769,"connected_time":275000000000,"state":"active","ping":81},{"user_id":936,"name":"Wug","steam_id":76561198084112264,"connected_time":4486000000000,"state":"active","ping":77},{"user_id":968,"name":"cyro","steam_id":76561198146241989,"connected_time":1070000000000,"state":"active","ping":83},{"user_id":965,"name":"king of bogers","steam_id":76561198045731295,"connected_time":1104000000000,"state":"active","ping":79},{"user_id":969,"name":"gromit","steam_id":76561198037746805,"connected_time":1070000000000,"state":"active","ping":60},{"user_id":957,"name":"Creyon","steam_id":76561198812104058,"connected_time":2091000000000,"state":"active","ping":54},{"user_id":954,"name":"Dzhoshua","steam_id":76561198071915251,"connected_time":2495000000000,"state":"active","ping":58},{"user_id":964,"name":"Your cars Extended Warranty","steam_id":76561197993458793,"connected_time":1452000000000,"state":"active","ping":130},{"user_id":951,"name":"Kretim","steam_id":76561199204273483,"connected_time":2831000000000,"state":"active","ping":74},{"user_id":987,"name":"Mothership","steam_id":76561198044029501,"connected_time":155000000000,"state":"active","ping":151},{"user_id":913,"name":"Haze","steam_id":76561198032486799,"connected_time":6201000000000,"state":"active","ping":102},{"user_id":971,"name":"germba","steam_id":76561198421591995,"connected_time":1012000000000,"state":"active","ping":75},{"user_id":972,"name":"Deryn Sharp","steam_id":76561198047017346,"connected_time":991000000000,"state":"active","ping":132},{"user_id":980,"name":"kramer","steam_id":76561198117761965,"connected_time":539000000000,"state":"active","ping":70},{"user_id":938,"name":"Briserpitou","steam_id":76561198061110505,"connected_time":4248000000000,"state":"active","ping":106},{"user_id":933,"name":"ahh","steam_id":76561198083271257,"connected_time":4688000000000,"state":"active","ping":69},{"user_id":983,"name":"flora","steam_id":76561197994492154,"connected_time":320000000000,"state":"active","ping":173},{"user_id":940,"name":"Model CHP-3Y","steam_id":76561198107806145,"connected_time":4116000000000,"state":"active","ping":74},{"user_id":974,"name":"Female Gamer","steam_id":76561199366482682,"connected_time":980000000000,"state":"active","ping":103},{"user_id":981,"name":"Sydney","steam_id":76561198797603297,"connected_time":515000000000,"state":"active","ping":61},{"user_id":977,"name":"Slugma","steam_id":76561198048544669,"connected_time":760000000000,"state":"active","ping":155},{"user_id":934,"name":"Anna","steam_id":76561197999657118,"connected_time":4685000000000,"state":"active","ping":81},{"user_id":985,"name":"moopmop","steam_id":76561198065224965,"connected_time":304000000000,"state":"active","ping":106}]},{"server_id":106,"name":"Uncletopia | Chicago | 2 | All Maps","name_short":"chi-2","host":"chi-1.us.uncletopia.com","port":27025,"enabled":true,"region":"us-central","cc":"us","latitude":41.881832,"longitude":-87.62318,"reserved":0,"last_update":"0001-01-01T00:00:00Z","name_a2s":"Uncletopia | Chicago | 2 | All Maps","protocol":17,"map":"pl_upward","folder":"tf","game":"Team Fortress","app_id":440,"player_count":23,"max_players":24,"Bots":0,"server_type":"Dedicated","server_os":"Linux","password":true,"vac":true,"version":"7757534","steam_id":85568392924469985,"keywords":["nocrits","nodmgspread","payload","uncletopia"],"game_id":440,"stv_port":27026,"stv_name":"Uncletopia | Chicago | 2 | All Maps | STV","players":[{"user_id":804,"name":"rudy","steam_id":76561198088712799,"connected_time":1889000000000,"state":"active","ping":81},{"user_id":822,"name":"meta","steam_id":76561199440272639,"connected_time":330000000000,"state":"active","ping":79},{"user_id":827,"name":"Tomato Soup","steam_id":76561198048625847,"connected_time":112000000000,"state":"active","ping":82},{"user_id":820,"name":"Crusader","steam_id":76561198144092743,"connected_time":407000000000,"state":"active","ping":137},{"user_id":725,"name":"captainspatklz","steam_id":76561198432167270,"connected_time":6613000000000,"state":"active","ping":74},{"user_id":823,"name":"Aurro","steam_id":76561198315692300,"connected_time":323000000000,"state":"active","ping":45},{"user_id":808,"name":"be","steam_id":76561198000824533,"connected_time":1501000000000,"state":"active","ping":83},{"user_id":793,"name":"Herr M√ºller","steam_id":76561198064876829,"connected_time":2148000000000,"state":"active","ping":97},{"user_id":777,"name":"Lavender","steam_id":76561198142770666,"connected_time":3679000000000,"state":"active","ping":53},{"user_id":817,"name":"Nurew","steam_id":76561198052589498,"connected_time":1008000000000,"state":"active","ping":108},{"user_id":825,"name":"Karma's Camera","steam_id":76561198059385185,"connected_time":214000000000,"state":"active","ping":73},{"user_id":826,"name":"samantha","steam_id":76561198299290069,"connected_time":134000000000,"state":"active","ping":85},{"user_id":805,"name":"John;Titor","steam_id":76561198266404287,"connected_time":1830000000000,"state":"active","ping":135},{"user_id":828,"name":"Dark Bonnie (SCARY)","steam_id":76561198189492843,"connected_time":110000000000,"state":"active","ping":91},{"user_id":829,"name":"Quietsharp","steam_id":76561198277968438,"connected_time":109000000000,"state":"active","ping":104},{"user_id":830,"name":"Dr. Hax","steam_id":76561198007445986,"connected_time":76000000000,"state":"active","ping":89},{"user_id":831,"name":"penis man","steam_id":76561198346708645,"connected_time":39000000000,"state":"active","ping":99},{"user_id":790,"name":"miner","steam_id":76561198073035221,"connected_time":2285000000000,"state":"active","ping":63},{"user_id":781,"name":"Merci?","steam_id":76561198096823118,"connected_time":3588000000000,"state":"active","ping":78},{"user_id":832,"name":"Coffee with a Stranger","steam_id":76561198307422313,"connected_time":27000000000,"state":"spawning","ping":61},{"user_id":783,"name":"Frost","steam_id":76561198953970191,"connected_time":3538000000000,"state":"active","ping":72},{"user_id":833,"name":"Brock O'Brian","steam_id":76561198117839474,"connected_time":15000000000,"state":"active","ping":69},{"user_id":806,"name":"The Great Karizma!","steam_id":76561198346191193,"connected_time":1613000000000,"state":"active","ping":116}]},{"server_id":402,"name":"Uncletopia | Chicago | 3 | All Maps","name_short":"chi-3","host":"chi-1.us.uncletopia.com","port":27035,"enabled":true,"region":"us-central","cc":"us","latitude":41.881832,"longitude":-87.62318,"reserved":0,"last_update":"0001-01-01T00:00:00Z","name_a2s":"Uncletopia | Chicago | 3 | All Maps","protocol":17,"map":"cp_altitude","folder":"tf","game":"Team Fortress","app_id":440,"player_count":0,"max_players":24,"Bots":0,"server_type":"Dedicated","server_os":"Linux","password":true,"vac":true,"version":"7757534","steam_id":85568392924515191,"keywords":["cp","nocrits","nodmgspread","uncletopia"],"game_id":440,"stv_port":27036,"stv_name":"Uncletopia | Chicago | 3 | All Maps | STV","players":null},{"server_id":403,"name":"Uncletopia | Chicago | 4 | All Maps","name_short":"chi-4","host":"chi-1.us.uncletopia.com","port":27045,"enabled":true,"region":"us-central","cc":"us","latitude":41.881832,"longitude":-87.62318,"reserved":0,"last_update":"0001-01-01T00:00:00Z","name_a2s":"Uncletopia | Chicago | 4 | All Maps","protocol":17,"map":"pl_frontier_final","folder":"tf","game":"Team Fortress","app_id":440,"player_count":0,"max_players":24,"Bots":0,"server_type":"Dedicated","server_os":"Linux","password":true,"vac":true,"version":"7757534","steam_id":85568392924515193,"keywords":["nocrits","nodmgspread","payload","uncletopia"],"game_id":440,"stv_port":27046,"stv_name":"Uncletopia | Chicago | 4 | All Maps | STV","players":null},{"server_id":36,"name":"Uncletopia | Chicago | 5 | All Maps","name_short":"chi-5","host":"chi-2.us.uncletopia.com","port":27015,"enabled":true,"region":"us-central","cc":"us","latitude":41.881832,"longitude":-87.62318,"reserved":0,"last_update":"0001-01-01T00:00:00Z","name_a2s":"Uncletopia | Chicago | 5 | All Maps","protocol":17,"map":"koth_highpass","folder":"tf","game":"Team Fortress","app_id":440,"player_count":0,"max_players":24,"Bots":0,"server_type":"Dedicated","server_os":"Linux","password":true,"vac":true,"version":"7757534","steam_id":85568392924866362,"keywords":["cp","nocrits","nodmgspread","uncletopia"],"game_id":440,"stv_port":27016,"stv_name":"Uncletopia | Chicago | 5 | All Maps | STV","players":null},{"server_id":37,"name":"Uncletopia | Chicago | 6 | All Maps","name_short":"chi-6","host":"chi-2.us.uncletopia.com","port":27025,"enabled":true,"region":"us-central","cc":"us","latitude":41.881832,"longitude":-87.62318,"reserved":0,"last_update":"0001-01-01T00:00:00Z","name_a2s":"Uncletopia | Chicago | 6 | All Maps","protocol":17,"map":"koth_king","folder":"tf","game":"Team Fortress","app_id":440,"player_count":0,"max_players":24,"Bots":0,"server_type":"Dedicated","server_os":"Linux","password":true,"vac":true,"version":"7757534","steam_id":85568392924866363,"keywords":["cp","nocrits","nodmgspread","uncletopia"],"game_id":440,"stv_port":27026,"stv_name":"Uncletopia | Chicago | 6 | All Maps | STV","players":null},{"server_id":38,"name":"Uncletopia | Chicago | 7 | Stopwatch Beta","name_short":"chi-7","host":"chi-2.us.uncletopia.com","port":27035,"enabled":true,"region":"us-central","cc":"us","latitude":41.881832,"longitude":-87.62318,"reserved":0,"last_update":"0001-01-01T00:00:00Z","name_a2s":"Uncletopia | Chicago | 7 | Stopwatch Beta","protocol":17,"map":"workshop/koth_ramjam_rc1.ugc459778887","folder":"tf","game":"Team Fortress","app_id":440,"player_count":0,"max_players":24,"Bots":0,"server_type":"Dedicated","server_os":"Linux","password":true,"vac":true,"version":"7757534","steam_id":85568392924866364,"keywords":["cp","nocrits","nodmgspread","uncletopia"],"game_id":440,"stv_port":27036,"stv_name":"Uncletopia | Chicago | 7 | Stopwatch Beta | STV","players":null},{"server_id":39,"name":"Uncletopia | Chicago | 8 | Community","name_short":"chi-8","host":"chi-2.us.uncletopia.com","port":27045,"enabled":true,"region":"us-central","cc":"us","latitude":41.881832,"longitude":-87.62318,"reserved":0,"last_update":"0001-01-01T00:00:00Z","name_a2s":"Uncletopia | Chicago | 8 | Community","protocol":17,"map":"workshop/koth_kemptown_rc1.ugc767410655","folder":"tf","game":"Team Fortress","app_id":440,"player_count":0,"max_players":24,"Bots":0,"server_type":"Dedicated","server_os":"Linux","password":true,"vac":true,"version":"7757534","steam_id":85568392924866365,"keywords":["cp","nocrits","nodmgspread","uncletopia"],"game_id":440,"stv_port":27046,"stv_name":"Uncletopia | Chicago | 8 | Community | STV","players":null},{"server_id":8,"name":"Uncletopia | Dallas | 1 | All Maps","name_short":"dal-1","host":"dal-1.us.uncletopia.com","port":27015,"enabled":true,"region":"us-central","cc":"us","latitude":32.779167,"longitude":-96.80889,"reserved":0,"last_update":"0001-01-01T00:00:00Z","name_a2s":"Uncletopia | Dallas | 1 | All Maps","protocol":17,"map":"pl_barnblitz","folder":"tf","game":"Team Fortress","app_id":440,"player_count":24,"max_players":24,"Bots":0,"server_type":"Dedicated","server_os":"Linux","password":true,"vac":true,"version":"7757534","steam_id":85568392924469986,"keywords":["nocrits","nodmgspread","payload","uncletopia"],"game_id":440,"stv_port":27016,"stv_name":"Uncletopia | Dallas | 1 | All Maps | STV","players":[{"user_id":990,"name":"Spinch","steam_id":76561198296224166,"connected_time":745000000000,"state":"active","ping":91},{"user_id":969,"name":"Technic","steam_id":76561198200302281,"connected_time":3426000000000,"state":"active","ping":70},{"user_id":970,"name":"MoonWheel","steam_id":76561198122417762,"connected_time":3397000000000,"state":"active","ping":50},{"user_id":956,"name":"hell yeah dude","steam_id":76561198118943666,"connected_time":4023000000000,"state":"active","ping":67},{"user_id":993,"name":"‚Ä∫ Panik the Cat","steam_id":76561198050301260,"connected_time":633000000000,"state":"active","ping":74},{"user_id":957,"name":"Wally (s)Mack","steam_id":76561198258810146,"connected_time":4014000000000,"state":"active","ping":98},{"user_id":958,"name":"TinyTroublemaker","steam_id":76561198295466565,"connected_time":4011000000000,"state":"active","ping":75},{"user_id":986,"name":"Walnut","steam_id":76561198024954863,"connected_time":871000000000,"state":"active","ping":75},{"user_id":991,"name":"AngryBurrito","steam_id":76561197972778702,"connected_time":718000000000,"state":"active","ping":171},{"user_id":992,"name":"SSNope","steam_id":76561198300092011,"connected_time":707000000000,"state":"active","ping":60},{"user_id":982,"name":"Achy_Blitz","steam_id":76561198090433209,"connected_time":2670000000000,"state":"active","ping":87},{"user_id":983,"name":"invb","steam_id":76561197998263914,"connected_time":2650000000000,"state":"active","ping":63},{"user_id":981,"name":"wizorb","steam_id":76561198002172674,"connected_time":2734000000000,"state":"active","ping":66},{"user_id":971,"name":"BBOSensei","steam_id":76561198071548190,"connected_time":3385000000000,"state":"active","ping":84},{"user_id":972,"name":"Xyvanereth","steam_id":76561198844137326,"connected_time":3248000000000,"state":"active","ping":104},{"user_id":984,"name":"Cartoonishly Evil","steam_id":76561198311587575,"connected_time":2255000000000,"state":"active","ping":130},{"user_id":985,"name":"Brisk","steam_id":76561198129769783,"connected_time":1866000000000,"state":"active","ping":82},{"user_id":975,"name":"Brian","steam_id":76561198089908485,"connected_time":3172000000000,"state":"active","ping":103},{"user_id":828,"name":"M.L.JEW","steam_id":76561198997375055,"connected_time":16281000000000,"state":"active","ping":77},{"user_id":988,"name":"Kol","steam_id":76561199151398882,"connected_time":861000000000,"state":"active","ping":107},{"user_id":987,"name":"Fox","steam_id":76561198063507627,"connected_time":869000000000,"state":"active","ping":45},{"user_id":978,"name":"iceman","steam_id":76561198135397441,"connected_time":3068000000000,"state":"active","ping":85},{"user_id":989,"name":"Lil Epstein","steam_id":76561198046853910,"connected_time":858000000000,"state":"active","ping":48},{"user_id":875,"name":"bash -lc ./asshat.sh","steam_id":76561198004584315,"connected_time":11235000000000,"state":"active","ping":79}]},{"server_id":108,"name":"Uncletopia | Dallas | 2 | All Maps","name_short":"dal-2","host":"dal-1.us.uncletopia.com","port":27025,"enabled":true,"region":"us-central","cc":"us","latitude":32.779167,"longitude":-96.80889,"reserved":0,"last_update":"0001-01-01T00:00:00Z","name_a2s":"Uncletopia | Dallas | 2 | All Maps","protocol":17,"map":"pl_swiftwater_final1","folder":"tf","game":"Team Fortress","app_id":440,"player_count":0,"max_players":24,"Bots":0,"server_type":"Dedicated","server_os":"Linux","password":true,"vac":true,"version":"7757534","steam_id":85568392924469988,"keywords":["nocrits","nodmgspread","payload","uncletopia"],"game_id":440,"stv_port":27026,"stv_name":"Uncletopia | Dallas | 2 | All Maps | STV","players":null},{"server_id":5,"name":"Uncletopia | Frankfurt | 1 | All Maps","name_short":"frk-1","host":"frk-1.de.uncletopia.com","port":27015,"enabled":true,"region":"eu","cc":"de","latitude":50.110924,"longitude":8.682127,"reserved":0,"last_update":"0001-01-01T00:00:00Z","name_a2s":"Uncletopia | Frankfurt | 1 | All Maps","protocol":17,"map":"pl_snowycoast","folder":"tf","game":"Team Fortress","app_id":440,"player_count":0,"max_players":24,"Bots":0,"server_type":"Dedicated","server_os":"Linux","password":true,"vac":true,"version":"7757534","steam_id":85568392924469989,"keywords":["nocrits","nodmgspread","payload","uncletopia"],"game_id":440,"stv_port":27016,"stv_name":"Uncletopia | Frankfurt | 1 | All Maps | STV","players":null},{"server_id":110,"name":"Uncletopia | Frankfurt | 2 | All Maps","name_short":"frk-2","host":"frk-1.de.uncletopia.com","port":27025,"enabled":true,"region":"eu","cc":"de","latitude":50.110924,"longitude":8.682127,"reserved":0,"last_update":"0001-01-01T00:00:00Z","name_a2s":"Uncletopia | Frankfurt | 2 | All Maps","protocol":17,"map":"pl_snowycoast","folder":"tf","game":"Team Fortress","app_id":440,"player_count":0,"max_players":24,"Bots":0,"server_type":"Dedicated","server_os":"Linux","password":true,"vac":true,"version":"7757534","steam_id":85568392924469990,"keywords":["nocrits","nodmgspread","payload","uncletopia"],"game_id":440,"stv_port":27026,"stv_name":"Uncletopia | Frankfurt | 2 | All Maps | STV","players":null},{"server_id":308,"name":"Uncletopia | Frankfurt | 3 | All Maps","name_short":"frk-3","host":"frk-1.de.uncletopia.com","port":27035,"enabled":true,"region":"eu","cc":"de","latitude":50.110924,"longitude":8.682127,"reserved":0,"last_update":"0001-01-01T00:00:00Z","name_a2s":"Uncletopia | Frankfurt | 3 | All Maps","protocol":17,"map":"cp_altitude","folder":"tf","game":"Team Fortress","app_id":440,"player_count":0,"max_players":24,"Bots":0,"server_type":"Dedicated","server_os":"Linux","password":true,"vac":true,"version":"7757534","steam_id":85568392924504274,"keywords":["cp","nocrits","nodmgspread","uncletopia"],"game_id":440,"stv_port":27036,"stv_name":"Uncletopia | Frankfurt | 3 | All Maps | STV","players":null},{"server_id":309,"name":"Uncletopia | Frankfurt | 4 | All Maps","name_short":"frk-4","host":"frk-1.de.uncletopia.com","port":27045,"enabled":true,"region":"eu","cc":"de","latitude":50.110924,"longitude":8.682127,"reserved":0,"last_update":"0001-01-01T00:00:00Z","name_a2s":"Uncletopia | Frankfurt | 4 | All Maps","protocol":17,"map":"cp_altitude","folder":"tf","game":"Team Fortress","app_id":440,"player_count":0,"max_players":24,"Bots":0,"server_type":"Dedicated","server_os":"Linux","password":true,"vac":true,"version":"7757534","steam_id":85568392924504275,"keywords":["cp","nocrits","nodmgspread","uncletopia"],"game_id":440,"stv_port":27046,"stv_name":"Uncletopia | Frankfurt | 4 | All Maps | STV","players":null},{"server_id":310,"name":"Uncletopia | Frankfurt | 5 | All Maps","name_short":"frk-5","host":"frk-1.de.uncletopia.com","port":27055,"enabled":true,"region":"eu","cc":"de","latitude":50.110924,"longitude":8.682127,"reserved":0,"last_update":"0001-01-01T00:00:00Z","name_a2s":"Uncletopia | Frankfurt | 5 | All Maps","protocol":17,"map":"cp_altitude","folder":"tf","game":"Team Fortress","app_id":440,"player_count":0,"max_players":24,"Bots":0,"server_type":"Dedicated","server_os":"Linux","password":true,"vac":true,"version":"7757534","steam_id":85568392924504277,"keywords":["cp","nocrits","nodmgspread","uncletopia"],"game_id":440,"stv_port":27056,"stv_name":"Uncletopia | Frankfurt | 5 | All Maps | STV","players":null},{"server_id":311,"name":"Uncletopia | Frankfurt | 6 | All Maps","name_short":"frk-6","host":"frk-1.de.uncletopia.com","port":27065,"enabled":true,"region":"eu","cc":"de","latitude":50.110924,"longitude":8.682127,"reserved":0,"last_update":"0001-01-01T00:00:00Z","name_a2s":"Uncletopia | Frankfurt | 6 | All Maps","protocol":17,"map":"koth_highpass","folder":"tf","game":"Team Fortress","app_id":440,"player_count":0,"max_players":24,"Bots":0,"server_type":"Dedicated","server_os":"Linux","password":true,"vac":true,"version":"7757534","steam_id":85568392924504278,"keywords":["cp","nocrits","nodmgspread","uncletopia"],"game_id":440,"stv_port":27066,"stv_name":"Uncletopia | Frankfurt | 6 | All Maps | STV","players":null},{"server_id":23,"name":"Uncletopia | Frankfurt | 7 | Stopwatch Beta","name_short":"frk-7","host":"frk-1.de.uncletopia.com","port":27075,"enabled":true,"region":"eu","cc":"de","latitude":50.110924,"longitude":8.682127,"reserved":0,"last_update":"0001-01-01T00:00:00Z","name_a2s":"Uncletopia | Frankfurt | 7 | Stopwatch Beta","protocol":17,"map":"pl_frontier_final","folder":"tf","game":"Team Fortress","app_id":440,"player_count":0,"max_players":24,"Bots":0,"server_type":"Dedicated","server_os":"Linux","password":true,"vac":true,"version":"7757534","steam_id":85568392924742827,"keywords":["nocrits","nodmgspread","payload","uncletopia"],"game_id":440,"stv_port":27076,"stv_name":"Uncletopia | Frankfurt | 7 | Stopwatch Beta | STV","players":null},{"server_id":24,"name":"Uncletopia | Frankfurt | 8 | Community","name_short":"frk-8","host":"frk-1.de.uncletopia.com","port":27085,"enabled":true,"region":"eu","cc":"de","latitude":50.110924,"longitude":8.682127,"reserved":0,"last_update":"0001-01-01T00:00:00Z","name_a2s":"Uncletopia | Frankfurt | 8 | Community","protocol":17,"map":"workshop/cp_indulge.ugc528106646","folder":"tf","game":"Team Fortress","app_id":440,"player_count":0,"max_players":24,"Bots":0,"server_type":"Dedicated","server_os":"Linux","password":true,"vac":true,"version":"7757534","steam_id":85568392924742828,"keywords":["cp","nocrits","nodmgspread","uncletopia"],"game_id":440,"stv_port":27086,"stv_name":"Uncletopia | Frankfurt | 8 | Community | STV","players":null},{"server_id":202,"name":"Uncletopia | Hong Kong | 1 | All Maps","name_short":"hgk-1","host":"hgk-1.hk.uncletopia.com","port":27015,"enabled":true,"region":"asia","cc":"hk","latitude":22.302711,"longitude":114.177216,"reserved":0,"last_update":"0001-01-01T00:00:00Z","name_a2s":"Uncletopia | Hong Kong | 1 | All Maps","protocol":17,"map":"cp_snakewater_final1","folder":"tf","game":"Team Fortress","app_id":440,"player_count":24,"max_players":24,"Bots":0,"server_type":"Dedicated","server_os":"Linux","password":true,"vac":true,"version":"7757534","steam_id":85568392924494504,"keywords":["cp","nocrits","nodmgspread","uncletopia"],"game_id":440,"stv_port":27016,"stv_name":"Uncletopia | Hong Kong | 1 | All Maps | STV","players":[{"user_id":157,"name":"juan fernandez","steam_id":76561198258954699,"connected_time":2104000000000,"state":"active","ping":51},{"user_id":187,"name":"uptriste","steam_id":76561198158666692,"connected_time":397000000000,"state":"active","ping":32},{"user_id":182,"name":"Yna Yna (actually Oka Oka)","steam_id":76561199232527135,"connected_time":563000000000,"state":"active","ping":155},{"user_id":166,"name":"Violezine","steam_id":76561199000502615,"connected_time":1379000000000,"state":"active","ping":82},{"user_id":170,"name":"Puddin","steam_id":76561198140052918,"connected_time":970000000000,"state":"active","ping":89},{"user_id":79,"name":"Ezylynn","steam_id":76561198388935921,"connected_time":7619000000000,"state":"active","ping":60},{"user_id":107,"name":"Ai Ohto Gaming","steam_id":76561198972625527,"connected_time":4908000000000,"state":"active","ping":82},{"user_id":176,"name":"Sex","steam_id":76561198871697359,"connected_time":853000000000,"state":"active","ping":76},{"user_id":183,"name":"victoria","steam_id":76561199109871823,"connected_time":546000000000,"state":"active","ping":85},{"user_id":173,"name":"j_poo","steam_id":76561199471414883,"connected_time":909000000000,"state":"active","ping":50},{"user_id":174,"name":"chainsemen","steam_id":76561198442507642,"connected_time":890000000000,"state":"active","ping":89},{"user_id":184,"name":"Lelouch","steam_id":76561198828840546,"connected_time":544000000000,"state":"active","ping":95},{"user_id":97,"name":"cumb dhigga","steam_id":76561198412329672,"connected_time":5746000000000,"state":"active","ping":90},{"user_id":165,"name":"Celestial Madman","steam_id":76561198985198656,"connected_time":1456000000000,"state":"active","ping":64},{"user_id":175,"name":"markrap‡∂ûvic","steam_id":76561198383599763,"connected_time":865000000000,"state":"active","ping":105},{"user_id":177,"name":"Lil' Chungus","steam_id":76561198258046956,"connected_time":800000000000,"state":"active","ping":112},{"user_id":139,"name":"KENLIQ!","steam_id":76561199092118875,"connected_time":3364000000000,"state":"active","ping":61},{"user_id":106,"name":"Noyour","steam_id":76561198323259830,"connected_time":5198000000000,"state":"active","ping":110},{"user_id":178,"name":"Â§ßÁÜô","steam_id":76561198069111034,"connected_time":753000000000,"state":"active","ping":57},{"user_id":114,"name":"Ohio Henchmen","steam_id":76561199234460334,"connected_time":4409000000000,"state":"active","ping":73},{"user_id":180,"name":"Mystery cheese üßÄ","steam_id":76561198304002409,"connected_time":681000000000,"state":"active","ping":79},{"user_id":188,"name":"CaptainBozo","steam_id":76561199151959977,"connected_time":186000000000,"state":"active","ping":59},{"user_id":181,"name":"East","steam_id":76561198857299051,"connected_time":656000000000,"state":"active","ping":80},{"user_id":186,"name":"Saber Nero","steam_id":76561198810245353,"connected_time":486000000000,"state":"active","ping":149}]},{"server_id":1,"name":"Uncletopia | Los Angeles | 1 | All Maps","name_short":"lax-1","host":"lax-1.us.uncletopia.com","port":27015,"enabled":true,"region":"us-west","cc":"us","latitude":33.94279,"longitude":-118.41004,"reserved":0,"last_update":"0001-01-01T00:00:00Z","name_a2s":"Uncletopia | Los Angeles | 1 | All Maps","protocol":17,"map":"cp_dustbowl","folder":"tf","game":"Team Fortress","app_id":440,"player_count":24,"max_players":24,"Bots":0,"server_type":"Dedicated","server_os":"Linux","password":true,"vac":true,"version":"7757534","steam_id":85568392924469991,"keywords":["cp","nocrits","nodmgspread","uncletopia"],"game_id":440,"stv_port":27016,"stv_name":"Uncletopia | Los Angeles | 1 | All Maps | STV","players":[{"user_id":613,"name":"Redathant","steam_id":76561199005697271,"connected_time":400000000000,"state":"active","ping":72},{"user_id":614,"name":"Auburn","steam_id":76561198199541493,"connected_time":319000000000,"state":"active","ping":49},{"user_id":602,"name":"Cockfight","steam_id":76561198160277649,"connected_time":1601000000000,"state":"active","ping":62},{"user_id":615,"name":"mind goblin","steam_id":76561198050112234,"connected_time":301000000000,"state":"active","ping":58},{"user_id":581,"name":"ayaya?","steam_id":76561199000188109,"connected_time":3422000000000,"state":"active","ping":47},{"user_id":573,"name":"werolat","steam_id":76561197960544784,"connected_time":4162000000000,"state":"active","ping":63},{"user_id":594,"name":"tanner","steam_id":76561198137381904,"connected_time":2177000000000,"state":"active","ping":61},{"user_id":556,"name":"summerlis","steam_id":76561198165324438,"connected_time":5528000000000,"state":"active","ping":38},{"user_id":579,"name":"gosh","steam_id":76561198025681784,"connected_time":3902000000000,"state":"active","ping":93},{"user_id":603,"name":"GGN","steam_id":76561198233603808,"connected_time":1597000000000,"state":"active","ping":45},{"user_id":601,"name":"Adam Levine (Real)","steam_id":76561199199257149,"connected_time":1628000000000,"state":"active","ping":53},{"user_id":616,"name":"Punished Dimitri","steam_id":76561198170918179,"connected_time":262000000000,"state":"active","ping":59},{"user_id":597,"name":"crush","steam_id":76561198107219183,"connected_time":1922000000000,"state":"active","ping":52},{"user_id":540,"name":"‚õß","steam_id":76561198021308963,"connected_time":6495000000000,"state":"active","ping":75},{"user_id":559,"name":"Dezzithediscoduck","steam_id":76561198037043489,"connected_time":5153000000000,"state":"active","ping":59},{"user_id":618,"name":"Fizzma","steam_id":76561198271999030,"connected_time":212000000000,"state":"active","ping":91},{"user_id":620,"name":"TitanicMistake","steam_id":76561198052999475,"connected_time":103000000000,"state":"active","ping":76},{"user_id":606,"name":"Squid121","steam_id":76561198038832034,"connected_time":1436000000000,"state":"active","ping":75},{"user_id":577,"name":"nhoj_","steam_id":76561198048003380,"connected_time":4053000000000,"state":"active","ping":45},{"user_id":541,"name":"hakken","steam_id":76561199102391736,"connected_time":6480000000000,"state":"active","ping":48},{"user_id":619,"name":"KatzenMeister","steam_id":76561198315056580,"connected_time":208000000000,"state":"active","ping":51},{"user_id":604,"name":"MyMonkeyBaby","steam_id":76561198046896670,"connected_time":1574000000000,"state":"active","ping":87},{"user_id":608,"name":"Wub","steam_id":76561198072947773,"connected_time":1342000000000,"state":"active","ping":88},{"user_id":612,"name":"yogi","steam_id":76561198067986753,"connected_time":656000000000,"state":"active","ping":45}]},{"server_id":112,"name":"Uncletopia | Los Angeles | 2 | All Maps","name_short":"lax-2","host":"lax-1.us.uncletopia.com","port":27025,"enabled":true,"region":"us-west","cc":"us","latitude":33.94279,"longitude":-118.41004,"reserved":0,"last_update":"0001-01-01T00:00:00Z","name_a2s":"Uncletopia | Los Angeles | 2 | All Maps","protocol":17,"map":"pl_pier","folder":"tf","game":"Team Fortress","app_id":440,"player_count":5,"max_players":24,"Bots":0,"server_type":"Dedicated","server_os":"Linux","password":true,"vac":true,"version":"7757534","steam_id":85568392924469992,"keywords":["nocrits","nodmgspread","payload","uncletopia"],"game_id":440,"stv_port":27026,"stv_name":"Uncletopia | Los Angeles | 2 | All Maps | STV","players":[{"user_id":29,"name":"[Œ¥] Delta","steam_id":76561198287190116,"connected_time":386000000000,"state":"active","ping":78},{"user_id":14,"name":"Tufu","steam_id":76561198170095074,"connected_time":3364000000000,"state":"active","ping":92},{"user_id":15,"name":"Lumi","steam_id":76561198387080267,"connected_time":3359000000000,"state":"active","ping":88},{"user_id":16,"name":"Tony_J","steam_id":76561198163563201,"connected_time":3346000000000,"state":"active","ping":111},{"user_id":25,"name":"Rat (self-tamed)","steam_id":76561198052397636,"connected_time":1573000000000,"state":"active","ping":109}]},{"server_id":324,"name":"Uncletopia | Los Angeles | 3 | All Maps","name_short":"lax-3","host":"lax-1.us.uncletopia.com","port":27035,"enabled":true,"region":"us-west","cc":"us","latitude":33.94279,"longitude":-118.41004,"reserved":0,"last_update":"0001-01-01T00:00:00Z","name_a2s":"Uncletopia | Los Angeles | 3 | All Maps","protocol":17,"map":"pl_frontier_final","folder":"tf","game":"Team Fortress","app_id":440,"player_count":0,"max_players":24,"Bots":0,"server_type":"Dedicated","server_os":"Linux","password":true,"vac":true,"version":"7757534","steam_id":85568392924510198,"keywords":["nocrits","nodmgspread","payload","uncletopia"],"game_id":440,"stv_port":27036,"stv_name":"Uncletopia | Los Angeles | 3 | All Maps | STV","players":null},{"server_id":25,"name":"Uncletopia | Los Angeles | 4 | Stopwatch Beta","name_short":"lax-4","host":"lax-1.us.uncletopia.com","port":27045,"enabled":true,"region":"us-west","cc":"us","latitude":33.94279,"longitude":-118.41004,"reserved":0,"last_update":"0001-01-01T00:00:00Z","name_a2s":"Uncletopia | Los Angeles | 4 | Stopwatch Beta","protocol":17,"map":"workshop/koth_ashville_final.ugc2130459942","folder":"tf","game":"Team Fortress","app_id":440,"player_count":2,"max_players":24,"Bots":0,"server_type":"Dedicated","server_os":"Linux","password":true,"vac":true,"version":"7757534","steam_id":85568392924510199,"keywords":["cp","nocrits","nodmgspread","uncletopia"],"game_id":440,"stv_port":27046,"stv_name":"Uncletopia | Los Angeles | 4 | Stopwatch Beta | STV","players":[{"user_id":22,"name":"fulices","steam_id":76561198420163702,"connected_time":1694000000000,"state":"active","ping":30},{"user_id":23,"name":"StrikcZ Áà∂","steam_id":76561198976507691,"connected_time":1512000000000,"state":"active","ping":45}]},{"server_id":11,"name":"Uncletopia | London | 1 | All Maps","name_short":"lon-1","host":"lon-1.uk.uncletopia.com","port":27015,"enabled":true,"region":"eu","cc":"gb","latitude":51.509865,"longitude":-0.118092,"reserved":0,"last_update":"0001-01-01T00:00:00Z","name_a2s":"Uncletopia | London | 1 | All Maps","protocol":17,"map":"koth_viaduct","folder":"tf","game":"Team Fortress","app_id":440,"player_count":0,"max_players":24,"Bots":0,"server_type":"Dedicated","server_os":"Linux","password":true,"vac":true,"version":"7757534","steam_id":85568392924367362,"keywords":["cp","nocrits","nodmgspread","uncletopia"],"game_id":440,"stv_port":27016,"stv_name":"Uncletopia | London | 1 | All Maps | STV","players":null},{"server_id":114,"name":"Uncletopia | London | 2 | All Maps","name_short":"lon-2","host":"lon-1.uk.uncletopia.com","port":27025,"enabled":true,"region":"eu","cc":"gb","latitude":51.509865,"longitude":-0.118092,"reserved":0,"last_update":"0001-01-01T00:00:00Z","name_a2s":"Uncletopia | London | 2 | All Maps","protocol":17,"map":"cp_dustbowl","folder":"tf","game":"Team Fortress","app_id":440,"player_count":0,"max_players":24,"Bots":0,"server_type":"Dedicated","server_os":"Linux","password":true,"vac":true,"version":"7757534","steam_id":85568392924470941,"keywords":["cp","nocrits","nodmgspread","uncletopia"],"game_id":440,"stv_port":27026,"stv_name":"Uncletopia | London | 2 | All Maps | STV","players":null},{"server_id":320,"name":"Uncletopia | London | 3 | All Maps","name_short":"lon-3","host":"lon-1.uk.uncletopia.com","port":27035,"enabled":true,"region":"eu","cc":"gb","latitude":51.509865,"longitude":-0.118092,"reserved":0,"last_update":"0001-01-01T00:00:00Z","name_a2s":"Uncletopia | London | 3 | All Maps","protocol":17,"map":"cp_steel","folder":"tf","game":"Team Fortress","app_id":440,"player_count":22,"max_players":24,"Bots":0,"server_type":"Dedicated","server_os":"Linux","password":true,"vac":true,"version":"7757534","steam_id":85568392924510192,"keywords":["cp","nocrits","nodmgspread","uncletopia"],"game_id":440,"stv_port":27036,"stv_name":"Uncletopia | London | 3 | All Maps | STV","players":[{"user_id":59,"name":"Robin ‚òÖ","steam_id":76561198124355408,"connected_time":439000000000,"state":"active","ping":101},{"user_id":10,"name":"fried","steam_id":76561198307522022,"connected_time":3676000000000,"state":"active","ping":52},{"user_id":5,"name":"DocTwoEight","steam_id":76561198153488940,"connected_time":4032000000000,"state":"active","ping":71},{"user_id":62,"name":"Brass beast heavy","steam_id":76561198274197623,"connected_time":178000000000,"state":"active","ping":73},{"user_id":58,"name":"HimpoX","steam_id":76561198043946778,"connected_time":462000000000,"state":"active","ping":88},{"user_id":9,"name":"OffMilky","steam_id":76561198831440921,"connected_time":3811000000000,"state":"active","ping":27},{"user_id":66,"name":"qt wavyz","steam_id":76561199060668138,"connected_time":30000000000,"state":"active","ping":168},{"user_id":65,"name":"Mr.B","steam_id":76561199204478925,"connected_time":96000000000,"state":"active","ping":104},{"user_id":56,"name":"asa","steam_id":76561198864535610,"connected_time":1022000000000,"state":"active","ping":61},{"user_id":53,"name":".::[SerafeTTiN]::.","steam_id":76561198009471724,"connected_time":1369000000000,"state":"active","ping":98},{"user_id":60,"name":"dust","steam_id":76561198293557665,"connected_time":396000000000,"state":"active","ping":100},{"user_id":64,"name":"MateMO","steam_id":76561198146180114,"connected_time":147000000000,"state":"active","ping":97},{"user_id":57,"name":"Lognes","steam_id":76561198076569769,"connected_time":1008000000000,"state":"active","ping":59},{"user_id":43,"name":"pou123321","steam_id":76561198069211237,"connected_time":2011000000000,"state":"active","ping":131},{"user_id":46,"name":"Fat Pigeon","steam_id":76561198817940142,"connected_time":1782000000000,"state":"active","ping":47},{"user_id":34,"name":"Kalco","steam_id":76561198824731701,"connected_time":2223000000000,"state":"active","ping":81},{"user_id":32,"name":"dafydd","steam_id":76561198052200325,"connected_time":2292000000000,"state":"active","ping":87},{"user_id":61,"name":"Jiggie","steam_id":76561198018134884,"connected_time":342000000000,"state":"active","ping":70},{"user_id":41,"name":"Pacif","steam_id":76561198032392801,"connected_time":2058000000000,"state":"active","ping":71},{"user_id":44,"name":"ugly","steam_id":76561199050412617,"connected_time":2004000000000,"state":"active","ping":126},{"user_id":45,"name":"Shun Rosen","steam_id":76561198012823909,"connected_time":1851000000000,"state":"active","ping":135},{"user_id":52,"name":"Geraldo","steam_id":76561198046596619,"connected_time":1483000000000,"state":"active","ping":121}]},{"server_id":321,"name":"Uncletopia | London | 4 | All Maps","name_short":"lon-4","host":"lon-1.uk.uncletopia.com","port":27045,"enabled":true,"region":"eu","cc":"gb","latitude":51.509865,"longitude":-0.118092,"reserved":0,"last_update":"0001-01-01T00:00:00Z","name_a2s":"Uncletopia | London | 4 | All Maps","protocol":17,"map":"koth_viaduct","folder":"tf","game":"Team Fortress","app_id":440,"player_count":0,"max_players":24,"Bots":0,"server_type":"Dedicated","server_os":"Linux","password":true,"vac":true,"version":"7757534","steam_id":85568392924510193,"keywords":["cp","nocrits","nodmgspread","uncletopia"],"game_id":440,"stv_port":27046,"stv_name":"Uncletopia | London | 4 | All Maps | STV","players":null},{"server_id":21,"name":"Uncletopia | London | 5 | All Maps","name_short":"lon-5","host":"lon-1.uk.uncletopia.com","port":27055,"enabled":true,"region":"eu","cc":"gb","latitude":51.509865,"longitude":-0.118092,"reserved":0,"last_update":"0001-01-01T00:00:00Z","name_a2s":"Uncletopia | London | 5 | All Maps","protocol":17,"map":"cp_snakewater_final1","folder":"tf","game":"Team Fortress","app_id":440,"player_count":0,"max_players":24,"Bots":0,"server_type":"Dedicated","server_os":"Linux","password":true,"vac":true,"version":"7757534","steam_id":85568392924742829,"keywords":["cp","nocrits","nodmgspread","uncletopia"],"game_id":440,"stv_port":27056,"stv_name":"Uncletopia | London | 5 | All Maps | STV","players":null},{"server_id":22,"name":"Uncletopia | London | 6 | All Maps","name_short":"lon-6","host":"lon-1.uk.uncletopia.com","port":27065,"enabled":true,"region":"eu","cc":"gb","latitude":51.509865,"longitude":-0.118092,"reserved":0,"last_update":"0001-01-01T00:00:00Z","name_a2s":"Uncletopia | London | 6 | All Maps","protocol":17,"map":"koth_cascade","folder":"tf","game":"Team Fortress","app_id":440,"player_count":0,"max_players":24,"Bots":0,"server_type":"Dedicated","server_os":"Linux","password":true,"vac":true,"version":"7757534","steam_id":85568392924742830,"keywords":["cp","nocrits","nodmgspread","uncletopia"],"game_id":440,"stv_port":27066,"stv_name":"Uncletopia | London | 6 | All Maps | STV","players":null},{"server_id":40,"name":"Uncletopia | London | 7 | No Payload","name_short":"lon-7","host":"lon-1.uk.uncletopia.com","port":27075,"enabled":true,"region":"eu","cc":"gb","latitude":51.509865,"longitude":-0.118092,"reserved":0,"last_update":"0001-01-01T00:00:00Z","name_a2s":"Uncletopia | London | 7 | No Payload","protocol":17,"map":"cp_process_final","folder":"tf","game":"Team Fortress","app_id":440,"player_count":0,"max_players":24,"Bots":0,"server_type":"Dedicated","server_os":"Linux","password":true,"vac":true,"version":"7757534","steam_id":85568392924964314,"keywords":["cp","nocrits","nodmgspread","uncletopia"],"game_id":440,"stv_port":27076,"stv_name":"Uncletopia | London | 7 | No Payload | STV","players":null},{"server_id":41,"name":"Uncletopia | London | 8 | Community","name_short":"lon-8","host":"lon-1.uk.uncletopia.com","port":27085,"enabled":true,"region":"eu","cc":"gb","latitude":51.509865,"longitude":-0.118092,"reserved":0,"last_update":"0001-01-01T00:00:00Z","name_a2s":"Uncletopia | London | 8 | Community","protocol":17,"map":"workshop/koth_slaughter_rc1.ugc1712845210","folder":"tf","game":"Team Fortress","app_id":440,"player_count":0,"max_players":24,"Bots":0,"server_type":"Dedicated","server_os":"Linux","password":true,"vac":true,"version":"7757534","steam_id":85568392924964315,"keywords":["cp","nocrits","nodmgspread","uncletopia"],"game_id":440,"stv_port":27086,"stv_name":"Uncletopia | London | 8 | Community | STV","players":null},{"server_id":300,"name":"Uncletopia | Montr√©al | 1 | All Maps","name_short":"mtl-1","host":"mtl-1.ca.uncletopia.com","port":27015,"enabled":true,"region":"us-east","cc":"ca","latitude":45.50889,"longitude":-73.56167,"reserved":0,"last_update":"0001-01-01T00:00:00Z","name_a2s":"Uncletopia | Montr√©al | 1 | All Maps","protocol":17,"map":"pl_pier","folder":"tf","game":"Team Fortress","app_id":440,"player_count":0,"max_players":24,"Bots":0,"server_type":"Dedicated","server_os":"Linux","password":true,"vac":true,"version":"7757534","steam_id":85568392924500087,"keywords":["nocrits","nodmgspread","payload","uncletopia"],"game_id":440,"stv_port":27016,"stv_name":"Uncletopia | Montr√©al | 1 | All Maps | STV","players":null},{"server_id":301,"name":"Uncletopia | Montr√©al | 2 | All Maps","name_short":"mtl-2","host":"mtl-1.ca.uncletopia.com","port":27025,"enabled":true,"region":"us-east","cc":"ca","latitude":45.50889,"longitude":-73.56167,"reserved":0,"last_update":"0001-01-01T00:00:00Z","name_a2s":"Uncletopia | Montr√©al | 2 | All Maps","protocol":17,"map":"koth_viaduct","folder":"tf","game":"Team Fortress","app_id":440,"player_count":0,"max_players":24,"Bots":0,"server_type":"Dedicated","server_os":"Linux","password":true,"vac":true,"version":"7757534","steam_id":85568392924500088,"keywords":["cp","nocrits","nodmgspread","uncletopia"],"game_id":440,"stv_port":27026,"stv_name":"Uncletopia | Montr√©al | 2 | All Maps | STV","players":null},{"server_id":302,"name":"Uncletopia | Montr√©al | 3 | All Maps","name_short":"mtl-3","host":"mtl-1.ca.uncletopia.com","port":27035,"enabled":true,"region":"us-east","cc":"ca","latitude":45.50889,"longitude":-73.56167,"reserved":0,"last_update":"0001-01-01T00:00:00Z","name_a2s":"Uncletopia | Montr√©al | 3 | All Maps","protocol":17,"map":"pl_frontier_final","folder":"tf","game":"Team Fortress","app_id":440,"player_count":0,"max_players":24,"Bots":0,"server_type":"Dedicated","server_os":"Linux","password":true,"vac":true,"version":"7757534","steam_id":85568392924500089,"keywords":["nocrits","nodmgspread","payload","uncletopia"],"game_id":440,"stv_port":27036,"stv_name":"Uncletopia | Montr√©al | 3 | All Maps | STV","players":null},{"server_id":303,"name":"Uncletopia | Montr√©al | 4 | No Payload","name_short":"mtl-4","host":"mtl-1.ca.uncletopia.com","port":27045,"enabled":true,"region":"us-east","cc":"ca","latitude":45.50889,"longitude":-73.56167,"reserved":0,"last_update":"0001-01-01T00:00:00Z","name_a2s":"Uncletopia | Montr√©al | 4 | No Payload","protocol":17,"map":"pl_borneo","folder":"tf","game":"Team Fortress","app_id":440,"player_count":0,"max_players":24,"Bots":0,"server_type":"Dedicated","server_os":"Linux","password":true,"vac":true,"version":"7757534","steam_id":85568392924500090,"keywords":["nocrits","nodmgspread","payload","uncletopia"],"game_id":440,"stv_port":27046,"stv_name":"Uncletopia | Montr√©al | 4 | No Payload | STV","players":null},{"server_id":13,"name":"Uncletopia | New York City | 1 | All Maps","name_short":"nyc-1","host":"nyc-1.us.uncletopia.com","port":27015,"enabled":true,"region":"us-east","cc":"us","latitude":40.73061,"longitude":-73.93524,"reserved":0,"last_update":"0001-01-01T00:00:00Z","name_a2s":"Uncletopia | New York City | 1 | All Maps","protocol":17,"map":"pl_snowycoast","folder":"tf","game":"Team Fortress","app_id":440,"player_count":14,"max_players":24,"Bots":0,"server_type":"Dedicated","server_os":"Linux","password":true,"vac":true,"version":"7757534","steam_id":85568392924469993,"keywords":["nocrits","nodmgspread","payload","uncletopia"],"game_id":440,"stv_port":27016,"stv_name":"Uncletopia | New York City | 1 | All Maps | STV","players":[{"user_id":607,"name":"Room","steam_id":76561199174579733,"connected_time":877000000000,"state":"active","ping":54},{"user_id":608,"name":"Fog Champ","steam_id":76561198120777991,"connected_time":693000000000,"state":"active","ping":56},{"user_id":597,"name":"Pizza Party","steam_id":76561198165730754,"connected_time":1360000000000,"state":"active","ping":62},{"user_id":609,"name":"Dozo","steam_id":76561198011546437,"connected_time":478000000000,"state":"active","ping":70},{"user_id":589,"name":"BIGGIE CHEESE","steam_id":76561198014620175,"connected_time":2834000000000,"state":"active","ping":111},{"user_id":606,"name":"puppygirl gaming","steam_id":76561198044363630,"connected_time":1063000000000,"state":"active","ping":46},{"user_id":612,"name":"Angry Loona","steam_id":76561198282296334,"connected_time":181000000000,"state":"active","ping":57},{"user_id":567,"name":"daemon","steam_id":76561198001541433,"connected_time":5855000000000,"state":"active","ping":74},{"user_id":568,"name":"trappy (showered)","steam_id":76561198402801140,"connected_time":5852000000000,"state":"active","ping":84},{"user_id":561,"name":"Resident Thrussy Lender","steam_id":76561198071790583,"connected_time":6306000000000,"state":"active","ping":92},{"user_id":573,"name":"fish","steam_id":76561198054070811,"connected_time":5791000000000,"state":"active","ping":123},{"user_id":576,"name":"C papi","steam_id":76561198027779564,"connected_time":5123000000000,"state":"active","ping":50},{"user_id":603,"name":"„Ç¢„É≥„Éê„Éº„Ç∞","steam_id":76561199137927878,"connected_time":1159000000000,"state":"active","ping":188},{"user_id":579,"name":"Vladikr1","steam_id":76561198401495362,"connected_time":5084000000000,"state":"active","ping":66}]},{"server_id":14,"name":"Uncletopia | New York City | 2 | All Maps","name_short":"nyc-2","host":"nyc-1.us.uncletopia.com","port":27025,"enabled":true,"region":"us-east","cc":"us","latitude":40.73061,"longitude":-73.93524,"reserved":0,"last_update":"0001-01-01T00:00:00Z","name_a2s":"Uncletopia | New York City | 2 | All Maps","protocol":17,"map":"koth_cascade","folder":"tf","game":"Team Fortress","app_id":440,"player_count":0,"max_players":24,"Bots":0,"server_type":"Dedicated","server_os":"Linux","password":true,"vac":true,"version":"7757534","steam_id":85568392924469994,"keywords":["cp","nocrits","nodmgspread","uncletopia"],"game_id":440,"stv_port":27026,"stv_name":"Uncletopia | New York City | 2 | All Maps | STV","players":null},{"server_id":15,"name":"Uncletopia | New York City | 3 | Stopwatch Beta","name_short":"nyc-3","host":"nyc-1.us.uncletopia.com","port":27035,"enabled":true,"region":"us-east","cc":"us","latitude":40.73061,"longitude":-73.93524,"reserved":0,"last_update":"0001-01-01T00:00:00Z","name_a2s":"Uncletopia | New York City | 3 | Stopwatch Beta","protocol":17,"map":"pl_swiftwater_final1","folder":"tf","game":"Team Fortress","app_id":440,"player_count":0,"max_players":24,"Bots":0,"server_type":"Dedicated","server_os":"Linux","password":true,"vac":true,"version":"7757534","steam_id":85568392924742820,"keywords":["nocrits","nodmgspread","payload","uncletopia"],"game_id":440,"stv_port":27036,"stv_name":"Uncletopia | New York City | 3 | Stopwatch Beta | STV","players":null},{"server_id":16,"name":"Uncletopia | New York City | 4 | Community","name_short":"nyc-4","host":"nyc-1.us.uncletopia.com","port":27045,"enabled":true,"region":"us-east","cc":"us","latitude":40.73061,"longitude":-73.93524,"reserved":0,"last_update":"0001-01-01T00:00:00Z","name_a2s":"Uncletopia | New York City | 4 | Community","protocol":17,"map":"workshop/pl_cashworks_final1.ugc2904065412","folder":"tf","game":"Team Fortress","app_id":440,"player_count":0,"max_players":24,"Bots":0,"server_type":"Dedicated","server_os":"Linux","password":true,"vac":true,"version":"7757534","steam_id":85568392924742821,"keywords":["nocrits","nodmgspread","payload","uncletopia"],"game_id":440,"stv_port":27046,"stv_name":"Uncletopia | New York City | 4 | Community | STV","players":null},{"server_id":142,"name":"Uncletopia | S√£o Paulo | 1 | All Maps","name_short":"sao-1","host":"sao-1.br.uncletopia.com","port":27015,"enabled":true,"region":"sa","cc":"br","latitude":-23.533773,"longitude":-46.62529,"reserved":0,"last_update":"0001-01-01T00:00:00Z","name_a2s":"Uncletopia | S√£o Paulo | 1 | All Maps","protocol":17,"map":"koth_highpass","folder":"tf","game":"Team Fortress","app_id":440,"player_count":0,"max_players":24,"Bots":0,"server_type":"Dedicated","server_os":"Linux","password":true,"vac":true,"version":"7757534","steam_id":85568392924469996,"keywords":["cp","nocrits","nodmgspread","uncletopia"],"game_id":440,"stv_port":27016,"stv_name":"Uncletopia | S√£o Paulo | 1 | All Maps | STV","players":null},{"server_id":143,"name":"Uncletopia | S√£o Paulo | 2 | All Maps","name_short":"sao-2","host":"sao-2.br.uncletopia.com","port":27015,"enabled":true,"region":"sa","cc":"br","latitude":-23.533773,"longitude":-46.62529,"reserved":0,"last_update":"0001-01-01T00:00:00Z","name_a2s":"Uncletopia | S√£o Paulo | 2 | All Maps","protocol":17,"map":"koth_viaduct","folder":"tf","game":"Team Fortress","app_id":440,"player_count":0,"max_players":24,"Bots":0,"server_type":"Dedicated","server_os":"Linux","password":true,"vac":true,"version":"7757534","steam_id":85568392924485349,"keywords":["cp","nocrits","nodmgspread","uncletopia"],"game_id":440,"stv_port":27016,"stv_name":"Uncletopia | S√£o Paulo | 2 | All Maps | STV","players":null},{"server_id":7,"name":"Uncletopia | Seattle | 1 | All Maps","name_short":"sea-1","host":"sea-1.us.uncletopia.com","port":27015,"enabled":true,"region":"us-west","cc":"us","latitude":47.608013,"longitude":-122.33517,"reserved":0,"last_update":"0001-01-01T00:00:00Z","name_a2s":"Uncletopia | Seattle | 1 | All Maps","protocol":17,"map":"pl_frontier_final","folder":"tf","game":"Team Fortress","app_id":440,"player_count":25,"max_players":24,"Bots":0,"server_type":"Dedicated","server_os":"Linux","password":true,"vac":true,"version":"7757534","steam_id":85568392924469997,"keywords":["nocrits","nodmgspread","payload","uncletopia"],"game_id":440,"stv_port":27016,"stv_name":"Uncletopia | Seattle | 1 | All Maps | STV","players":[{"user_id":417,"name":"the average dreamlander","steam_id":76561198325306660,"connected_time":2431000000000,"state":"active","ping":53},{"user_id":435,"name":"vivi","steam_id":76561199027530775,"connected_time":1010000000000,"state":"active","ping":87},{"user_id":420,"name":"Kobe","steam_id":76561198041937355,"connected_time":2267000000000,"state":"active","ping":84},{"user_id":292,"name":"Level 99 Mudcrab","steam_id":76561198077452771,"connected_time":12506000000000,"state":"active","ping":55},{"user_id":434,"name":"Riske","steam_id":76561198115840568,"connected_time":1062000000000,"state":"active","ping":118},{"user_id":407,"name":"Soviet Mexican Bear","steam_id":76561198296350977,"connected_time":3104000000000,"state":"active","ping":157},{"user_id":439,"name":"Tomato Soup","steam_id":76561198051834684,"connected_time":863000000000,"state":"active","ping":60},{"user_id":433,"name":"PopcornNinja101","steam_id":76561198330680181,"connected_time":1101000000000,"state":"active","ping":50},{"user_id":436,"name":"chicken wit dah eggrow","steam_id":76561198115458307,"connected_time":994000000000,"state":"active","ping":75},{"user_id":406,"name":"Nezumi Otokonoko","steam_id":76561198050083859,"connected_time":3138000000000,"state":"active","ping":70},{"user_id":357,"name":"Cinna Mon","steam_id":76561198005840633,"connected_time":7624000000000,"state":"active","ping":53},{"user_id":443,"name":"Grill Skills","steam_id":76561198053575147,"connected_time":297000000000,"state":"active","ping":65},{"user_id":432,"name":"THC Freebaser","steam_id":76561198075779863,"connected_time":1151000000000,"state":"active","ping":85},{"user_id":425,"name":"we did it mate","steam_id":76561199471434875,"connected_time":1853000000000,"state":"active","ping":39},{"user_id":431,"name":"gorlab","steam_id":76561198025089694,"connected_time":1171000000000,"state":"active","ping":62},{"user_id":371,"name":"Arsonist Goose","steam_id":76561198147441830,"connected_time":6647000000000,"state":"active","ping":74},{"user_id":426,"name":"Baito","steam_id":76561198068222085,"connected_time":1833000000000,"state":"active","ping":79},{"user_id":444,"name":"strong and healthy gamer","steam_id":76561198049489349,"connected_time":296000000000,"state":"active","ping":68},{"user_id":392,"name":"rat gets the cheese","steam_id":76561198031234032,"connected_time":5237000000000,"state":"active","ping":96},{"user_id":400,"name":"SlightlyToasty","steam_id":76561198934455279,"connected_time":4121000000000,"state":"active","ping":83},{"user_id":441,"name":"monstera","steam_id":76561198024000264,"connected_time":705000000000,"state":"active","ping":49},{"user_id":427,"name":"LeTonzy","steam_id":76561198005806699,"connected_time":1831000000000,"state":"active","ping":91},{"user_id":334,"name":"Ayayahuasca","steam_id":76561199002906056,"connected_time":9139000000000,"state":"active","ping":46},{"user_id":442,"name":"Naffers","steam_id":76561198195957335,"connected_time":312000000000,"state":"active","ping":45},{"user_id":445,"name":"Kaiga","steam_id":76561198044052046,"connected_time":158000000000,"state":"active","ping":130}]},{"server_id":119,"name":"Uncletopia | Seattle | 2 | All Maps","name_short":"sea-2","host":"sea-1.us.uncletopia.com","port":27025,"enabled":true,"region":"us-west","cc":"us","latitude":47.608013,"longitude":-122.33517,"reserved":0,"last_update":"0001-01-01T00:00:00Z","name_a2s":"Uncletopia | Seattle | 2 | All Maps","protocol":17,"map":"cp_mossrock","folder":"tf","game":"Team Fortress","app_id":440,"player_count":24,"max_players":24,"Bots":0,"server_type":"Dedicated","server_os":"Linux","password":true,"vac":true,"version":"7757534","steam_id":85568392924469998,"keywords":["cp","nocrits","nodmgspread","uncletopia"],"game_id":440,"stv_port":27026,"stv_name":"Uncletopia | Seattle | 2 | All Maps | STV","players":[{"user_id":715,"name":"shiftshock01","steam_id":76561199049488870,"connected_time":7785000000000,"state":"active","ping":61},{"user_id":806,"name":"social distance warrior","steam_id":76561198128992994,"connected_time":296000000000,"state":"active","ping":45},{"user_id":769,"name":"KHKenny","steam_id":76561198210902499,"connected_time":4020000000000,"state":"active","ping":75},{"user_id":808,"name":"35 Years Without a Footjob...","steam_id":76561198799299193,"connected_time":194000000000,"state":"active","ping":50},{"user_id":801,"name":"Google","steam_id":76561198857237473,"connected_time":1088000000000,"state":"active","ping":45},{"user_id":788,"name":"hungry home invader","steam_id":76561198190962742,"connected_time":2322000000000,"state":"active","ping":108},{"user_id":771,"name":"Ash!‚ù§","steam_id":76561198070398840,"connected_time":4007000000000,"state":"active","ping":70},{"user_id":795,"name":"resting neutral face","steam_id":76561197999259502,"connected_time":1823000000000,"state":"active","ping":60},{"user_id":784,"name":"FCKGW-RHQQ2-YXRKT-8TG6W-2B7Q8","steam_id":76561197993138592,"connected_time":3323000000000,"state":"active","ping":43},{"user_id":736,"name":"gerg","steam_id":76561197997127387,"connected_time":5730000000000,"state":"active","ping":65},{"user_id":807,"name":"O bez","steam_id":76561198841579939,"connected_time":287000000000,"state":"active","ping":90},{"user_id":760,"name":"Goat","steam_id":76561198130683707,"connected_time":4783000000000,"state":"active","ping":77},{"user_id":796,"name":"taco bell fire sauce","steam_id":76561198046073848,"connected_time":1778000000000,"state":"active","ping":45},{"user_id":747,"name":"me","steam_id":76561199468285784,"connected_time":5461000000000,"state":"active","ping":59},{"user_id":791,"name":"Rizzed Up Spy","steam_id":76561198851536991,"connected_time":2165000000000,"state":"active","ping":84},{"user_id":792,"name":"Mauve","steam_id":76561199020265281,"connected_time":2005000000000,"state":"active","ping":75},{"user_id":793,"name":"Sir Nope (TSS)","steam_id":76561198035935649,"connected_time":1895000000000,"state":"active","ping":89},{"user_id":809,"name":"Jettzky","steam_id":76561198305540151,"connected_time":192000000000,"state":"active","ping":66},{"user_id":802,"name":"ZaYMuLL","steam_id":76561198110935733,"connected_time":1085000000000,"state":"active","ping":122},{"user_id":778,"name":"mayor of penjamin city","steam_id":76561198881144114,"connected_time":3838000000000,"state":"active","ping":50},{"user_id":787,"name":"cheeto dorito","steam_id":76561198107941274,"connected_time":2939000000000,"state":"active","ping":73},{"user_id":781,"name":"TacoKaiju","steam_id":76561198374190188,"connected_time":3702000000000,"state":"active","ping":130},{"user_id":744,"name":"Jayne","steam_id":76561198043934448,"connected_time":5622000000000,"state":"active","ping":45},{"user_id":803,"name":"non menthol newport","steam_id":76561198041907345,"connected_time":1085000000000,"state":"active","ping":83}]},{"server_id":406,"name":"Uncletopia | Seattle | 3 | Stopwatch Beta","name_short":"sea-3","host":"sea-1.us.uncletopia.com","port":27035,"enabled":true,"region":"us-west","cc":"us","latitude":47.608013,"longitude":-122.33517,"reserved":0,"last_update":"0001-01-01T00:00:00Z","name_a2s":"Uncletopia | Seattle | 3 | Stopwatch Beta","protocol":17,"map":"workshop/pl_vigil_rc9.ugc1266210012","folder":"tf","game":"Team Fortress","app_id":440,"player_count":0,"max_players":24,"Bots":0,"server_type":"Dedicated","server_os":"Linux","password":true,"vac":true,"version":"7757534","steam_id":85568392924515217,"keywords":["nocrits","nodmgspread","payload","uncletopia"],"game_id":440,"stv_port":27036,"stv_name":"Uncletopia | Seattle | 3 | Stopwatch Beta | STV","players":null},{"server_id":17,"name":"Uncletopia | San Francisco | 1 | All Maps","name_short":"sfo-1","host":"sfo-1.us.uncletopia.com","port":27015,"enabled":true,"region":"us-west","cc":"us","latitude":37.77397,"longitude":-122.4313,"reserved":0,"last_update":"0001-01-01T00:00:00Z","name_a2s":"Uncletopia | San Francisco | 1 | All Maps","protocol":17,"map":"pl_snowycoast","folder":"tf","game":"Team Fortress","app_id":440,"player_count":0,"max_players":24,"Bots":0,"server_type":"Dedicated","server_os":"Linux","password":true,"vac":true,"version":"7757534","steam_id":85568392924469999,"keywords":["nocrits","nodmgspread","payload","uncletopia"],"game_id":440,"stv_port":27016,"stv_name":"Uncletopia | San Francisco | 1 | All Maps | STV","players":null},{"server_id":18,"name":"Uncletopia | San Francisco | 2 | All Maps","name_short":"sfo-2","host":"sfo-1.us.uncletopia.com","port":27025,"enabled":true,"region":"us-west","cc":"us","latitude":37.77397,"longitude":-122.4313,"reserved":0,"last_update":"0001-01-01T00:00:00Z","name_a2s":"Uncletopia | San Francisco | 2 | All Maps","protocol":17,"map":"plr_hightower","folder":"tf","game":"Team Fortress","app_id":440,"player_count":23,"max_players":24,"Bots":0,"server_type":"Dedicated","server_os":"Linux","password":true,"vac":true,"version":"7757534","steam_id":85568392924470000,"keywords":["nocrits","nodmgspread","payload","uncletopia"],"game_id":440,"stv_port":27026,"stv_name":"Uncletopia | San Francisco | 2 | All Maps | STV","players":[{"user_id":391,"name":"Milkf porn","steam_id":76561198152601497,"connected_time":164000000000,"state":"active","ping":92},{"user_id":349,"name":"Bikeway Naros","steam_id":76561198086676786,"connected_time":3622000000000,"state":"active","ping":42},{"user_id":351,"name":"Battery_Included","steam_id":76561198067164431,"connected_time":3509000000000,"state":"active","ping":51},{"user_id":336,"name":"Hindmost","steam_id":76561199081837220,"connected_time":5502000000000,"state":"active","ping":129},{"user_id":355,"name":"laggy mcstab","steam_id":76561198106379962,"connected_time":3267000000000,"state":"active","ping":103},{"user_id":369,"name":"Ketamine Ape","steam_id":76561198143132686,"connected_time":1776000000000,"state":"active","ping":89},{"user_id":283,"name":"Quon Grene for Vice Prez","steam_id":76561198127545817,"connected_time":11626000000000,"state":"active","ping":67},{"user_id":370,"name":"toiler","steam_id":76561198101363865,"connected_time":1713000000000,"state":"active","ping":102},{"user_id":390,"name":"150cc lightning cup andy","steam_id":76561198121268007,"connected_time":334000000000,"state":"active","ping":50},{"user_id":180,"name":"tweet","steam_id":76561198166515735,"connected_time":19330000000000,"state":"active","ping":46},{"user_id":372,"name":"Reverie","steam_id":76561198987005784,"connected_time":1711000000000,"state":"active","ping":111},{"user_id":356,"name":"autumnal.messenger","steam_id":76561199345816635,"connected_time":3253000000000,"state":"active","ping":70},{"user_id":393,"name":"served","steam_id":76561199438267625,"connected_time":47000000000,"state":"active","ping":61},{"user_id":374,"name":"Dani","steam_id":76561198408146684,"connected_time":1587000000000,"state":"active","ping":88},{"user_id":394,"name":"Secret633","steam_id":76561199136015400,"connected_time":35000000000,"state":"active","ping":104},{"user_id":377,"name":"-BRH- Tangled up in Bluegrass","steam_id":76561197987181139,"connected_time":1477000000000,"state":"active","ping":100},{"user_id":368,"name":"Scarface #RattPack","steam_id":76561197979614166,"connected_time":1895000000000,"state":"active","ping":74},{"user_id":380,"name":"huiei","steam_id":76561198073763735,"connected_time":1270000000000,"state":"active","ping":64},{"user_id":363,"name":"Trips","steam_id":76561198054581597,"connected_time":2705000000000,"state":"active","ping":41},{"user_id":345,"name":"Akkawi","steam_id":76561198203159952,"connected_time":4343000000000,"state":"active","ping":57},{"user_id":388,"name":"Malmart_Employee","steam_id":76561198320388704,"connected_time":598000000000,"state":"active","ping":78},{"user_id":339,"name":"Frenchfry_Addict","steam_id":76561199156867989,"connected_time":5313000000000,"state":"active","ping":78},{"user_id":392,"name":"Ôº§ÔΩÅÔΩíÔΩãÔΩíÔΩÅÔΩâ","steam_id":76561198799800309,"connected_time":162000000000,"state":"active","ping":77}]},{"server_id":19,"name":"Uncletopia | San Francisco | 3 | Stopwatch Beta","name_short":"sfo-3","host":"sfo-1.us.uncletopia.com","port":27035,"enabled":true,"region":"us-west","cc":"us","latitude":37.77397,"longitude":-122.4313,"reserved":0,"last_update":"0001-01-01T00:00:00Z","name_a2s":"Uncletopia | San Francisco | 3 | Stopwatch Beta","protocol":17,"map":"workshop/koth_ramjam_rc1.ugc459778887","folder":"tf","game":"Team Fortress","app_id":440,"player_count":0,"max_players":24,"Bots":0,"server_type":"Dedicated","server_os":"Linux","password":true,"vac":true,"version":"7757534","steam_id":85568392924742824,"keywords":["cp","nocrits","nodmgspread","uncletopia"],"game_id":440,"stv_port":27036,"stv_name":"Uncletopia | San Francisco | 3 | Stopwatch Beta | STV","players":null},{"server_id":20,"name":"Uncletopia | San Francisco | 4 | Community","name_short":"sfo-4","host":"sfo-1.us.uncletopia.com","port":27045,"enabled":true,"region":"us-west","cc":"us","latitude":37.77397,"longitude":-122.4313,"reserved":0,"last_update":"0001-01-01T00:00:00Z","name_a2s":"Uncletopia | San Francisco | 4 | Community","protocol":17,"map":"workshop/pl_corrode_rc2.ugc546577989","folder":"tf","game":"Team Fortress","app_id":440,"player_count":0,"max_players":24,"Bots":0,"server_type":"Dedicated","server_os":"Linux","password":true,"vac":true,"version":"7757534","steam_id":85568392924742826,"keywords":["nocrits","nodmgspread","payload","uncletopia"],"game_id":440,"stv_port":27046,"stv_name":"Uncletopia | San Francisco | 4 | Community | STV","players":null},{"server_id":141,"name":"Uncletopia | Sydney | 1 | All Maps","name_short":"syd-1","host":"syd-1.au.uncletopia.com","port":27015,"enabled":true,"region":"au","cc":"au","latitude":-33.865143,"longitude":151.2099,"reserved":0,"last_update":"0001-01-01T00:00:00Z","name_a2s":"Uncletopia | Sydney | 1 | All Maps","protocol":17,"map":"koth_highpass","folder":"tf","game":"Team Fortress","app_id":440,"player_count":2,"max_players":24,"Bots":0,"server_type":"Dedicated","server_os":"Linux","password":true,"vac":true,"version":"7757534","steam_id":85568392924470001,"keywords":["cp","nocrits","nodmgspread","uncletopia"],"game_id":440,"stv_port":27016,"stv_name":"Uncletopia | Sydney | 1 | All Maps | STV","players":[{"user_id":316,"name":"scout tf2","steam_id":76561198251386932,"connected_time":1058000000000,"state":"active","ping":61},{"user_id":317,"name":"JayTheLlamaKing","steam_id":76561198836354249,"connected_time":1056000000000,"state":"active","ping":65}]},{"server_id":123,"name":"Uncletopia | Sydney | 2 | All Maps","name_short":"syd-2","host":"syd-1.au.uncletopia.com","port":27025,"enabled":true,"region":"au","cc":"au","latitude":-33.865143,"longitude":151.2099,"reserved":0,"last_update":"0001-01-01T00:00:00Z","name_a2s":"Uncletopia | Sydney | 2 | All Maps","protocol":17,"map":"pl_frontier_final","folder":"tf","game":"Team Fortress","app_id":440,"player_count":24,"max_players":24,"Bots":0,"server_type":"Dedicated","server_os":"Linux","password":true,"vac":true,"version":"7757534","steam_id":85568392924470002,"keywords":["nocrits","nodmgspread","payload","uncletopia"],"game_id":440,"stv_port":27026,"stv_name":"Uncletopia | Sydney | 2 | All Maps | STV","players":[{"user_id":182,"name":"Rolf :)","steam_id":76561198052357164,"connected_time":572000000000,"state":"active","ping":38},{"user_id":179,"name":"Lloydy","steam_id":76561198142971098,"connected_time":1385000000000,"state":"active","ping":72},{"user_id":185,"name":"MaV","steam_id":76561198045682020,"connected_time":470000000000,"state":"active","ping":65},{"user_id":184,"name":"Splooge Fellow","steam_id":76561198067993108,"connected_time":501000000000,"state":"active","ping":55},{"user_id":173,"name":"nurf","steam_id":76561198019391327,"connected_time":1826000000000,"state":"active","ping":79},{"user_id":194,"name":"Abraham Lincoln","steam_id":76561198095292515,"connected_time":56000000000,"state":"active","ping":60},{"user_id":152,"name":"Easel (any/all)","steam_id":76561198049213583,"connected_time":3134000000000,"state":"active","ping":62},{"user_id":176,"name":"Radio","steam_id":76561199436707447,"connected_time":1764000000000,"state":"active","ping":53},{"user_id":189,"name":"reeee.vol 2","steam_id":76561198309177510,"connected_time":308000000000,"state":"active","ping":87},{"user_id":191,"name":"eekynetwo(F2P Piss Sniper)","steam_id":76561198990017441,"connected_time":249000000000,"state":"active","ping":143},{"user_id":177,"name":"Zeal","steam_id":76561198060829393,"connected_time":1558000000000,"state":"active","ping":69},{"user_id":171,"name":"Mikey","steam_id":76561198438203131,"connected_time":2132000000000,"state":"active","ping":60},{"user_id":89,"name":"KnowZero","steam_id":76561198095752015,"connected_time":8490000000000,"state":"active","ping":62},{"user_id":165,"name":"Vasxus","steam_id":76561198067733319,"connected_time":2735000000000,"state":"active","ping":59},{"user_id":178,"name":"Emanuel Augustus","steam_id":76561199081848498,"connected_time":1509000000000,"state":"active","ping":56},{"user_id":180,"name":"Wake'n'Bake'n'Make'n'Bacon","steam_id":76561198061960926,"connected_time":709000000000,"state":"active","ping":95},{"user_id":174,"name":"SaltierThanYou","steam_id":76561198444395188,"connected_time":1792000000000,"state":"active","ping":84},{"user_id":169,"name":"Barry Bougar M.D.","steam_id":76561198301282416,"connected_time":2251000000000,"state":"active","ping":50},{"user_id":183,"name":"Pastamania","steam_id":76561198130213157,"connected_time":515000000000,"state":"active","ping":52},{"user_id":153,"name":"FrontlineNinja","steam_id":76561198046731954,"connected_time":3134000000000,"state":"active","ping":52},{"user_id":170,"name":"Robbie","steam_id":76561198150894900,"connected_time":2144000000000,"state":"active","ping":63},{"user_id":192,"name":"Cup","steam_id":76561198038485845,"connected_time":212000000000,"state":"active","ping":31},{"user_id":193,"name":"ben","steam_id":76561198223331996,"connected_time":194000000000,"state":"active","ping":74},{"user_id":181,"name":"Livid","steam_id":76561198060024585,"connected_time":653000000000,"state":"active","ping":39}]},{"server_id":395,"name":"Uncletopia | Sydney | 3 | All Maps","name_short":"syd-3","host":"syd-1.au.uncletopia.com","port":27035,"enabled":true,"region":"au","cc":"au","latitude":-33.865143,"longitude":151.2099,"reserved":0,"last_update":"0001-01-01T00:00:00Z","name_a2s":"Uncletopia | Sydney | 3 | All Maps","protocol":17,"map":"koth_viaduct","folder":"tf","game":"Team Fortress","app_id":440,"player_count":0,"max_players":24,"Bots":0,"server_type":"Dedicated","server_os":"Linux","password":true,"vac":true,"version":"7757534","steam_id":85568392925194467,"keywords":["cp","nocrits","nodmgspread","uncletopia"],"game_id":440,"stv_port":27036,"stv_name":"Uncletopia | Sydney | 3 | All Maps | STV","players":null},{"server_id":396,"name":"Uncletopia | Sydney | 4 | All Maps","name_short":"syd-4","host":"syd-1.au.uncletopia.com","port":27045,"enabled":true,"region":"au","cc":"au","latitude":-33.865143,"longitude":151.2099,"reserved":0,"last_update":"0001-01-01T00:00:00Z","name_a2s":"Uncletopia | Sydney | 4 | All Maps","protocol":17,"map":"koth_lakeside_final","folder":"tf","game":"Team Fortress","app_id":440,"player_count":0,"max_players":24,"Bots":0,"server_type":"Dedicated","server_os":"Linux","password":true,"vac":true,"version":"7757534","steam_id":85568392925397958,"keywords":["cp","nocrits","nodmgspread","uncletopia"],"game_id":440,"stv_port":27046,"stv_name":"Uncletopia | Sydney | 4 | All Maps | STV","players":null},{"server_id":58,"name":"Uncletopia | Sydney | 5 | Stopwatch Beta","name_short":"syd-5","host":"syd-1.au.uncletopia.com","port":27055,"enabled":true,"region":"au","cc":"au","latitude":-33.865143,"longitude":151.2099,"reserved":0,"last_update":"0001-01-01T00:00:00Z","name_a2s":"Uncletopia | Sydney | 5 | Stopwatch Beta","protocol":17,"map":"workshop/koth_clearcut_b15.ugc2107050255","folder":"tf","game":"Team Fortress","app_id":440,"player_count":0,"max_players":24,"Bots":0,"server_type":"Dedicated","server_os":"Linux","password":true,"vac":true,"version":"7757534","steam_id":85568392925397959,"keywords":["cp","nocrits","nodmgspread","uncletopia"],"game_id":440,"stv_port":27056,"stv_name":"Uncletopia | Sydney | 5 | Stopwatch Beta | STV","players":null},{"server_id":59,"name":"Uncletopia | Sydney | 6 | Community","name_short":"syd-6","host":"syd-1.au.uncletopia.com","port":27065,"enabled":true,"region":"au","cc":"au","latitude":-33.865143,"longitude":151.2099,"reserved":0,"last_update":"0001-01-01T00:00:00Z","name_a2s":"Uncletopia | Sydney | 6 | Community","protocol":17,"map":"workshop/cp_sulfur_rc2.ugc619869471","folder":"tf","game":"Team Fortress","app_id":440,"player_count":0,"max_players":24,"Bots":0,"server_type":"Dedicated","server_os":"Linux","password":true,"vac":true,"version":"7757534","steam_id":85568392925397960,"keywords":["cp","nocrits","nodmgspread","uncletopia"],"game_id":440,"stv_port":27066,"stv_name":"Uncletopia | Sydney | 6 | Community | STV","players":null},{"server_id":49,"name":"Uncletopia | Warsaw | 1 | All Maps","name_short":"waw-1","host":"waw-1.pl.uncletopia.com","port":27015,"enabled":true,"region":"eu","cc":"pl","latitude":52.2297,"longitude":21.017532,"reserved":0,"last_update":"0001-01-01T00:00:00Z","name_a2s":"","protocol":0,"map":"","folder":"","game":"","app_id":0,"player_count":0,"max_players":0,"Bots":0,"server_type":"","server_os":"","password":false,"vac":false,"version":"","steam_id":0,"keywords":null,"game_id":0,"stv_port":0,"stv_name":"","players":null},{"server_id":50,"name":"Uncletopia | Warsaw | 2 | All Maps","name_short":"waw-2","host":"waw-1.pl.uncletopia.com","port":27025,"enabled":true,"region":"eu","cc":"pl","latitude":52.2297,"longitude":21.017532,"reserved":0,"last_update":"0001-01-01T00:00:00Z","name_a2s":"Uncletopia | Warsaw | 2 | All Maps","protocol":17,"map":"cp_process_final","folder":"tf","game":"Team Fortress","app_id":440,"player_count":0,"max_players":24,"Bots":0,"server_type":"Dedicated","server_os":"Linux","password":true,"vac":true,"version":"7757534","steam_id":85568392925397851,"keywords":["cp","nocrits","nodmgspread","uncletopia"],"game_id":440,"stv_port":27026,"stv_name":"Uncletopia | Warsaw | 2 | All Maps | STV","players":null},{"server_id":51,"name":"Uncletopia | Warsaw | 3 | All Maps","name_short":"waw-3","host":"waw-1.pl.uncletopia.com","port":27035,"enabled":true,"region":"eu","cc":"pl","latitude":52.2297,"longitude":21.017532,"reserved":0,"last_update":"0001-01-01T00:00:00Z","name_a2s":"Uncletopia | Warsaw | 3 | All Maps","protocol":17,"map":"pl_barnblitz","folder":"tf","game":"Team Fortress","app_id":440,"player_count":0,"max_players":24,"Bots":0,"server_type":"Dedicated","server_os":"Linux","password":true,"vac":true,"version":"7757534","steam_id":85568392925397852,"keywords":["nocrits","nodmgspread","payload","uncletopia"],"game_id":440,"stv_port":27036,"stv_name":"Uncletopia | Warsaw | 3 | All Maps | STV","players":null},{"server_id":52,"name":"Uncletopia | Warsaw | 4 | All Maps","name_short":"waw-4","host":"waw-1.pl.uncletopia.com","port":27045,"enabled":true,"region":"eu","cc":"pl","latitude":52.2297,"longitude":21.017532,"reserved":0,"last_update":"0001-01-01T00:00:00Z","name_a2s":"Uncletopia | Warsaw | 4 | All Maps","protocol":17,"map":"pl_snowycoast","folder":"tf","game":"Team Fortress","app_id":440,"player_count":0,"max_players":24,"Bots":0,"server_type":"Dedicated","server_os":"Linux","password":true,"vac":true,"version":"7757534","steam_id":85568392925397853,"keywords":["nocrits","nodmgspread","payload","uncletopia"],"game_id":440,"stv_port":27046,"stv_name":"Uncletopia | Warsaw | 4 | All Maps | STV","players":null},{"server_id":53,"name":"Uncletopia | Warsaw | 5 | Stopwatch Beta","name_short":"waw-5","host":"waw-1.pl.uncletopia.com","port":27055,"enabled":true,"region":"eu","cc":"pl","latitude":52.2297,"longitude":21.017532,"reserved":0,"last_update":"0001-01-01T00:00:00Z","name_a2s":"Uncletopia | Warsaw | 5 | Stopwatch Beta","protocol":17,"map":"pl_barnblitz","folder":"tf","game":"Team Fortress","app_id":440,"player_count":0,"max_players":24,"Bots":0,"server_type":"Dedicated","server_os":"Linux","password":true,"vac":true,"version":"7757534","steam_id":85568392925397854,"keywords":["nocrits","nodmgspread","payload","uncletopia"],"game_id":440,"stv_port":27056,"stv_name":"Uncletopia | Warsaw | 5 | Stopwatch Beta | STV","players":null},{"server_id":54,"name":"Uncletopia | Warsaw | 6 | Community","name_short":"waw-6","host":"waw-1.pl.uncletopia.com","port":27065,"enabled":true,"region":"eu","cc":"pl","latitude":52.2297,"longitude":21.017532,"reserved":0,"last_update":"0001-01-01T00:00:00Z","name_a2s":"Uncletopia | Warsaw | 6 | Community","protocol":17,"map":"pl_swiftwater_final1","folder":"tf","game":"Team Fortress","app_id":440,"player_count":0,"max_players":24,"Bots":0,"server_type":"Dedicated","server_os":"Linux","password":true,"vac":true,"version":"7757534","steam_id":85568392925397856,"keywords":["nocrits","nodmgspread","payload","uncletopia"],"game_id":440,"stv_port":27066,"stv_name":"Uncletopia | Warsaw | 6 | Community | STV","players":null}]}