{"status":true,"message":"","result":[{"server_id":9,"name":"Uncletopia | Atlanta | 1 | All Maps","name_short":"atl-1","host":"atl-1.us.uncletopia.com","port":27015,"enabled":true,"region":"us-east","cc":"us","latitude":33.753746,"longitude":-84.38633,"reserved":0,"last_update":"0001-01-01T00:00:00Z","name_a2s":"Uncletopia | Atlanta | 1 | All Maps","protocol":17,"map":"pl_barnblitz","folder":"tf","game":"Team Fortress","app_id":440,"player_count":24,"max_players":24,"Bots":0,"server_type":"Dedicated","server_os":"Linux","password":true,"vac":true,"version":"7961495","steam_id":85568392924469982,"keywords":["nocrits","nodmgspread","payload","uncletopia"],"game_id":440,"stv_port":27016,"stv_name":"Uncletopia | Atlanta | 1 | All Maps | STV","players":[{"user_id":312,"name":"Fuzzy Toast","steam_id":76561198028067781,"connected_time":921000000000,"state":"active","ping":77},{"user_id":247,"name":"sansa musa","steam_id":76561198163723555,"connected_time":5652000000000,"state":"active","ping":72},{"user_id":314,"name":"eish","steam_id":76561198089463603,"connected_time":910000000000,"state":"active","ping":133},{"user_id":270,"name":"Heathcliff","steam_id":76561198044288534,"connected_time":3130000000000,"state":"active","ping":60},{"user_id":320,"name":"Cyclops_672","steam_id":76561198080169497,"connected_time":896000000000,"state":"active","ping":45},{"user_id":309,"name":"NON","steam_id":76561198066397754,"connected_time":944000000000,"state":"active","ping":48},{"user_id":295,"name":"CheeseCake488","steam_id":76561199407617942,"connected_time":1998000000000,"state":"active","ping":112},{"user_id":321,"name":"lobster war is the most life ch","steam_id":76561198069954956,"connected_time":848000000000,"state":"active","ping":48},{"user_id":322,"name":"rose","steam_id":76561198048882285,"connected_time":429000000000,"state":"active","ping":69},{"user_id":259,"name":"Flint","steam_id":76561198066547582,"connected_time":4187000000000,"state":"active","ping":103},{"user_id":323,"name":"Ball Sniffer 23","steam_id":76561198272318229,"connected_time":219000000000,"state":"active","ping":87},{"user_id":298,"name":"Mixbreed","steam_id":76561198087189722,"connected_time":1886000000000,"state":"active","ping":57},{"user_id":301,"name":"Cat on Your Porch","steam_id":76561197979078330,"connected_time":1843000000000,"state":"active","ping":77},{"user_id":302,"name":"Smiles","steam_id":76561198107197973,"connected_time":1476000000000,"state":"active","ping":85},{"user_id":308,"name":"DUGEN","steam_id":76561198049829542,"connected_time":1212000000000,"state":"active","ping":62},{"user_id":271,"name":"Brown_Dream","steam_id":76561198975766145,"connected_time":3130000000000,"state":"active","ping":68},{"user_id":281,"name":"lil hog","steam_id":76561199230929836,"connected_time":2441000000000,"state":"active","ping":84},{"user_id":303,"name":"lu","steam_id":76561198080731872,"connected_time":1454000000000,"state":"active","ping":75},{"user_id":278,"name":"Pango","steam_id":76561198069811545,"connected_time":2449000000000,"state":"active","ping":59},{"user_id":315,"name":"lurid","steam_id":76561199134999203,"connected_time":907000000000,"state":"active","ping":60},{"user_id":318,"name":"DeezNoodlez","steam_id":76561198246700372,"connected_time":897000000000,"state":"active","ping":60},{"user_id":288,"name":"z #based","steam_id":76561198377478982,"connected_time":2315000000000,"state":"active","ping":75},{"user_id":251,"name":"Le4n!!!","steam_id":76561198045522596,"connected_time":5319000000000,"state":"active","ping":73},{"user_id":256,"name":"Bunt","steam_id":76561198124477567,"connected_time":4715000000000,"state":"active","ping":47}]},{"server_id":104,"name":"Uncletopia | Atlanta | 2 | All Maps","name_short":"atl-2","host":"atl-1.us.uncletopia.com","port":27025,"enabled":true,"region":"us-east","cc":"us","latitude":33.753746,"longitude":-84.38633,"reserved":0,"last_update":"0001-01-01T00:00:00Z","name_a2s":"Uncletopia | Atlanta | 2 | All Maps","protocol":17,"map":"koth_cascade","folder":"tf","game":"Team Fortress","app_id":440,"player_count":0,"max_players":24,"Bots":0,"server_type":"Dedicated","server_os":"Linux","password":true,"vac":true,"version":"7961495","steam_id":85568392924469983,"keywords":["cp","nocrits","nodmgspread","uncletopia"],"game_id":440,"stv_port":27026,"stv_name":"Uncletopia | Atlanta | 2 | All Maps | STV","players":null},{"server_id":400,"name":"Uncletopia | Atlanta | 3 | Stopwatch","name_short":"atl-3","host":"atl-1.us.uncletopia.com","port":27035,"enabled":true,"region":"us-east","cc":"us","latitude":33.753746,"longitude":-84.38633,"reserved":0,"last_update":"0001-01-01T00:00:00Z","name_a2s":"Uncletopia | Atlanta | 3 | Stopwatch","protocol":17,"map":"cp_metalworks","folder":"tf","game":"Team Fortress","app_id":440,"player_count":0,"max_players":24,"Bots":0,"server_type":"Dedicated","server_os":"Linux","password":true,"vac":true,"version":"7961495","steam_id":85568392924515187,"keywords":["cp","nocrits","nodmgspread","uncletopia"],"game_id":440,"stv_port":27036,"stv_name":"Uncletopia | Atlanta | 3 | Stopwatch | STV","players":null},{"server_id":401,"name":"Uncletopia | Atlanta | 4 | Community","name_short":"atl-4","host":"atl-1.us.uncletopia.com","port":27045,"enabled":true,"region":"us-east","cc":"us","latitude":33.753746,"longitude":-84.38633,"reserved":0,"last_update":"0001-01-01T00:00:00Z","name_a2s":"Uncletopia | Atlanta | 4 | Community","protocol":17,"map":"workshop/rd_asteroid_redux_b1.ugc2154902912","folder":"tf","game":"Team Fortress","app_id":440,"player_count":18,"max_players":24,"Bots":0,"server_type":"Dedicated","server_os":"Linux","password":true,"vac":true,"version":"7961495","steam_id":85568392924515188,"keywords":["beta","nocrits","nodmgspread","rd","uncletopia"],"game_id":440,"stv_port":27046,"stv_name":"Uncletopia | Atlanta | 4 | Community | STV","players":[{"user_id":243,"name":"our omori boy","steam_id":76561198049256017,"connected_time":1312000000000,"state":"active","ping":73},{"user_id":257,"name":"Bing Chilling","steam_id":76561198089383364,"connected_time":603000000000,"state":"active","ping":86},{"user_id":229,"name":"AMistake","steam_id":76561199379196708,"connected_time":2882000000000,"state":"active","ping":57},{"user_id":259,"name":"Alphowlet98","steam_id":76561199093985532,"connected_time":538000000000,"state":"active","ping":176},{"user_id":244,"name":"AmC","steam_id":76561198109731140,"connected_time":1298000000000,"state":"active","ping":104},{"user_id":261,"name":"KnightOfGames","steam_id":76561198080460659,"connected_time":451000000000,"state":"active","ping":83},{"user_id":266,"name":"melon soda","steam_id":76561198066748230,"connected_time":136000000000,"state":"active","ping":72},{"user_id":248,"name":"ඞ⁧⁧OͭnͪeͤTrueDev","steam_id":76561198107400823,"connected_time":1084000000000,"state":"active","ping":75},{"user_id":262,"name":"Hedley Taggart","steam_id":76561198101605591,"connected_time":446000000000,"state":"active","ping":76},{"user_id":264,"name":"Sunshine","steam_id":76561198085837469,"connected_time":194000000000,"state":"active","ping":58},{"user_id":252,"name":"Sergeant Snowflake","steam_id":76561198041474489,"connected_time":913000000000,"state":"active","ping":74},{"user_id":231,"name":"Condensed Milk","steam_id":76561199209016136,"connected_time":2866000000000,"state":"active","ping":78},{"user_id":265,"name":"raldite","steam_id":76561198074152931,"connected_time":174000000000,"state":"active","ping":179},{"user_id":237,"name":"dratives 46","steam_id":76561199192799242,"connected_time":1906000000000,"state":"active","ping":58},{"user_id":268,"name":"[UNFAIR] H1gh0nSt34m","steam_id":76561198839068126,"connected_time":69000000000,"state":"active","ping":73},{"user_id":170,"name":"chikin.sauce","steam_id":76561198042464635,"connected_time":6890000000000,"state":"active","ping":85},{"user_id":208,"name":"kimchy101","steam_id":76561198202721584,"connected_time":4211000000000,"state":"active","ping":60},{"user_id":226,"name":"joachym","steam_id":76561198428579761,"connected_time":3048000000000,"state":"active","ping":160}]},{"server_id":2,"name":"Uncletopia | Chicago | 1 | All Maps","name_short":"chi-1","host":"chi-1.us.uncletopia.com","port":27015,"enabled":true,"region":"us-central","cc":"us","latitude":41.881832,"longitude":-87.62318,"reserved":0,"last_update":"0001-01-01T00:00:00Z","name_a2s":"Uncletopia | Chicago | 1 | All Maps","protocol":17,"map":"pl_pier","folder":"tf","game":"Team Fortress","app_id":440,"player_count":20,"max_players":24,"Bots":0,"server_type":"Dedicated","server_os":"Linux","password":true,"vac":true,"version":"7961495","steam_id":85568392924469984,"keywords":["nocrits","nodmgspread","payload","uncletopia"],"game_id":440,"stv_port":27016,"stv_name":"Uncletopia | Chicago | 1 | All Maps | STV","players":[{"user_id":436,"name":"poopybutt420","steam_id":76561199000805315,"connected_time":116000000000,"state":"active","ping":89},{"user_id":411,"name":"Scuba Steve","steam_id":76561198313018251,"connected_time":1335000000000,"state":"active","ping":75},{"user_id":430,"name":"Nexus935115","steam_id":76561199090105638,"connected_time":492000000000,"state":"active","ping":49},{"user_id":437,"name":"kite","steam_id":76561198346516392,"connected_time":111000000000,"state":"active","ping":69},{"user_id":352,"name":"Ratlympics Gold Medalist","steam_id":76561198064981004,"connected_time":6794000000000,"state":"active","ping":45},{"user_id":426,"name":"Kalmaro","steam_id":76561198097425350,"connected_time":738000000000,"state":"active","ping":46},{"user_id":429,"name":"Mburesh","steam_id":76561198137460717,"connected_time":537000000000,"state":"active","ping":58},{"user_id":412,"name":"FUSION","steam_id":76561197972659738,"connected_time":1335000000000,"state":"active","ping":60},{"user_id":400,"name":"Cipher","steam_id":76561198098790276,"connected_time":2160000000000,"state":"active","ping":47},{"user_id":434,"name":"Skab E²r","steam_id":76561199126112357,"connected_time":135000000000,"state":"active","ping":80},{"user_id":438,"name":"Whimsical Bruh","steam_id":76561199069973423,"connected_time":75000000000,"state":"active","ping":57},{"user_id":415,"name":"DomesticAvocado","steam_id":76561199036492206,"connected_time":1275000000000,"state":"active","ping":59},{"user_id":435,"name":"Go G Rah","steam_id":76561198132096765,"connected_time":135000000000,"state":"active","ping":91},{"user_id":353,"name":"Steak-Pocketer","steam_id":76561198277651410,"connected_time":6772000000000,"state":"active","ping":59},{"user_id":390,"name":"Supox","steam_id":76561198067468571,"connected_time":4597000000000,"state":"active","ping":63},{"user_id":439,"name":"kira","steam_id":76561198277979851,"connected_time":74000000000,"state":"active","ping":87},{"user_id":440,"name":"0","steam_id":76561198046065237,"connected_time":62000000000,"state":"active","ping":77},{"user_id":406,"name":"Toxic Mercenary","steam_id":76561197988501611,"connected_time":1398000000000,"state":"active","ping":70},{"user_id":404,"name":"MjrMovnTARGET","steam_id":76561199125908849,"connected_time":1931000000000,"state":"active","ping":67},{"user_id":389,"name":"Pikminseed","steam_id":76561198113502795,"connected_time":4627000000000,"state":"active","ping":72}]},{"server_id":106,"name":"Uncletopia | Chicago | 2 | All Maps","name_short":"chi-2","host":"chi-1.us.uncletopia.com","port":27025,"enabled":true,"region":"us-central","cc":"us","latitude":41.881832,"longitude":-87.62318,"reserved":0,"last_update":"0001-01-01T00:00:00Z","name_a2s":"Uncletopia | Chicago | 2 | All Maps","protocol":17,"map":"pl_borneo","folder":"tf","game":"Team Fortress","app_id":440,"player_count":24,"max_players":24,"Bots":0,"server_type":"Dedicated","server_os":"Linux","password":true,"vac":true,"version":"7961495","steam_id":85568392924469985,"keywords":["nocrits","nodmgspread","payload","uncletopia"],"game_id":440,"stv_port":27026,"stv_name":"Uncletopia | Chicago | 2 | All Maps | STV","players":[{"user_id":530,"name":"Nathan","steam_id":76561198127924646,"connected_time":915000000000,"state":"active","ping":75},{"user_id":517,"name":"Tlaxcalli","steam_id":76561198189330642,"connected_time":2169000000000,"state":"active","ping":104},{"user_id":515,"name":"Microsoft Hollowpoint","steam_id":76561198874445824,"connected_time":2541000000000,"state":"active","ping":61},{"user_id":528,"name":"Q Whang","steam_id":76561198122479810,"connected_time":931000000000,"state":"active","ping":57},{"user_id":501,"name":"ThatOneKnight","steam_id":76561198388583650,"connected_time":3366000000000,"state":"active","ping":54},{"user_id":539,"name":"You got the Dud!","steam_id":76561198131576005,"connected_time":483000000000,"state":"active","ping":61},{"user_id":525,"name":"Pumpkin","steam_id":76561198278246947,"connected_time":1338000000000,"state":"active","ping":65},{"user_id":537,"name":"Pinhead Dipshit","steam_id":76561198320121171,"connected_time":575000000000,"state":"active","ping":68},{"user_id":516,"name":"Sprinklingmydoughnut","steam_id":76561198168009092,"connected_time":2457000000000,"state":"active","ping":80},{"user_id":529,"name":"Oli B\u003eQS/BP/Bulk w/ 1.5k+ keys","steam_id":76561198140316312,"connected_time":930000000000,"state":"active","ping":58},{"user_id":474,"name":"ඞ.BAT","steam_id":76561198049800120,"connected_time":5314000000000,"state":"active","ping":89},{"user_id":507,"name":"biden cart 15 dollars","steam_id":76561198253731826,"connected_time":2780000000000,"state":"active","ping":64},{"user_id":453,"name":"Lennu","steam_id":76561198060730154,"connected_time":6389000000000,"state":"active","ping":69},{"user_id":508,"name":"Halibard","steam_id":76561198011239659,"connected_time":2779000000000,"state":"active","ping":58},{"user_id":526,"name":"Ray Kroc","steam_id":76561198362983846,"connected_time":1332000000000,"state":"active","ping":87},{"user_id":452,"name":"AkimboAoki","steam_id":76561198158323058,"connected_time":6445000000000,"state":"active","ping":90},{"user_id":543,"name":"Big Weeb Man","steam_id":76561198127819973,"connected_time":47000000000,"state":"spawning","ping":60},{"user_id":532,"name":"yomo","steam_id":76561198063175935,"connected_time":837000000000,"state":"active","ping":77},{"user_id":540,"name":"peter","steam_id":76561198405168492,"connected_time":468000000000,"state":"active","ping":85},{"user_id":520,"name":"BrookS","steam_id":76561198236150754,"connected_time":1613000000000,"state":"active","ping":102},{"user_id":523,"name":"NewtFish","steam_id":76561198426628854,"connected_time":1424000000000,"state":"active","ping":40},{"user_id":541,"name":"Pyromania","steam_id":76561198317028173,"connected_time":419000000000,"state":"active","ping":66},{"user_id":519,"name":"『ᴎioƆ』","steam_id":76561198879351372,"connected_time":1670000000000,"state":"active","ping":60},{"user_id":465,"name":"QweX_","steam_id":76561198051250642,"connected_time":5553000000000,"state":"active","ping":102}]},{"server_id":402,"name":"Uncletopia | Chicago | 3 | All Maps","name_short":"chi-3","host":"chi-1.us.uncletopia.com","port":27035,"enabled":true,"region":"us-central","cc":"us","latitude":41.881832,"longitude":-87.62318,"reserved":0,"last_update":"0001-01-01T00:00:00Z","name_a2s":"Uncletopia | Chicago | 3 | All Maps","protocol":17,"map":"pl_upward","folder":"tf","game":"Team Fortress","app_id":440,"player_count":24,"max_players":24,"Bots":0,"server_type":"Dedicated","server_os":"Linux","password":true,"vac":true,"version":"7961495","steam_id":85568392924515191,"keywords":["nocrits","nodmgspread","payload","uncletopia"],"game_id":440,"stv_port":27036,"stv_name":"Uncletopia | Chicago | 3 | All Maps | STV","players":[{"user_id":421,"name":"The Assistant Regional Manager","steam_id":76561199221484936,"connected_time":235000000000,"state":"active","ping":105},{"user_id":380,"name":"The Idiot","steam_id":76561198049837377,"connected_time":2315000000000,"state":"active","ping":49},{"user_id":377,"name":"Dingusflingus","steam_id":76561198830981952,"connected_time":3017000000000,"state":"active","ping":120},{"user_id":393,"name":"gatorbelt","steam_id":76561198145784505,"connected_time":1405000000000,"state":"active","ping":105},{"user_id":391,"name":"1peaches6","steam_id":76561198105763950,"connected_time":1849000000000,"state":"active","ping":97},{"user_id":413,"name":"choppa wednesday","steam_id":76561199389283507,"connected_time":824000000000,"state":"active","ping":60},{"user_id":401,"name":"ifuruna","steam_id":76561199506882366,"connected_time":1351000000000,"state":"active","ping":135},{"user_id":417,"name":"what","steam_id":76561198082336619,"connected_time":509000000000,"state":"active","ping":61},{"user_id":408,"name":"Smog","steam_id":76561198043705383,"connected_time":990000000000,"state":"active","ping":69},{"user_id":400,"name":"Nostic","steam_id":76561199508767541,"connected_time":1359000000000,"state":"active","ping":61},{"user_id":414,"name":"Masotan","steam_id":76561199047187302,"connected_time":797000000000,"state":"active","ping":54},{"user_id":412,"name":"brains","steam_id":76561198197388678,"connected_time":851000000000,"state":"active","ping":53},{"user_id":356,"name":"JohnFMX","steam_id":76561198175608097,"connected_time":3614000000000,"state":"active","ping":71},{"user_id":416,"name":"basil","steam_id":76561198075758026,"connected_time":646000000000,"state":"active","ping":84},{"user_id":418,"name":"Icaras","steam_id":76561198416724843,"connected_time":429000000000,"state":"active","ping":129},{"user_id":334,"name":"Aleagen","steam_id":76561199427597036,"connected_time":4772000000000,"state":"active","ping":106},{"user_id":389,"name":"KennytheHedgehog","steam_id":76561198094607721,"connected_time":2216000000000,"state":"active","ping":75},{"user_id":415,"name":"KATSURB","steam_id":76561199172118456,"connected_time":793000000000,"state":"active","ping":71},{"user_id":376,"name":"Kritzburgh","steam_id":76561198149466938,"connected_time":3146000000000,"state":"active","ping":63},{"user_id":422,"name":"totally not a pile of beans","steam_id":76561198119851931,"connected_time":137000000000,"state":"active","ping":74},{"user_id":411,"name":"freyja","steam_id":76561198249206656,"connected_time":864000000000,"state":"active","ping":64},{"user_id":357,"name":"Captain Underbelly","steam_id":76561198811270935,"connected_time":3457000000000,"state":"active","ping":84},{"user_id":410,"name":"monke12344","steam_id":76561199274757725,"connected_time":940000000000,"state":"active","ping":42},{"user_id":390,"name":"Robertred","steam_id":76561199062495086,"connected_time":2203000000000,"state":"active","ping":125}]},{"server_id":403,"name":"Uncletopia | Chicago | 4 | All Maps","name_short":"chi-4","host":"chi-1.us.uncletopia.com","port":27045,"enabled":true,"region":"us-central","cc":"us","latitude":41.881832,"longitude":-87.62318,"reserved":0,"last_update":"0001-01-01T00:00:00Z","name_a2s":"Uncletopia | Chicago | 4 | All Maps","protocol":17,"map":"pl_thundermountain","folder":"tf","game":"Team Fortress","app_id":440,"player_count":22,"max_players":24,"Bots":0,"server_type":"Dedicated","server_os":"Linux","password":true,"vac":true,"version":"7961495","steam_id":85568392924515193,"keywords":["nocrits","nodmgspread","payload","uncletopia"],"game_id":440,"stv_port":27046,"stv_name":"Uncletopia | Chicago | 4 | All Maps | STV","players":[{"user_id":196,"name":"lcy13vv","steam_id":76561197995997446,"connected_time":151000000000,"state":"active","ping":57},{"user_id":138,"name":"Blade Racer","steam_id":76561198155896703,"connected_time":2490000000000,"state":"active","ping":72},{"user_id":185,"name":"gamerfan539","steam_id":76561198803527852,"connected_time":652000000000,"state":"active","ping":65},{"user_id":198,"name":"ewitsn8","steam_id":76561198253042466,"connected_time":28000000000,"state":"active","ping":92},{"user_id":186,"name":"CORGI.EXE","steam_id":76561198077093432,"connected_time":627000000000,"state":"active","ping":55},{"user_id":190,"name":"dadgummit","steam_id":76561198005806915,"connected_time":458000000000,"state":"active","ping":57},{"user_id":143,"name":"guy","steam_id":76561198187155303,"connected_time":2124000000000,"state":"active","ping":85},{"user_id":171,"name":"vekinuma","steam_id":76561198946972267,"connected_time":1125000000000,"state":"active","ping":72},{"user_id":144,"name":"Net","steam_id":76561199258143792,"connected_time":2111000000000,"state":"active","ping":59},{"user_id":191,"name":"Reiner","steam_id":76561199201762178,"connected_time":455000000000,"state":"active","ping":63},{"user_id":178,"name":"Toast","steam_id":76561199207957224,"connected_time":925000000000,"state":"active","ping":58},{"user_id":160,"name":"ugly","steam_id":76561198206177593,"connected_time":1740000000000,"state":"active","ping":105},{"user_id":183,"name":"Dwarf","steam_id":76561198333801915,"connected_time":811000000000,"state":"active","ping":62},{"user_id":175,"name":"Emerald_Knight","steam_id":76561198067372868,"connected_time":969000000000,"state":"active","ping":48},{"user_id":174,"name":"slafflow","steam_id":76561199381012350,"connected_time":1000000000000,"state":"active","ping":74},{"user_id":192,"name":"HeidiBTW","steam_id":76561198889596543,"connected_time":418000000000,"state":"active","ping":65},{"user_id":194,"name":"Equinox","steam_id":76561198274279754,"connected_time":202000000000,"state":"active","ping":60},{"user_id":163,"name":"Great Value Rice Crispers","steam_id":76561198211512619,"connected_time":1495000000000,"state":"active","ping":80},{"user_id":155,"name":"Synthess","steam_id":76561198305140294,"connected_time":1877000000000,"state":"active","ping":57},{"user_id":125,"name":"Aureolin","steam_id":76561198210274835,"connected_time":3726000000000,"state":"active","ping":76},{"user_id":188,"name":"AidenSpot","steam_id":76561198324152195,"connected_time":536000000000,"state":"active","ping":76},{"user_id":195,"name":"draining to stay happy","steam_id":76561198797823116,"connected_time":201000000000,"state":"active","ping":62}]},{"server_id":36,"name":"Uncletopia | Chicago | 5 | All Maps","name_short":"chi-5","host":"chi-2.us.uncletopia.com","port":27015,"enabled":true,"region":"us-central","cc":"us","latitude":41.881832,"longitude":-87.62318,"reserved":0,"last_update":"0001-01-01T00:00:00Z","name_a2s":"Uncletopia | Chicago | 5 | All Maps","protocol":17,"map":"pl_pier","folder":"tf","game":"Team Fortress","app_id":440,"player_count":0,"max_players":24,"Bots":0,"server_type":"Dedicated","server_os":"Linux","password":true,"vac":true,"version":"7961495","steam_id":85568392924866362,"keywords":["nocrits","nodmgspread","payload","uncletopia"],"game_id":440,"stv_port":27016,"stv_name":"Uncletopia | Chicago | 5 | All Maps | STV","players":null},{"server_id":37,"name":"Uncletopia | Chicago | 6 | All Maps","name_short":"chi-6","host":"chi-2.us.uncletopia.com","port":27025,"enabled":true,"region":"us-central","cc":"us","latitude":41.881832,"longitude":-87.62318,"reserved":0,"last_update":"0001-01-01T00:00:00Z","name_a2s":"Uncletopia | Chicago | 6 | All Maps","protocol":17,"map":"koth_highpass","folder":"tf","game":"Team Fortress","app_id":440,"player_count":0,"max_players":24,"Bots":0,"server_type":"Dedicated","server_os":"Linux","password":true,"vac":true,"version":"7961495","steam_id":85568392924866363,"keywords":["cp","nocrits","nodmgspread","uncletopia"],"game_id":440,"stv_port":27026,"stv_name":"Uncletopia | Chicago | 6 | All Maps | STV","players":null},{"server_id":38,"name":"Uncletopia | Chicago | 7 | Stopwatch","name_short":"chi-7","host":"chi-2.us.uncletopia.com","port":27035,"enabled":true,"region":"us-central","cc":"us","latitude":41.881832,"longitude":-87.62318,"reserved":0,"last_update":"0001-01-01T00:00:00Z","name_a2s":"Uncletopia | Chicago | 7 | Stopwatch","protocol":17,"map":"cp_sunshine","folder":"tf","game":"Team Fortress","app_id":440,"player_count":0,"max_players":24,"Bots":0,"server_type":"Dedicated","server_os":"Linux","password":true,"vac":true,"version":"7961495","steam_id":85568392924866364,"keywords":["cp","nocrits","nodmgspread","uncletopia"],"game_id":440,"stv_port":27036,"stv_name":"Uncletopia | Chicago | 7 | Stopwatch | STV","players":null},{"server_id":39,"name":"Uncletopia | Chicago | 8 | Community","name_short":"chi-8","host":"chi-2.us.uncletopia.com","port":27045,"enabled":true,"region":"us-central","cc":"us","latitude":41.881832,"longitude":-87.62318,"reserved":0,"last_update":"0001-01-01T00:00:00Z","name_a2s":"Uncletopia | Chicago | 8 | Community","protocol":17,"map":"workshop/koth_slaughter_rc1.ugc1712845210","folder":"tf","game":"Team Fortress","app_id":440,"player_count":0,"max_players":24,"Bots":0,"server_type":"Dedicated","server_os":"Linux","password":true,"vac":true,"version":"7961495","steam_id":85568392924866365,"keywords":["cp","nocrits","nodmgspread","uncletopia"],"game_id":440,"stv_port":27046,"stv_name":"Uncletopia | Chicago | 8 | Community | STV","players":null},{"server_id":8,"name":"Uncletopia | Dallas | 1 | All Maps","name_short":"dal-1","host":"dal-1.us.uncletopia.com","port":27015,"enabled":true,"region":"us-central","cc":"us","latitude":32.779167,"longitude":-96.80889,"reserved":0,"last_update":"0001-01-01T00:00:00Z","name_a2s":"Uncletopia | Dallas | 1 | All Maps","protocol":17,"map":"cp_sunshine","folder":"tf","game":"Team Fortress","app_id":440,"player_count":23,"max_players":24,"Bots":0,"server_type":"Dedicated","server_os":"Linux","password":true,"vac":true,"version":"7961495","steam_id":85568392924469986,"keywords":["cp","nocrits","nodmgspread","uncletopia"],"game_id":440,"stv_port":27016,"stv_name":"Uncletopia | Dallas | 1 | All Maps | STV","players":[{"user_id":327,"name":"Dude Bronson","steam_id":76561198310453894,"connected_time":1217000000000,"state":"active","ping":77},{"user_id":330,"name":"Sweet Tooth","steam_id":76561198830158092,"connected_time":1152000000000,"state":"active","ping":73},{"user_id":321,"name":"incredirocks","steam_id":76561198061079993,"connected_time":1760000000000,"state":"active","ping":74},{"user_id":287,"name":"RaixaR","steam_id":76561198025289430,"connected_time":3605000000000,"state":"active","ping":47},{"user_id":332,"name":"Lord Scrubling","steam_id":76561198263744445,"connected_time":1088000000000,"state":"active","ping":59},{"user_id":317,"name":"everybody want to rule the worl","steam_id":76561198425503395,"connected_time":2165000000000,"state":"active","ping":45},{"user_id":338,"name":"otwtomarsoffdabars(spacecore)","steam_id":76561199085974120,"connected_time":736000000000,"state":"active","ping":76},{"user_id":311,"name":"Tomoko2001","steam_id":76561198047117990,"connected_time":2744000000000,"state":"active","ping":72},{"user_id":288,"name":"MenInHatz","steam_id":76561198825094263,"connected_time":3570000000000,"state":"active","ping":64},{"user_id":216,"name":"ihave80hp","steam_id":76561199251621911,"connected_time":7656000000000,"state":"active","ping":54},{"user_id":334,"name":"bomber5001","steam_id":76561199139670106,"connected_time":979000000000,"state":"active","ping":77},{"user_id":329,"name":"Charlie","steam_id":76561198798127908,"connected_time":1188000000000,"state":"active","ping":79},{"user_id":333,"name":"muhammed2010","steam_id":76561198969143876,"connected_time":1028000000000,"state":"active","ping":58},{"user_id":340,"name":"Tomato","steam_id":76561197996472649,"connected_time":717000000000,"state":"active","ping":90},{"user_id":336,"name":"Noid","steam_id":76561197980496241,"connected_time":878000000000,"state":"active","ping":87},{"user_id":335,"name":"waffles my goat","steam_id":76561198286627157,"connected_time":963000000000,"state":"active","ping":81},{"user_id":305,"name":"coolmothgames.com","steam_id":76561198143132686,"connected_time":3021000000000,"state":"active","ping":85},{"user_id":341,"name":"story","steam_id":76561199088496817,"connected_time":164000000000,"state":"active","ping":61},{"user_id":289,"name":"bladees realest, saddest verse","steam_id":76561198098099826,"connected_time":3542000000000,"state":"active","ping":74},{"user_id":316,"name":"Alpine","steam_id":76561198436177465,"connected_time":2364000000000,"state":"active","ping":81},{"user_id":342,"name":"Gibby","steam_id":76561199044322783,"connected_time":63000000000,"state":"active","ping":104},{"user_id":324,"name":"jadene11","steam_id":76561199369221113,"connected_time":1518000000000,"state":"active","ping":66},{"user_id":314,"name":"Monte","steam_id":76561198097499917,"connected_time":2468000000000,"state":"active","ping":75}]},{"server_id":108,"name":"Uncletopia | Dallas | 2 | All Maps","name_short":"dal-2","host":"dal-1.us.uncletopia.com","port":27025,"enabled":true,"region":"us-central","cc":"us","latitude":32.779167,"longitude":-96.80889,"reserved":0,"last_update":"0001-01-01T00:00:00Z","name_a2s":"Uncletopia | Dallas | 2 | All Maps","protocol":17,"map":"pl_badwater","folder":"tf","game":"Team Fortress","app_id":440,"player_count":22,"max_players":24,"Bots":0,"server_type":"Dedicated","server_os":"Linux","password":true,"vac":true,"version":"7961495","steam_id":85568392924469988,"keywords":["nocrits","nodmgspread","payload","uncletopia"],"game_id":440,"stv_port":27026,"stv_name":"Uncletopia | Dallas | 2 | All Maps | STV","players":[{"user_id":91,"name":"Mork","steam_id":76561197995475480,"connected_time":1731000000000,"state":"active","ping":53},{"user_id":54,"name":"Zana","steam_id":76561198075908156,"connected_time":3250000000000,"state":"active","ping":79},{"user_id":125,"name":"ุ","steam_id":76561198170624701,"connected_time":14000000000,"state":"active","ping":72},{"user_id":126,"name":"Alikchi","steam_id":76561197969594220,"connected_time":1000000000,"state":"spawning","ping":50},{"user_id":118,"name":"Jakey","steam_id":76561198227381104,"connected_time":433000000000,"state":"active","ping":86},{"user_id":123,"name":"lobster","steam_id":76561198147417707,"connected_time":91000000000,"state":"active","ping":62},{"user_id":93,"name":"Born_In_Xixax","steam_id":76561197960464479,"connected_time":1643000000000,"state":"active","ping":50},{"user_id":116,"name":"TechnoBear2099","steam_id":76561198238863596,"connected_time":492000000000,"state":"active","ping":45},{"user_id":75,"name":"Blehnder","steam_id":76561198172097526,"connected_time":2474000000000,"state":"active","ping":88},{"user_id":119,"name":"mr ploobmeister","steam_id":76561198128908529,"connected_time":402000000000,"state":"active","ping":53},{"user_id":96,"name":"Broadsword #LGM","steam_id":76561198011160411,"connected_time":1334000000000,"state":"active","ping":72},{"user_id":124,"name":"999eng","steam_id":76561198062856371,"connected_time":18000000000,"state":"active","ping":187},{"user_id":104,"name":"ScoutBox","steam_id":76561198111539895,"connected_time":1219000000000,"state":"active","ping":71},{"user_id":99,"name":"beans","steam_id":76561199082781884,"connected_time":1306000000000,"state":"active","ping":30},{"user_id":83,"name":"smolcof","steam_id":76561198977085657,"connected_time":1962000000000,"state":"active","ping":44},{"user_id":114,"name":"ChimpusGaming","steam_id":76561198060954715,"connected_time":785000000000,"state":"active","ping":60},{"user_id":115,"name":"mendokusai","steam_id":76561197965022076,"connected_time":785000000000,"state":"active","ping":75},{"user_id":69,"name":"OctopusPrime","steam_id":76561198044216076,"connected_time":2773000000000,"state":"active","ping":75},{"user_id":109,"name":"Bogey","steam_id":76561198096227944,"connected_time":1071000000000,"state":"active","ping":43},{"user_id":101,"name":"BumpofNight","steam_id":76561198011581312,"connected_time":1285000000000,"state":"active","ping":68},{"user_id":110,"name":"Tony Pizza","steam_id":76561198276513608,"connected_time":1068000000000,"state":"active","ping":180},{"user_id":121,"name":"Kuyumiester","steam_id":76561198126835302,"connected_time":268000000000,"state":"active","ping":60}]},{"server_id":404,"name":"Uncletopia | Dallas | 3 | All Maps","name_short":"dal-3","host":"dal-1.us.uncletopia.com","port":27035,"enabled":true,"region":"us-central","cc":"us","latitude":32.779167,"longitude":-96.80889,"reserved":0,"last_update":"0001-01-01T00:00:00Z","name_a2s":"Uncletopia | Dallas | 3 | All Maps","protocol":17,"map":"pl_borneo","folder":"tf","game":"Team Fortress","app_id":440,"player_count":24,"max_players":24,"Bots":0,"server_type":"Dedicated","server_os":"Linux","password":true,"vac":true,"version":"7961495","steam_id":85568392924515219,"keywords":["nocrits","nodmgspread","payload","uncletopia"],"game_id":440,"stv_port":27036,"stv_name":"Uncletopia | Dallas | 3 | All Maps | STV","players":[{"user_id":354,"name":"lonely fortnite gamer girl","steam_id":76561198272948471,"connected_time":307000000000,"state":"active","ping":80},{"user_id":341,"name":"Intrepid","steam_id":76561198125321034,"connected_time":1489000000000,"state":"active","ping":77},{"user_id":302,"name":"StudioMania (#SAVETF2)","steam_id":76561198211315795,"connected_time":4567000000000,"state":"active","ping":65},{"user_id":330,"name":"Jolyne","steam_id":76561198169960915,"connected_time":2447000000000,"state":"active","ping":72},{"user_id":312,"name":"First of all i am vegeta","steam_id":76561198817815525,"connected_time":4088000000000,"state":"active","ping":92},{"user_id":359,"name":"Female Gamer","steam_id":76561199366482682,"connected_time":177000000000,"state":"active","ping":104},{"user_id":349,"name":"Hamuktakali","steam_id":76561198039625579,"connected_time":785000000000,"state":"active","ping":58},{"user_id":360,"name":"sydney goose","steam_id":76561198337705174,"connected_time":153000000000,"state":"active","ping":61},{"user_id":322,"name":"Junko","steam_id":76561198146089003,"connected_time":3139000000000,"state":"active","ping":75},{"user_id":315,"name":"Your dead Granmas yardloot","steam_id":76561198011675372,"connected_time":3746000000000,"state":"active","ping":103},{"user_id":339,"name":"cardsfish","steam_id":76561199195316687,"connected_time":1686000000000,"state":"active","ping":45},{"user_id":324,"name":"ark","steam_id":76561198041066271,"connected_time":3103000000000,"state":"active","ping":66},{"user_id":361,"name":"Primordial pouch","steam_id":76561198077993687,"connected_time":63000000000,"state":"active","ping":91},{"user_id":362,"name":"DanielGarka","steam_id":76561198302972656,"connected_time":18000000000,"state":"active","ping":138},{"user_id":271,"name":"LLLFarm2012","steam_id":76561199199786915,"connected_time":6302000000000,"state":"active","ping":82},{"user_id":350,"name":"mrpineapple070","steam_id":76561199088278757,"connected_time":779000000000,"state":"active","ping":61},{"user_id":309,"name":"DragonKnight343","steam_id":76561199235854406,"connected_time":4190000000000,"state":"active","ping":91},{"user_id":355,"name":"The Observer","steam_id":76561199190327373,"connected_time":301000000000,"state":"active","ping":81},{"user_id":358,"name":"JOOOOOOOOOOOOO!!!!!!","steam_id":76561199101638460,"connected_time":221000000000,"state":"active","ping":65},{"user_id":346,"name":"the flying spoon","steam_id":76561199039152146,"connected_time":1033000000000,"state":"active","ping":105},{"user_id":351,"name":"Enigma balls","steam_id":76561198968058652,"connected_time":773000000000,"state":"active","ping":101},{"user_id":356,"name":"A Stoned Ninja","steam_id":76561198044774779,"connected_time":295000000000,"state":"active","ping":60},{"user_id":357,"name":"mcdonald's cashier","steam_id":76561198064631164,"connected_time":295000000000,"state":"active","ping":75},{"user_id":348,"name":"Novu","steam_id":76561198886997024,"connected_time":947000000000,"state":"active","ping":91}]},{"server_id":405,"name":"Uncletopia | Dallas | 4 | Community","name_short":"dal-4","host":"dal-1.us.uncletopia.com","port":27045,"enabled":true,"region":"us-central","cc":"us","latitude":32.779167,"longitude":-96.80889,"reserved":0,"last_update":"0001-01-01T00:00:00Z","name_a2s":"Uncletopia | Dallas | 4 | Community","protocol":17,"map":"workshop/koth_synthetic_rc6a.ugc1549817316","folder":"tf","game":"Team Fortress","app_id":440,"player_count":0,"max_players":24,"Bots":0,"server_type":"Dedicated","server_os":"Linux","password":true,"vac":true,"version":"7961495","steam_id":85568392924515220,"keywords":["cp","nocrits","nodmgspread","uncletopia"],"game_id":440,"stv_port":27046,"stv_name":"Uncletopia | Dallas | 4 | Community | STV","players":null},{"server_id":5,"name":"Uncletopia | Frankfurt | 1 | All Maps","name_short":"frk-1","host":"frk-1.de.uncletopia.com","port":27015,"enabled":true,"region":"eu","cc":"de","latitude":50.110924,"longitude":8.682127,"reserved":0,"last_update":"0001-01-01T00:00:00Z","name_a2s":"Uncletopia | Frankfurt | 1 | All Maps","protocol":17,"map":"pl_barnblitz","folder":"tf","game":"Team Fortress","app_id":440,"player_count":24,"max_players":24,"Bots":0,"server_type":"Dedicated","server_os":"Linux","password":true,"vac":true,"version":"7961495","steam_id":85568392924469989,"keywords":["nocrits","nodmgspread","payload","uncletopia"],"game_id":440,"stv_port":27016,"stv_name":"Uncletopia | Frankfurt | 1 | All Maps | STV","players":[{"user_id":1051,"name":"Neeeiks","steam_id":76561198009156801,"connected_time":1204000000000,"state":"active","ping":71},{"user_id":1031,"name":"BLÅHAJ","steam_id":76561197996473698,"connected_time":2384000000000,"state":"active","ping":85},{"user_id":1057,"name":"Return of Kvicha Kvaratskhelia","steam_id":76561198179339326,"connected_time":558000000000,"state":"active","ping":83},{"user_id":1035,"name":"KittyKate ❤","steam_id":76561198116340817,"connected_time":1981000000000,"state":"active","ping":61},{"user_id":961,"name":"Gen","steam_id":76561198021775885,"connected_time":6546000000000,"state":"active","ping":47},{"user_id":1049,"name":"Mr_Joergen","steam_id":76561198364713702,"connected_time":1222000000000,"state":"active","ping":53},{"user_id":1032,"name":"Hellheim_Prime","steam_id":76561198379799377,"connected_time":2281000000000,"state":"active","ping":90},{"user_id":1044,"name":"agent youppii","steam_id":76561198055264447,"connected_time":1720000000000,"state":"active","ping":73},{"user_id":1055,"name":"Henry","steam_id":76561198108018305,"connected_time":894000000000,"state":"active","ping":73},{"user_id":1022,"name":"Sr. COCÓ","steam_id":76561198254011269,"connected_time":2829000000000,"state":"active","ping":71},{"user_id":987,"name":"=OKB= P4NTH3R","steam_id":76561197999204603,"connected_time":4573000000000,"state":"active","ping":45},{"user_id":1037,"name":"BuzzBees ❤","steam_id":76561198101502273,"connected_time":1909000000000,"state":"active","ping":60},{"user_id":965,"name":"xavier (Bobby Approved)","steam_id":76561198076494034,"connected_time":6404000000000,"state":"active","ping":58},{"user_id":1059,"name":"Falafel","steam_id":76561198043344845,"connected_time":115000000000,"state":"active","ping":54},{"user_id":1053,"name":"CptAlex","steam_id":76561198059722457,"connected_time":1081000000000,"state":"active","ping":44},{"user_id":1054,"name":"Udinese Dion","steam_id":76561198067931573,"connected_time":991000000000,"state":"active","ping":61},{"user_id":1028,"name":"[HOL] Solringen","steam_id":76561198003584681,"connected_time":2634000000000,"state":"active","ping":73},{"user_id":1048,"name":"Sup","steam_id":76561198959835348,"connected_time":1577000000000,"state":"active","ping":65},{"user_id":1030,"name":"Commander Pasta","steam_id":76561198045773077,"connected_time":2436000000000,"state":"active","ping":39},{"user_id":1006,"name":"goblin","steam_id":76561198170334258,"connected_time":3391000000000,"state":"active","ping":75},{"user_id":1007,"name":"Spanns","steam_id":76561197998349793,"connected_time":3387000000000,"state":"active","ping":75},{"user_id":1009,"name":"biohazard.pt","steam_id":76561198088367808,"connected_time":3379000000000,"state":"active","ping":75},{"user_id":990,"name":"Семь","steam_id":76561199072741842,"connected_time":4160000000000,"state":"active","ping":67},{"user_id":1058,"name":"Googlemaps","steam_id":76561198098135409,"connected_time":558000000000,"state":"active","ping":47}]},{"server_id":110,"name":"Uncletopia | Frankfurt | 2 | All Maps","name_short":"frk-2","host":"frk-1.de.uncletopia.com","port":27025,"enabled":true,"region":"eu","cc":"de","latitude":50.110924,"longitude":8.682127,"reserved":0,"last_update":"0001-01-01T00:00:00Z","name_a2s":"Uncletopia | Frankfurt | 2 | All Maps","protocol":17,"map":"pl_badwater","folder":"tf","game":"Team Fortress","app_id":440,"player_count":24,"max_players":24,"Bots":0,"server_type":"Dedicated","server_os":"Linux","password":true,"vac":true,"version":"7961495","steam_id":85568392924469990,"keywords":["nocrits","nodmgspread","payload","uncletopia"],"game_id":440,"stv_port":27026,"stv_name":"Uncletopia | Frankfurt | 2 | All Maps | STV","players":[{"user_id":689,"name":"hawkblob","steam_id":76561198803720565,"connected_time":1546000000000,"state":"active","ping":75},{"user_id":670,"name":"UltimateAura","steam_id":76561198338361324,"connected_time":2586000000000,"state":"active","ping":46},{"user_id":690,"name":"number 1 weezer enjoyer","steam_id":76561198074464755,"connected_time":1538000000000,"state":"active","ping":71},{"user_id":674,"name":"UID","steam_id":76561198104634775,"connected_time":2258000000000,"state":"active","ping":69},{"user_id":714,"name":"Alpaca","steam_id":76561198029839079,"connected_time":77000000000,"state":"active","ping":66},{"user_id":697,"name":"UJAGaming","steam_id":76561198147959101,"connected_time":1148000000000,"state":"active","ping":76},{"user_id":682,"name":"Patolov101","steam_id":76561198079655834,"connected_time":2050000000000,"state":"active","ping":79},{"user_id":576,"name":"Monkey","steam_id":76561198048385029,"connected_time":9124000000000,"state":"active","ping":51},{"user_id":711,"name":"DoctorDrew","steam_id":76561197962400538,"connected_time":347000000000,"state":"active","ping":150},{"user_id":667,"name":"Bogavante","steam_id":76561198105352044,"connected_time":2640000000000,"state":"active","ping":64},{"user_id":708,"name":"muertvu vam mater jebem","steam_id":76561198048029847,"connected_time":461000000000,"state":"active","ping":73},{"user_id":709,"name":"else1","steam_id":76561197996558319,"connected_time":456000000000,"state":"active","ping":75},{"user_id":710,"name":"MaypulSoyrup","steam_id":76561199213966821,"connected_time":449000000000,"state":"active","ping":78},{"user_id":691,"name":"Homosapien","steam_id":76561197972035953,"connected_time":1527000000000,"state":"active","ping":60},{"user_id":678,"name":"tyler wit da green hat","steam_id":76561198053007276,"connected_time":2171000000000,"state":"active","ping":59},{"user_id":715,"name":"G.L.O.R.I.","steam_id":76561198134414380,"connected_time":4000000000,"state":"spawning","ping":72},{"user_id":702,"name":"Lee Kibum","steam_id":76561198119422709,"connected_time":800000000000,"state":"active","ping":62},{"user_id":679,"name":"THEYAREINTHEWALLS","steam_id":76561198299161888,"connected_time":2166000000000,"state":"active","ping":67},{"user_id":687,"name":"ashley","steam_id":76561198448551449,"connected_time":1602000000000,"state":"active","ping":49},{"user_id":703,"name":"Windows Vista Cruiser","steam_id":76561198064102233,"connected_time":756000000000,"state":"active","ping":46},{"user_id":661,"name":"The Lady","steam_id":76561198029895809,"connected_time":3337000000000,"state":"active","ping":72},{"user_id":626,"name":"Pelvis Elsey","steam_id":76561198134378108,"connected_time":6219000000000,"state":"active","ping":73},{"user_id":694,"name":"LAMPZWORLDWG22","steam_id":76561198123238801,"connected_time":1464000000000,"state":"active","ping":66}]},{"server_id":308,"name":"Uncletopia | Frankfurt | 3 | All Maps","name_short":"frk-3","host":"frk-1.de.uncletopia.com","port":27035,"enabled":true,"region":"eu","cc":"de","latitude":50.110924,"longitude":8.682127,"reserved":0,"last_update":"0001-01-01T00:00:00Z","name_a2s":"Uncletopia | Frankfurt | 3 | All Maps","protocol":17,"map":"koth_brazil","folder":"tf","game":"Team Fortress","app_id":440,"player_count":0,"max_players":24,"Bots":0,"server_type":"Dedicated","server_os":"Linux","password":true,"vac":true,"version":"7961495","steam_id":85568392924504274,"keywords":["cp","nocrits","nodmgspread","uncletopia"],"game_id":440,"stv_port":27036,"stv_name":"Uncletopia | Frankfurt | 3 | All Maps | STV","players":null},{"server_id":309,"name":"Uncletopia | Frankfurt | 4 | All Maps","name_short":"frk-4","host":"frk-1.de.uncletopia.com","port":27045,"enabled":true,"region":"eu","cc":"de","latitude":50.110924,"longitude":8.682127,"reserved":0,"last_update":"0001-01-01T00:00:00Z","name_a2s":"Uncletopia | Frankfurt | 4 | All Maps","protocol":17,"map":"cp_process_final","folder":"tf","game":"Team Fortress","app_id":440,"player_count":0,"max_players":24,"Bots":0,"server_type":"Dedicated","server_os":"Linux","password":true,"vac":true,"version":"7961495","steam_id":85568392924504275,"keywords":["cp","nocrits","nodmgspread","uncletopia"],"game_id":440,"stv_port":27046,"stv_name":"Uncletopia | Frankfurt | 4 | All Maps | STV","players":null},{"server_id":310,"name":"Uncletopia | Frankfurt | 5 | All Maps","name_short":"frk-5","host":"frk-1.de.uncletopia.com","port":27055,"enabled":true,"region":"eu","cc":"de","latitude":50.110924,"longitude":8.682127,"reserved":0,"last_update":"0001-01-01T00:00:00Z","name_a2s":"Uncletopia | Frankfurt | 5 | All Maps","protocol":17,"map":"cp_granary","folder":"tf","game":"Team Fortress","app_id":440,"player_count":23,"max_players":24,"Bots":0,"server_type":"Dedicated","server_os":"Linux","password":true,"vac":true,"version":"7961495","steam_id":85568392924504277,"keywords":["cp","nocrits","nodmgspread","uncletopia"],"game_id":440,"stv_port":27056,"stv_name":"Uncletopia | Frankfurt | 5 | All Maps | STV","players":[{"user_id":633,"name":"Kenny","steam_id":76561198994898206,"connected_time":965000000000,"state":"active","ping":77},{"user_id":617,"name":"I'm Pain","steam_id":76561199167781869,"connected_time":1737000000000,"state":"active","ping":60},{"user_id":629,"name":"Benzo Salewski","steam_id":76561198093390608,"connected_time":1095000000000,"state":"active","ping":75},{"user_id":634,"name":"konstt","steam_id":76561198168270939,"connected_time":890000000000,"state":"active","ping":73},{"user_id":605,"name":"Reimu","steam_id":76561198101532240,"connected_time":2587000000000,"state":"active","ping":70},{"user_id":651,"name":"Jack","steam_id":76561198397105421,"connected_time":241000000000,"state":"active","ping":60},{"user_id":630,"name":"Sir Warock","steam_id":76561198180468693,"connected_time":1081000000000,"state":"active","ping":77},{"user_id":621,"name":"Hans","steam_id":76561198030061999,"connected_time":1556000000000,"state":"active","ping":61},{"user_id":594,"name":"DEATH-ETANOL","steam_id":76561198010184206,"connected_time":3493000000000,"state":"active","ping":66},{"user_id":640,"name":"Doruk Küçükduman","steam_id":76561198399815628,"connected_time":558000000000,"state":"active","ping":76},{"user_id":601,"name":"Il y a","steam_id":76561198100943482,"connected_time":3141000000000,"state":"active","ping":74},{"user_id":639,"name":"Superiumentarius","steam_id":76561198081642249,"connected_time":562000000000,"state":"active","ping":45},{"user_id":575,"name":"Hamst123","steam_id":76561198957312452,"connected_time":4490000000000,"state":"active","ping":39},{"user_id":637,"name":"KusH","steam_id":76561198092541146,"connected_time":635000000000,"state":"active","ping":67},{"user_id":646,"name":"SunnySideEggs","steam_id":76561198308377741,"connected_time":427000000000,"state":"active","ping":163},{"user_id":641,"name":"Darki","steam_id":76561198034103985,"connected_time":534000000000,"state":"active","ping":65},{"user_id":642,"name":"Retrograde_","steam_id":76561198155371354,"connected_time":498000000000,"state":"active","ping":63},{"user_id":625,"name":"Pumpnik","steam_id":76561199083796274,"connected_time":1409000000000,"state":"active","ping":61},{"user_id":643,"name":"60hz laptop","steam_id":76561198111229919,"connected_time":473000000000,"state":"active","ping":59},{"user_id":644,"name":"proph","steam_id":76561197998803950,"connected_time":473000000000,"state":"active","ping":55},{"user_id":645,"name":"Redsy","steam_id":76561198360088412,"connected_time":471000000000,"state":"active","ping":135},{"user_id":649,"name":"Step back","steam_id":76561198063855616,"connected_time":403000000000,"state":"active","ping":82},{"user_id":650,"name":"essah","steam_id":76561197985717714,"connected_time":273000000000,"state":"active","ping":75}]},{"server_id":311,"name":"Uncletopia | Frankfurt | 6 | All Maps","name_short":"frk-6","host":"frk-1.de.uncletopia.com","port":27065,"enabled":true,"region":"eu","cc":"de","latitude":50.110924,"longitude":8.682127,"reserved":0,"last_update":"0001-01-01T00:00:00Z","name_a2s":"Uncletopia | Frankfurt | 6 | All Maps","protocol":17,"map":"pl_thundermountain","folder":"tf","game":"Team Fortress","app_id":440,"player_count":0,"max_players":24,"Bots":0,"server_type":"Dedicated","server_os":"Linux","password":true,"vac":true,"version":"7961495","steam_id":85568392924504278,"keywords":["nocrits","nodmgspread","payload","uncletopia"],"game_id":440,"stv_port":27066,"stv_name":"Uncletopia | Frankfurt | 6 | All Maps | STV","players":null},{"server_id":23,"name":"Uncletopia | Frankfurt | 7 | Stopwatch","name_short":"frk-7","host":"frk-1.de.uncletopia.com","port":27075,"enabled":true,"region":"eu","cc":"de","latitude":50.110924,"longitude":8.682127,"reserved":0,"last_update":"0001-01-01T00:00:00Z","name_a2s":"Uncletopia | Frankfurt | 7 | Stopwatch","protocol":17,"map":"workshop/koth_product_final.ugc454272353","folder":"tf","game":"Team Fortress","app_id":440,"player_count":0,"max_players":24,"Bots":0,"server_type":"Dedicated","server_os":"Linux","password":true,"vac":true,"version":"7961495","steam_id":85568392924742827,"keywords":["cp","nocrits","nodmgspread","uncletopia"],"game_id":440,"stv_port":27076,"stv_name":"Uncletopia | Frankfurt | 7 | Stopwatch | STV","players":null},{"server_id":24,"name":"Uncletopia | Frankfurt | 8 | Community","name_short":"frk-8","host":"frk-1.de.uncletopia.com","port":27085,"enabled":true,"region":"eu","cc":"de","latitude":50.110924,"longitude":8.682127,"reserved":0,"last_update":"0001-01-01T00:00:00Z","name_a2s":"Uncletopia | Frankfurt | 8 | Community","protocol":17,"map":"workshop/rd_asteroid_redux_b1.ugc2154902912","folder":"tf","game":"Team Fortress","app_id":440,"player_count":0,"max_players":24,"Bots":0,"server_type":"Dedicated","server_os":"Linux","password":true,"vac":true,"version":"7961495","steam_id":85568392924742828,"keywords":["beta","nocrits","nodmgspread","rd","uncletopia"],"game_id":440,"stv_port":27086,"stv_name":"Uncletopia | Frankfurt | 8 | Community | STV","players":null},{"server_id":202,"name":"Uncletopia | Hong Kong | 1 | All Maps","name_short":"hgk-1","host":"hgk-1.hk.uncletopia.com","port":27015,"enabled":true,"region":"asia","cc":"hk","latitude":22.302711,"longitude":114.177216,"reserved":0,"last_update":"0001-01-01T00:00:00Z","name_a2s":"Uncletopia | Hong Kong | 1 | All Maps","protocol":17,"map":"cp_gravelpit","folder":"tf","game":"Team Fortress","app_id":440,"player_count":0,"max_players":24,"Bots":0,"server_type":"Dedicated","server_os":"Linux","password":true,"vac":true,"version":"7961495","steam_id":85568392924494504,"keywords":["cp","nocrits","nodmgspread","uncletopia"],"game_id":440,"stv_port":27016,"stv_name":"Uncletopia | Hong Kong | 1 | All Maps | STV","players":null},{"server_id":1,"name":"Uncletopia | Los Angeles | 1 | All Maps","name_short":"lax-1","host":"lax-1.us.uncletopia.com","port":27015,"enabled":true,"region":"us-west","cc":"us","latitude":33.94279,"longitude":-118.41004,"reserved":0,"last_update":"0001-01-01T00:00:00Z","name_a2s":"Uncletopia | Los Angeles | 1 | All Maps","protocol":17,"map":"cp_mountainlab","folder":"tf","game":"Team Fortress","app_id":440,"player_count":3,"max_players":24,"Bots":0,"server_type":"Dedicated","server_os":"Linux","password":true,"vac":true,"version":"7961495","steam_id":85568392924469991,"keywords":["cp","nocrits","nodmgspread","uncletopia"],"game_id":440,"stv_port":27016,"stv_name":"Uncletopia | Los Angeles | 1 | All Maps | STV","players":[{"user_id":16,"name":"WaylonPK","steam_id":76561198094429949,"connected_time":144000000000,"state":"active","ping":54},{"user_id":17,"name":"Unlimited_Trees","steam_id":76561198299141443,"connected_time":48000000000,"state":"active","ping":58},{"user_id":18,"name":"mobtownUSA","steam_id":76561198393054672,"connected_time":43000000000,"state":"active","ping":51}]},{"server_id":112,"name":"Uncletopia | Los Angeles | 2 | All Maps","name_short":"lax-2","host":"lax-1.us.uncletopia.com","port":27025,"enabled":true,"region":"us-west","cc":"us","latitude":33.94279,"longitude":-118.41004,"reserved":0,"last_update":"0001-01-01T00:00:00Z","name_a2s":"Uncletopia | Los Angeles | 2 | All Maps","protocol":17,"map":"pl_upward","folder":"tf","game":"Team Fortress","app_id":440,"player_count":23,"max_players":24,"Bots":0,"server_type":"Dedicated","server_os":"Linux","password":true,"vac":true,"version":"7961495","steam_id":85568392924469992,"keywords":["nocrits","nodmgspread","payload","uncletopia"],"game_id":440,"stv_port":27026,"stv_name":"Uncletopia | Los Angeles | 2 | All Maps | STV","players":[{"user_id":156,"name":"Spare(8)Ball","steam_id":76561197982432995,"connected_time":1768000000000,"state":"active","ping":60},{"user_id":181,"name":"Smashing93","steam_id":76561199058453316,"connected_time":85000000000,"state":"active","ping":92},{"user_id":179,"name":"2bcoffee","steam_id":76561198810469767,"connected_time":127000000000,"state":"active","ping":115},{"user_id":182,"name":"Aeon","steam_id":76561198079117315,"connected_time":79000000000,"state":"active","ping":54},{"user_id":115,"name":"Clagger","steam_id":76561198066701092,"connected_time":4863000000000,"state":"active","ping":59},{"user_id":183,"name":"Synergy","steam_id":76561198098630198,"connected_time":61000000000,"state":"active","ping":60},{"user_id":128,"name":"A UsedNom","steam_id":76561198402832756,"connected_time":3821000000000,"state":"active","ping":44},{"user_id":165,"name":"hideyochest","steam_id":76561198090366059,"connected_time":1054000000000,"state":"active","ping":74},{"user_id":175,"name":"D(b) Hell","steam_id":76561198067869016,"connected_time":724000000000,"state":"active","ping":94},{"user_id":147,"name":"Andreshatesmondays","steam_id":76561198889349797,"connected_time":2031000000000,"state":"active","ping":58},{"user_id":155,"name":"Genius Meme","steam_id":76561198162911254,"connected_time":1850000000000,"state":"active","ping":59},{"user_id":172,"name":"Mr.Rogers","steam_id":76561198043878683,"connected_time":775000000000,"state":"active","ping":58},{"user_id":145,"name":"soundcloud.com/cremexav","steam_id":76561198134544837,"connected_time":2347000000000,"state":"active","ping":45},{"user_id":176,"name":"omugai_","steam_id":76561198086481768,"connected_time":614000000000,"state":"active","ping":59},{"user_id":135,"name":"NGsterson","steam_id":76561198162108154,"connected_time":3654000000000,"state":"active","ping":71},{"user_id":153,"name":"Seskova","steam_id":76561198090207032,"connected_time":1895000000000,"state":"active","ping":89},{"user_id":178,"name":"Stroop","steam_id":76561198138687730,"connected_time":365000000000,"state":"active","ping":66},{"user_id":180,"name":"bobby_basketball","steam_id":76561198347225801,"connected_time":123000000000,"state":"active","ping":86},{"user_id":149,"name":"nothowon","steam_id":76561198937601452,"connected_time":1959000000000,"state":"active","ping":108},{"user_id":170,"name":"PageBoiSkull","steam_id":76561198237353578,"connected_time":899000000000,"state":"active","ping":51},{"user_id":167,"name":"69weenies","steam_id":76561199217012206,"connected_time":947000000000,"state":"active","ping":72},{"user_id":168,"name":"nav","steam_id":76561198872608266,"connected_time":932000000000,"state":"active","ping":120},{"user_id":177,"name":"Tmiracle","steam_id":76561198052375275,"connected_time":562000000000,"state":"active","ping":46}]},{"server_id":324,"name":"Uncletopia | Los Angeles | 3 | All Maps","name_short":"lax-3","host":"lax-1.us.uncletopia.com","port":27035,"enabled":true,"region":"us-west","cc":"us","latitude":33.94279,"longitude":-118.41004,"reserved":0,"last_update":"0001-01-01T00:00:00Z","name_a2s":"Uncletopia | Los Angeles | 3 | All Maps","protocol":17,"map":"pl_hoodoo_final","folder":"tf","game":"Team Fortress","app_id":440,"player_count":0,"max_players":24,"Bots":0,"server_type":"Dedicated","server_os":"Linux","password":true,"vac":true,"version":"7961495","steam_id":85568392924510198,"keywords":["nocrits","nodmgspread","payload","uncletopia"],"game_id":440,"stv_port":27036,"stv_name":"Uncletopia | Los Angeles | 3 | All Maps | STV","players":null},{"server_id":25,"name":"Uncletopia | Los Angeles | 4 | Stopwatch","name_short":"lax-4","host":"lax-1.us.uncletopia.com","port":27045,"enabled":true,"region":"us-west","cc":"us","latitude":33.94279,"longitude":-118.41004,"reserved":0,"last_update":"0001-01-01T00:00:00Z","name_a2s":"Uncletopia | Los Angeles | 4 | Stopwatch","protocol":17,"map":"pl_upward","folder":"tf","game":"Team Fortress","app_id":440,"player_count":0,"max_players":24,"Bots":0,"server_type":"Dedicated","server_os":"Linux","password":true,"vac":true,"version":"7961495","steam_id":85568392924510199,"keywords":["nocrits","nodmgspread","payload","uncletopia"],"game_id":440,"stv_port":27046,"stv_name":"Uncletopia | Los Angeles | 4 | Stopwatch | STV","players":null},{"server_id":11,"name":"Uncletopia | London | 1 | All Maps","name_short":"lon-1","host":"lon-1.uk.uncletopia.com","port":27015,"enabled":true,"region":"eu","cc":"gb","latitude":51.509865,"longitude":-0.118092,"reserved":0,"last_update":"0001-01-01T00:00:00Z","name_a2s":"Uncletopia | London | 1 | All Maps","protocol":17,"map":"cp_process_final","folder":"tf","game":"Team Fortress","app_id":440,"player_count":23,"max_players":24,"Bots":0,"server_type":"Dedicated","server_os":"Linux","password":true,"vac":true,"version":"7961495","steam_id":85568392924367362,"keywords":["cp","nocrits","nodmgspread","uncletopia"],"game_id":440,"stv_port":27016,"stv_name":"Uncletopia | London | 1 | All Maps | STV","players":[{"user_id":801,"name":"Çodar","steam_id":76561198235518444,"connected_time":769000000000,"state":"active","ping":36},{"user_id":796,"name":"Topia","steam_id":76561198163571788,"connected_time":1326000000000,"state":"active","ping":80},{"user_id":808,"name":"Hildreth","steam_id":76561197995254867,"connected_time":24000000000,"state":"active","ping":57},{"user_id":760,"name":"Lark","steam_id":76561198066937447,"connected_time":4045000000000,"state":"active","ping":91},{"user_id":711,"name":"Speed-Dial","steam_id":76561198012428315,"connected_time":6152000000000,"state":"active","ping":46},{"user_id":737,"name":"riku","steam_id":76561198096547662,"connected_time":4437000000000,"state":"active","ping":51},{"user_id":769,"name":"Bonedrip","steam_id":76561198082502910,"connected_time":3499000000000,"state":"active","ping":57},{"user_id":602,"name":"whimsy.","steam_id":76561198878171763,"connected_time":12048000000000,"state":"active","ping":48},{"user_id":789,"name":"LixyDoesArt","steam_id":76561198130779816,"connected_time":1676000000000,"state":"active","ping":45},{"user_id":778,"name":"SPONGE","steam_id":76561198040933472,"connected_time":3175000000000,"state":"active","ping":63},{"user_id":798,"name":"[SWMG] TheCraziestOfKans","steam_id":76561199006915718,"connected_time":890000000000,"state":"active","ping":60},{"user_id":797,"name":"[SWMG] crazykaan5","steam_id":76561198863720301,"connected_time":1301000000000,"state":"active","ping":75},{"user_id":783,"name":"beebo","steam_id":76561199120277007,"connected_time":2609000000000,"state":"active","ping":42},{"user_id":786,"name":"ExotiiC ☯","steam_id":76561198046149866,"connected_time":2242000000000,"state":"active","ping":61},{"user_id":780,"name":"Pinkchup","steam_id":76561198106802803,"connected_time":3063000000000,"state":"active","ping":89},{"user_id":774,"name":"Minimi","steam_id":76561198873850443,"connected_time":3398000000000,"state":"active","ping":61},{"user_id":695,"name":"Kahvi","steam_id":76561198723244199,"connected_time":7806000000000,"state":"active","ping":88},{"user_id":725,"name":"impossible whopper eater","steam_id":76561198058641805,"connected_time":4886000000000,"state":"active","ping":48},{"user_id":799,"name":"bruhemian","steam_id":76561198191854931,"connected_time":807000000000,"state":"active","ping":49},{"user_id":804,"name":"Over Extended","steam_id":76561199089290269,"connected_time":298000000000,"state":"active","ping":47},{"user_id":802,"name":"[SWMG] boneless","steam_id":76561198872013525,"connected_time":736000000000,"state":"active","ping":101},{"user_id":806,"name":"WEEP","steam_id":76561199499933159,"connected_time":174000000000,"state":"active","ping":74},{"user_id":788,"name":"⸸aura⸸","steam_id":76561198066258544,"connected_time":2200000000000,"state":"active","ping":65}]},{"server_id":114,"name":"Uncletopia | London | 2 | All Maps","name_short":"lon-2","host":"lon-1.uk.uncletopia.com","port":27025,"enabled":true,"region":"eu","cc":"gb","latitude":51.509865,"longitude":-0.118092,"reserved":0,"last_update":"0001-01-01T00:00:00Z","name_a2s":"Uncletopia | London | 2 | All Maps","protocol":17,"map":"pl_swiftwater_final1","folder":"tf","game":"Team Fortress","app_id":440,"player_count":24,"max_players":24,"Bots":0,"server_type":"Dedicated","server_os":"Linux","password":true,"vac":true,"version":"7961495","steam_id":85568392924470941,"keywords":["nocrits","nodmgspread","payload","uncletopia"],"game_id":440,"stv_port":27026,"stv_name":"Uncletopia | London | 2 | All Maps | STV","players":[{"user_id":278,"name":"Scr0b ʕᵔᴥᵔʔ","steam_id":76561198100855323,"connected_time":991000000000,"state":"active","ping":71},{"user_id":292,"name":"Laru","steam_id":76561197998838438,"connected_time":180000000000,"state":"active","ping":76},{"user_id":256,"name":"Valkry","steam_id":76561198083425408,"connected_time":3329000000000,"state":"active","ping":42},{"user_id":282,"name":"Violent_Raccoons","steam_id":76561199006002337,"connected_time":458000000000,"state":"active","ping":45},{"user_id":285,"name":"jayc","steam_id":76561198079200985,"connected_time":374000000000,"state":"active","ping":60},{"user_id":284,"name":"Yrjö Koskinen Yrjö-Koskinen","steam_id":76561198368181145,"connected_time":403000000000,"state":"active","ping":91},{"user_id":286,"name":"bob","steam_id":76561199135672389,"connected_time":364000000000,"state":"active","ping":48},{"user_id":279,"name":"Bonca","steam_id":76561198137503531,"connected_time":893000000000,"state":"active","ping":74},{"user_id":287,"name":"LiterallyRyanGosling","steam_id":76561199017856691,"connected_time":360000000000,"state":"active","ping":53},{"user_id":265,"name":"uhhh obama","steam_id":76561198084325004,"connected_time":2431000000000,"state":"active","ping":57},{"user_id":280,"name":"Huskai","steam_id":76561198141512362,"connected_time":735000000000,"state":"active","ping":45},{"user_id":257,"name":"Warlord428","steam_id":76561198377117895,"connected_time":3318000000000,"state":"active","ping":51},{"user_id":288,"name":"BadFemboy","steam_id":76561198072320671,"connected_time":345000000000,"state":"active","ping":30},{"user_id":250,"name":"talk2menice","steam_id":76561198010662796,"connected_time":4046000000000,"state":"active","ping":45},{"user_id":251,"name":"Silverbolt","steam_id":76561198153165763,"connected_time":4020000000000,"state":"active","ping":45},{"user_id":281,"name":"Benzo Fury","steam_id":76561198025259336,"connected_time":733000000000,"state":"active","ping":45},{"user_id":241,"name":":3","steam_id":76561198280507478,"connected_time":4612000000000,"state":"active","ping":63},{"user_id":293,"name":"Debatingcard","steam_id":76561198148744823,"connected_time":93000000000,"state":"active","ping":45},{"user_id":290,"name":"tomydjoh","steam_id":76561198077421906,"connected_time":267000000000,"state":"active","ping":47},{"user_id":242,"name":"SENSITIVITY OVERDRIVE!!!!","steam_id":76561198163615254,"connected_time":4608000000000,"state":"active","ping":60},{"user_id":270,"name":"Wild Meep","steam_id":76561198199271438,"connected_time":2205000000000,"state":"active","ping":126},{"user_id":259,"name":"goku ピップ・ペタル","steam_id":76561198147668373,"connected_time":3312000000000,"state":"active","ping":70},{"user_id":244,"name":"post-nuke jerma","steam_id":76561198094268619,"connected_time":4591000000000,"state":"active","ping":75},{"user_id":260,"name":"Aftiks","steam_id":76561198875182686,"connected_time":3309000000000,"state":"active","ping":94}]},{"server_id":320,"name":"Uncletopia | London | 3 | All Maps","name_short":"lon-3","host":"lon-1.uk.uncletopia.com","port":27035,"enabled":true,"region":"eu","cc":"gb","latitude":51.509865,"longitude":-0.118092,"reserved":0,"last_update":"0001-01-01T00:00:00Z","name_a2s":"Uncletopia | London | 3 | All Maps","protocol":17,"map":"pl_barnblitz","folder":"tf","game":"Team Fortress","app_id":440,"player_count":12,"max_players":24,"Bots":0,"server_type":"Dedicated","server_os":"Linux","password":true,"vac":true,"version":"7961495","steam_id":85568392924510192,"keywords":["nocrits","nodmgspread","payload","uncletopia"],"game_id":440,"stv_port":27036,"stv_name":"Uncletopia | London | 3 | All Maps | STV","players":[{"user_id":556,"name":"That_One_Useless_Guy","steam_id":76561199122356477,"connected_time":1000000000,"state":"spawning","ping":33},{"user_id":555,"name":"korree","steam_id":76561198134644237,"connected_time":34000000000,"state":"active","ping":76},{"user_id":420,"name":"DankDuck","steam_id":76561198160086418,"connected_time":8017000000000,"state":"active","ping":95},{"user_id":469,"name":"Çanak yalayıcı","steam_id":76561198113677852,"connected_time":5880000000000,"state":"active","ping":89},{"user_id":546,"name":"mud","steam_id":76561198141497461,"connected_time":792000000000,"state":"active","ping":65},{"user_id":553,"name":"git bash -er","steam_id":76561198072586494,"connected_time":145000000000,"state":"active","ping":34},{"user_id":517,"name":"Cypher8462","steam_id":76561198111885736,"connected_time":2936000000000,"state":"active","ping":56},{"user_id":550,"name":"edmund","steam_id":76561198378470149,"connected_time":530000000000,"state":"active","ping":37},{"user_id":547,"name":"utrustedme","steam_id":76561198112838001,"connected_time":744000000000,"state":"active","ping":44},{"user_id":519,"name":"ACG_Dubsy","steam_id":76561198797308565,"connected_time":2779000000000,"state":"active","ping":59},{"user_id":551,"name":"640x480","steam_id":76561198304515309,"connected_time":519000000000,"state":"active","ping":76},{"user_id":498,"name":"Käärijä","steam_id":76561199121336976,"connected_time":3481000000000,"state":"active","ping":92}]},{"server_id":321,"name":"Uncletopia | London | 4 | All Maps","name_short":"lon-4","host":"lon-1.uk.uncletopia.com","port":27045,"enabled":true,"region":"eu","cc":"gb","latitude":51.509865,"longitude":-0.118092,"reserved":0,"last_update":"0001-01-01T00:00:00Z","name_a2s":"Uncletopia | London | 4 | All Maps","protocol":17,"map":"cp_sunshine","folder":"tf","game":"Team Fortress","app_id":440,"player_count":19,"max_players":24,"Bots":0,"server_type":"Dedicated","server_os":"Linux","password":true,"vac":true,"version":"7961495","steam_id":85568392924510193,"keywords":["cp","nocrits","nodmgspread","uncletopia"],"game_id":440,"stv_port":27046,"stv_name":"Uncletopia | London | 4 | All Maps | STV","players":[{"user_id":540,"name":"Lunarian","steam_id":76561198055811259,"connected_time":1330000000000,"state":"active","ping":49},{"user_id":418,"name":"yush","steam_id":76561198121688934,"connected_time":8183000000000,"state":"active","ping":73},{"user_id":593,"name":"HazZe","steam_id":76561198129359787,"connected_time":266000000000,"state":"active","ping":118},{"user_id":596,"name":"Büni","steam_id":76561199053121597,"connected_time":158000000000,"state":"active","ping":52},{"user_id":542,"name":"permed ball hair gaming","steam_id":76561198294857933,"connected_time":1290000000000,"state":"active","ping":45},{"user_id":599,"name":"StormyRice","steam_id":76561198129971386,"connected_time":38000000000,"state":"active","ping":35},{"user_id":536,"name":"Arizona Ranger","steam_id":76561198982674420,"connected_time":1665000000000,"state":"active","ping":42},{"user_id":526,"name":"angry russian man","steam_id":76561198386712795,"connected_time":1957000000000,"state":"active","ping":47},{"user_id":557,"name":"Bobirulez","steam_id":76561198009125458,"connected_time":999000000000,"state":"active","ping":75},{"user_id":597,"name":"I-I","steam_id":76561198267969436,"connected_time":141000000000,"state":"active","ping":58},{"user_id":528,"name":"sneaky snake","steam_id":76561198279965791,"connected_time":1939000000000,"state":"active","ping":90},{"user_id":576,"name":"Bondoogie Kommpfburger","steam_id":76561199032033175,"connected_time":770000000000,"state":"active","ping":43},{"user_id":513,"name":"Fat Pigeon","steam_id":76561198817940142,"connected_time":2859000000000,"state":"active","ping":45},{"user_id":545,"name":"Larry Penus","steam_id":76561198207546233,"connected_time":1203000000000,"state":"active","ping":41},{"user_id":553,"name":"Chez","steam_id":76561198148913229,"connected_time":1038000000000,"state":"active","ping":43},{"user_id":515,"name":"Nittugai","steam_id":76561198067366462,"connected_time":2786000000000,"state":"active","ping":60},{"user_id":494,"name":"GoldenLAG","steam_id":76561198104178847,"connected_time":3962000000000,"state":"active","ping":60},{"user_id":509,"name":"Zamorocian","steam_id":76561198076604017,"connected_time":3072000000000,"state":"active","ping":36},{"user_id":590,"name":"meeper","steam_id":76561199131260257,"connected_time":403000000000,"state":"active","ping":39}]},{"server_id":21,"name":"Uncletopia | London | 5 | All Maps","name_short":"lon-5","host":"lon-1.uk.uncletopia.com","port":27055,"enabled":true,"region":"eu","cc":"gb","latitude":51.509865,"longitude":-0.118092,"reserved":0,"last_update":"0001-01-01T00:00:00Z","name_a2s":"Uncletopia | London | 5 | All Maps","protocol":17,"map":"pl_thundermountain","folder":"tf","game":"Team Fortress","app_id":440,"player_count":16,"max_players":24,"Bots":0,"server_type":"Dedicated","server_os":"Linux","password":true,"vac":true,"version":"7961495","steam_id":85568392924742829,"keywords":["nocrits","nodmgspread","payload","uncletopia"],"game_id":440,"stv_port":27056,"stv_name":"Uncletopia | London | 5 | All Maps | STV","players":[{"user_id":474,"name":"Mike1225","steam_id":76561198861615835,"connected_time":134000000000,"state":"active","ping":127},{"user_id":450,"name":"someone","steam_id":76561199504168033,"connected_time":1804000000000,"state":"active","ping":47},{"user_id":418,"name":"RflxCypher","steam_id":76561199015470141,"connected_time":3591000000000,"state":"active","ping":34},{"user_id":475,"name":"Prongles","steam_id":76561199062407056,"connected_time":123000000000,"state":"active","ping":131},{"user_id":473,"name":"moseley519","steam_id":76561198045485374,"connected_time":480000000000,"state":"active","ping":44},{"user_id":419,"name":"*Stare*","steam_id":76561199072209884,"connected_time":3582000000000,"state":"active","ping":45},{"user_id":445,"name":"Janner","steam_id":76561198127045282,"connected_time":2015000000000,"state":"active","ping":45},{"user_id":476,"name":"EoN","steam_id":76561198103660553,"connected_time":55000000000,"state":"active","ping":91},{"user_id":465,"name":"sussy baka","steam_id":76561198368758532,"connected_time":1058000000000,"state":"active","ping":90},{"user_id":442,"name":"igvanhoute","steam_id":76561199509386378,"connected_time":2120000000000,"state":"active","ping":52},{"user_id":471,"name":"ScaryTree","steam_id":76561199384362833,"connected_time":526000000000,"state":"active","ping":41},{"user_id":444,"name":"Bags.","steam_id":76561198045708372,"connected_time":2072000000000,"state":"active","ping":49},{"user_id":422,"name":"hawker127","steam_id":76561198259488237,"connected_time":3542000000000,"state":"active","ping":41},{"user_id":466,"name":"bl0ke","steam_id":76561198012526576,"connected_time":1022000000000,"state":"active","ping":45},{"user_id":404,"name":"Zombieslayer","steam_id":76561198407877826,"connected_time":4300000000000,"state":"active","ping":150},{"user_id":470,"name":"tone","steam_id":76561197975301462,"connected_time":797000000000,"state":"active","ping":60}]},{"server_id":22,"name":"Uncletopia | London | 6 | All Maps","name_short":"lon-6","host":"lon-1.uk.uncletopia.com","port":27065,"enabled":true,"region":"eu","cc":"gb","latitude":51.509865,"longitude":-0.118092,"reserved":0,"last_update":"0001-01-01T00:00:00Z","name_a2s":"Uncletopia | London | 6 | All Maps","protocol":17,"map":"cp_steel","folder":"tf","game":"Team Fortress","app_id":440,"player_count":23,"max_players":24,"Bots":0,"server_type":"Dedicated","server_os":"Linux","password":true,"vac":true,"version":"7961495","steam_id":85568392924742830,"keywords":["cp","nocrits","nodmgspread","uncletopia"],"game_id":440,"stv_port":27066,"stv_name":"Uncletopia | London | 6 | All Maps | STV","players":[{"user_id":223,"name":"Nurse=Leave","steam_id":76561198103323356,"connected_time":3116000000000,"state":"active","ping":62},{"user_id":239,"name":"Kenny","steam_id":76561199119176199,"connected_time":1640000000000,"state":"active","ping":93},{"user_id":231,"name":"Mitea Sefu NEXUS.NEVERMORE.RO","steam_id":76561197993943996,"connected_time":2594000000000,"state":"active","ping":75},{"user_id":209,"name":"Drillbit","steam_id":76561198011421635,"connected_time":3814000000000,"state":"active","ping":51},{"user_id":210,"name":"A Table","steam_id":76561198056456470,"connected_time":3753000000000,"state":"active","ping":62},{"user_id":253,"name":"Weakling","steam_id":76561198046645017,"connected_time":785000000000,"state":"active","ping":90},{"user_id":236,"name":"katana on the trains","steam_id":76561198202464032,"connected_time":2044000000000,"state":"active","ping":51},{"user_id":232,"name":"Locke","steam_id":76561198339408300,"connected_time":2362000000000,"state":"active","ping":61},{"user_id":256,"name":"Shezza","steam_id":76561198903969123,"connected_time":725000000000,"state":"active","ping":78},{"user_id":266,"name":"Brian","steam_id":76561198077756206,"connected_time":239000000000,"state":"active","ping":33},{"user_id":263,"name":"lawn panzer (im evil now)","steam_id":76561198001243486,"connected_time":425000000000,"state":"active","ping":45},{"user_id":258,"name":"dragonst4r","steam_id":76561198092649942,"connected_time":691000000000,"state":"active","ping":45},{"user_id":261,"name":"fernandobmwm355555","steam_id":76561198086609447,"connected_time":532000000000,"state":"active","ping":62},{"user_id":259,"name":"sniper's kangaroo ex","steam_id":76561198334042273,"connected_time":598000000000,"state":"active","ping":41},{"user_id":213,"name":"Thundergodstonelate","steam_id":76561198040893623,"connected_time":3743000000000,"state":"active","ping":92},{"user_id":268,"name":"Jeryx","steam_id":76561197995602803,"connected_time":231000000000,"state":"active","ping":46},{"user_id":269,"name":"Geab","steam_id":76561198198998973,"connected_time":219000000000,"state":"active","ping":79},{"user_id":243,"name":"Mig_Chungus","steam_id":76561198053410265,"connected_time":1628000000000,"state":"active","ping":75},{"user_id":270,"name":"pierogi","steam_id":76561198718760200,"connected_time":101000000000,"state":"active","ping":45},{"user_id":251,"name":"Hannü","steam_id":76561197969886128,"connected_time":1094000000000,"state":"active","ping":42},{"user_id":244,"name":"jjvthou(NOtdRuNkMeswEaRss)","steam_id":76561199403071554,"connected_time":1577000000000,"state":"active","ping":121},{"user_id":227,"name":"Snowmotion","steam_id":76561198075022454,"connected_time":3028000000000,"state":"active","ping":60},{"user_id":228,"name":"teddy","steam_id":76561198007436837,"connected_time":3021000000000,"state":"active","ping":45}]},{"server_id":40,"name":"Uncletopia | London | 7 | Stopwatch","name_short":"lon-7","host":"lon-1.uk.uncletopia.com","port":27075,"enabled":true,"region":"eu","cc":"gb","latitude":51.509865,"longitude":-0.118092,"reserved":0,"last_update":"0001-01-01T00:00:00Z","name_a2s":"Uncletopia | London | 7 | Stopwatch","protocol":17,"map":"koth_highpass","folder":"tf","game":"Team Fortress","app_id":440,"player_count":0,"max_players":24,"Bots":0,"server_type":"Dedicated","server_os":"Linux","password":true,"vac":true,"version":"7961495","steam_id":85568392924964314,"keywords":["cp","nocrits","nodmgspread","uncletopia"],"game_id":440,"stv_port":27076,"stv_name":"Uncletopia | London | 7 | Stopwatch | STV","players":null},{"server_id":41,"name":"Uncletopia | London | 8 | Community","name_short":"lon-8","host":"lon-1.uk.uncletopia.com","port":27085,"enabled":true,"region":"eu","cc":"gb","latitude":51.509865,"longitude":-0.118092,"reserved":0,"last_update":"0001-01-01T00:00:00Z","name_a2s":"Uncletopia | London | 8 | Community","protocol":17,"map":"workshop/pl_divulgence_b4b.ugc2884808746","folder":"tf","game":"Team Fortress","app_id":440,"player_count":0,"max_players":24,"Bots":0,"server_type":"Dedicated","server_os":"Linux","password":true,"vac":true,"version":"7961495","steam_id":85568392924964315,"keywords":["nocrits","nodmgspread","payload","uncletopia"],"game_id":440,"stv_port":27086,"stv_name":"Uncletopia | London | 8 | Community | STV","players":null},{"server_id":300,"name":"Uncletopia | Montréal | 1 | One Thousand Uncles","name_short":"mtl-1","host":"mtl-1.ca.uncletopia.com","port":27015,"enabled":true,"region":"us-east","cc":"ca","latitude":45.50889,"longitude":-73.56167,"reserved":0,"last_update":"0001-01-01T00:00:00Z","name_a2s":"Uncletopia | Montréal | 1 | One Thousand Uncles","protocol":17,"map":"cp_egypt_final","folder":"tf","game":"Team Fortress","app_id":440,"player_count":29,"max_players":32,"Bots":16,"server_type":"Dedicated","server_os":"Linux","password":true,"vac":true,"version":"7961495","steam_id":85568392924500087,"keywords":["alltalk","bots","cp","danepve","increased_maxplayers","norespawntime","uncletopia"],"game_id":440,"stv_port":0,"stv_name":"","players":[{"user_id":182,"name":"The Devious DOOBIE Doer","steam_id":76561199263588898,"connected_time":782000000000,"state":"active","ping":101},{"user_id":156,"name":"warter","steam_id":76561198971084251,"connected_time":2652000000000,"state":"active","ping":79},{"user_id":202,"name":"con","steam_id":76561198850438326,"connected_time":38000000000,"state":"active","ping":63},{"user_id":158,"name":"Go1deN","steam_id":76561198889933398,"connected_time":2628000000000,"state":"active","ping":88},{"user_id":159,"name":"DucklesT","steam_id":76561199218468106,"connected_time":2551000000000,"state":"active","ping":53},{"user_id":86,"name":"Monkey Mafia Thug 1","steam_id":76561199096241116,"connected_time":6843000000000,"state":"active","ping":74},{"user_id":87,"name":"Monkey Mafia Thug 4","steam_id":76561198376752965,"connected_time":6842000000000,"state":"active","ping":59},{"user_id":162,"name":"BigPapaBrogan","steam_id":76561199012814165,"connected_time":2340000000000,"state":"active","ping":60},{"user_id":176,"name":"Boykissing Gaming","steam_id":76561199504472610,"connected_time":1201000000000,"state":"active","ping":85},{"user_id":164,"name":"homsar","steam_id":76561199031742838,"connected_time":2261000000000,"state":"active","ping":45},{"user_id":104,"name":"Why not Zoidberg?","steam_id":76561197982207556,"connected_time":4865000000000,"state":"active","ping":74},{"user_id":135,"name":"Im Groot","steam_id":76561198294943420,"connected_time":2995000000000,"state":"active","ping":78},{"user_id":168,"name":"Lots0","steam_id":76561198043143145,"connected_time":1774000000000,"state":"active","ping":97}]},{"server_id":301,"name":"Uncletopia | Montréal | 2 | One Thousand Uncles","name_short":"mtl-2","host":"mtl-1.ca.uncletopia.com","port":27025,"enabled":true,"region":"us-east","cc":"ca","latitude":45.50889,"longitude":-73.56167,"reserved":0,"last_update":"0001-01-01T00:00:00Z","name_a2s":"Uncletopia | Montréal | 2 | One Thousand Uncles","protocol":17,"map":"pl_chilly","folder":"tf","game":"Team Fortress","app_id":440,"player_count":0,"max_players":32,"Bots":0,"server_type":"Dedicated","server_os":"Linux","password":true,"vac":true,"version":"7961495","steam_id":85568392924500088,"keywords":["alltalk","danepve","increased_maxplayers","norespawntime","payload","uncletopia"],"game_id":440,"stv_port":0,"stv_name":"","players":null},{"server_id":302,"name":"Uncletopia | Montréal | 3 | One Thousand Uncles","name_short":"mtl-3","host":"mtl-1.ca.uncletopia.com","port":27035,"enabled":true,"region":"us-east","cc":"ca","latitude":45.50889,"longitude":-73.56167,"reserved":0,"last_update":"0001-01-01T00:00:00Z","name_a2s":"Uncletopia | Montréal | 3 | One Thousand Uncles","protocol":17,"map":"pl_hoodoo_final","folder":"tf","game":"Team Fortress","app_id":440,"player_count":20,"max_players":32,"Bots":16,"server_type":"Dedicated","server_os":"Linux","password":true,"vac":true,"version":"7961495","steam_id":85568392924500089,"keywords":["alltalk","bots","danepve","increased_maxplayers","norespawntime","payload","uncletopia"],"game_id":440,"stv_port":0,"stv_name":"","players":[{"user_id":62,"name":"StonrChic69","steam_id":76561199249824493,"connected_time":3452000000000,"state":"active","ping":74},{"user_id":84,"name":"PootisPowHAHA","steam_id":76561199023536209,"connected_time":1612000000000,"state":"active","ping":85},{"user_id":85,"name":"poon","steam_id":76561198049740395,"connected_time":1214000000000,"state":"active","ping":43},{"user_id":87,"name":"Just John","steam_id":76561198352532384,"connected_time":954000000000,"state":"active","ping":78}]},{"server_id":13,"name":"Uncletopia | New York City | 1 | All Maps","name_short":"nyc-1","host":"nyc-1.us.uncletopia.com","port":27015,"enabled":true,"region":"us-east","cc":"us","latitude":40.73061,"longitude":-73.93524,"reserved":0,"last_update":"0001-01-01T00:00:00Z","name_a2s":"Uncletopia | New York City | 1 | All Maps","protocol":17,"map":"cp_granary","folder":"tf","game":"Team Fortress","app_id":440,"player_count":24,"max_players":24,"Bots":0,"server_type":"Dedicated","server_os":"Linux","password":true,"vac":true,"version":"7961495","steam_id":85568392924469993,"keywords":["cp","nocrits","nodmgspread","uncletopia"],"game_id":440,"stv_port":27016,"stv_name":"Uncletopia | New York City | 1 | All Maps | STV","players":[{"user_id":213,"name":"Huloon","steam_id":76561198070837568,"connected_time":169000000000,"state":"active","ping":47},{"user_id":215,"name":"Jnet","steam_id":76561198001282720,"connected_time":82000000000,"state":"active","ping":150},{"user_id":179,"name":"Johnsonlover","steam_id":76561199121972402,"connected_time":1295000000000,"state":"active","ping":45},{"user_id":217,"name":"Emotional Cowboy","steam_id":76561198041439581,"connected_time":47000000000,"state":"active","ping":47},{"user_id":187,"name":"The janitor(El coyote)","steam_id":76561198414300607,"connected_time":953000000000,"state":"active","ping":114},{"user_id":212,"name":"Officer Chef","steam_id":76561198310658990,"connected_time":197000000000,"state":"active","ping":65},{"user_id":200,"name":"bubua","steam_id":76561198989855030,"connected_time":628000000000,"state":"active","ping":46},{"user_id":216,"name":"Draco6257","steam_id":76561199147322448,"connected_time":55000000000,"state":"active","ping":38},{"user_id":190,"name":"ZodiacThundaga","steam_id":76561199025117814,"connected_time":850000000000,"state":"active","ping":80},{"user_id":185,"name":"Special Agent Jason Brown","steam_id":76561197995620232,"connected_time":999000000000,"state":"active","ping":30},{"user_id":95,"name":"BeefClapper420","steam_id":76561198080892634,"connected_time":7124000000000,"state":"active","ping":50},{"user_id":191,"name":"Cosmic","steam_id":76561198269223977,"connected_time":796000000000,"state":"active","ping":30},{"user_id":218,"name":"BorisTheNewt","steam_id":76561198126823370,"connected_time":14000000000,"state":"spawning","ping":2744},{"user_id":196,"name":"AshleyJWilliams","steam_id":76561199319657907,"connected_time":694000000000,"state":"active","ping":77},{"user_id":197,"name":"TheDoorMatt655","steam_id":76561198355672296,"connected_time":679000000000,"state":"active","ping":102},{"user_id":202,"name":"Tokyo_Timeshift_","steam_id":76561198048677523,"connected_time":560000000000,"state":"active","ping":65},{"user_id":203,"name":"Griffin","steam_id":76561198159339442,"connected_time":551000000000,"state":"active","ping":73},{"user_id":204,"name":"The Demoman from Team Fortress ","steam_id":76561199031241776,"connected_time":523000000000,"state":"active","ping":76},{"user_id":209,"name":"nick","steam_id":76561198041362771,"connected_time":386000000000,"state":"active","ping":82},{"user_id":151,"name":"jp","steam_id":76561198308103061,"connected_time":2881000000000,"state":"active","ping":61},{"user_id":206,"name":"cift","steam_id":76561198309763491,"connected_time":521000000000,"state":"active","ping":60},{"user_id":214,"name":"Crystall","steam_id":76561198346607700,"connected_time":144000000000,"state":"active","ping":44},{"user_id":207,"name":"splot","steam_id":76561199133681385,"connected_time":492000000000,"state":"active","ping":76},{"user_id":210,"name":"poopyjoe69weedlover420","steam_id":76561199149966252,"connected_time":370000000000,"state":"active","ping":85}]},{"server_id":14,"name":"Uncletopia | New York City | 2 | All Maps","name_short":"nyc-2","host":"nyc-1.us.uncletopia.com","port":27025,"enabled":true,"region":"us-east","cc":"us","latitude":40.73061,"longitude":-73.93524,"reserved":0,"last_update":"0001-01-01T00:00:00Z","name_a2s":"Uncletopia | New York City | 2 | All Maps","protocol":17,"map":"pl_borneo","folder":"tf","game":"Team Fortress","app_id":440,"player_count":24,"max_players":24,"Bots":0,"server_type":"Dedicated","server_os":"Linux","password":true,"vac":true,"version":"7961495","steam_id":85568392924469994,"keywords":["nocrits","nodmgspread","payload","uncletopia"],"game_id":440,"stv_port":27026,"stv_name":"Uncletopia | New York City | 2 | All Maps | STV","players":[{"user_id":341,"name":"Shulgin_4-HO_MET","steam_id":76561198038784254,"connected_time":736000000000,"state":"active","ping":64},{"user_id":330,"name":"JxyGREED","steam_id":76561198345026653,"connected_time":1756000000000,"state":"active","ping":45},{"user_id":325,"name":"vastrobotmax","steam_id":76561198417110724,"connected_time":1909000000000,"state":"active","ping":60},{"user_id":295,"name":"Beanz :)","steam_id":76561199434233117,"connected_time":3129000000000,"state":"active","ping":78},{"user_id":310,"name":"ʏᴜᴊɪ","steam_id":76561198401572620,"connected_time":2292000000000,"state":"active","ping":67},{"user_id":322,"name":"Mr. Squirt","steam_id":76561198174755679,"connected_time":2049000000000,"state":"active","ping":39},{"user_id":342,"name":"Koala Bear","steam_id":76561198118025990,"connected_time":718000000000,"state":"active","ping":74},{"user_id":334,"name":"hacvet1971","steam_id":76561198048281537,"connected_time":1300000000000,"state":"active","ping":78},{"user_id":312,"name":"Noobert McGlitchington the 3st","steam_id":76561198073176682,"connected_time":2284000000000,"state":"active","ping":78},{"user_id":303,"name":"ToyBox","steam_id":76561199074735423,"connected_time":2567000000000,"state":"active","ping":49},{"user_id":340,"name":"crock","steam_id":76561198274794587,"connected_time":864000000000,"state":"active","ping":71},{"user_id":251,"name":"Fishybros","steam_id":76561198182045699,"connected_time":6536000000000,"state":"active","ping":43},{"user_id":345,"name":"Shrebbie","steam_id":76561198875230824,"connected_time":519000000000,"state":"active","ping":44},{"user_id":346,"name":"BubbyBoy27","steam_id":76561199102009679,"connected_time":465000000000,"state":"active","ping":71},{"user_id":335,"name":"William Afton","steam_id":76561198819442173,"connected_time":1288000000000,"state":"active","ping":124},{"user_id":316,"name":"J197382645","steam_id":76561198014742440,"connected_time":2200000000000,"state":"active","ping":67},{"user_id":347,"name":"Gardangle","steam_id":76561198394173831,"connected_time":447000000000,"state":"active","ping":122},{"user_id":300,"name":"Broadway Rose","steam_id":76561198046083342,"connected_time":2830000000000,"state":"active","ping":45},{"user_id":337,"name":"engineer gaming","steam_id":76561199069628392,"connected_time":1121000000000,"state":"active","ping":56},{"user_id":336,"name":"Vyyx","steam_id":76561198977893111,"connected_time":1270000000000,"state":"active","ping":78},{"user_id":298,"name":"yum","steam_id":76561199103766971,"connected_time":2966000000000,"state":"active","ping":63},{"user_id":344,"name":"Ranger_Rocker","steam_id":76561198131515936,"connected_time":688000000000,"state":"active","ping":81},{"user_id":333,"name":"cali","steam_id":76561198326822403,"connected_time":1355000000000,"state":"active","ping":75},{"user_id":349,"name":"okay","steam_id":76561198024973008,"connected_time":74000000000,"state":"active","ping":70}]},{"server_id":15,"name":"Uncletopia | New York City | 3 | Stopwatch","name_short":"nyc-3","host":"nyc-1.us.uncletopia.com","port":27035,"enabled":true,"region":"us-east","cc":"us","latitude":40.73061,"longitude":-73.93524,"reserved":0,"last_update":"0001-01-01T00:00:00Z","name_a2s":"Uncletopia | New York City | 3 | Stopwatch","protocol":17,"map":"workshop/koth_ashville_final.ugc2130459942","folder":"tf","game":"Team Fortress","app_id":440,"player_count":0,"max_players":24,"Bots":0,"server_type":"Dedicated","server_os":"Linux","password":true,"vac":true,"version":"7961495","steam_id":85568392924742820,"keywords":["cp","nocrits","nodmgspread","uncletopia"],"game_id":440,"stv_port":27036,"stv_name":"Uncletopia | New York City | 3 | Stopwatch | STV","players":null},{"server_id":16,"name":"Uncletopia | New York City | 4 | Community","name_short":"nyc-4","host":"nyc-1.us.uncletopia.com","port":27045,"enabled":true,"region":"us-east","cc":"us","latitude":40.73061,"longitude":-73.93524,"reserved":0,"last_update":"0001-01-01T00:00:00Z","name_a2s":"Uncletopia | New York City | 4 | Community","protocol":17,"map":"workshop/cp_overgrown_rc8.ugc503939302","folder":"tf","game":"Team Fortress","app_id":440,"player_count":0,"max_players":24,"Bots":0,"server_type":"Dedicated","server_os":"Linux","password":true,"vac":true,"version":"7961495","steam_id":85568392924742821,"keywords":["cp","nocrits","nodmgspread","uncletopia"],"game_id":440,"stv_port":27046,"stv_name":"Uncletopia | New York City | 4 | Community | STV","players":null},{"server_id":142,"name":"Uncletopia | São Paulo | 1 | All Maps","name_short":"sao-1","host":"sao-1.br.uncletopia.com","port":27015,"enabled":true,"region":"sa","cc":"br","latitude":-23.533773,"longitude":-46.62529,"reserved":0,"last_update":"0001-01-01T00:00:00Z","name_a2s":"Uncletopia | São Paulo | 1 | All Maps","protocol":17,"map":"pl_borneo","folder":"tf","game":"Team Fortress","app_id":440,"player_count":0,"max_players":24,"Bots":0,"server_type":"Dedicated","server_os":"Linux","password":true,"vac":true,"version":"7961495","steam_id":85568392924469996,"keywords":["nocrits","nodmgspread","payload","uncletopia"],"game_id":440,"stv_port":27016,"stv_name":"Uncletopia | São Paulo | 1 | All Maps | STV","players":null},{"server_id":143,"name":"Uncletopia | São Paulo | 2 | Community","name_short":"sao-2","host":"sao-2.br.uncletopia.com","port":27015,"enabled":true,"region":"sa","cc":"br","latitude":-23.533773,"longitude":-46.62529,"reserved":0,"last_update":"0001-01-01T00:00:00Z","name_a2s":"Uncletopia | São Paulo | 2 | Community","protocol":17,"map":"workshop/pl_boundary_final1.ugc456799153","folder":"tf","game":"Team Fortress","app_id":440,"player_count":0,"max_players":24,"Bots":0,"server_type":"Dedicated","server_os":"Linux","password":true,"vac":true,"version":"7961495","steam_id":85568392924485349,"keywords":["nocrits","nodmgspread","payload","uncletopia"],"game_id":440,"stv_port":27016,"stv_name":"Uncletopia | São Paulo | 2 | Community | STV","players":null},{"server_id":7,"name":"Uncletopia | Seattle | 1 | All Maps","name_short":"sea-1","host":"sea-1.us.uncletopia.com","port":27015,"enabled":true,"region":"us-west","cc":"us","latitude":47.608013,"longitude":-122.33517,"reserved":0,"last_update":"0001-01-01T00:00:00Z","name_a2s":"Uncletopia | Seattle | 1 | All Maps","protocol":17,"map":"cp_egypt_final","folder":"tf","game":"Team Fortress","app_id":440,"player_count":24,"max_players":24,"Bots":0,"server_type":"Dedicated","server_os":"Linux","password":true,"vac":true,"version":"7961495","steam_id":85568392924469997,"keywords":["cp","nocrits","nodmgspread","uncletopia"],"game_id":440,"stv_port":27016,"stv_name":"Uncletopia | Seattle | 1 | All Maps | STV","players":[{"user_id":434,"name":"Lé Mon","steam_id":76561198078626283,"connected_time":5721000000000,"state":"active","ping":30},{"user_id":483,"name":"bind e explode","steam_id":76561198054914055,"connected_time":1257000000000,"state":"active","ping":101},{"user_id":486,"name":"Neb","steam_id":76561198883473473,"connected_time":1038000000000,"state":"active","ping":44},{"user_id":480,"name":"Nom Skirrett","steam_id":76561198014600788,"connected_time":1333000000000,"state":"active","ping":60},{"user_id":482,"name":"stir-fried human tonsils","steam_id":76561198312126442,"connected_time":1323000000000,"state":"active","ping":38},{"user_id":489,"name":"Σpsilon","steam_id":76561198053245190,"connected_time":611000000000,"state":"active","ping":95},{"user_id":481,"name":"Greskrendtregk","steam_id":76561197969553142,"connected_time":1332000000000,"state":"active","ping":52},{"user_id":490,"name":"THE LAW","steam_id":76561198085700801,"connected_time":595000000000,"state":"active","ping":105},{"user_id":451,"name":"Cr0wd3r","steam_id":76561198153612764,"connected_time":4131000000000,"state":"active","ping":92},{"user_id":484,"name":"Ulrich Stern","steam_id":76561198101739682,"connected_time":1243000000000,"state":"active","ping":107},{"user_id":494,"name":"↟ ↟ callie ↟ ↟","steam_id":76561198058199952,"connected_time":437000000000,"state":"active","ping":43},{"user_id":485,"name":"Heartgold","steam_id":76561199062592062,"connected_time":1211000000000,"state":"active","ping":128},{"user_id":409,"name":"DubiousDodo","steam_id":76561198828172686,"connected_time":6796000000000,"state":"active","ping":77},{"user_id":475,"name":"Hazel The Boy Maid","steam_id":76561199247095754,"connected_time":2181000000000,"state":"active","ping":63},{"user_id":400,"name":"William Lovett","steam_id":76561197991063996,"connected_time":7830000000000,"state":"active","ping":101},{"user_id":465,"name":"Aardappel","steam_id":76561198030894676,"connected_time":3076000000000,"state":"active","ping":64},{"user_id":461,"name":"imasheep","steam_id":76561198210322871,"connected_time":3214000000000,"state":"active","ping":85},{"user_id":487,"name":"Grill Skills","steam_id":76561198053575147,"connected_time":700000000000,"state":"active","ping":55},{"user_id":478,"name":"perfectemu","steam_id":76561199147866624,"connected_time":1345000000000,"state":"active","ping":97},{"user_id":476,"name":"fungus","steam_id":76561198201564074,"connected_time":2038000000000,"state":"active","ping":54},{"user_id":438,"name":":^1 Hekken","steam_id":76561198109933577,"connected_time":5522000000000,"state":"active","ping":38},{"user_id":452,"name":"2 Point Tom","steam_id":76561198087617008,"connected_time":4126000000000,"state":"active","ping":56},{"user_id":479,"name":"Dog Hands Phone","steam_id":76561198090419068,"connected_time":1345000000000,"state":"active","ping":68},{"user_id":493,"name":"Uncle Feathers McGraw","steam_id":76561198046442707,"connected_time":552000000000,"state":"active","ping":45}]},{"server_id":119,"name":"Uncletopia | Seattle | 2 | All Maps","name_short":"sea-2","host":"sea-1.us.uncletopia.com","port":27025,"enabled":true,"region":"us-west","cc":"us","latitude":47.608013,"longitude":-122.33517,"reserved":0,"last_update":"0001-01-01T00:00:00Z","name_a2s":"Uncletopia | Seattle | 2 | All Maps","protocol":17,"map":"koth_highpass","folder":"tf","game":"Team Fortress","app_id":440,"player_count":0,"max_players":24,"Bots":0,"server_type":"Dedicated","server_os":"Linux","password":true,"vac":true,"version":"7961495","steam_id":85568392924469998,"keywords":["cp","nocrits","nodmgspread","uncletopia"],"game_id":440,"stv_port":27026,"stv_name":"Uncletopia | Seattle | 2 | All Maps | STV","players":null},{"server_id":406,"name":"Uncletopia | Seattle | 3 | Stopwatch","name_short":"sea-3","host":"sea-1.us.uncletopia.com","port":27035,"enabled":true,"region":"us-west","cc":"us","latitude":47.608013,"longitude":-122.33517,"reserved":0,"last_update":"0001-01-01T00:00:00Z","name_a2s":"Uncletopia | Seattle | 3 | Stopwatch","protocol":17,"map":"koth_highpass","folder":"tf","game":"Team Fortress","app_id":440,"player_count":0,"max_players":24,"Bots":0,"server_type":"Dedicated","server_os":"Linux","password":true,"vac":true,"version":"7961495","steam_id":85568392924515217,"keywords":["cp","nocrits","nodmgspread","uncletopia"],"game_id":440,"stv_port":27036,"stv_name":"Uncletopia | Seattle | 3 | Stopwatch | STV","players":null},{"server_id":17,"name":"Uncletopia | San Francisco | 1 | All Maps","name_short":"sfo-1","host":"sfo-1.us.uncletopia.com","port":27015,"enabled":true,"region":"us-west","cc":"us","latitude":37.77397,"longitude":-122.4313,"reserved":0,"last_update":"0001-01-01T00:00:00Z","name_a2s":"Uncletopia | San Francisco | 1 | All Maps","protocol":17,"map":"koth_highpass","folder":"tf","game":"Team Fortress","app_id":440,"player_count":6,"max_players":24,"Bots":0,"server_type":"Dedicated","server_os":"Linux","password":true,"vac":true,"version":"7961495","steam_id":85568392924469999,"keywords":["cp","nocrits","nodmgspread","uncletopia"],"game_id":440,"stv_port":27016,"stv_name":"Uncletopia | San Francisco | 1 | All Maps | STV","players":[{"user_id":6,"name":"ImagineExisting","steam_id":76561198860261731,"connected_time":598000000000,"state":"active","ping":55},{"user_id":8,"name":"liamtwok10","steam_id":76561198951344626,"connected_time":524000000000,"state":"active","ping":52},{"user_id":9,"name":"Weg","steam_id":76561198325033121,"connected_time":471000000000,"state":"active","ping":101},{"user_id":10,"name":"Dottie [She/They]","steam_id":76561198282046179,"connected_time":156000000000,"state":"active","ping":77},{"user_id":11,"name":"kosmo404","steam_id":76561198983163386,"connected_time":142000000000,"state":"active","ping":57},{"user_id":12,"name":"Kia_the_car","steam_id":76561198882171095,"connected_time":73000000000,"state":"active","ping":60}]},{"server_id":18,"name":"Uncletopia | San Francisco | 2 | All Maps","name_short":"sfo-2","host":"sfo-1.us.uncletopia.com","port":27025,"enabled":true,"region":"us-west","cc":"us","latitude":37.77397,"longitude":-122.4313,"reserved":0,"last_update":"0001-01-01T00:00:00Z","name_a2s":"Uncletopia | San Francisco | 2 | All Maps","protocol":17,"map":"koth_viaduct","folder":"tf","game":"Team Fortress","app_id":440,"player_count":0,"max_players":24,"Bots":0,"server_type":"Dedicated","server_os":"Linux","password":true,"vac":true,"version":"7961495","steam_id":85568392924470000,"keywords":["cp","nocrits","nodmgspread","uncletopia"],"game_id":440,"stv_port":27026,"stv_name":"Uncletopia | San Francisco | 2 | All Maps | STV","players":null},{"server_id":19,"name":"Uncletopia | San Francisco | 3 | Stopwatch","name_short":"sfo-3","host":"sfo-1.us.uncletopia.com","port":27035,"enabled":true,"region":"us-west","cc":"us","latitude":37.77397,"longitude":-122.4313,"reserved":0,"last_update":"0001-01-01T00:00:00Z","name_a2s":"Uncletopia | San Francisco | 3 | Stopwatch","protocol":17,"map":"workshop/koth_product_final.ugc454272353","folder":"tf","game":"Team Fortress","app_id":440,"player_count":0,"max_players":24,"Bots":0,"server_type":"Dedicated","server_os":"Linux","password":true,"vac":true,"version":"7961495","steam_id":85568392924742824,"keywords":["cp","nocrits","nodmgspread","uncletopia"],"game_id":440,"stv_port":27036,"stv_name":"Uncletopia | San Francisco | 3 | Stopwatch | STV","players":null},{"server_id":20,"name":"Uncletopia | San Francisco | 4 | Community","name_short":"sfo-4","host":"sfo-1.us.uncletopia.com","port":27045,"enabled":true,"region":"us-west","cc":"us","latitude":37.77397,"longitude":-122.4313,"reserved":0,"last_update":"0001-01-01T00:00:00Z","name_a2s":"Uncletopia | San Francisco | 4 | Community","protocol":17,"map":"workshop/pl_cactuscanyon_redux_final2.ugc2579644293","folder":"tf","game":"Team Fortress","app_id":440,"player_count":0,"max_players":24,"Bots":0,"server_type":"Dedicated","server_os":"Linux","password":true,"vac":true,"version":"7961495","steam_id":85568392924742826,"keywords":["nocrits","nodmgspread","payload","uncletopia"],"game_id":440,"stv_port":27046,"stv_name":"Uncletopia | San Francisco | 4 | Community | STV","players":null},{"server_id":141,"name":"Uncletopia | Sydney | 1 | All Maps","name_short":"syd-1","host":"syd-1.au.uncletopia.com","port":27015,"enabled":true,"region":"au","cc":"au","latitude":-33.865143,"longitude":151.2099,"reserved":0,"last_update":"0001-01-01T00:00:00Z","name_a2s":"Uncletopia | Sydney | 1 | All Maps","protocol":17,"map":"koth_nucleus","folder":"tf","game":"Team Fortress","app_id":440,"player_count":0,"max_players":24,"Bots":0,"server_type":"Dedicated","server_os":"Linux","password":true,"vac":true,"version":"7961495","steam_id":85568392924470001,"keywords":["cp","nocrits","nodmgspread","uncletopia"],"game_id":440,"stv_port":27016,"stv_name":"Uncletopia | Sydney | 1 | All Maps | STV","players":null},{"server_id":123,"name":"Uncletopia | Sydney | 2 | All Maps","name_short":"syd-2","host":"syd-1.au.uncletopia.com","port":27025,"enabled":true,"region":"au","cc":"au","latitude":-33.865143,"longitude":151.2099,"reserved":0,"last_update":"0001-01-01T00:00:00Z","name_a2s":"Uncletopia | Sydney | 2 | All Maps","protocol":17,"map":"cp_fastlane","folder":"tf","game":"Team Fortress","app_id":440,"player_count":0,"max_players":24,"Bots":0,"server_type":"Dedicated","server_os":"Linux","password":true,"vac":true,"version":"7961495","steam_id":85568392924470002,"keywords":["cp","nocrits","nodmgspread","uncletopia"],"game_id":440,"stv_port":27026,"stv_name":"Uncletopia | Sydney | 2 | All Maps | STV","players":null},{"server_id":395,"name":"Uncletopia | Sydney | 3 | All Maps","name_short":"syd-3","host":"syd-1.au.uncletopia.com","port":27035,"enabled":true,"region":"au","cc":"au","latitude":-33.865143,"longitude":151.2099,"reserved":0,"last_update":"0001-01-01T00:00:00Z","name_a2s":"Uncletopia | Sydney | 3 | All Maps","protocol":17,"map":"cp_metalworks","folder":"tf","game":"Team Fortress","app_id":440,"player_count":0,"max_players":24,"Bots":0,"server_type":"Dedicated","server_os":"Linux","password":true,"vac":true,"version":"7961495","steam_id":85568392925194467,"keywords":["cp","nocrits","nodmgspread","uncletopia"],"game_id":440,"stv_port":27036,"stv_name":"Uncletopia | Sydney | 3 | All Maps | STV","players":null},{"server_id":396,"name":"Uncletopia | Sydney | 4 | All Maps","name_short":"syd-4","host":"syd-1.au.uncletopia.com","port":27045,"enabled":true,"region":"au","cc":"au","latitude":-33.865143,"longitude":151.2099,"reserved":0,"last_update":"0001-01-01T00:00:00Z","name_a2s":"Uncletopia | Sydney | 4 | All Maps","protocol":17,"map":"koth_cascade","folder":"tf","game":"Team Fortress","app_id":440,"player_count":0,"max_players":24,"Bots":0,"server_type":"Dedicated","server_os":"Linux","password":true,"vac":true,"version":"7961495","steam_id":85568392925397958,"keywords":["cp","nocrits","nodmgspread","uncletopia"],"game_id":440,"stv_port":27046,"stv_name":"Uncletopia | Sydney | 4 | All Maps | STV","players":null},{"server_id":58,"name":"Uncletopia | Sydney | 5 | Stopwatch","name_short":"syd-5","host":"syd-1.au.uncletopia.com","port":27055,"enabled":true,"region":"au","cc":"au","latitude":-33.865143,"longitude":151.2099,"reserved":0,"last_update":"0001-01-01T00:00:00Z","name_a2s":"Uncletopia | Sydney | 5 | Stopwatch","protocol":17,"map":"workshop/koth_product_final.ugc454272353","folder":"tf","game":"Team Fortress","app_id":440,"player_count":0,"max_players":24,"Bots":0,"server_type":"Dedicated","server_os":"Linux","password":true,"vac":true,"version":"7961495","steam_id":85568392925397959,"keywords":["cp","nocrits","nodmgspread","uncletopia"],"game_id":440,"stv_port":27056,"stv_name":"Uncletopia | Sydney | 5 | Stopwatch | STV","players":null},{"server_id":59,"name":"Uncletopia | Sydney | 6 | Community","name_short":"syd-6","host":"syd-1.au.uncletopia.com","port":27065,"enabled":true,"region":"au","cc":"au","latitude":-33.865143,"longitude":151.2099,"reserved":0,"last_update":"0001-01-01T00:00:00Z","name_a2s":"Uncletopia | Sydney | 6 | Community","protocol":17,"map":"workshop/koth_trenchfoot_ab1.ugc731436616","folder":"tf","game":"Team Fortress","app_id":440,"player_count":0,"max_players":24,"Bots":0,"server_type":"Dedicated","server_os":"Linux","password":true,"vac":true,"version":"7961495","steam_id":85568392925397960,"keywords":["cp","nocrits","nodmgspread","uncletopia"],"game_id":440,"stv_port":27066,"stv_name":"Uncletopia | Sydney | 6 | Community | STV","players":null},{"server_id":49,"name":"Uncletopia | Warsaw | 1 | One Thousand Uncles","name_short":"waw-1","host":"waw-1.pl.uncletopia.com","port":27015,"enabled":true,"region":"eu","cc":"pl","latitude":52.2297,"longitude":21.017532,"reserved":0,"last_update":"0001-01-01T00:00:00Z","name_a2s":"Uncletopia | Warsaw | 1 | One Thousand Uncles","protocol":17,"map":"pl_barnblitz","folder":"tf","game":"Team Fortress","app_id":440,"player_count":21,"max_players":32,"Bots":16,"server_type":"Dedicated","server_os":"Linux","password":true,"vac":true,"version":"7961495","steam_id":85568392925397850,"keywords":["alltalk","bots","danepve","increased_maxplayers","norespawntime","payload","uncletopia"],"game_id":440,"stv_port":0,"stv_name":"","players":[{"user_id":698,"name":"JayMaloney","steam_id":76561198050173547,"connected_time":1997000000000,"state":"active","ping":76},{"user_id":676,"name":"Tispy","steam_id":76561199207410049,"connected_time":3044000000000,"state":"active","ping":128},{"user_id":674,"name":"Palc0vva","steam_id":76561199044887226,"connected_time":3240000000000,"state":"active","ping":37},{"user_id":675,"name":"4lex_Teloh","steam_id":76561199033714224,"connected_time":3195000000000,"state":"active","ping":40},{"user_id":678,"name":"D4RKERX","steam_id":76561198060537403,"connected_time":2563000000000,"state":"active","ping":227}]},{"server_id":50,"name":"Uncletopia | Warsaw | 2 | One Thousand Uncles","name_short":"waw-2","host":"waw-1.pl.uncletopia.com","port":27025,"enabled":true,"region":"eu","cc":"pl","latitude":52.2297,"longitude":21.017532,"reserved":0,"last_update":"0001-01-01T00:00:00Z","name_a2s":"Uncletopia | Warsaw | 2 | One Thousand Uncles","protocol":17,"map":"cp_mossrock","folder":"tf","game":"Team Fortress","app_id":440,"player_count":0,"max_players":32,"Bots":0,"server_type":"Dedicated","server_os":"Linux","password":true,"vac":true,"version":"7961495","steam_id":85568392925397851,"keywords":["alltalk","cp","danepve","increased_maxplayers","norespawntime","uncletopia"],"game_id":440,"stv_port":0,"stv_name":"","players":null},{"server_id":51,"name":"Uncletopia | Warsaw | 3 | All Maps","name_short":"waw-3","host":"waw-1.pl.uncletopia.com","port":27035,"enabled":true,"region":"eu","cc":"pl","latitude":52.2297,"longitude":21.017532,"reserved":0,"last_update":"0001-01-01T00:00:00Z","name_a2s":"Uncletopia | Warsaw | 3 | All Maps","protocol":17,"map":"koth_lakeside_final","folder":"tf","game":"Team Fortress","app_id":440,"player_count":0,"max_players":24,"Bots":0,"server_type":"Dedicated","server_os":"Linux","password":true,"vac":true,"version":"7961495","steam_id":85568392925397852,"keywords":["cp","nocrits","nodmgspread","uncletopia"],"game_id":440,"stv_port":27036,"stv_name":"Uncletopia | Warsaw | 3 | All Maps | STV","players":null},{"server_id":52,"name":"Uncletopia | Warsaw | 4 | All Maps","name_short":"waw-4","host":"waw-1.pl.uncletopia.com","port":27045,"enabled":true,"region":"eu","cc":"pl","latitude":52.2297,"longitude":21.017532,"reserved":0,"last_update":"0001-01-01T00:00:00Z","name_a2s":"Uncletopia | Warsaw | 4 | All Maps","protocol":17,"map":"cp_altitude","folder":"tf","game":"Team Fortress","app_id":440,"player_count":3,"max_players":24,"Bots":0,"server_type":"Dedicated","server_os":"Linux","password":true,"vac":true,"version":"7961495","steam_id":85568392925397853,"keywords":["cp","nocrits","nodmgspread","uncletopia"],"game_id":440,"stv_port":27046,"stv_name":"Uncletopia | Warsaw | 4 | All Maps | STV","players":[{"user_id":106,"name":"Cloud4084","steam_id":76561199447681715,"connected_time":107000000000,"state":"active","ping":225},{"user_id":107,"name":"abuse","steam_id":76561198354438798,"connected_time":43000000000,"state":"active","ping":216},{"user_id":108,"name":"parneelnath916","steam_id":76561199273809426,"connected_time":42000000000,"state":"active","ping":247}]},{"server_id":53,"name":"Uncletopia | Warsaw | 5 | Stopwatch","name_short":"waw-5","host":"waw-1.pl.uncletopia.com","port":27055,"enabled":true,"region":"eu","cc":"pl","latitude":52.2297,"longitude":21.017532,"reserved":0,"last_update":"0001-01-01T00:00:00Z","name_a2s":"Uncletopia | Warsaw | 5 | Stopwatch","protocol":17,"map":"workshop/koth_ashville_final.ugc2130459942","folder":"tf","game":"Team Fortress","app_id":440,"player_count":0,"max_players":24,"Bots":0,"server_type":"Dedicated","server_os":"Linux","password":true,"vac":true,"version":"7961495","steam_id":85568392925397854,"keywords":["cp","nocrits","nodmgspread","uncletopia"],"game_id":440,"stv_port":27056,"stv_name":"Uncletopia | Warsaw | 5 | Stopwatch | STV","players":null},{"server_id":54,"name":"Uncletopia | Warsaw | 6 | Community","name_short":"waw-6","host":"waw-1.pl.uncletopia.com","port":27065,"enabled":true,"region":"eu","cc":"pl","latitude":52.2297,"longitude":21.017532,"reserved":0,"last_update":"0001-01-01T00:00:00Z","name_a2s":"Uncletopia | Warsaw | 6 | Community","protocol":17,"map":"workshop/koth_jamram_rc1a.ugc2964065613","folder":"tf","game":"Team Fortress","app_id":440,"player_count":0,"max_players":24,"Bots":0,"server_type":"Dedicated","server_os":"Linux","password":true,"vac":true,"version":"7961495","steam_id":85568392925397856,"keywords":["cp","nocrits","nodmgspread","uncletopia"],"game_id":440,"stv_port":27066,"stv_name":"Uncletopia | Warsaw | 6 | Community | STV","players":null}]}