{"status":true,"message":"","result":[{"server_id":9,"name":"Uncletopia | Atlanta | 1 | All Maps","name_short":"atl-1","host":"atl-1.us.uncletopia.com","port":27015,"enabled":true,"region":"us-east","cc":"us","latitude":33.753746,"longitude":-84.38633,"reserved":0,"last_update":"0001-01-01T00:00:00Z","name_a2s":"Uncletopia | Atlanta | 1 | All Maps","protocol":17,"map":"koth_viaduct","folder":"tf","game":"Team Fortress","app_id":440,"player_count":21,"max_players":24,"Bots":0,"server_type":"Dedicated","server_os":"Linux","password":true,"vac":true,"version":"7882260","steam_id":85568392924469982,"keywords":["cp","nocrits","nodmgspread","uncletopia"],"game_id":440,"stv_port":27016,"stv_name":"Uncletopia | Atlanta | 1 | All Maps | STV","players":[{"user_id":791,"name":"Octovaitor","steam_id":76561198004658451,"connected_time":2424000000000,"state":"active","ping":46},{"user_id":822,"name":"HeavenHearst","steam_id":76561198066083947,"connected_time":262000000000,"state":"active","ping":120},{"user_id":774,"name":"Tophu","steam_id":76561198380229671,"connected_time":3521000000000,"state":"active","ping":83},{"user_id":829,"name":"Val Valentine","steam_id":76561199481536077,"connected_time":50000000000,"state":"active","ping":68},{"user_id":819,"name":"gromit","steam_id":76561198037746805,"connected_time":444000000000,"state":"active","ping":74},{"user_id":790,"name":"Ludcmorais","steam_id":76561198359217809,"connected_time":2438000000000,"state":"active","ping":182},{"user_id":810,"name":"Blade","steam_id":76561198153163098,"connected_time":1079000000000,"state":"active","ping":80},{"user_id":821,"name":"Tocha","steam_id":76561198119725400,"connected_time":311000000000,"state":"active","ping":148},{"user_id":824,"name":"Paul Allen","steam_id":76561198205346760,"connected_time":170000000000,"state":"active","ping":63},{"user_id":818,"name":"YOUNG UPGRADE","steam_id":76561198035474725,"connected_time":478000000000,"state":"active","ping":78},{"user_id":825,"name":"Licenciado en Mamar Cucas","steam_id":76561198345094712,"connected_time":161000000000,"state":"active","ping":135},{"user_id":826,"name":"I sold my ex's dog for Destiny2","steam_id":76561198069523449,"connected_time":157000000000,"state":"active","ping":74},{"user_id":827,"name":"Tidwell","steam_id":76561198037414410,"connected_time":155000000000,"state":"active","ping":72},{"user_id":808,"name":"oof aim small brain","steam_id":76561198079925551,"connected_time":1256000000000,"state":"active","ping":84},{"user_id":830,"name":"(1)sunny","steam_id":76561198069380992,"connected_time":22000000000,"state":"active","ping":65},{"user_id":730,"name":"jih","steam_id":76561198043499010,"connected_time":5821000000000,"state":"active","ping":69},{"user_id":796,"name":"Sunny","steam_id":76561198125892600,"connected_time":2304000000000,"state":"active","ping":45},{"user_id":812,"name":"Rango","steam_id":76561198067275912,"connected_time":1071000000000,"state":"active","ping":130},{"user_id":797,"name":"Yummy Kabobz","steam_id":76561198067661705,"connected_time":2300000000000,"state":"active","ping":56},{"user_id":813,"name":"Shinies","steam_id":76561198169459631,"connected_time":1045000000000,"state":"active","ping":62},{"user_id":814,"name":"StealthyZeroTwo","steam_id":76561198942692649,"connected_time":730000000000,"state":"active","ping":68}]},{"server_id":104,"name":"Uncletopia | Atlanta | 2 | All Maps","name_short":"atl-2","host":"atl-1.us.uncletopia.com","port":27025,"enabled":true,"region":"us-east","cc":"us","latitude":33.753746,"longitude":-84.38633,"reserved":0,"last_update":"0001-01-01T00:00:00Z","name_a2s":"Uncletopia | Atlanta | 2 | All Maps","protocol":17,"map":"cp_sunshine","folder":"tf","game":"Team Fortress","app_id":440,"player_count":0,"max_players":24,"Bots":0,"server_type":"Dedicated","server_os":"Linux","password":true,"vac":true,"version":"7882260","steam_id":85568392924469983,"keywords":["cp","nocrits","nodmgspread","uncletopia"],"game_id":440,"stv_port":27026,"stv_name":"Uncletopia | Atlanta | 2 | All Maps | STV","players":null},{"server_id":400,"name":"Uncletopia | Atlanta | 3 | Community","name_short":"atl-3","host":"atl-1.us.uncletopia.com","port":27035,"enabled":true,"region":"us-east","cc":"us","latitude":33.753746,"longitude":-84.38633,"reserved":0,"last_update":"0001-01-01T00:00:00Z","name_a2s":"Uncletopia | Atlanta | 3 | Community","protocol":17,"map":"workshop/cp_reckoner_rc6.ugc674719999","folder":"tf","game":"Team Fortress","app_id":440,"player_count":0,"max_players":24,"Bots":0,"server_type":"Dedicated","server_os":"Linux","password":true,"vac":true,"version":"7882260","steam_id":85568392924515187,"keywords":["cp","nocrits","nodmgspread","uncletopia"],"game_id":440,"stv_port":27036,"stv_name":"Uncletopia | Atlanta | 3 | Community | STV","players":null},{"server_id":401,"name":"Uncletopia | Atlanta | 4 | No Payload","name_short":"atl-4","host":"atl-1.us.uncletopia.com","port":27045,"enabled":true,"region":"us-east","cc":"us","latitude":33.753746,"longitude":-84.38633,"reserved":0,"last_update":"0001-01-01T00:00:00Z","name_a2s":"","protocol":0,"map":"","folder":"","game":"","app_id":0,"player_count":0,"max_players":0,"Bots":0,"server_type":"","server_os":"","password":false,"vac":false,"version":"","steam_id":0,"keywords":null,"game_id":0,"stv_port":0,"stv_name":"","players":null},{"server_id":2,"name":"Uncletopia | Chicago | 1 | All Maps","name_short":"chi-1","host":"chi-1.us.uncletopia.com","port":27015,"enabled":true,"region":"us-central","cc":"us","latitude":41.881832,"longitude":-87.62318,"reserved":0,"last_update":"0001-01-01T00:00:00Z","name_a2s":"Uncletopia | Chicago | 1 | All Maps","protocol":17,"map":"cp_altitude","folder":"tf","game":"Team Fortress","app_id":440,"player_count":0,"max_players":24,"Bots":0,"server_type":"Dedicated","server_os":"Linux","password":true,"vac":true,"version":"7882260","steam_id":85568392924469984,"keywords":["cp","nocrits","nodmgspread","uncletopia"],"game_id":440,"stv_port":27016,"stv_name":"Uncletopia | Chicago | 1 | All Maps | STV","players":null},{"server_id":106,"name":"Uncletopia | Chicago | 2 | All Maps","name_short":"chi-2","host":"chi-1.us.uncletopia.com","port":27025,"enabled":true,"region":"us-central","cc":"us","latitude":41.881832,"longitude":-87.62318,"reserved":0,"last_update":"0001-01-01T00:00:00Z","name_a2s":"Uncletopia | Chicago | 2 | All Maps","protocol":17,"map":"koth_cascade","folder":"tf","game":"Team Fortress","app_id":440,"player_count":0,"max_players":24,"Bots":0,"server_type":"Dedicated","server_os":"Linux","password":true,"vac":true,"version":"7882260","steam_id":85568392924469985,"keywords":["cp","nocrits","nodmgspread","uncletopia"],"game_id":440,"stv_port":27026,"stv_name":"Uncletopia | Chicago | 2 | All Maps | STV","players":null},{"server_id":402,"name":"Uncletopia | Chicago | 3 | All Maps","name_short":"chi-3","host":"chi-1.us.uncletopia.com","port":27035,"enabled":true,"region":"us-central","cc":"us","latitude":41.881832,"longitude":-87.62318,"reserved":0,"last_update":"0001-01-01T00:00:00Z","name_a2s":"Uncletopia | Chicago | 3 | All Maps","protocol":17,"map":"cp_snakewater_final1","folder":"tf","game":"Team Fortress","app_id":440,"player_count":0,"max_players":24,"Bots":0,"server_type":"Dedicated","server_os":"Linux","password":true,"vac":true,"version":"7882260","steam_id":85568392924515191,"keywords":["cp","nocrits","nodmgspread","uncletopia"],"game_id":440,"stv_port":27036,"stv_name":"Uncletopia | Chicago | 3 | All Maps | STV","players":null},{"server_id":403,"name":"Uncletopia | Chicago | 4 | All Maps","name_short":"chi-4","host":"chi-1.us.uncletopia.com","port":27045,"enabled":true,"region":"us-central","cc":"us","latitude":41.881832,"longitude":-87.62318,"reserved":0,"last_update":"0001-01-01T00:00:00Z","name_a2s":"Uncletopia | Chicago | 4 | All Maps","protocol":17,"map":"cp_sunshine","folder":"tf","game":"Team Fortress","app_id":440,"player_count":0,"max_players":24,"Bots":0,"server_type":"Dedicated","server_os":"Linux","password":true,"vac":true,"version":"7882260","steam_id":85568392924515193,"keywords":["cp","nocrits","nodmgspread","uncletopia"],"game_id":440,"stv_port":27046,"stv_name":"Uncletopia | Chicago | 4 | All Maps | STV","players":null},{"server_id":36,"name":"Uncletopia | Chicago | 5 | All Maps","name_short":"chi-5","host":"chi-2.us.uncletopia.com","port":27015,"enabled":true,"region":"us-central","cc":"us","latitude":41.881832,"longitude":-87.62318,"reserved":0,"last_update":"0001-01-01T00:00:00Z","name_a2s":"Uncletopia | Chicago | 5 | All Maps","protocol":17,"map":"koth_viaduct","folder":"tf","game":"Team Fortress","app_id":440,"player_count":0,"max_players":24,"Bots":0,"server_type":"Dedicated","server_os":"Linux","password":true,"vac":true,"version":"7882260","steam_id":85568392924866362,"keywords":["cp","nocrits","nodmgspread","uncletopia"],"game_id":440,"stv_port":27016,"stv_name":"Uncletopia | Chicago | 5 | All Maps | STV","players":null},{"server_id":37,"name":"Uncletopia | Chicago | 6 | All Maps","name_short":"chi-6","host":"chi-2.us.uncletopia.com","port":27025,"enabled":true,"region":"us-central","cc":"us","latitude":41.881832,"longitude":-87.62318,"reserved":0,"last_update":"0001-01-01T00:00:00Z","name_a2s":"Uncletopia | Chicago | 6 | All Maps","protocol":17,"map":"pl_snowycoast","folder":"tf","game":"Team Fortress","app_id":440,"player_count":24,"max_players":24,"Bots":0,"server_type":"Dedicated","server_os":"Linux","password":true,"vac":true,"version":"7882260","steam_id":85568392924866363,"keywords":["nocrits","nodmgspread","payload","uncletopia"],"game_id":440,"stv_port":27026,"stv_name":"Uncletopia | Chicago | 6 | All Maps | STV","players":[{"user_id":473,"name":"Banannixx","steam_id":76561198132126943,"connected_time":1233000000000,"state":"active","ping":112},{"user_id":459,"name":"GLAAD","steam_id":76561198119587971,"connected_time":2432000000000,"state":"active","ping":72},{"user_id":411,"name":"gendermutt","steam_id":76561198152857317,"connected_time":6236000000000,"state":"active","ping":54},{"user_id":442,"name":"his flatulence","steam_id":76561198799404824,"connected_time":3487000000000,"state":"active","ping":72},{"user_id":481,"name":"woot ivan","steam_id":76561198339929050,"connected_time":822000000000,"state":"active","ping":88},{"user_id":424,"name":"Quebec","steam_id":76561198865760503,"connected_time":4521000000000,"state":"active","ping":72},{"user_id":474,"name":"Brendan","steam_id":76561198041079914,"connected_time":1213000000000,"state":"active","ping":68},{"user_id":479,"name":"Dank","steam_id":76561198157983180,"connected_time":904000000000,"state":"active","ping":60},{"user_id":428,"name":"GardenOfStone","steam_id":76561199069870534,"connected_time":4373000000000,"state":"active","ping":91},{"user_id":484,"name":"skople -eg","steam_id":76561197996403345,"connected_time":254000000000,"state":"active","ping":97},{"user_id":457,"name":"Zedifo","steam_id":76561198044032070,"connected_time":2631000000000,"state":"active","ping":128},{"user_id":471,"name":"Mint Jelly","steam_id":76561197991286751,"connected_time":1540000000000,"state":"active","ping":47},{"user_id":462,"name":"mashallah","steam_id":76561198075111427,"connected_time":2164000000000,"state":"active","ping":72},{"user_id":410,"name":"cheeser","steam_id":76561198281772700,"connected_time":6527000000000,"state":"active","ping":61},{"user_id":420,"name":"tr","steam_id":76561198046944222,"connected_time":5125000000000,"state":"active","ping":99},{"user_id":448,"name":"HK™","steam_id":76561198196793415,"connected_time":3079000000000,"state":"active","ping":109},{"user_id":475,"name":"architect","steam_id":76561198142394470,"connected_time":1192000000000,"state":"active","ping":64},{"user_id":482,"name":"Wolf Hat","steam_id":76561198099996051,"connected_time":360000000000,"state":"active","ping":67},{"user_id":465,"name":"noah","steam_id":76561198173310157,"connected_time":2126000000000,"state":"active","ping":52},{"user_id":469,"name":"Ⓑ⓪⓪ⓣⓨⓒⓐⓚⓔⓢ","steam_id":76561198088776421,"connected_time":1806000000000,"state":"active","ping":66},{"user_id":466,"name":"BigDeac","steam_id":76561198091237274,"connected_time":2110000000000,"state":"active","ping":56},{"user_id":470,"name":"Potato","steam_id":76561198115604238,"connected_time":1717000000000,"state":"active","ping":135},{"user_id":468,"name":"kentoran","steam_id":76561198116113779,"connected_time":1950000000000,"state":"active","ping":114},{"user_id":480,"name":"Tattletails","steam_id":76561198055690341,"connected_time":903000000000,"state":"active","ping":167}]},{"server_id":38,"name":"Uncletopia | Chicago | 7 | Stopwatch Beta","name_short":"chi-7","host":"chi-2.us.uncletopia.com","port":27035,"enabled":true,"region":"us-central","cc":"us","latitude":41.881832,"longitude":-87.62318,"reserved":0,"last_update":"0001-01-01T00:00:00Z","name_a2s":"Uncletopia | Chicago | 7 | Stopwatch Beta","protocol":17,"map":"pl_upward","folder":"tf","game":"Team Fortress","app_id":440,"player_count":0,"max_players":24,"Bots":0,"server_type":"Dedicated","server_os":"Linux","password":true,"vac":true,"version":"7882260","steam_id":85568392924866364,"keywords":["nocrits","nodmgspread","payload","uncletopia"],"game_id":440,"stv_port":27036,"stv_name":"Uncletopia | Chicago | 7 | Stopwatch Beta | STV","players":null},{"server_id":39,"name":"Uncletopia | Chicago | 8 | Community","name_short":"chi-8","host":"chi-2.us.uncletopia.com","port":27045,"enabled":true,"region":"us-central","cc":"us","latitude":41.881832,"longitude":-87.62318,"reserved":0,"last_update":"0001-01-01T00:00:00Z","name_a2s":"Uncletopia | Chicago | 8 | Community","protocol":17,"map":"workshop/cp_villa_b19.ugc2113052569","folder":"tf","game":"Team Fortress","app_id":440,"player_count":0,"max_players":24,"Bots":0,"server_type":"Dedicated","server_os":"Linux","password":true,"vac":true,"version":"7882260","steam_id":85568392924866365,"keywords":["cp","nocrits","nodmgspread","uncletopia"],"game_id":440,"stv_port":27046,"stv_name":"Uncletopia | Chicago | 8 | Community | STV","players":null},{"server_id":8,"name":"Uncletopia | Dallas | 1 | All Maps","name_short":"dal-1","host":"dal-1.us.uncletopia.com","port":27015,"enabled":true,"region":"us-central","cc":"us","latitude":32.779167,"longitude":-96.80889,"reserved":0,"last_update":"0001-01-01T00:00:00Z","name_a2s":"Uncletopia | Dallas | 1 | All Maps","protocol":17,"map":"cp_powerhouse","folder":"tf","game":"Team Fortress","app_id":440,"player_count":24,"max_players":24,"Bots":0,"server_type":"Dedicated","server_os":"Linux","password":true,"vac":true,"version":"7882260","steam_id":85568392924469986,"keywords":["cp","nocrits","nodmgspread","uncletopia"],"game_id":440,"stv_port":27016,"stv_name":"Uncletopia | Dallas | 1 | All Maps | STV","players":[{"user_id":777,"name":"DRAG","steam_id":76561198091788521,"connected_time":8906000000000,"state":"active","ping":74},{"user_id":854,"name":"Squiliam","steam_id":76561198025278006,"connected_time":2166000000000,"state":"active","ping":40},{"user_id":862,"name":"cold spaghetti","steam_id":76561198983037944,"connected_time":1875000000000,"state":"active","ping":78},{"user_id":867,"name":"Xeno808","steam_id":76561198103758081,"connected_time":958000000000,"state":"active","ping":37},{"user_id":850,"name":"Ferguson","steam_id":76561198121349387,"connected_time":2513000000000,"state":"active","ping":56},{"user_id":864,"name":"Nudgie","steam_id":76561198034744477,"connected_time":1364000000000,"state":"active","ping":73},{"user_id":838,"name":"UncLE DAnE","steam_id":76561198435354491,"connected_time":3708000000000,"state":"active","ping":91},{"user_id":840,"name":"kazoo2","steam_id":76561198260473504,"connected_time":3558000000000,"state":"active","ping":62},{"user_id":824,"name":"LudicrousFrog","steam_id":76561199027571076,"connected_time":5160000000000,"state":"active","ping":90},{"user_id":844,"name":"bolainassr0","steam_id":76561199079078845,"connected_time":3072000000000,"state":"active","ping":89},{"user_id":869,"name":"plink","steam_id":76561198057829889,"connected_time":753000000000,"state":"active","ping":54},{"user_id":856,"name":"scarecrow (malicious)","steam_id":76561198082979347,"connected_time":2147000000000,"state":"active","ping":81},{"user_id":763,"name":"Imrgrim","steam_id":76561198135866481,"connected_time":10490000000000,"state":"active","ping":64},{"user_id":851,"name":"Elias","steam_id":76561198106431732,"connected_time":2422000000000,"state":"active","ping":60},{"user_id":782,"name":"TTV.silverfan420","steam_id":76561198013873028,"connected_time":8822000000000,"state":"active","ping":70},{"user_id":866,"name":"bobo","steam_id":76561198123287268,"connected_time":1117000000000,"state":"active","ping":63},{"user_id":814,"name":"Juanito el huerfanito","steam_id":76561199140925234,"connected_time":5773000000000,"state":"active","ping":103},{"user_id":749,"name":"Maurix6","steam_id":76561198066634370,"connected_time":11103000000000,"state":"active","ping":64},{"user_id":832,"name":"STILLZ","steam_id":76561198131892406,"connected_time":4358000000000,"state":"active","ping":93},{"user_id":858,"name":"it's peanut time","steam_id":76561198236028020,"connected_time":2078000000000,"state":"active","ping":152},{"user_id":847,"name":"mirrorcult","steam_id":76561198062263639,"connected_time":3006000000000,"state":"active","ping":53},{"user_id":868,"name":"Doggo_Overlord","steam_id":76561198265468015,"connected_time":837000000000,"state":"active","ping":78},{"user_id":861,"name":"LederBoy","steam_id":76561198051822369,"connected_time":1959000000000,"state":"active","ping":83},{"user_id":860,"name":"xLeoparrd","steam_id":76561198940657194,"connected_time":2015000000000,"state":"active","ping":71}]},{"server_id":108,"name":"Uncletopia | Dallas | 2 | All Maps","name_short":"dal-2","host":"dal-1.us.uncletopia.com","port":27025,"enabled":true,"region":"us-central","cc":"us","latitude":32.779167,"longitude":-96.80889,"reserved":0,"last_update":"0001-01-01T00:00:00Z","name_a2s":"Uncletopia | Dallas | 2 | All Maps","protocol":17,"map":"pl_pier","folder":"tf","game":"Team Fortress","app_id":440,"player_count":1,"max_players":24,"Bots":0,"server_type":"Dedicated","server_os":"Linux","password":true,"vac":true,"version":"7882260","steam_id":85568392924469988,"keywords":["nocrits","nodmgspread","payload","uncletopia"],"game_id":440,"stv_port":27026,"stv_name":"Uncletopia | Dallas | 2 | All Maps | STV","players":[{"user_id":927,"name":"Melted_Man","steam_id":76561199084546297,"connected_time":112000000000,"state":"spawning","ping":237}]},{"server_id":5,"name":"Uncletopia | Frankfurt | 1 | All Maps","name_short":"frk-1","host":"frk-1.de.uncletopia.com","port":27015,"enabled":true,"region":"eu","cc":"de","latitude":50.110924,"longitude":8.682127,"reserved":0,"last_update":"0001-01-01T00:00:00Z","name_a2s":"Uncletopia | Frankfurt | 1 | All Maps","protocol":17,"map":"pl_snowycoast","folder":"tf","game":"Team Fortress","app_id":440,"player_count":0,"max_players":24,"Bots":0,"server_type":"Dedicated","server_os":"Linux","password":true,"vac":true,"version":"7882260","steam_id":85568392924469989,"keywords":["nocrits","nodmgspread","payload","uncletopia"],"game_id":440,"stv_port":27016,"stv_name":"Uncletopia | Frankfurt | 1 | All Maps | STV","players":null},{"server_id":110,"name":"Uncletopia | Frankfurt | 2 | All Maps","name_short":"frk-2","host":"frk-1.de.uncletopia.com","port":27025,"enabled":true,"region":"eu","cc":"de","latitude":50.110924,"longitude":8.682127,"reserved":0,"last_update":"0001-01-01T00:00:00Z","name_a2s":"Uncletopia | Frankfurt | 2 | All Maps","protocol":17,"map":"pl_upward","folder":"tf","game":"Team Fortress","app_id":440,"player_count":2,"max_players":24,"Bots":0,"server_type":"Dedicated","server_os":"Linux","password":true,"vac":true,"version":"7882260","steam_id":85568392924469990,"keywords":["nocrits","nodmgspread","payload","uncletopia"],"game_id":440,"stv_port":27026,"stv_name":"Uncletopia | Frankfurt | 2 | All Maps | STV","players":[{"user_id":3,"name":"Bob Wildest","steam_id":76561199256639506,"connected_time":1053000000000,"state":"active","ping":136},{"user_id":4,"name":"Julmuri","steam_id":76561198284843949,"connected_time":926000000000,"state":"active","ping":88}]},{"server_id":308,"name":"Uncletopia | Frankfurt | 3 | All Maps","name_short":"frk-3","host":"frk-1.de.uncletopia.com","port":27035,"enabled":true,"region":"eu","cc":"de","latitude":50.110924,"longitude":8.682127,"reserved":0,"last_update":"0001-01-01T00:00:00Z","name_a2s":"Uncletopia | Frankfurt | 3 | All Maps","protocol":17,"map":"cp_process_final","folder":"tf","game":"Team Fortress","app_id":440,"player_count":0,"max_players":24,"Bots":0,"server_type":"Dedicated","server_os":"Linux","password":true,"vac":true,"version":"7882260","steam_id":85568392924504274,"keywords":["cp","nocrits","nodmgspread","uncletopia"],"game_id":440,"stv_port":27036,"stv_name":"Uncletopia | Frankfurt | 3 | All Maps | STV","players":null},{"server_id":309,"name":"Uncletopia | Frankfurt | 4 | All Maps","name_short":"frk-4","host":"frk-1.de.uncletopia.com","port":27045,"enabled":true,"region":"eu","cc":"de","latitude":50.110924,"longitude":8.682127,"reserved":0,"last_update":"0001-01-01T00:00:00Z","name_a2s":"Uncletopia | Frankfurt | 4 | All Maps","protocol":17,"map":"pl_swiftwater_final1","folder":"tf","game":"Team Fortress","app_id":440,"player_count":0,"max_players":24,"Bots":0,"server_type":"Dedicated","server_os":"Linux","password":true,"vac":true,"version":"7882260","steam_id":85568392924504275,"keywords":["nocrits","nodmgspread","payload","uncletopia"],"game_id":440,"stv_port":27046,"stv_name":"Uncletopia | Frankfurt | 4 | All Maps | STV","players":null},{"server_id":310,"name":"Uncletopia | Frankfurt | 5 | All Maps","name_short":"frk-5","host":"frk-1.de.uncletopia.com","port":27055,"enabled":true,"region":"eu","cc":"de","latitude":50.110924,"longitude":8.682127,"reserved":0,"last_update":"0001-01-01T00:00:00Z","name_a2s":"Uncletopia | Frankfurt | 5 | All Maps","protocol":17,"map":"pl_borneo","folder":"tf","game":"Team Fortress","app_id":440,"player_count":0,"max_players":24,"Bots":0,"server_type":"Dedicated","server_os":"Linux","password":true,"vac":true,"version":"7882260","steam_id":85568392924504277,"keywords":["nocrits","nodmgspread","payload","uncletopia"],"game_id":440,"stv_port":27056,"stv_name":"Uncletopia | Frankfurt | 5 | All Maps | STV","players":null},{"server_id":311,"name":"Uncletopia | Frankfurt | 6 | All Maps","name_short":"frk-6","host":"frk-1.de.uncletopia.com","port":27065,"enabled":true,"region":"eu","cc":"de","latitude":50.110924,"longitude":8.682127,"reserved":0,"last_update":"0001-01-01T00:00:00Z","name_a2s":"Uncletopia | Frankfurt | 6 | All Maps","protocol":17,"map":"cp_snakewater_final1","folder":"tf","game":"Team Fortress","app_id":440,"player_count":0,"max_players":24,"Bots":0,"server_type":"Dedicated","server_os":"Linux","password":true,"vac":true,"version":"7882260","steam_id":85568392924504278,"keywords":["cp","nocrits","nodmgspread","uncletopia"],"game_id":440,"stv_port":27066,"stv_name":"Uncletopia | Frankfurt | 6 | All Maps | STV","players":null},{"server_id":23,"name":"Uncletopia | Frankfurt | 7 | Stopwatch Beta","name_short":"frk-7","host":"frk-1.de.uncletopia.com","port":27075,"enabled":true,"region":"eu","cc":"de","latitude":50.110924,"longitude":8.682127,"reserved":0,"last_update":"0001-01-01T00:00:00Z","name_a2s":"Uncletopia | Frankfurt | 7 | Stopwatch Beta","protocol":17,"map":"cp_snakewater_final1","folder":"tf","game":"Team Fortress","app_id":440,"player_count":0,"max_players":24,"Bots":0,"server_type":"Dedicated","server_os":"Linux","password":true,"vac":true,"version":"7882260","steam_id":85568392924742827,"keywords":["cp","nocrits","nodmgspread","uncletopia"],"game_id":440,"stv_port":27076,"stv_name":"Uncletopia | Frankfurt | 7 | Stopwatch Beta | STV","players":null},{"server_id":24,"name":"Uncletopia | Frankfurt | 8 | Community","name_short":"frk-8","host":"frk-1.de.uncletopia.com","port":27085,"enabled":true,"region":"eu","cc":"de","latitude":50.110924,"longitude":8.682127,"reserved":0,"last_update":"0001-01-01T00:00:00Z","name_a2s":"Uncletopia | Frankfurt | 8 | Community","protocol":17,"map":"workshop/cp_sulfur_rc2.ugc619869471","folder":"tf","game":"Team Fortress","app_id":440,"player_count":0,"max_players":24,"Bots":0,"server_type":"Dedicated","server_os":"Linux","password":true,"vac":true,"version":"7882260","steam_id":85568392924742828,"keywords":["cp","nocrits","nodmgspread","uncletopia"],"game_id":440,"stv_port":27086,"stv_name":"Uncletopia | Frankfurt | 8 | Community | STV","players":null},{"server_id":202,"name":"Uncletopia | Hong Kong | 1 | All Maps","name_short":"hgk-1","host":"hgk-1.hk.uncletopia.com","port":27015,"enabled":true,"region":"asia","cc":"hk","latitude":22.302711,"longitude":114.177216,"reserved":0,"last_update":"0001-01-01T00:00:00Z","name_a2s":"Uncletopia | Hong Kong | 1 | All Maps","protocol":17,"map":"koth_viaduct","folder":"tf","game":"Team Fortress","app_id":440,"player_count":0,"max_players":24,"Bots":0,"server_type":"Dedicated","server_os":"Linux","password":true,"vac":true,"version":"7882260","steam_id":85568392924494504,"keywords":["cp","nocrits","nodmgspread","uncletopia"],"game_id":440,"stv_port":27016,"stv_name":"Uncletopia | Hong Kong | 1 | All Maps | STV","players":null},{"server_id":1,"name":"Uncletopia | Los Angeles | 1 | All Maps","name_short":"lax-1","host":"lax-1.us.uncletopia.com","port":27015,"enabled":true,"region":"us-west","cc":"us","latitude":33.94279,"longitude":-118.41004,"reserved":0,"last_update":"0001-01-01T00:00:00Z","name_a2s":"Uncletopia | Los Angeles | 1 | All Maps","protocol":17,"map":"pl_swiftwater_final1","folder":"tf","game":"Team Fortress","app_id":440,"player_count":24,"max_players":24,"Bots":0,"server_type":"Dedicated","server_os":"Linux","password":true,"vac":true,"version":"7882260","steam_id":85568392924469991,"keywords":["nocrits","nodmgspread","payload","uncletopia"],"game_id":440,"stv_port":27016,"stv_name":"Uncletopia | Los Angeles | 1 | All Maps | STV","players":[{"user_id":689,"name":"H E L P  M E","steam_id":76561199275127093,"connected_time":1738000000000,"state":"active","ping":126},{"user_id":671,"name":"THE PRODGIAL STUNNA","steam_id":76561198325613425,"connected_time":2671000000000,"state":"active","ping":71},{"user_id":687,"name":"cringy","steam_id":76561198323000455,"connected_time":1819000000000,"state":"active","ping":64},{"user_id":707,"name":"Emm","steam_id":76561198114140235,"connected_time":21000000000,"state":"spawning","ping":233},{"user_id":663,"name":"Specter the Unchained","steam_id":76561198348354629,"connected_time":3052000000000,"state":"active","ping":36},{"user_id":647,"name":"Bauhaus","steam_id":76561198318126190,"connected_time":4686000000000,"state":"active","ping":145},{"user_id":701,"name":"Pvt. Parts","steam_id":76561198332663160,"connected_time":923000000000,"state":"active","ping":41},{"user_id":695,"name":"Skiddy","steam_id":76561198125942665,"connected_time":979000000000,"state":"active","ping":118},{"user_id":673,"name":"Derpy Hooves","steam_id":76561198031727231,"connected_time":2647000000000,"state":"active","ping":48},{"user_id":704,"name":"themartians","steam_id":76561197970434054,"connected_time":784000000000,"state":"active","ping":55},{"user_id":697,"name":"Bread","steam_id":76561198309684977,"connected_time":958000000000,"state":"active","ping":122},{"user_id":705,"name":"Whistlepig","steam_id":76561198030622803,"connected_time":676000000000,"state":"active","ping":106},{"user_id":698,"name":"HellaCopter","steam_id":76561198062313698,"connected_time":954000000000,"state":"active","ping":68},{"user_id":642,"name":"Sleuth","steam_id":76561198418288939,"connected_time":4932000000000,"state":"active","ping":63},{"user_id":684,"name":"Feel the bern","steam_id":76561198078824519,"connected_time":2188000000000,"state":"active","ping":49},{"user_id":685,"name":"cringeass nae-nae girl","steam_id":76561198108753857,"connected_time":2183000000000,"state":"active","ping":96},{"user_id":700,"name":"NewerCoke","steam_id":76561198042911847,"connected_time":934000000000,"state":"active","ping":129},{"user_id":702,"name":"Cheff cook","steam_id":76561198451203268,"connected_time":922000000000,"state":"active","ping":61},{"user_id":703,"name":"We believe in you!","steam_id":76561198219252313,"connected_time":917000000000,"state":"active","ping":120},{"user_id":679,"name":"gnotagnome","steam_id":76561198027294307,"connected_time":2394000000000,"state":"active","ping":100},{"user_id":691,"name":"elyina","steam_id":76561198035310295,"connected_time":1368000000000,"state":"active","ping":49},{"user_id":660,"name":"mrthugpug1732","steam_id":76561198881200768,"connected_time":3426000000000,"state":"active","ping":59},{"user_id":706,"name":"仙女头子于谦","steam_id":76561199031075505,"connected_time":621000000000,"state":"active","ping":146},{"user_id":676,"name":"Sidekick","steam_id":76561198392740835,"connected_time":2559000000000,"state":"active","ping":71}]},{"server_id":112,"name":"Uncletopia | Los Angeles | 2 | All Maps","name_short":"lax-2","host":"lax-1.us.uncletopia.com","port":27025,"enabled":true,"region":"us-west","cc":"us","latitude":33.94279,"longitude":-118.41004,"reserved":0,"last_update":"0001-01-01T00:00:00Z","name_a2s":"Uncletopia | Los Angeles | 2 | All Maps","protocol":17,"map":"pl_upward","folder":"tf","game":"Team Fortress","app_id":440,"player_count":23,"max_players":24,"Bots":0,"server_type":"Dedicated","server_os":"Linux","password":true,"vac":true,"version":"7882260","steam_id":85568392924469992,"keywords":["nocrits","nodmgspread","payload","uncletopia"],"game_id":440,"stv_port":27026,"stv_name":"Uncletopia | Los Angeles | 2 | All Maps | STV","players":[{"user_id":248,"name":"Model CHP-3Y","steam_id":76561198107806145,"connected_time":2140000000000,"state":"active","ping":113},{"user_id":265,"name":"flo rida","steam_id":76561198226169704,"connected_time":647000000000,"state":"active","ping":54},{"user_id":246,"name":"nori_420 (mute)","steam_id":76561199117134203,"connected_time":2339000000000,"state":"active","ping":52},{"user_id":274,"name":"kingtonyfunnyface","steam_id":76561199181860517,"connected_time":116000000000,"state":"active","ping":92},{"user_id":264,"name":"phon","steam_id":76561198140659236,"connected_time":997000000000,"state":"active","ping":46},{"user_id":236,"name":"[CSUF] Pixferno","steam_id":76561198010369782,"connected_time":3131000000000,"state":"active","ping":42},{"user_id":252,"name":"Teddy Roosebelt","steam_id":76561198045493149,"connected_time":1852000000000,"state":"active","ping":61},{"user_id":191,"name":"blozet","steam_id":76561199120161035,"connected_time":5286000000000,"state":"active","ping":138},{"user_id":273,"name":"MILF-Hunting Wizard","steam_id":76561198113748347,"connected_time":377000000000,"state":"active","ping":93},{"user_id":267,"name":"cracky","steam_id":76561197971365444,"connected_time":545000000000,"state":"active","ping":76},{"user_id":271,"name":"emukill","steam_id":76561198053143720,"connected_time":457000000000,"state":"active","ping":82},{"user_id":239,"name":"sharken","steam_id":76561198032350972,"connected_time":2985000000000,"state":"active","ping":75},{"user_id":275,"name":"MisterSniffles33","steam_id":76561198097461243,"connected_time":63000000000,"state":"active","ping":88},{"user_id":261,"name":"DLq MexicanToast","steam_id":76561198060671643,"connected_time":1277000000000,"state":"active","ping":55},{"user_id":262,"name":"Klip","steam_id":76561198316254429,"connected_time":1111000000000,"state":"active","ping":90},{"user_id":276,"name":"nyakky","steam_id":76561198927779787,"connected_time":29000000000,"state":"active","ping":143},{"user_id":240,"name":"Rorver","steam_id":76561198114030795,"connected_time":2952000000000,"state":"active","ping":87},{"user_id":234,"name":"pr1me","steam_id":76561197998103691,"connected_time":3220000000000,"state":"active","ping":74},{"user_id":198,"name":"GLXy","steam_id":76561198207551544,"connected_time":5089000000000,"state":"active","ping":85},{"user_id":270,"name":"Star","steam_id":76561198304206176,"connected_time":488000000000,"state":"active","ping":55},{"user_id":256,"name":"Jovo","steam_id":76561197993265970,"connected_time":1504000000000,"state":"active","ping":74},{"user_id":272,"name":"(TPT) Ghost","steam_id":76561198123262873,"connected_time":449000000000,"state":"active","ping":62},{"user_id":258,"name":"brendan","steam_id":76561198044973868,"connected_time":1484000000000,"state":"active","ping":68}]},{"server_id":324,"name":"Uncletopia | Los Angeles | 3 | All Maps","name_short":"lax-3","host":"lax-1.us.uncletopia.com","port":27035,"enabled":true,"region":"us-west","cc":"us","latitude":33.94279,"longitude":-118.41004,"reserved":0,"last_update":"0001-01-01T00:00:00Z","name_a2s":"Uncletopia | Los Angeles | 3 | All Maps","protocol":17,"map":"pl_borneo","folder":"tf","game":"Team Fortress","app_id":440,"player_count":21,"max_players":24,"Bots":0,"server_type":"Dedicated","server_os":"Linux","password":true,"vac":true,"version":"7882260","steam_id":85568392924510198,"keywords":["nocrits","nodmgspread","payload","uncletopia"],"game_id":440,"stv_port":27036,"stv_name":"Uncletopia | Los Angeles | 3 | All Maps | STV","players":[{"user_id":448,"name":"Boysenberry Syrup","steam_id":76561198243582986,"connected_time":2863000000000,"state":"active","ping":78},{"user_id":468,"name":"Octo","steam_id":76561198024056355,"connected_time":590000000000,"state":"active","ping":46},{"user_id":471,"name":"nerdbro","steam_id":76561198858448409,"connected_time":237000000000,"state":"active","ping":86},{"user_id":452,"name":"fitotutus","steam_id":76561197974993253,"connected_time":2365000000000,"state":"active","ping":148},{"user_id":450,"name":"Jolly","steam_id":76561198116357972,"connected_time":2665000000000,"state":"active","ping":46},{"user_id":437,"name":"LNRPdeadshot","steam_id":76561199160013540,"connected_time":3518000000000,"state":"active","ping":121},{"user_id":462,"name":"BlueJayBlues","steam_id":76561198101966116,"connected_time":1470000000000,"state":"active","ping":58},{"user_id":469,"name":"Team Fartpiss Poo","steam_id":76561199163591880,"connected_time":575000000000,"state":"active","ping":116},{"user_id":472,"name":"Mack The Knife","steam_id":76561198005658850,"connected_time":227000000000,"state":"active","ping":84},{"user_id":463,"name":"eatmysteel","steam_id":76561198976437527,"connected_time":1270000000000,"state":"active","ping":123},{"user_id":473,"name":"[ØWQJØ]chubacaalatake","steam_id":76561198136201697,"connected_time":178000000000,"state":"active","ping":84},{"user_id":464,"name":"1 gram","steam_id":76561198133552526,"connected_time":1260000000000,"state":"active","ping":71},{"user_id":417,"name":"Mapachito Lindo","steam_id":76561198031359995,"connected_time":4463000000000,"state":"active","ping":73},{"user_id":474,"name":"orio","steam_id":76561198116550170,"connected_time":153000000000,"state":"active","ping":58},{"user_id":418,"name":"Phoenix","steam_id":76561199465534945,"connected_time":4456000000000,"state":"active","ping":78},{"user_id":447,"name":"Mr. Yoshida","steam_id":76561198263829831,"connected_time":3028000000000,"state":"active","ping":74},{"user_id":475,"name":"Point then Click","steam_id":76561198076133259,"connected_time":43000000000,"state":"active","ping":66},{"user_id":466,"name":"Kozaky","steam_id":76561198047144993,"connected_time":877000000000,"state":"active","ping":70},{"user_id":476,"name":"DIP GAMING","steam_id":76561198212247688,"connected_time":8000000000,"state":"spawning","ping":69},{"user_id":467,"name":"tobrehto","steam_id":76561198097544038,"connected_time":615000000000,"state":"active","ping":51},{"user_id":433,"name":"white muslim dane cook","steam_id":76561198000979872,"connected_time":3875000000000,"state":"active","ping":47}]},{"server_id":25,"name":"Uncletopia | Los Angeles | 4 | Stopwatch Beta","name_short":"lax-4","host":"lax-1.us.uncletopia.com","port":27045,"enabled":true,"region":"us-west","cc":"us","latitude":33.94279,"longitude":-118.41004,"reserved":0,"last_update":"0001-01-01T00:00:00Z","name_a2s":"Uncletopia | Los Angeles | 4 | Stopwatch Beta","protocol":17,"map":"koth_viaduct","folder":"tf","game":"Team Fortress","app_id":440,"player_count":0,"max_players":24,"Bots":0,"server_type":"Dedicated","server_os":"Linux","password":true,"vac":true,"version":"7882260","steam_id":85568392924510199,"keywords":["cp","nocrits","nodmgspread","uncletopia"],"game_id":440,"stv_port":27046,"stv_name":"Uncletopia | Los Angeles | 4 | Stopwatch Beta | STV","players":null},{"server_id":11,"name":"Uncletopia | London | 1 | All Maps","name_short":"lon-1","host":"lon-1.uk.uncletopia.com","port":27015,"enabled":true,"region":"eu","cc":"gb","latitude":51.509865,"longitude":-0.118092,"reserved":0,"last_update":"0001-01-01T00:00:00Z","name_a2s":"Uncletopia | London | 1 | All Maps","protocol":17,"map":"pl_upward","folder":"tf","game":"Team Fortress","app_id":440,"player_count":6,"max_players":24,"Bots":0,"server_type":"Dedicated","server_os":"Linux","password":true,"vac":true,"version":"7882260","steam_id":85568392924367362,"keywords":["nocrits","nodmgspread","payload","uncletopia"],"game_id":440,"stv_port":27016,"stv_name":"Uncletopia | London | 1 | All Maps | STV","players":[{"user_id":16,"name":"Pesky Plumber","steam_id":76561198241999094,"connected_time":1042000000000,"state":"active","ping":36},{"user_id":17,"name":"Fus in Boots","steam_id":76561198053897722,"connected_time":684000000000,"state":"active","ping":46},{"user_id":18,"name":"Hedge Knight","steam_id":76561198989449047,"connected_time":598000000000,"state":"active","ping":119},{"user_id":19,"name":"Maycrom","steam_id":76561198145482626,"connected_time":576000000000,"state":"active","ping":60},{"user_id":22,"name":"Genuine","steam_id":76561197966295765,"connected_time":90000000000,"state":"active","ping":46},{"user_id":20,"name":"Sneaky boi","steam_id":76561199195985387,"connected_time":522000000000,"state":"active","ping":88}]},{"server_id":114,"name":"Uncletopia | London | 2 | All Maps","name_short":"lon-2","host":"lon-1.uk.uncletopia.com","port":27025,"enabled":true,"region":"eu","cc":"gb","latitude":51.509865,"longitude":-0.118092,"reserved":0,"last_update":"0001-01-01T00:00:00Z","name_a2s":"Uncletopia | London | 2 | All Maps","protocol":17,"map":"koth_highpass","folder":"tf","game":"Team Fortress","app_id":440,"player_count":0,"max_players":24,"Bots":0,"server_type":"Dedicated","server_os":"Linux","password":true,"vac":true,"version":"7882260","steam_id":85568392924470941,"keywords":["cp","nocrits","nodmgspread","uncletopia"],"game_id":440,"stv_port":27026,"stv_name":"Uncletopia | London | 2 | All Maps | STV","players":null},{"server_id":320,"name":"Uncletopia | London | 3 | All Maps","name_short":"lon-3","host":"lon-1.uk.uncletopia.com","port":27035,"enabled":true,"region":"eu","cc":"gb","latitude":51.509865,"longitude":-0.118092,"reserved":0,"last_update":"0001-01-01T00:00:00Z","name_a2s":"Uncletopia | London | 3 | All Maps","protocol":17,"map":"pl_upward","folder":"tf","game":"Team Fortress","app_id":440,"player_count":0,"max_players":24,"Bots":0,"server_type":"Dedicated","server_os":"Linux","password":true,"vac":true,"version":"7882260","steam_id":85568392924510192,"keywords":["nocrits","nodmgspread","payload","uncletopia"],"game_id":440,"stv_port":27036,"stv_name":"Uncletopia | London | 3 | All Maps | STV","players":null},{"server_id":321,"name":"Uncletopia | London | 4 | All Maps","name_short":"lon-4","host":"lon-1.uk.uncletopia.com","port":27045,"enabled":true,"region":"eu","cc":"gb","latitude":51.509865,"longitude":-0.118092,"reserved":0,"last_update":"0001-01-01T00:00:00Z","name_a2s":"Uncletopia | London | 4 | All Maps","protocol":17,"map":"cp_dustbowl","folder":"tf","game":"Team Fortress","app_id":440,"player_count":0,"max_players":24,"Bots":0,"server_type":"Dedicated","server_os":"Linux","password":true,"vac":true,"version":"7882260","steam_id":85568392924510193,"keywords":["cp","nocrits","nodmgspread","uncletopia"],"game_id":440,"stv_port":27046,"stv_name":"Uncletopia | London | 4 | All Maps | STV","players":null},{"server_id":21,"name":"Uncletopia | London | 5 | All Maps","name_short":"lon-5","host":"lon-1.uk.uncletopia.com","port":27055,"enabled":true,"region":"eu","cc":"gb","latitude":51.509865,"longitude":-0.118092,"reserved":0,"last_update":"0001-01-01T00:00:00Z","name_a2s":"Uncletopia | London | 5 | All Maps","protocol":17,"map":"koth_viaduct","folder":"tf","game":"Team Fortress","app_id":440,"player_count":0,"max_players":24,"Bots":0,"server_type":"Dedicated","server_os":"Linux","password":true,"vac":true,"version":"7882260","steam_id":85568392924742829,"keywords":["cp","nocrits","nodmgspread","uncletopia"],"game_id":440,"stv_port":27056,"stv_name":"Uncletopia | London | 5 | All Maps | STV","players":null},{"server_id":22,"name":"Uncletopia | London | 6 | All Maps","name_short":"lon-6","host":"lon-1.uk.uncletopia.com","port":27065,"enabled":true,"region":"eu","cc":"gb","latitude":51.509865,"longitude":-0.118092,"reserved":0,"last_update":"0001-01-01T00:00:00Z","name_a2s":"Uncletopia | London | 6 | All Maps","protocol":17,"map":"koth_lakeside_final","folder":"tf","game":"Team Fortress","app_id":440,"player_count":0,"max_players":24,"Bots":0,"server_type":"Dedicated","server_os":"Linux","password":true,"vac":true,"version":"7882260","steam_id":85568392924742830,"keywords":["cp","nocrits","nodmgspread","uncletopia"],"game_id":440,"stv_port":27066,"stv_name":"Uncletopia | London | 6 | All Maps | STV","players":null},{"server_id":40,"name":"Uncletopia | London | 7 | No Payload","name_short":"lon-7","host":"lon-1.uk.uncletopia.com","port":27075,"enabled":true,"region":"eu","cc":"gb","latitude":51.509865,"longitude":-0.118092,"reserved":0,"last_update":"0001-01-01T00:00:00Z","name_a2s":"Uncletopia | London | 7 | No Payload","protocol":17,"map":"pl_upward","folder":"tf","game":"Team Fortress","app_id":440,"player_count":0,"max_players":24,"Bots":0,"server_type":"Dedicated","server_os":"Linux","password":true,"vac":true,"version":"7882260","steam_id":85568392924964314,"keywords":["nocrits","nodmgspread","payload","uncletopia"],"game_id":440,"stv_port":27076,"stv_name":"Uncletopia | London | 7 | No Payload | STV","players":null},{"server_id":41,"name":"Uncletopia | London | 8 | Community","name_short":"lon-8","host":"lon-1.uk.uncletopia.com","port":27085,"enabled":true,"region":"eu","cc":"gb","latitude":51.509865,"longitude":-0.118092,"reserved":0,"last_update":"0001-01-01T00:00:00Z","name_a2s":"Uncletopia | London | 8 | Community","protocol":17,"map":"pl_upward","folder":"tf","game":"Team Fortress","app_id":440,"player_count":0,"max_players":24,"Bots":0,"server_type":"Dedicated","server_os":"Linux","password":true,"vac":true,"version":"7882260","steam_id":85568392924964315,"keywords":["nocrits","nodmgspread","payload","uncletopia"],"game_id":440,"stv_port":27086,"stv_name":"Uncletopia | London | 8 | Community | STV","players":null},{"server_id":300,"name":"Uncletopia | Montréal | 1 | All Maps","name_short":"mtl-1","host":"mtl-1.ca.uncletopia.com","port":27015,"enabled":true,"region":"us-east","cc":"ca","latitude":45.50889,"longitude":-73.56167,"reserved":0,"last_update":"0001-01-01T00:00:00Z","name_a2s":"Uncletopia | Montréal | 1 | All Maps","protocol":17,"map":"koth_lakeside_final","folder":"tf","game":"Team Fortress","app_id":440,"player_count":0,"max_players":24,"Bots":0,"server_type":"Dedicated","server_os":"Linux","password":true,"vac":true,"version":"7882260","steam_id":85568392924500087,"keywords":["cp","nocrits","nodmgspread","uncletopia"],"game_id":440,"stv_port":27016,"stv_name":"Uncletopia | Montréal | 1 | All Maps | STV","players":null},{"server_id":301,"name":"Uncletopia | Montréal | 2 | All Maps","name_short":"mtl-2","host":"mtl-1.ca.uncletopia.com","port":27025,"enabled":true,"region":"us-east","cc":"ca","latitude":45.50889,"longitude":-73.56167,"reserved":0,"last_update":"0001-01-01T00:00:00Z","name_a2s":"Uncletopia | Montréal | 2 | All Maps","protocol":17,"map":"pl_badwater","folder":"tf","game":"Team Fortress","app_id":440,"player_count":0,"max_players":24,"Bots":0,"server_type":"Dedicated","server_os":"Linux","password":true,"vac":true,"version":"7882260","steam_id":85568392924500088,"keywords":["nocrits","nodmgspread","payload","uncletopia"],"game_id":440,"stv_port":27026,"stv_name":"Uncletopia | Montréal | 2 | All Maps | STV","players":null},{"server_id":302,"name":"Uncletopia | Montréal | 3 | All Maps","name_short":"mtl-3","host":"mtl-1.ca.uncletopia.com","port":27035,"enabled":true,"region":"us-east","cc":"ca","latitude":45.50889,"longitude":-73.56167,"reserved":0,"last_update":"0001-01-01T00:00:00Z","name_a2s":"Uncletopia | Montréal | 3 | All Maps","protocol":17,"map":"koth_viaduct","folder":"tf","game":"Team Fortress","app_id":440,"player_count":0,"max_players":24,"Bots":0,"server_type":"Dedicated","server_os":"Linux","password":true,"vac":true,"version":"7882260","steam_id":85568392924500089,"keywords":["cp","nocrits","nodmgspread","uncletopia"],"game_id":440,"stv_port":27036,"stv_name":"Uncletopia | Montréal | 3 | All Maps | STV","players":null},{"server_id":303,"name":"Uncletopia | Montréal | 4 | No Payload","name_short":"mtl-4","host":"mtl-1.ca.uncletopia.com","port":27045,"enabled":true,"region":"us-east","cc":"ca","latitude":45.50889,"longitude":-73.56167,"reserved":0,"last_update":"0001-01-01T00:00:00Z","name_a2s":"Uncletopia | Montréal | 4 | No Payload","protocol":17,"map":"cp_vanguard","folder":"tf","game":"Team Fortress","app_id":440,"player_count":0,"max_players":24,"Bots":0,"server_type":"Dedicated","server_os":"Linux","password":true,"vac":true,"version":"7882260","steam_id":85568392924500090,"keywords":["cp","nocrits","nodmgspread","uncletopia"],"game_id":440,"stv_port":27046,"stv_name":"Uncletopia | Montréal | 4 | No Payload | STV","players":null},{"server_id":13,"name":"Uncletopia | New York City | 1 | All Maps","name_short":"nyc-1","host":"nyc-1.us.uncletopia.com","port":27015,"enabled":true,"region":"us-east","cc":"us","latitude":40.73061,"longitude":-73.93524,"reserved":0,"last_update":"0001-01-01T00:00:00Z","name_a2s":"Uncletopia | New York City | 1 | All Maps","protocol":17,"map":"koth_lakeside_final","folder":"tf","game":"Team Fortress","app_id":440,"player_count":0,"max_players":24,"Bots":0,"server_type":"Dedicated","server_os":"Linux","password":true,"vac":true,"version":"7882260","steam_id":85568392924469993,"keywords":["cp","nocrits","nodmgspread","uncletopia"],"game_id":440,"stv_port":27016,"stv_name":"Uncletopia | New York City | 1 | All Maps | STV","players":null},{"server_id":14,"name":"Uncletopia | New York City | 2 | All Maps","name_short":"nyc-2","host":"nyc-1.us.uncletopia.com","port":27025,"enabled":true,"region":"us-east","cc":"us","latitude":40.73061,"longitude":-73.93524,"reserved":0,"last_update":"0001-01-01T00:00:00Z","name_a2s":"Uncletopia | New York City | 2 | All Maps","protocol":17,"map":"pl_barnblitz","folder":"tf","game":"Team Fortress","app_id":440,"player_count":0,"max_players":24,"Bots":0,"server_type":"Dedicated","server_os":"Linux","password":true,"vac":true,"version":"7882260","steam_id":85568392924469994,"keywords":["nocrits","nodmgspread","payload","uncletopia"],"game_id":440,"stv_port":27026,"stv_name":"Uncletopia | New York City | 2 | All Maps | STV","players":null},{"server_id":15,"name":"Uncletopia | New York City | 3 | Stopwatch Beta","name_short":"nyc-3","host":"nyc-1.us.uncletopia.com","port":27035,"enabled":true,"region":"us-east","cc":"us","latitude":40.73061,"longitude":-73.93524,"reserved":0,"last_update":"0001-01-01T00:00:00Z","name_a2s":"Uncletopia | New York City | 3 | Stopwatch Beta","protocol":17,"map":"koth_highpass","folder":"tf","game":"Team Fortress","app_id":440,"player_count":0,"max_players":24,"Bots":0,"server_type":"Dedicated","server_os":"Linux","password":true,"vac":true,"version":"7882260","steam_id":85568392924742820,"keywords":["cp","nocrits","nodmgspread","uncletopia"],"game_id":440,"stv_port":27036,"stv_name":"Uncletopia | New York City | 3 | Stopwatch Beta | STV","players":null},{"server_id":16,"name":"Uncletopia | New York City | 4 | Community","name_short":"nyc-4","host":"nyc-1.us.uncletopia.com","port":27045,"enabled":true,"region":"us-east","cc":"us","latitude":40.73061,"longitude":-73.93524,"reserved":0,"last_update":"0001-01-01T00:00:00Z","name_a2s":"Uncletopia | New York City | 4 | Community","protocol":17,"map":"workshop/koth_slaughter_rc1.ugc1712845210","folder":"tf","game":"Team Fortress","app_id":440,"player_count":0,"max_players":24,"Bots":0,"server_type":"Dedicated","server_os":"Linux","password":true,"vac":true,"version":"7882260","steam_id":85568392924742821,"keywords":["cp","nocrits","nodmgspread","uncletopia"],"game_id":440,"stv_port":27046,"stv_name":"Uncletopia | New York City | 4 | Community | STV","players":null},{"server_id":142,"name":"Uncletopia | São Paulo | 1 | All Maps","name_short":"sao-1","host":"sao-1.br.uncletopia.com","port":27015,"enabled":true,"region":"sa","cc":"br","latitude":-23.533773,"longitude":-46.62529,"reserved":0,"last_update":"0001-01-01T00:00:00Z","name_a2s":"Uncletopia | São Paulo | 1 | All Maps","protocol":17,"map":"koth_lakeside_final","folder":"tf","game":"Team Fortress","app_id":440,"player_count":0,"max_players":24,"Bots":0,"server_type":"Dedicated","server_os":"Linux","password":true,"vac":true,"version":"7882260","steam_id":85568392924469996,"keywords":["cp","nocrits","nodmgspread","uncletopia"],"game_id":440,"stv_port":27016,"stv_name":"Uncletopia | São Paulo | 1 | All Maps | STV","players":null},{"server_id":143,"name":"Uncletopia | São Paulo | 2 | All Maps","name_short":"sao-2","host":"sao-2.br.uncletopia.com","port":27015,"enabled":true,"region":"sa","cc":"br","latitude":-23.533773,"longitude":-46.62529,"reserved":0,"last_update":"0001-01-01T00:00:00Z","name_a2s":"Uncletopia | São Paulo | 2 | All Maps","protocol":17,"map":"koth_lakeside_final","folder":"tf","game":"Team Fortress","app_id":440,"player_count":0,"max_players":24,"Bots":0,"server_type":"Dedicated","server_os":"Linux","password":true,"vac":true,"version":"7882260","steam_id":85568392924485349,"keywords":["cp","nocrits","nodmgspread","uncletopia"],"game_id":440,"stv_port":27016,"stv_name":"Uncletopia | São Paulo | 2 | All Maps | STV","players":null},{"server_id":7,"name":"Uncletopia | Seattle | 1 | All Maps","name_short":"sea-1","host":"sea-1.us.uncletopia.com","port":27015,"enabled":true,"region":"us-west","cc":"us","latitude":47.608013,"longitude":-122.33517,"reserved":0,"last_update":"0001-01-01T00:00:00Z","name_a2s":"Uncletopia | Seattle | 1 | All Maps","protocol":17,"map":"pl_borneo","folder":"tf","game":"Team Fortress","app_id":440,"player_count":15,"max_players":24,"Bots":0,"server_type":"Dedicated","server_os":"Linux","password":true,"vac":true,"version":"7882260","steam_id":85568392924469997,"keywords":["nocrits","nodmgspread","payload","uncletopia"],"game_id":440,"stv_port":27016,"stv_name":"Uncletopia | Seattle | 1 | All Maps | STV","players":[{"user_id":882,"name":"I KNOW WHO I AM","steam_id":76561198035698704,"connected_time":25000000000,"state":"spawning","ping":63},{"user_id":881,"name":"imtoofadedicantevendapuup","steam_id":76561198180372310,"connected_time":63000000000,"state":"active","ping":59},{"user_id":856,"name":"Arsonist Goose","steam_id":76561198147441830,"connected_time":3092000000000,"state":"active","ping":71},{"user_id":835,"name":"Mr. Computer","steam_id":76561198136878831,"connected_time":4618000000000,"state":"active","ping":56},{"user_id":874,"name":"kenZino","steam_id":76561197967971192,"connected_time":789000000000,"state":"active","ping":37},{"user_id":840,"name":"forest (italian)","steam_id":76561198157960257,"connected_time":3827000000000,"state":"active","ping":38},{"user_id":798,"name":"hosewater","steam_id":76561198023383126,"connected_time":7825000000000,"state":"active","ping":45},{"user_id":860,"name":"fwoov","steam_id":76561198129166260,"connected_time":1767000000000,"state":"active","ping":75},{"user_id":836,"name":"Flesh Eating Turtle","steam_id":76561198116742139,"connected_time":4503000000000,"state":"active","ping":43},{"user_id":878,"name":"ASS THROTTLE VAPORIZE","steam_id":76561198132954196,"connected_time":547000000000,"state":"active","ping":132},{"user_id":867,"name":"RURU","steam_id":76561198039758987,"connected_time":1228000000000,"state":"active","ping":55},{"user_id":826,"name":"Sniff","steam_id":76561198010270922,"connected_time":5562000000000,"state":"active","ping":39},{"user_id":859,"name":"Ayayayayayahuasca","steam_id":76561199002906056,"connected_time":1770000000000,"state":"active","ping":45},{"user_id":877,"name":"Worm God","steam_id":76561198087339875,"connected_time":559000000000,"state":"active","ping":78},{"user_id":873,"name":"Skoad","steam_id":76561198104650528,"connected_time":839000000000,"state":"active","ping":56}]},{"server_id":119,"name":"Uncletopia | Seattle | 2 | All Maps","name_short":"sea-2","host":"sea-1.us.uncletopia.com","port":27025,"enabled":true,"region":"us-west","cc":"us","latitude":47.608013,"longitude":-122.33517,"reserved":0,"last_update":"0001-01-01T00:00:00Z","name_a2s":"Uncletopia | Seattle | 2 | All Maps","protocol":17,"map":"pl_barnblitz","folder":"tf","game":"Team Fortress","app_id":440,"player_count":20,"max_players":24,"Bots":0,"server_type":"Dedicated","server_os":"Linux","password":true,"vac":true,"version":"7882260","steam_id":85568392924469998,"keywords":["nocrits","nodmgspread","payload","uncletopia"],"game_id":440,"stv_port":27026,"stv_name":"Uncletopia | Seattle | 2 | All Maps | STV","players":[{"user_id":687,"name":"Faye","steam_id":76561198112184924,"connected_time":4247000000000,"state":"active","ping":152},{"user_id":743,"name":".HareYarko","steam_id":76561197972617632,"connected_time":234000000000,"state":"active","ping":134},{"user_id":744,"name":"Grill Skills","steam_id":76561198053575147,"connected_time":219000000000,"state":"active","ping":62},{"user_id":746,"name":"abc","steam_id":76561198318423349,"connected_time":101000000000,"state":"active","ping":87},{"user_id":711,"name":"Sploonbabagoosecooties","steam_id":76561198139972201,"connected_time":2618000000000,"state":"active","ping":55},{"user_id":685,"name":"Cyaniday","steam_id":76561198302051082,"connected_time":4270000000000,"state":"active","ping":64},{"user_id":742,"name":"Medic Boyfriend","steam_id":76561198104086771,"connected_time":681000000000,"state":"active","ping":68},{"user_id":723,"name":"jooby","steam_id":76561198131065492,"connected_time":2123000000000,"state":"active","ping":116},{"user_id":665,"name":"delight","steam_id":76561197980280272,"connected_time":6205000000000,"state":"active","ping":56},{"user_id":747,"name":"Ask Me For Facts","steam_id":76561198093888772,"connected_time":72000000000,"state":"active","ping":63},{"user_id":732,"name":"NOT FRIENDLY","steam_id":76561198041327231,"connected_time":1274000000000,"state":"active","ping":55},{"user_id":745,"name":"mango cafe","steam_id":76561198142328193,"connected_time":207000000000,"state":"active","ping":45},{"user_id":748,"name":"cryingbaby23","steam_id":76561198130413260,"connected_time":30000000000,"state":"active","ping":104},{"user_id":749,"name":"Tibalt Nyahuma","steam_id":76561198034779431,"connected_time":15000000000,"state":"spawning","ping":103},{"user_id":739,"name":"Daso","steam_id":76561198219209367,"connected_time":823000000000,"state":"active","ping":54},{"user_id":716,"name":"ed (bowl of soup in hand)","steam_id":76561198080475712,"connected_time":2400000000000,"state":"active","ping":70},{"user_id":719,"name":"PageBoiSkull","steam_id":76561198237353578,"connected_time":2247000000000,"state":"active","ping":73},{"user_id":737,"name":"tailorturtle","steam_id":76561198107481127,"connected_time":976000000000,"state":"active","ping":122},{"user_id":720,"name":"Jabroni Kris","steam_id":76561198048736247,"connected_time":2225000000000,"state":"active","ping":53},{"user_id":707,"name":"reiidaya","steam_id":76561198325306660,"connected_time":3413000000000,"state":"active","ping":57}]},{"server_id":406,"name":"Uncletopia | Seattle | 3 | Stopwatch Beta","name_short":"sea-3","host":"sea-1.us.uncletopia.com","port":27035,"enabled":true,"region":"us-west","cc":"us","latitude":47.608013,"longitude":-122.33517,"reserved":0,"last_update":"0001-01-01T00:00:00Z","name_a2s":"Uncletopia | Seattle | 3 | Stopwatch Beta","protocol":17,"map":"cp_snakewater_final1","folder":"tf","game":"Team Fortress","app_id":440,"player_count":0,"max_players":24,"Bots":0,"server_type":"Dedicated","server_os":"Linux","password":true,"vac":true,"version":"7882260","steam_id":85568392924515217,"keywords":["cp","nocrits","nodmgspread","uncletopia"],"game_id":440,"stv_port":27036,"stv_name":"Uncletopia | Seattle | 3 | Stopwatch Beta | STV","players":null},{"server_id":17,"name":"Uncletopia | San Francisco | 1 | All Maps","name_short":"sfo-1","host":"sfo-1.us.uncletopia.com","port":27015,"enabled":true,"region":"us-west","cc":"us","latitude":37.77397,"longitude":-122.4313,"reserved":0,"last_update":"0001-01-01T00:00:00Z","name_a2s":"Uncletopia | San Francisco | 1 | All Maps","protocol":17,"map":"pl_upward","folder":"tf","game":"Team Fortress","app_id":440,"player_count":23,"max_players":24,"Bots":0,"server_type":"Dedicated","server_os":"Linux","password":true,"vac":true,"version":"7882260","steam_id":85568392924469999,"keywords":["nocrits","nodmgspread","payload","uncletopia"],"game_id":440,"stv_port":27016,"stv_name":"Uncletopia | San Francisco | 1 | All Maps | STV","players":[{"user_id":386,"name":"warrior","steam_id":76561198074500319,"connected_time":4066000000000,"state":"active","ping":101},{"user_id":420,"name":"FeetLackingShoes","steam_id":76561198374532787,"connected_time":340000000000,"state":"active","ping":44},{"user_id":411,"name":"Taco+Taco=Burrito","steam_id":76561198063128663,"connected_time":1446000000000,"state":"active","ping":48},{"user_id":398,"name":"BrightOrangeMango","steam_id":76561198023144607,"connected_time":2753000000000,"state":"active","ping":73},{"user_id":428,"name":"Rockaedward","steam_id":76561198172090530,"connected_time":38000000000,"state":"active","ping":78},{"user_id":412,"name":"CreativeUsername","steam_id":76561198186045503,"connected_time":1212000000000,"state":"active","ping":93},{"user_id":413,"name":"Ekuseebia","steam_id":76561198037504112,"connected_time":1144000000000,"state":"active","ping":73},{"user_id":331,"name":"FaceLaces","steam_id":76561198194417725,"connected_time":7912000000000,"state":"active","ping":62},{"user_id":394,"name":"Jango","steam_id":76561198084589742,"connected_time":3022000000000,"state":"active","ping":111},{"user_id":414,"name":"SvicidalBug","steam_id":76561198221390504,"connected_time":1089000000000,"state":"active","ping":84},{"user_id":383,"name":"Dylan Pulido","steam_id":76561198272681544,"connected_time":4649000000000,"state":"active","ping":45},{"user_id":417,"name":"Gr1m","steam_id":76561198062585786,"connected_time":767000000000,"state":"active","ping":86},{"user_id":377,"name":"elephant thumb","steam_id":76561198118859752,"connected_time":5283000000000,"state":"active","ping":49},{"user_id":403,"name":"Hands on Deck!","steam_id":76561199011832069,"connected_time":1853000000000,"state":"active","ping":53},{"user_id":381,"name":"Irony is pretty cringy","steam_id":76561198120391460,"connected_time":4826000000000,"state":"active","ping":53},{"user_id":423,"name":"SetAnExample","steam_id":76561198881077447,"connected_time":298000000000,"state":"active","ping":58},{"user_id":427,"name":"bengineer","steam_id":76561198171912174,"connected_time":63000000000,"state":"active","ping":72},{"user_id":429,"name":"ふわふわ毛布","steam_id":76561198088403016,"connected_time":37000000000,"state":"active","ping":152},{"user_id":406,"name":"TheRealChizz","steam_id":76561198016055769,"connected_time":1649000000000,"state":"active","ping":57},{"user_id":419,"name":"Zesty Italian","steam_id":76561198117835053,"connected_time":732000000000,"state":"active","ping":71},{"user_id":415,"name":"MrLarryMan","steam_id":76561198200182074,"connected_time":1084000000000,"state":"active","ping":124},{"user_id":425,"name":"least drunk demoman","steam_id":76561198074494961,"connected_time":242000000000,"state":"active","ping":136},{"user_id":404,"name":"sex (real)","steam_id":76561198396414319,"connected_time":1808000000000,"state":"active","ping":61}]},{"server_id":18,"name":"Uncletopia | San Francisco | 2 | All Maps","name_short":"sfo-2","host":"sfo-1.us.uncletopia.com","port":27025,"enabled":true,"region":"us-west","cc":"us","latitude":37.77397,"longitude":-122.4313,"reserved":0,"last_update":"0001-01-01T00:00:00Z","name_a2s":"Uncletopia | San Francisco | 2 | All Maps","protocol":17,"map":"koth_harvest_final","folder":"tf","game":"Team Fortress","app_id":440,"player_count":0,"max_players":24,"Bots":0,"server_type":"Dedicated","server_os":"Linux","password":true,"vac":true,"version":"7882260","steam_id":85568392924470000,"keywords":["cp","nocrits","nodmgspread","uncletopia"],"game_id":440,"stv_port":27026,"stv_name":"Uncletopia | San Francisco | 2 | All Maps | STV","players":null},{"server_id":19,"name":"Uncletopia | San Francisco | 3 | Stopwatch Beta","name_short":"sfo-3","host":"sfo-1.us.uncletopia.com","port":27035,"enabled":true,"region":"us-west","cc":"us","latitude":37.77397,"longitude":-122.4313,"reserved":0,"last_update":"0001-01-01T00:00:00Z","name_a2s":"Uncletopia | San Francisco | 3 | Stopwatch Beta","protocol":17,"map":"pl_snowycoast","folder":"tf","game":"Team Fortress","app_id":440,"player_count":0,"max_players":24,"Bots":0,"server_type":"Dedicated","server_os":"Linux","password":true,"vac":true,"version":"7882260","steam_id":85568392924742824,"keywords":["nocrits","nodmgspread","payload","uncletopia"],"game_id":440,"stv_port":27036,"stv_name":"Uncletopia | San Francisco | 3 | Stopwatch Beta | STV","players":null},{"server_id":20,"name":"Uncletopia | San Francisco | 4 | Community","name_short":"sfo-4","host":"sfo-1.us.uncletopia.com","port":27045,"enabled":true,"region":"us-west","cc":"us","latitude":37.77397,"longitude":-122.4313,"reserved":0,"last_update":"0001-01-01T00:00:00Z","name_a2s":"Uncletopia | San Francisco | 4 | Community","protocol":17,"map":"workshop/koth_ramjam_rc1.ugc459778887","folder":"tf","game":"Team Fortress","app_id":440,"player_count":0,"max_players":24,"Bots":0,"server_type":"Dedicated","server_os":"Linux","password":true,"vac":true,"version":"7882260","steam_id":85568392924742826,"keywords":["cp","nocrits","nodmgspread","uncletopia"],"game_id":440,"stv_port":27046,"stv_name":"Uncletopia | San Francisco | 4 | Community | STV","players":null},{"server_id":141,"name":"Uncletopia | Sydney | 1 | All Maps","name_short":"syd-1","host":"syd-1.au.uncletopia.com","port":27015,"enabled":true,"region":"au","cc":"au","latitude":-33.865143,"longitude":151.2099,"reserved":0,"last_update":"0001-01-01T00:00:00Z","name_a2s":"Uncletopia | Sydney | 1 | All Maps","protocol":17,"map":"pl_badwater","folder":"tf","game":"Team Fortress","app_id":440,"player_count":24,"max_players":24,"Bots":0,"server_type":"Dedicated","server_os":"Linux","password":true,"vac":true,"version":"7882260","steam_id":85568392924470001,"keywords":["nocrits","nodmgspread","payload","uncletopia"],"game_id":440,"stv_port":27016,"stv_name":"Uncletopia | Sydney | 1 | All Maps | STV","players":[{"user_id":114,"name":"Bigrichard","steam_id":76561198032092945,"connected_time":191000000000,"state":"active","ping":83},{"user_id":99,"name":"krandlez` (Any/All)","steam_id":76561198044839726,"connected_time":1035000000000,"state":"active","ping":41},{"user_id":117,"name":"eekynetwo(F2P Piss Sniper)","steam_id":76561198990017441,"connected_time":86000000000,"state":"spawning","ping":675},{"user_id":100,"name":"Hungry for thumbtacks","steam_id":76561198059129270,"connected_time":963000000000,"state":"active","ping":65},{"user_id":83,"name":"Asl:3x","steam_id":76561198972095766,"connected_time":2396000000000,"state":"active","ping":42},{"user_id":101,"name":"Gort","steam_id":76561198967244552,"connected_time":961000000000,"state":"active","ping":55},{"user_id":98,"name":"no teles 4 u","steam_id":76561198018478297,"connected_time":1085000000000,"state":"active","ping":71},{"user_id":89,"name":"Fyre Rose","steam_id":76561198000527551,"connected_time":2140000000000,"state":"active","ping":170},{"user_id":38,"name":"Lumalee ❤","steam_id":76561198157613299,"connected_time":4972000000000,"state":"active","ping":60},{"user_id":39,"name":"miyamoto is daddy","steam_id":76561199483818230,"connected_time":4958000000000,"state":"active","ping":71},{"user_id":88,"name":"Rashid Of The Dank Memes","steam_id":76561198281398078,"connected_time":2238000000000,"state":"active","ping":56},{"user_id":102,"name":"Shadow Puppeteer","steam_id":76561198151121997,"connected_time":940000000000,"state":"active","ping":76},{"user_id":108,"name":"monnickev","steam_id":76561198252587162,"connected_time":641000000000,"state":"active","ping":44},{"user_id":103,"name":"LaFleur","steam_id":76561198869499113,"connected_time":924000000000,"state":"active","ping":50},{"user_id":50,"name":"the weed alien","steam_id":76561199205171109,"connected_time":3875000000000,"state":"active","ping":61},{"user_id":74,"name":"soupy","steam_id":76561198073734936,"connected_time":2489000000000,"state":"active","ping":98},{"user_id":115,"name":"wG enrith","steam_id":76561198051825104,"connected_time":189000000000,"state":"active","ping":64},{"user_id":111,"name":"BOT Gary","steam_id":76561198376950841,"connected_time":291000000000,"state":"active","ping":81},{"user_id":116,"name":"Sexy Turtle","steam_id":76561198256865969,"connected_time":130000000000,"state":"active","ping":44},{"user_id":105,"name":"fatmod","steam_id":76561198128889890,"connected_time":799000000000,"state":"active","ping":81},{"user_id":106,"name":"Phibs","steam_id":76561199323730865,"connected_time":785000000000,"state":"active","ping":42},{"user_id":97,"name":"Oysenberry","steam_id":76561198125443335,"connected_time":1358000000000,"state":"active","ping":44},{"user_id":90,"name":"Charm","steam_id":76561198028891054,"connected_time":2106000000000,"state":"active","ping":52},{"user_id":109,"name":"OnetyOne","steam_id":76561198976131720,"connected_time":391000000000,"state":"active","ping":48}]},{"server_id":123,"name":"Uncletopia | Sydney | 2 | All Maps","name_short":"syd-2","host":"syd-1.au.uncletopia.com","port":27025,"enabled":true,"region":"au","cc":"au","latitude":-33.865143,"longitude":151.2099,"reserved":0,"last_update":"0001-01-01T00:00:00Z","name_a2s":"Uncletopia | Sydney | 2 | All Maps","protocol":17,"map":"pl_badwater","folder":"tf","game":"Team Fortress","app_id":440,"player_count":0,"max_players":24,"Bots":0,"server_type":"Dedicated","server_os":"Linux","password":true,"vac":true,"version":"7882260","steam_id":85568392924470002,"keywords":["nocrits","nodmgspread","payload","uncletopia"],"game_id":440,"stv_port":27026,"stv_name":"Uncletopia | Sydney | 2 | All Maps | STV","players":null},{"server_id":395,"name":"Uncletopia | Sydney | 3 | All Maps","name_short":"syd-3","host":"syd-1.au.uncletopia.com","port":27035,"enabled":true,"region":"au","cc":"au","latitude":-33.865143,"longitude":151.2099,"reserved":0,"last_update":"0001-01-01T00:00:00Z","name_a2s":"Uncletopia | Sydney | 3 | All Maps","protocol":17,"map":"pl_pier","folder":"tf","game":"Team Fortress","app_id":440,"player_count":0,"max_players":24,"Bots":0,"server_type":"Dedicated","server_os":"Linux","password":true,"vac":true,"version":"7882260","steam_id":85568392925194467,"keywords":["nocrits","nodmgspread","payload","uncletopia"],"game_id":440,"stv_port":27036,"stv_name":"Uncletopia | Sydney | 3 | All Maps | STV","players":null},{"server_id":396,"name":"Uncletopia | Sydney | 4 | All Maps","name_short":"syd-4","host":"syd-1.au.uncletopia.com","port":27045,"enabled":true,"region":"au","cc":"au","latitude":-33.865143,"longitude":151.2099,"reserved":0,"last_update":"0001-01-01T00:00:00Z","name_a2s":"Uncletopia | Sydney | 4 | All Maps","protocol":17,"map":"pl_snowycoast","folder":"tf","game":"Team Fortress","app_id":440,"player_count":0,"max_players":24,"Bots":0,"server_type":"Dedicated","server_os":"Linux","password":true,"vac":true,"version":"7882260","steam_id":85568392925397958,"keywords":["nocrits","nodmgspread","payload","uncletopia"],"game_id":440,"stv_port":27046,"stv_name":"Uncletopia | Sydney | 4 | All Maps | STV","players":null},{"server_id":58,"name":"Uncletopia | Sydney | 5 | Stopwatch Beta","name_short":"syd-5","host":"syd-1.au.uncletopia.com","port":27055,"enabled":true,"region":"au","cc":"au","latitude":-33.865143,"longitude":151.2099,"reserved":0,"last_update":"0001-01-01T00:00:00Z","name_a2s":"Uncletopia | Sydney | 5 | Stopwatch Beta","protocol":17,"map":"koth_viaduct","folder":"tf","game":"Team Fortress","app_id":440,"player_count":0,"max_players":24,"Bots":0,"server_type":"Dedicated","server_os":"Linux","password":true,"vac":true,"version":"7882260","steam_id":85568392925397959,"keywords":["cp","nocrits","nodmgspread","uncletopia"],"game_id":440,"stv_port":27056,"stv_name":"Uncletopia | Sydney | 5 | Stopwatch Beta | STV","players":null},{"server_id":59,"name":"Uncletopia | Sydney | 6 | Community","name_short":"syd-6","host":"syd-1.au.uncletopia.com","port":27065,"enabled":true,"region":"au","cc":"au","latitude":-33.865143,"longitude":151.2099,"reserved":0,"last_update":"0001-01-01T00:00:00Z","name_a2s":"Uncletopia | Sydney | 6 | Community","protocol":17,"map":"workshop/koth_ramjam_rc1.ugc459778887","folder":"tf","game":"Team Fortress","app_id":440,"player_count":0,"max_players":24,"Bots":0,"server_type":"Dedicated","server_os":"Linux","password":true,"vac":true,"version":"7882260","steam_id":85568392925397960,"keywords":["cp","nocrits","nodmgspread","uncletopia"],"game_id":440,"stv_port":27066,"stv_name":"Uncletopia | Sydney | 6 | Community | STV","players":null},{"server_id":49,"name":"Uncletopia | Warsaw | 1 | All Maps","name_short":"waw-1","host":"waw-1.pl.uncletopia.com","port":27015,"enabled":true,"region":"eu","cc":"pl","latitude":52.2297,"longitude":21.017532,"reserved":0,"last_update":"0001-01-01T00:00:00Z","name_a2s":"","protocol":0,"map":"","folder":"","game":"","app_id":0,"player_count":0,"max_players":0,"Bots":0,"server_type":"","server_os":"","password":false,"vac":false,"version":"","steam_id":0,"keywords":null,"game_id":0,"stv_port":0,"stv_name":"","players":null},{"server_id":50,"name":"Uncletopia | Warsaw | 2 | All Maps","name_short":"waw-2","host":"waw-1.pl.uncletopia.com","port":27025,"enabled":true,"region":"eu","cc":"pl","latitude":52.2297,"longitude":21.017532,"reserved":0,"last_update":"0001-01-01T00:00:00Z","name_a2s":"Uncletopia | Warsaw | 2 | All Maps","protocol":17,"map":"koth_viaduct","folder":"tf","game":"Team Fortress","app_id":440,"player_count":0,"max_players":24,"Bots":0,"server_type":"Dedicated","server_os":"Linux","password":true,"vac":true,"version":"7882260","steam_id":85568392925397851,"keywords":["cp","nocrits","nodmgspread","uncletopia"],"game_id":440,"stv_port":27026,"stv_name":"Uncletopia | Warsaw | 2 | All Maps | STV","players":null},{"server_id":51,"name":"Uncletopia | Warsaw | 3 | All Maps","name_short":"waw-3","host":"waw-1.pl.uncletopia.com","port":27035,"enabled":true,"region":"eu","cc":"pl","latitude":52.2297,"longitude":21.017532,"reserved":0,"last_update":"0001-01-01T00:00:00Z","name_a2s":"Uncletopia | Warsaw | 3 | All Maps","protocol":17,"map":"pl_badwater","folder":"tf","game":"Team Fortress","app_id":440,"player_count":0,"max_players":24,"Bots":0,"server_type":"Dedicated","server_os":"Linux","password":true,"vac":true,"version":"7882260","steam_id":85568392925397852,"keywords":["nocrits","nodmgspread","payload","uncletopia"],"game_id":440,"stv_port":27036,"stv_name":"Uncletopia | Warsaw | 3 | All Maps | STV","players":null},{"server_id":52,"name":"Uncletopia | Warsaw | 4 | All Maps","name_short":"waw-4","host":"waw-1.pl.uncletopia.com","port":27045,"enabled":true,"region":"eu","cc":"pl","latitude":52.2297,"longitude":21.017532,"reserved":0,"last_update":"0001-01-01T00:00:00Z","name_a2s":"Uncletopia | Warsaw | 4 | All Maps","protocol":17,"map":"koth_cascade","folder":"tf","game":"Team Fortress","app_id":440,"player_count":0,"max_players":24,"Bots":0,"server_type":"Dedicated","server_os":"Linux","password":true,"vac":true,"version":"7882260","steam_id":85568392925397853,"keywords":["cp","nocrits","nodmgspread","uncletopia"],"game_id":440,"stv_port":27046,"stv_name":"Uncletopia | Warsaw | 4 | All Maps | STV","players":null},{"server_id":53,"name":"Uncletopia | Warsaw | 5 | Stopwatch Beta","name_short":"waw-5","host":"waw-1.pl.uncletopia.com","port":27055,"enabled":true,"region":"eu","cc":"pl","latitude":52.2297,"longitude":21.017532,"reserved":0,"last_update":"0001-01-01T00:00:00Z","name_a2s":"Uncletopia | Warsaw | 5 | Stopwatch Beta","protocol":17,"map":"cp_dustbowl","folder":"tf","game":"Team Fortress","app_id":440,"player_count":0,"max_players":24,"Bots":0,"server_type":"Dedicated","server_os":"Linux","password":true,"vac":true,"version":"7882260","steam_id":85568392925397854,"keywords":["cp","nocrits","nodmgspread","uncletopia"],"game_id":440,"stv_port":27056,"stv_name":"Uncletopia | Warsaw | 5 | Stopwatch Beta | STV","players":null},{"server_id":54,"name":"Uncletopia | Warsaw | 6 | Community","name_short":"waw-6","host":"waw-1.pl.uncletopia.com","port":27065,"enabled":true,"region":"eu","cc":"pl","latitude":52.2297,"longitude":21.017532,"reserved":0,"last_update":"0001-01-01T00:00:00Z","name_a2s":"Uncletopia | Warsaw | 6 | Community","protocol":17,"map":"cp_dustbowl","folder":"tf","game":"Team Fortress","app_id":440,"player_count":0,"max_players":24,"Bots":0,"server_type":"Dedicated","server_os":"Linux","password":true,"vac":true,"version":"7882260","steam_id":85568392925397856,"keywords":["cp","nocrits","nodmgspread","uncletopia"],"game_id":440,"stv_port":27066,"stv_name":"Uncletopia | Warsaw | 6 | Community | STV","players":null}]}