{"status":true,"message":"","result":[{"server_id":9,"name":"Uncletopia | Atlanta | 1 | All Maps","name_short":"atl-1","host":"atl-1.us.uncletopia.com","port":27015,"enabled":true,"region":"us-east","cc":"us","latitude":33.753746,"longitude":-84.38633,"reserved":0,"last_update":"0001-01-01T00:00:00Z","name_a2s":"Uncletopia | Atlanta | 1 | All Maps","protocol":17,"map":"pl_upward","folder":"tf","game":"Team Fortress","app_id":440,"player_count":21,"max_players":24,"Bots":0,"server_type":"Dedicated","server_os":"Linux","password":true,"vac":true,"version":"7757534","steam_id":85568392924469982,"keywords":["nocrits","nodmgspread","payload","uncletopia"],"game_id":440,"stv_port":27016,"stv_name":"Uncletopia | Atlanta | 1 | All Maps | STV","players":[{"user_id":510,"name":"ball #savetf2","steam_id":76561199065301322,"connected_time":11000000000,"state":"spawning","ping":91},{"user_id":511,"name":"BLU1| Inky (Coolest)","steam_id":76561198968337022,"connected_time":9000000000,"state":"spawning","ping":67},{"user_id":508,"name":"Grandma","steam_id":76561198192419939,"connected_time":40000000000,"state":"active","ping":146},{"user_id":414,"name":"Thotimus Begonimus","steam_id":76561197970275938,"connected_time":7888000000000,"state":"active","ping":48},{"user_id":423,"name":"ash","steam_id":76561198127890645,"connected_time":7317000000000,"state":"active","ping":64},{"user_id":512,"name":"lker","steam_id":76561197976975075,"connected_time":0,"state":"spawning","ping":12},{"user_id":509,"name":"Xmoonsheep","steam_id":76561198158384685,"connected_time":22000000000,"state":"active","ping":78},{"user_id":499,"name":"⇌ StriKeR ⇋","steam_id":76561199389089862,"connected_time":1127000000000,"state":"active","ping":178},{"user_id":502,"name":"blu lil hog","steam_id":76561199230929836,"connected_time":982000000000,"state":"active","ping":135},{"user_id":483,"name":"BLU1 | Flint","steam_id":76561198066547582,"connected_time":1643000000000,"state":"active","ping":105},{"user_id":387,"name":"RED1 | nomad","steam_id":76561197998740399,"connected_time":10022000000000,"state":"spawning","ping":224},{"user_id":506,"name":"cheeks","steam_id":76561197993371179,"connected_time":550000000000,"state":"active","ping":54},{"user_id":491,"name":"hyuck","steam_id":76561198319990195,"connected_time":1606000000000,"state":"active","ping":83},{"user_id":433,"name":"number 4","steam_id":76561198066867150,"connected_time":5636000000000,"state":"active","ping":61},{"user_id":436,"name":"RED1 | mayhem","steam_id":76561199246637881,"connected_time":5570000000000,"state":"active","ping":45},{"user_id":507,"name":"years","steam_id":76561197994098627,"connected_time":46000000000,"state":"active","ping":137},{"user_id":501,"name":"BLU1 | Shame","steam_id":76561198100490994,"connected_time":1095000000000,"state":"active","ping":75},{"user_id":503,"name":"Im High","steam_id":76561198049954886,"connected_time":832000000000,"state":"active","ping":62},{"user_id":488,"name":"RED1 | eish","steam_id":76561198089463603,"connected_time":1633000000000,"state":"active","ping":117},{"user_id":505,"name":"Big Narrlocke","steam_id":76561198040588362,"connected_time":702000000000,"state":"active","ping":100},{"user_id":480,"name":"ARegularJohnDoe","steam_id":76561198015020139,"connected_time":1662000000000,"state":"active","ping":86}]},{"server_id":400,"name":"Uncletopia | Atlanta | 3 | Community","name_short":"atl-3","host":"atl-1.us.uncletopia.com","port":27035,"enabled":true,"region":"us-east","cc":"us","latitude":33.753746,"longitude":-84.38633,"reserved":0,"last_update":"0001-01-01T00:00:00Z","name_a2s":"Uncletopia | Atlanta | 3 | Community","protocol":17,"map":"workshop/cp_glassworks_rc6a.ugc454118349","folder":"tf","game":"Team Fortress","app_id":440,"player_count":22,"max_players":24,"Bots":0,"server_type":"Dedicated","server_os":"Linux","password":true,"vac":true,"version":"7757534","steam_id":85568392924515187,"keywords":["cp","nocrits","nodmgspread","uncletopia"],"game_id":440,"stv_port":27036,"stv_name":"Uncletopia | Atlanta | 3 | Community | STV","players":[{"user_id":33,"name":"Naramon","steam_id":76561198025645021,"connected_time":987000000000,"state":"active","ping":88},{"user_id":23,"name":"Munchyjr","steam_id":76561198041498014,"connected_time":1369000000000,"state":"active","ping":59},{"user_id":24,"name":"Futo","steam_id":76561198023185653,"connected_time":1356000000000,"state":"active","ping":96},{"user_id":25,"name":"mud drater","steam_id":76561198018680492,"connected_time":1353000000000,"state":"active","ping":69},{"user_id":26,"name":"CheddarCake","steam_id":76561198061993725,"connected_time":1347000000000,"state":"active","ping":78},{"user_id":27,"name":"Yams","steam_id":76561198068084541,"connected_time":1330000000000,"state":"active","ping":71},{"user_id":28,"name":"Waterzuka","steam_id":76561198254454489,"connected_time":1312000000000,"state":"active","ping":91},{"user_id":29,"name":"Cut Throat Bill","steam_id":76561198170119157,"connected_time":1239000000000,"state":"active","ping":68},{"user_id":30,"name":"That1GuyonPoint","steam_id":76561199368439153,"connected_time":1231000000000,"state":"active","ping":304},{"user_id":52,"name":"Bongson","steam_id":76561198056664898,"connected_time":333000000000,"state":"active","ping":130},{"user_id":54,"name":"blibulon","steam_id":76561198370642854,"connected_time":74000000000,"state":"active","ping":97},{"user_id":35,"name":"bustam0v","steam_id":76561198062001355,"connected_time":937000000000,"state":"active","ping":75},{"user_id":55,"name":"Professional Spectator","steam_id":76561198085888959,"connected_time":1000000000,"state":"spawning","ping":42},{"user_id":38,"name":"Gelidus","steam_id":76561198817304634,"connected_time":689000000000,"state":"active","ping":61},{"user_id":40,"name":"Colin102004","steam_id":76561198202384334,"connected_time":616000000000,"state":"active","ping":45},{"user_id":41,"name":"Mask","steam_id":76561198877649728,"connected_time":607000000000,"state":"active","ping":119},{"user_id":47,"name":"Thicc Boi","steam_id":76561199163799116,"connected_time":446000000000,"state":"active","ping":119},{"user_id":43,"name":"Cindernaut","steam_id":76561198034274982,"connected_time":580000000000,"state":"active","ping":86},{"user_id":50,"name":"Fraggerman222.02","steam_id":76561198091855057,"connected_time":389000000000,"state":"active","ping":78},{"user_id":51,"name":"Antknee","steam_id":76561198263793809,"connected_time":383000000000,"state":"active","ping":76},{"user_id":48,"name":"dubstep","steam_id":76561199471815560,"connected_time":423000000000,"state":"active","ping":92},{"user_id":49,"name":"Rusty","steam_id":76561198055585129,"connected_time":417000000000,"state":"active","ping":124}]},{"server_id":401,"name":"Uncletopia | Atlanta | 4 | No Payload","name_short":"atl-4","host":"atl-1.us.uncletopia.com","port":27045,"enabled":true,"region":"us-east","cc":"us","latitude":33.753746,"longitude":-84.38633,"reserved":0,"last_update":"0001-01-01T00:00:00Z","name_a2s":"","protocol":0,"map":"","folder":"","game":"","app_id":0,"player_count":0,"max_players":0,"Bots":0,"server_type":"","server_os":"","password":false,"vac":false,"version":"","steam_id":0,"keywords":null,"game_id":0,"stv_port":0,"stv_name":"","players":null},{"server_id":2,"name":"Uncletopia | Chicago | 1 | All Maps","name_short":"chi-1","host":"chi-1.us.uncletopia.com","port":27015,"enabled":true,"region":"us-central","cc":"us","latitude":41.881832,"longitude":-87.62318,"reserved":0,"last_update":"0001-01-01T00:00:00Z","name_a2s":"Uncletopia | Chicago | 1 | All Maps","protocol":17,"map":"pl_swiftwater_final1","folder":"tf","game":"Team Fortress","app_id":440,"player_count":24,"max_players":24,"Bots":0,"server_type":"Dedicated","server_os":"Linux","password":true,"vac":true,"version":"7757534","steam_id":85568392924469984,"keywords":["nocrits","nodmgspread","payload","uncletopia"],"game_id":440,"stv_port":27016,"stv_name":"Uncletopia | Chicago | 1 | All Maps | STV","players":[{"user_id":700,"name":"Ademar","steam_id":76561199391802581,"connected_time":3499000000000,"state":"active","ping":63},{"user_id":703,"name":"blob","steam_id":76561198122375328,"connected_time":3026000000000,"state":"active","ping":64},{"user_id":710,"name":"kite","steam_id":76561198346516392,"connected_time":2903000000000,"state":"active","ping":73},{"user_id":670,"name":"Hi, I'm Jesus","steam_id":76561198015327152,"connected_time":6812000000000,"state":"active","ping":69},{"user_id":711,"name":"Sorbet Shark Cookie","steam_id":76561198133082665,"connected_time":2781000000000,"state":"active","ping":63},{"user_id":674,"name":"the deadliest pyroshark","steam_id":76561198374227766,"connected_time":6582000000000,"state":"active","ping":71},{"user_id":722,"name":"Ranger Plague","steam_id":76561198174647666,"connected_time":997000000000,"state":"active","ping":80},{"user_id":716,"name":"JimmyWings","steam_id":76561198999925713,"connected_time":1637000000000,"state":"active","ping":65},{"user_id":668,"name":"Sick Lia :c","steam_id":76561198151569597,"connected_time":6857000000000,"state":"active","ping":139},{"user_id":723,"name":"No Telefrag Plz","steam_id":76561198113931312,"connected_time":853000000000,"state":"active","ping":72},{"user_id":701,"name":"Adam (Cursed Confetti Creature)","steam_id":76561198317690197,"connected_time":3483000000000,"state":"active","ping":48},{"user_id":705,"name":"PuzzlePuddles","steam_id":76561198856494882,"connected_time":3017000000000,"state":"active","ping":72},{"user_id":676,"name":"Xavibite","steam_id":76561198209380493,"connected_time":6244000000000,"state":"active","ping":60},{"user_id":726,"name":"Mitchu The Bidness Man","steam_id":76561198102494381,"connected_time":467000000000,"state":"active","ping":69},{"user_id":706,"name":"Sailor","steam_id":76561199081983517,"connected_time":3017000000000,"state":"active","ping":97},{"user_id":725,"name":"Jesus Kush","steam_id":76561199099329667,"connected_time":764000000000,"state":"active","ping":103},{"user_id":715,"name":"e0e0","steam_id":76561198293839750,"connected_time":1801000000000,"state":"active","ping":68},{"user_id":727,"name":"Horse","steam_id":76561199112075552,"connected_time":457000000000,"state":"active","ping":70},{"user_id":682,"name":"Gabinator32","steam_id":76561198872467183,"connected_time":5622000000000,"state":"active","ping":48},{"user_id":642,"name":"PinkLemonade","steam_id":76561198799286228,"connected_time":8876000000000,"state":"active","ping":65},{"user_id":718,"name":"Fencer!","steam_id":76561198029081038,"connected_time":1174000000000,"state":"active","ping":69},{"user_id":719,"name":"ChickenTenders","steam_id":76561199216000968,"connected_time":1147000000000,"state":"active","ping":67},{"user_id":720,"name":"MenLover2006","steam_id":76561198093439770,"connected_time":1125000000000,"state":"active","ping":54},{"user_id":721,"name":"MR. MODE","steam_id":76561198046775352,"connected_time":1115000000000,"state":"active","ping":91}]},{"server_id":106,"name":"Uncletopia | Chicago | 2 | All Maps","name_short":"chi-2","host":"chi-1.us.uncletopia.com","port":27025,"enabled":true,"region":"us-central","cc":"us","latitude":41.881832,"longitude":-87.62318,"reserved":0,"last_update":"0001-01-01T00:00:00Z","name_a2s":"Uncletopia | Chicago | 2 | All Maps","protocol":17,"map":"cp_dustbowl","folder":"tf","game":"Team Fortress","app_id":440,"player_count":23,"max_players":24,"Bots":0,"server_type":"Dedicated","server_os":"Linux","password":true,"vac":true,"version":"7757534","steam_id":85568392924469985,"keywords":["cp","nocrits","nodmgspread","uncletopia"],"game_id":440,"stv_port":27026,"stv_name":"Uncletopia | Chicago | 2 | All Maps | STV","players":[{"user_id":369,"name":"radiohead enjoyer","steam_id":76561198397662124,"connected_time":3211000000000,"state":"active","ping":82},{"user_id":357,"name":"the","steam_id":76561198311446636,"connected_time":5088000000000,"state":"active","ping":56},{"user_id":385,"name":"Chad Medic","steam_id":76561198144281771,"connected_time":881000000000,"state":"active","ping":71},{"user_id":372,"name":"off","steam_id":76561198053513128,"connected_time":2149000000000,"state":"active","ping":72},{"user_id":354,"name":"Aviyarn","steam_id":76561199074194652,"connected_time":5250000000000,"state":"active","ping":77},{"user_id":391,"name":"Jackaloped♥","steam_id":76561198054925421,"connected_time":166000000000,"state":"active","ping":48},{"user_id":378,"name":"Getting sloppy at High Hrothgar","steam_id":76561198202195792,"connected_time":1533000000000,"state":"active","ping":58},{"user_id":386,"name":"Squid121","steam_id":76561198038832034,"connected_time":873000000000,"state":"active","ping":101},{"user_id":390,"name":"PenutButterPirate","steam_id":76561198252962312,"connected_time":267000000000,"state":"active","ping":68},{"user_id":359,"name":"drugger. (cochlear implant)","steam_id":76561198353463585,"connected_time":4597000000000,"state":"active","ping":79},{"user_id":387,"name":"rasta ronald","steam_id":76561198123883661,"connected_time":857000000000,"state":"active","ping":46},{"user_id":303,"name":"BROMBRE","steam_id":76561198011062026,"connected_time":8327000000000,"state":"active","ping":76},{"user_id":375,"name":"Stock Medic","steam_id":76561198065479730,"connected_time":1645000000000,"state":"active","ping":45},{"user_id":364,"name":"Ironaka","steam_id":76561198029993183,"connected_time":3711000000000,"state":"active","ping":84},{"user_id":350,"name":"Uncle Meat","steam_id":76561198012534850,"connected_time":5307000000000,"state":"active","ping":62},{"user_id":388,"name":"Fredrick","steam_id":76561197981419964,"connected_time":765000000000,"state":"active","ping":65},{"user_id":389,"name":"MantisTobboggan","steam_id":76561197969447887,"connected_time":551000000000,"state":"active","ping":128},{"user_id":353,"name":"Pineapple Pancakes","steam_id":76561198860470713,"connected_time":5258000000000,"state":"active","ping":74},{"user_id":376,"name":"ChristLovesMeTTV ✞","steam_id":76561198070635731,"connected_time":1595000000000,"state":"active","ping":65},{"user_id":305,"name":"Quaker Oats","steam_id":76561197992800293,"connected_time":8287000000000,"state":"active","ping":90},{"user_id":362,"name":"barker bill","steam_id":76561198018451994,"connected_time":3808000000000,"state":"active","ping":82},{"user_id":380,"name":"Big McThankies From McSpankies","steam_id":76561198020516880,"connected_time":1466000000000,"state":"active","ping":94},{"user_id":383,"name":"ṽ⧉  hank","steam_id":76561197977182378,"connected_time":1107000000000,"state":"active","ping":46}]},{"server_id":402,"name":"Uncletopia | Chicago | 3 | All Maps","name_short":"chi-3","host":"chi-1.us.uncletopia.com","port":27035,"enabled":true,"region":"us-central","cc":"us","latitude":41.881832,"longitude":-87.62318,"reserved":0,"last_update":"0001-01-01T00:00:00Z","name_a2s":"Uncletopia | Chicago | 3 | All Maps","protocol":17,"map":"pl_pier","folder":"tf","game":"Team Fortress","app_id":440,"player_count":24,"max_players":24,"Bots":0,"server_type":"Dedicated","server_os":"Linux","password":true,"vac":true,"version":"7757534","steam_id":85568392924515191,"keywords":["nocrits","nodmgspread","payload","uncletopia"],"game_id":440,"stv_port":27036,"stv_name":"Uncletopia | Chicago | 3 | All Maps | STV","players":[{"user_id":123,"name":"Skullypoo","steam_id":76561198067912022,"connected_time":1092000000000,"state":"active","ping":61},{"user_id":24,"name":"Sage","steam_id":76561198143101697,"connected_time":7838000000000,"state":"active","ping":94},{"user_id":145,"name":"CanadianScoot","steam_id":76561198847107866,"connected_time":212000000000,"state":"active","ping":57},{"user_id":146,"name":"FUSION","steam_id":76561197972659738,"connected_time":204000000000,"state":"active","ping":52},{"user_id":147,"name":"Doggy Girl Kikimora","steam_id":76561198097117564,"connected_time":193000000000,"state":"active","ping":84},{"user_id":141,"name":"lite","steam_id":76561198300633951,"connected_time":464000000000,"state":"active","ping":105},{"user_id":148,"name":"GrummBlumm","steam_id":76561198243035656,"connected_time":193000000000,"state":"active","ping":61},{"user_id":149,"name":"AkaDoggo","steam_id":76561198968291063,"connected_time":174000000000,"state":"active","ping":65},{"user_id":88,"name":"K","steam_id":76561198125357358,"connected_time":3986000000000,"state":"active","ping":61},{"user_id":122,"name":"BurnN8or101","steam_id":76561198132668224,"connected_time":1111000000000,"state":"active","ping":80},{"user_id":106,"name":"phone","steam_id":76561198029268743,"connected_time":2591000000000,"state":"active","ping":66},{"user_id":119,"name":"Room","steam_id":76561199174579733,"connected_time":1547000000000,"state":"active","ping":76},{"user_id":144,"name":"nicolas the mercenary","steam_id":76561199077641644,"connected_time":338000000000,"state":"active","ping":57},{"user_id":150,"name":"Decot","steam_id":76561198042016967,"connected_time":159000000000,"state":"active","ping":68},{"user_id":151,"name":"B/S/SuperBoof","steam_id":76561197992030936,"connected_time":158000000000,"state":"active","ping":61},{"user_id":137,"name":"dick bubkis","steam_id":76561198057374871,"connected_time":609000000000,"state":"active","ping":61},{"user_id":132,"name":"wongo","steam_id":76561198064420072,"connected_time":750000000000,"state":"active","ping":61},{"user_id":116,"name":"Broccoli Rob","steam_id":76561198026250024,"connected_time":2038000000000,"state":"active","ping":71},{"user_id":70,"name":"A Puppy","steam_id":76561198828184456,"connected_time":6418000000000,"state":"active","ping":57},{"user_id":112,"name":"MEATBALL","steam_id":76561198028499312,"connected_time":2528000000000,"state":"active","ping":59},{"user_id":139,"name":"Bean Lord","steam_id":76561198238698460,"connected_time":555000000000,"state":"active","ping":68},{"user_id":143,"name":"AliCat","steam_id":76561198308360862,"connected_time":448000000000,"state":"active","ping":81},{"user_id":131,"name":"Heropon","steam_id":76561198105224481,"connected_time":764000000000,"state":"active","ping":84}]},{"server_id":403,"name":"Uncletopia | Chicago | 4 | All Maps","name_short":"chi-4","host":"chi-1.us.uncletopia.com","port":27045,"enabled":true,"region":"us-central","cc":"us","latitude":41.881832,"longitude":-87.62318,"reserved":0,"last_update":"0001-01-01T00:00:00Z","name_a2s":"Uncletopia | Chicago | 4 | All Maps","protocol":17,"map":"cp_mountainlab","folder":"tf","game":"Team Fortress","app_id":440,"player_count":23,"max_players":24,"Bots":0,"server_type":"Dedicated","server_os":"Linux","password":true,"vac":true,"version":"7757534","steam_id":85568392924515193,"keywords":["cp","nocrits","nodmgspread","uncletopia"],"game_id":440,"stv_port":27046,"stv_name":"Uncletopia | Chicago | 4 | All Maps | STV","players":[{"user_id":491,"name":"Chris is Bliss","steam_id":76561198253919037,"connected_time":530000000000,"state":"active","ping":73},{"user_id":495,"name":"Smet19","steam_id":76561198118455606,"connected_time":349000000000,"state":"active","ping":59},{"user_id":487,"name":"Johnny Esports","steam_id":76561198115812405,"connected_time":609000000000,"state":"active","ping":71},{"user_id":458,"name":"Viokik","steam_id":76561198408846602,"connected_time":1450000000000,"state":"active","ping":67},{"user_id":498,"name":"birbmanminty","steam_id":76561199159145275,"connected_time":165000000000,"state":"active","ping":103},{"user_id":499,"name":"Nathari","steam_id":76561198060564355,"connected_time":143000000000,"state":"active","ping":77},{"user_id":484,"name":"Crows!","steam_id":76561198150086324,"connected_time":677000000000,"state":"active","ping":60},{"user_id":500,"name":"a table","steam_id":76561198158461279,"connected_time":141000000000,"state":"active","ping":67},{"user_id":476,"name":"Space Cops","steam_id":76561198032414253,"connected_time":1038000000000,"state":"active","ping":58},{"user_id":409,"name":"Dwaggy","steam_id":76561198027369555,"connected_time":5816000000000,"state":"active","ping":70},{"user_id":501,"name":"LOL","steam_id":76561198068190834,"connected_time":126000000000,"state":"active","ping":104},{"user_id":488,"name":"Maik","steam_id":76561198045257088,"connected_time":607000000000,"state":"active","ping":125},{"user_id":481,"name":"SCATTER","steam_id":76561198405168492,"connected_time":716000000000,"state":"active","ping":78},{"user_id":448,"name":"Pancreas Enjoyer","steam_id":76561199438598904,"connected_time":1788000000000,"state":"active","ping":128},{"user_id":502,"name":"Cyclops_672","steam_id":76561198080169497,"connected_time":121000000000,"state":"active","ping":45},{"user_id":450,"name":"Bada Bingus","steam_id":76561198046743307,"connected_time":1739000000000,"state":"active","ping":92},{"user_id":466,"name":"Young-OG","steam_id":76561198058800479,"connected_time":1258000000000,"state":"active","ping":84},{"user_id":503,"name":"El_Jackso","steam_id":76561198126121555,"connected_time":51000000000,"state":"active","ping":60},{"user_id":456,"name":"Pinapley","steam_id":76561198063130298,"connected_time":1558000000000,"state":"active","ping":60},{"user_id":496,"name":"Friendly dispenser scoot","steam_id":76561199130459740,"connected_time":348000000000,"state":"active","ping":47},{"user_id":468,"name":"Bad Medic Buddy","steam_id":76561198093222632,"connected_time":1253000000000,"state":"active","ping":88},{"user_id":490,"name":"48","steam_id":76561198156422760,"connected_time":580000000000,"state":"active","ping":60}]},{"server_id":36,"name":"Uncletopia | Chicago | 5 | All Maps","name_short":"chi-5","host":"chi-2.us.uncletopia.com","port":27015,"enabled":true,"region":"us-central","cc":"us","latitude":41.881832,"longitude":-87.62318,"reserved":0,"last_update":"0001-01-01T00:00:00Z","name_a2s":"Uncletopia | Chicago | 5 | All Maps","protocol":17,"map":"pl_snowycoast","folder":"tf","game":"Team Fortress","app_id":440,"player_count":25,"max_players":24,"Bots":0,"server_type":"Dedicated","server_os":"Linux","password":true,"vac":true,"version":"7757534","steam_id":85568392924866362,"keywords":["nocrits","nodmgspread","payload","uncletopia"],"game_id":440,"stv_port":27016,"stv_name":"Uncletopia | Chicago | 5 | All Maps | STV","players":[{"user_id":106,"name":"Rein","steam_id":76561198300340427,"connected_time":939000000000,"state":"active","ping":62},{"user_id":105,"name":"poobnut","steam_id":76561199154934790,"connected_time":994000000000,"state":"active","ping":73},{"user_id":101,"name":"SalamenceFury","steam_id":76561198054585848,"connected_time":1457000000000,"state":"active","ping":144},{"user_id":112,"name":"Chase McCain","steam_id":76561198314538469,"connected_time":258000000000,"state":"active","ping":148},{"user_id":92,"name":"Maxxycat","steam_id":76561198194062681,"connected_time":2099000000000,"state":"active","ping":59},{"user_id":108,"name":"chicanery","steam_id":76561198081654907,"connected_time":417000000000,"state":"active","ping":70},{"user_id":111,"name":"MidSobbes08","steam_id":76561199013101925,"connected_time":264000000000,"state":"connecting","ping":0},{"user_id":110,"name":"threethree","steam_id":76561198177354155,"connected_time":291000000000,"state":"active","ping":46},{"user_id":113,"name":"willsmith69","steam_id":76561198365512706,"connected_time":258000000000,"state":"active","ping":57},{"user_id":102,"name":"Spike","steam_id":76561198141356571,"connected_time":1229000000000,"state":"active","ping":60},{"user_id":116,"name":"Heavy Weaponsboy","steam_id":76561198112388117,"connected_time":196000000000,"state":"active","ping":77},{"user_id":114,"name":"PISSF****T","steam_id":76561199062570438,"connected_time":254000000000,"state":"active","ping":136},{"user_id":104,"name":"Steen","steam_id":76561198122992510,"connected_time":1171000000000,"state":"active","ping":137},{"user_id":90,"name":"toastman","steam_id":76561198207073088,"connected_time":2206000000000,"state":"active","ping":81},{"user_id":98,"name":"Catcow","steam_id":76561198025329176,"connected_time":1835000000000,"state":"active","ping":135},{"user_id":115,"name":"StarWither","steam_id":76561198383264295,"connected_time":235000000000,"state":"active","ping":112},{"user_id":117,"name":"Turtlin'","steam_id":76561198885096042,"connected_time":194000000000,"state":"active","ping":67},{"user_id":118,"name":"turnip","steam_id":76561197999375941,"connected_time":174000000000,"state":"active","ping":74},{"user_id":119,"name":"ecks","steam_id":76561197978114705,"connected_time":150000000000,"state":"active","ping":60},{"user_id":39,"name":"Zultrafury","steam_id":76561198099284163,"connected_time":4546000000000,"state":"active","ping":76},{"user_id":107,"name":"a narwhal","steam_id":76561198014527353,"connected_time":787000000000,"state":"active","ping":80},{"user_id":80,"name":"Lionel Messi","steam_id":76561198226207032,"connected_time":2848000000000,"state":"active","ping":57},{"user_id":120,"name":"ham bone","steam_id":76561198351143785,"connected_time":107000000000,"state":"active","ping":50},{"user_id":44,"name":"MaximusPrime","steam_id":76561198114949521,"connected_time":4474000000000,"state":"active","ping":116},{"user_id":121,"name":"Little Green Man, Clayton","steam_id":76561198038945235,"connected_time":105000000000,"state":"active","ping":82}]},{"server_id":37,"name":"Uncletopia | Chicago | 6 | All Maps","name_short":"chi-6","host":"chi-2.us.uncletopia.com","port":27025,"enabled":true,"region":"us-central","cc":"us","latitude":41.881832,"longitude":-87.62318,"reserved":0,"last_update":"0001-01-01T00:00:00Z","name_a2s":"Uncletopia | Chicago | 6 | All Maps","protocol":17,"map":"pl_barnblitz","folder":"tf","game":"Team Fortress","app_id":440,"player_count":24,"max_players":24,"Bots":0,"server_type":"Dedicated","server_os":"Linux","password":true,"vac":true,"version":"7757534","steam_id":85568392924866363,"keywords":["nocrits","nodmgspread","payload","uncletopia"],"game_id":440,"stv_port":27026,"stv_name":"Uncletopia | Chicago | 6 | All Maps | STV","players":[{"user_id":728,"name":"dalton_dean96","steam_id":76561198198287667,"connected_time":3158000000000,"state":"active","ping":67},{"user_id":755,"name":"gulch","steam_id":76561199227946025,"connected_time":2015000000000,"state":"active","ping":72},{"user_id":761,"name":"Balerion the Black Dread","steam_id":76561198003728369,"connected_time":1860000000000,"state":"active","ping":58},{"user_id":757,"name":"Phil Collins","steam_id":76561198068868644,"connected_time":1992000000000,"state":"active","ping":105},{"user_id":743,"name":"ahh","steam_id":76561198083271257,"connected_time":2859000000000,"state":"active","ping":78},{"user_id":710,"name":"Emails","steam_id":76561198836919458,"connected_time":4269000000000,"state":"active","ping":89},{"user_id":750,"name":"Gluten-Free Toast","steam_id":76561198426287971,"connected_time":2609000000000,"state":"active","ping":80},{"user_id":723,"name":"Peepster","steam_id":76561198297854733,"connected_time":3220000000000,"state":"active","ping":75},{"user_id":758,"name":"AlphonsetheFish","steam_id":76561198038020208,"connected_time":1916000000000,"state":"active","ping":95},{"user_id":770,"name":"DerpFestival","steam_id":76561198046489801,"connected_time":26000000000,"state":"spawning","ping":92},{"user_id":712,"name":"Dispenser","steam_id":76561198334676366,"connected_time":4248000000000,"state":"active","ping":71},{"user_id":768,"name":"Frosti","steam_id":76561198332850064,"connected_time":469000000000,"state":"active","ping":68},{"user_id":767,"name":"gamerboy8233","steam_id":76561198228605388,"connected_time":615000000000,"state":"active","ping":52},{"user_id":762,"name":"Zicky Nee","steam_id":76561198042601111,"connected_time":1706000000000,"state":"active","ping":66},{"user_id":741,"name":"Mimt1111","steam_id":76561198392370897,"connected_time":2955000000000,"state":"active","ping":68},{"user_id":731,"name":"Kirby","steam_id":76561199161858008,"connected_time":3148000000000,"state":"active","ping":70},{"user_id":764,"name":"Steadman Slick","steam_id":76561198092633444,"connected_time":899000000000,"state":"active","ping":44},{"user_id":745,"name":"dansal","steam_id":76561197997042510,"connected_time":2776000000000,"state":"active","ping":84},{"user_id":704,"name":"Teleporter  (Entrance, Level 3)","steam_id":76561198316927664,"connected_time":5324000000000,"state":"active","ping":68},{"user_id":746,"name":"gamerthebuck83","steam_id":76561198402429691,"connected_time":2769000000000,"state":"active","ping":51},{"user_id":736,"name":"Toaster","steam_id":76561198110748463,"connected_time":3110000000000,"state":"active","ping":58},{"user_id":748,"name":"I Lead MLB In \"Bats Eaten\"","steam_id":76561198034079853,"connected_time":2711000000000,"state":"active","ping":71},{"user_id":717,"name":"Blades_87","steam_id":76561198150870338,"connected_time":3542000000000,"state":"active","ping":49},{"user_id":697,"name":"Dr. Dick","steam_id":76561198138011922,"connected_time":5619000000000,"state":"active","ping":73}]},{"server_id":38,"name":"Uncletopia | Chicago | 7 | Stopwatch Beta","name_short":"chi-7","host":"chi-2.us.uncletopia.com","port":27035,"enabled":true,"region":"us-central","cc":"us","latitude":41.881832,"longitude":-87.62318,"reserved":0,"last_update":"0001-01-01T00:00:00Z","name_a2s":"Uncletopia | Chicago | 7 | Stopwatch Beta","protocol":17,"map":"cp_sunshine","folder":"tf","game":"Team Fortress","app_id":440,"player_count":0,"max_players":24,"Bots":0,"server_type":"Dedicated","server_os":"Linux","password":true,"vac":true,"version":"7757534","steam_id":85568392924866364,"keywords":["cp","nocrits","nodmgspread","uncletopia"],"game_id":440,"stv_port":27036,"stv_name":"Uncletopia | Chicago | 7 | Stopwatch Beta | STV","players":null},{"server_id":39,"name":"Uncletopia | Chicago | 8 | Community","name_short":"chi-8","host":"chi-2.us.uncletopia.com","port":27045,"enabled":true,"region":"us-central","cc":"us","latitude":41.881832,"longitude":-87.62318,"reserved":0,"last_update":"0001-01-01T00:00:00Z","name_a2s":"Uncletopia | Chicago | 8 | Community","protocol":17,"map":"workshop/cp_logjam_rc12.ugc454812035","folder":"tf","game":"Team Fortress","app_id":440,"player_count":0,"max_players":24,"Bots":0,"server_type":"Dedicated","server_os":"Linux","password":true,"vac":true,"version":"7757534","steam_id":85568392924866365,"keywords":["cp","nocrits","nodmgspread","uncletopia"],"game_id":440,"stv_port":27046,"stv_name":"Uncletopia | Chicago | 8 | Community | STV","players":null},{"server_id":8,"name":"Uncletopia | Dallas | 1 | All Maps","name_short":"dal-1","host":"dal-1.us.uncletopia.com","port":27015,"enabled":true,"region":"us-central","cc":"us","latitude":32.779167,"longitude":-96.80889,"reserved":0,"last_update":"0001-01-01T00:00:00Z","name_a2s":"Uncletopia | Dallas | 1 | All Maps","protocol":17,"map":"pl_frontier_final","folder":"tf","game":"Team Fortress","app_id":440,"player_count":22,"max_players":24,"Bots":0,"server_type":"Dedicated","server_os":"Linux","password":true,"vac":true,"version":"7757534","steam_id":85568392924469986,"keywords":["nocrits","nodmgspread","payload","uncletopia"],"game_id":440,"stv_port":27016,"stv_name":"Uncletopia | Dallas | 1 | All Maps | STV","players":[{"user_id":249,"name":"Derply","steam_id":76561198871211642,"connected_time":594000000000,"state":"active","ping":71},{"user_id":230,"name":"Tannenbaum Trotsky","steam_id":76561199101638460,"connected_time":2480000000000,"state":"active","ping":46},{"user_id":251,"name":"evan_is_sauce","steam_id":76561199086802383,"connected_time":61000000000,"state":"spawning","ping":72},{"user_id":250,"name":"--_Cook_--","steam_id":76561198080855748,"connected_time":186000000000,"state":"active","ping":48},{"user_id":239,"name":"the222attacker","steam_id":76561198969690191,"connected_time":1293000000000,"state":"active","ping":91},{"user_id":174,"name":"Murgatroyd","steam_id":76561198077350331,"connected_time":5584000000000,"state":"active","ping":83},{"user_id":244,"name":"heimdall","steam_id":76561198069380992,"connected_time":889000000000,"state":"active","ping":70},{"user_id":217,"name":"TaterNoots","steam_id":76561198079513450,"connected_time":3434000000000,"state":"active","ping":60},{"user_id":225,"name":"Vibey","steam_id":76561198342873474,"connected_time":3198000000000,"state":"active","ping":90},{"user_id":240,"name":"Lemmy","steam_id":76561199038870751,"connected_time":1278000000000,"state":"active","ping":168},{"user_id":214,"name":"iluvtoust","steam_id":76561198869269207,"connected_time":3474000000000,"state":"active","ping":54},{"user_id":205,"name":"Zigadox","steam_id":76561198079813479,"connected_time":4615000000000,"state":"active","ping":89},{"user_id":228,"name":"MeMyBongusAndTheGreatOutdoors","steam_id":76561198097708978,"connected_time":3061000000000,"state":"active","ping":69},{"user_id":241,"name":"blindwaffle12","steam_id":76561198134723718,"connected_time":1278000000000,"state":"active","ping":160},{"user_id":246,"name":"Quansen","steam_id":76561198151594550,"connected_time":742000000000,"state":"active","ping":75},{"user_id":190,"name":"karbomb","steam_id":76561198120744480,"connected_time":5032000000000,"state":"active","ping":45},{"user_id":220,"name":"Mrs. Noots","steam_id":76561198453729283,"connected_time":3386000000000,"state":"active","ping":84},{"user_id":236,"name":"Gordon Ramsay","steam_id":76561198123893900,"connected_time":1838000000000,"state":"active","ping":103},{"user_id":242,"name":"Blue Eyes Ace Dragon.","steam_id":76561198048214237,"connected_time":1274000000000,"state":"active","ping":77},{"user_id":208,"name":"Voids","steam_id":76561198128386726,"connected_time":4555000000000,"state":"active","ping":87},{"user_id":198,"name":"inzang","steam_id":76561198088318074,"connected_time":4897000000000,"state":"active","ping":56},{"user_id":248,"name":"Ground Control to Majortom","steam_id":76561198065589126,"connected_time":684000000000,"state":"active","ping":94}]},{"server_id":108,"name":"Uncletopia | Dallas | 2 | All Maps","name_short":"dal-2","host":"dal-1.us.uncletopia.com","port":27025,"enabled":true,"region":"us-central","cc":"us","latitude":32.779167,"longitude":-96.80889,"reserved":0,"last_update":"0001-01-01T00:00:00Z","name_a2s":"Uncletopia | Dallas | 2 | All Maps","protocol":17,"map":"pl_upward","folder":"tf","game":"Team Fortress","app_id":440,"player_count":24,"max_players":24,"Bots":0,"server_type":"Dedicated","server_os":"Linux","password":true,"vac":true,"version":"7757534","steam_id":85568392924469988,"keywords":["nocrits","nodmgspread","payload","uncletopia"],"game_id":440,"stv_port":27026,"stv_name":"Uncletopia | Dallas | 2 | All Maps | STV","players":[{"user_id":250,"name":"Blink","steam_id":76561197986181277,"connected_time":385000000000,"state":"active","ping":45},{"user_id":258,"name":"WannaSeeA","steam_id":76561198097701042,"connected_time":269000000000,"state":"active","ping":59},{"user_id":261,"name":"Icaras","steam_id":76561198416724843,"connected_time":225000000000,"state":"active","ping":149},{"user_id":253,"name":"john the video gamer","steam_id":76561198879581596,"connected_time":316000000000,"state":"active","ping":80},{"user_id":169,"name":"kangaroo wife","steam_id":76561198040455711,"connected_time":5925000000000,"state":"active","ping":72},{"user_id":188,"name":"Tree52","steam_id":76561198046763622,"connected_time":5418000000000,"state":"active","ping":76},{"user_id":254,"name":"ColonelGuy5509","steam_id":76561198050493174,"connected_time":307000000000,"state":"active","ping":58},{"user_id":240,"name":"McAspie","steam_id":76561198079700167,"connected_time":1388000000000,"state":"active","ping":63},{"user_id":266,"name":"AtomLao","steam_id":76561198886167680,"connected_time":66000000000,"state":"active","ping":66},{"user_id":210,"name":"SuperFresh","steam_id":76561198200723198,"connected_time":3586000000000,"state":"active","ping":60},{"user_id":170,"name":"f0xh0le 0ne","steam_id":76561199471269566,"connected_time":5920000000000,"state":"active","ping":51},{"user_id":257,"name":"Shichinitzi","steam_id":76561198003833732,"connected_time":286000000000,"state":"active","ping":66},{"user_id":230,"name":"Bottle","steam_id":76561198044031558,"connected_time":2343000000000,"state":"active","ping":85},{"user_id":131,"name":"creeeeeee","steam_id":76561198392539722,"connected_time":9036000000000,"state":"active","ping":89},{"user_id":237,"name":"Mem","steam_id":76561198170391715,"connected_time":1963000000000,"state":"active","ping":83},{"user_id":249,"name":"[S]Mr. X [No Monitor]","steam_id":76561197963746035,"connected_time":614000000000,"state":"active","ping":128},{"user_id":246,"name":"Spectre","steam_id":76561198810506409,"connected_time":931000000000,"state":"active","ping":69},{"user_id":259,"name":"MidSobbes08","steam_id":76561199013101925,"connected_time":237000000000,"state":"active","ping":187},{"user_id":221,"name":"Zamboni","steam_id":76561199084964927,"connected_time":2958000000000,"state":"active","ping":70},{"user_id":260,"name":"alenku","steam_id":76561198997139815,"connected_time":230000000000,"state":"active","ping":120},{"user_id":265,"name":"Sad Sapling","steam_id":76561198075612150,"connected_time":129000000000,"state":"active","ping":77},{"user_id":263,"name":"Magician357","steam_id":76561198009308255,"connected_time":212000000000,"state":"active","ping":87},{"user_id":232,"name":"KEEN","steam_id":76561197988436984,"connected_time":2276000000000,"state":"active","ping":92},{"user_id":264,"name":"blythe","steam_id":76561198254999149,"connected_time":209000000000,"state":"active","ping":88}]},{"server_id":5,"name":"Uncletopia | Frankfurt | 1 | All Maps","name_short":"frk-1","host":"frk-1.de.uncletopia.com","port":27015,"enabled":true,"region":"eu","cc":"de","latitude":50.110924,"longitude":8.682127,"reserved":0,"last_update":"0001-01-01T00:00:00Z","name_a2s":"Uncletopia | Frankfurt | 1 | All Maps","protocol":17,"map":"cp_sunshine","folder":"tf","game":"Team Fortress","app_id":440,"player_count":0,"max_players":24,"Bots":0,"server_type":"Dedicated","server_os":"Linux","password":true,"vac":true,"version":"7757534","steam_id":85568392924469989,"keywords":["cp","nocrits","nodmgspread","uncletopia"],"game_id":440,"stv_port":27016,"stv_name":"Uncletopia | Frankfurt | 1 | All Maps | STV","players":null},{"server_id":110,"name":"Uncletopia | Frankfurt | 2 | All Maps","name_short":"frk-2","host":"frk-1.de.uncletopia.com","port":27025,"enabled":true,"region":"eu","cc":"de","latitude":50.110924,"longitude":8.682127,"reserved":0,"last_update":"0001-01-01T00:00:00Z","name_a2s":"Uncletopia | Frankfurt | 2 | All Maps","protocol":17,"map":"pl_badwater","folder":"tf","game":"Team Fortress","app_id":440,"player_count":0,"max_players":24,"Bots":0,"server_type":"Dedicated","server_os":"Linux","password":true,"vac":true,"version":"7757534","steam_id":85568392924469990,"keywords":["nocrits","nodmgspread","payload","uncletopia"],"game_id":440,"stv_port":27026,"stv_name":"Uncletopia | Frankfurt | 2 | All Maps | STV","players":null},{"server_id":308,"name":"Uncletopia | Frankfurt | 3 | All Maps","name_short":"frk-3","host":"frk-1.de.uncletopia.com","port":27035,"enabled":true,"region":"eu","cc":"de","latitude":50.110924,"longitude":8.682127,"reserved":0,"last_update":"0001-01-01T00:00:00Z","name_a2s":"Uncletopia | Frankfurt | 3 | All Maps","protocol":17,"map":"koth_lakeside_final","folder":"tf","game":"Team Fortress","app_id":440,"player_count":0,"max_players":24,"Bots":0,"server_type":"Dedicated","server_os":"Linux","password":true,"vac":true,"version":"7757534","steam_id":85568392924504274,"keywords":["cp","nocrits","nodmgspread","uncletopia"],"game_id":440,"stv_port":27036,"stv_name":"Uncletopia | Frankfurt | 3 | All Maps | STV","players":null},{"server_id":309,"name":"Uncletopia | Frankfurt | 4 | All Maps","name_short":"frk-4","host":"frk-1.de.uncletopia.com","port":27045,"enabled":true,"region":"eu","cc":"de","latitude":50.110924,"longitude":8.682127,"reserved":0,"last_update":"0001-01-01T00:00:00Z","name_a2s":"Uncletopia | Frankfurt | 4 | All Maps","protocol":17,"map":"cp_dustbowl","folder":"tf","game":"Team Fortress","app_id":440,"player_count":0,"max_players":24,"Bots":0,"server_type":"Dedicated","server_os":"Linux","password":true,"vac":true,"version":"7757534","steam_id":85568392924504275,"keywords":["cp","nocrits","nodmgspread","uncletopia"],"game_id":440,"stv_port":27046,"stv_name":"Uncletopia | Frankfurt | 4 | All Maps | STV","players":null},{"server_id":310,"name":"Uncletopia | Frankfurt | 5 | All Maps","name_short":"frk-5","host":"frk-1.de.uncletopia.com","port":27055,"enabled":true,"region":"eu","cc":"de","latitude":50.110924,"longitude":8.682127,"reserved":0,"last_update":"0001-01-01T00:00:00Z","name_a2s":"Uncletopia | Frankfurt | 5 | All Maps","protocol":17,"map":"cp_mountainlab","folder":"tf","game":"Team Fortress","app_id":440,"player_count":0,"max_players":24,"Bots":0,"server_type":"Dedicated","server_os":"Linux","password":true,"vac":true,"version":"7757534","steam_id":85568392924504277,"keywords":["cp","nocrits","nodmgspread","uncletopia"],"game_id":440,"stv_port":27056,"stv_name":"Uncletopia | Frankfurt | 5 | All Maps | STV","players":null},{"server_id":311,"name":"Uncletopia | Frankfurt | 6 | All Maps","name_short":"frk-6","host":"frk-1.de.uncletopia.com","port":27065,"enabled":true,"region":"eu","cc":"de","latitude":50.110924,"longitude":8.682127,"reserved":0,"last_update":"0001-01-01T00:00:00Z","name_a2s":"Uncletopia | Frankfurt | 6 | All Maps","protocol":17,"map":"koth_highpass","folder":"tf","game":"Team Fortress","app_id":440,"player_count":0,"max_players":24,"Bots":0,"server_type":"Dedicated","server_os":"Linux","password":true,"vac":true,"version":"7757534","steam_id":85568392924504278,"keywords":["cp","nocrits","nodmgspread","uncletopia"],"game_id":440,"stv_port":27066,"stv_name":"Uncletopia | Frankfurt | 6 | All Maps | STV","players":null},{"server_id":23,"name":"Uncletopia | Frankfurt | 7 | Stopwatch Beta","name_short":"frk-7","host":"frk-1.de.uncletopia.com","port":27075,"enabled":true,"region":"eu","cc":"de","latitude":50.110924,"longitude":8.682127,"reserved":0,"last_update":"0001-01-01T00:00:00Z","name_a2s":"Uncletopia | Frankfurt | 7 | Stopwatch Beta","protocol":17,"map":"pl_frontier_final","folder":"tf","game":"Team Fortress","app_id":440,"player_count":0,"max_players":24,"Bots":0,"server_type":"Dedicated","server_os":"Linux","password":true,"vac":true,"version":"7757534","steam_id":85568392924742827,"keywords":["nocrits","nodmgspread","payload","uncletopia"],"game_id":440,"stv_port":27076,"stv_name":"Uncletopia | Frankfurt | 7 | Stopwatch Beta | STV","players":null},{"server_id":24,"name":"Uncletopia | Frankfurt | 8 | Community","name_short":"frk-8","host":"frk-1.de.uncletopia.com","port":27085,"enabled":true,"region":"eu","cc":"de","latitude":50.110924,"longitude":8.682127,"reserved":0,"last_update":"0001-01-01T00:00:00Z","name_a2s":"Uncletopia | Frankfurt | 8 | Community","protocol":17,"map":"workshop/rd_asteroid_redux_b1.ugc2154902912","folder":"tf","game":"Team Fortress","app_id":440,"player_count":0,"max_players":24,"Bots":0,"server_type":"Dedicated","server_os":"Linux","password":true,"vac":true,"version":"7757534","steam_id":85568392924742828,"keywords":["beta","nocrits","nodmgspread","rd","uncletopia"],"game_id":440,"stv_port":27086,"stv_name":"Uncletopia | Frankfurt | 8 | Community | STV","players":null},{"server_id":202,"name":"Uncletopia | Hong Kong | 1 | All Maps","name_short":"hgk-1","host":"hgk-1.hk.uncletopia.com","port":27015,"enabled":true,"region":"asia","cc":"hk","latitude":22.302711,"longitude":114.177216,"reserved":0,"last_update":"0001-01-01T00:00:00Z","name_a2s":"Uncletopia | Hong Kong | 1 | All Maps","protocol":17,"map":"pl_badwater","folder":"tf","game":"Team Fortress","app_id":440,"player_count":0,"max_players":24,"Bots":0,"server_type":"Dedicated","server_os":"Linux","password":true,"vac":true,"version":"7757534","steam_id":85568392924494504,"keywords":["nocrits","nodmgspread","payload","uncletopia"],"game_id":440,"stv_port":27016,"stv_name":"Uncletopia | Hong Kong | 1 | All Maps | STV","players":null},{"server_id":1,"name":"Uncletopia | Los Angeles | 1 | All Maps","name_short":"lax-1","host":"lax-1.us.uncletopia.com","port":27015,"enabled":true,"region":"us-west","cc":"us","latitude":33.94279,"longitude":-118.41004,"reserved":0,"last_update":"0001-01-01T00:00:00Z","name_a2s":"Uncletopia | Los Angeles | 1 | All Maps","protocol":17,"map":"pl_barnblitz","folder":"tf","game":"Team Fortress","app_id":440,"player_count":24,"max_players":24,"Bots":0,"server_type":"Dedicated","server_os":"Linux","password":true,"vac":true,"version":"7757534","steam_id":85568392924469991,"keywords":["nocrits","nodmgspread","payload","uncletopia"],"game_id":440,"stv_port":27016,"stv_name":"Uncletopia | Los Angeles | 1 | All Maps | STV","players":[{"user_id":279,"name":"Tom","steam_id":76561198139202942,"connected_time":1777000000000,"state":"active","ping":126},{"user_id":258,"name":"Krakula","steam_id":76561199080315974,"connected_time":2850000000000,"state":"active","ping":50},{"user_id":261,"name":"PixelatedAfro","steam_id":76561198322595276,"connected_time":2698000000000,"state":"active","ping":55},{"user_id":275,"name":"TeCon","steam_id":76561198049127236,"connected_time":1902000000000,"state":"active","ping":59},{"user_id":232,"name":"vanillain","steam_id":76561198058617608,"connected_time":4261000000000,"state":"active","ping":47},{"user_id":259,"name":"Percules 2024","steam_id":76561198195220521,"connected_time":2779000000000,"state":"active","ping":108},{"user_id":290,"name":"Wallish","steam_id":76561198057175636,"connected_time":688000000000,"state":"active","ping":136},{"user_id":277,"name":"Bump And Dump","steam_id":76561198216163817,"connected_time":1873000000000,"state":"active","ping":109},{"user_id":247,"name":"pasta","steam_id":76561198084719895,"connected_time":3451000000000,"state":"active","ping":109},{"user_id":287,"name":"puppygirl lobotomy","steam_id":76561198265633146,"connected_time":752000000000,"state":"active","ping":54},{"user_id":235,"name":"Coffee","steam_id":76561198154646418,"connected_time":4162000000000,"state":"active","ping":85},{"user_id":289,"name":"I will kill you","steam_id":76561198136533830,"connected_time":729000000000,"state":"active","ping":74},{"user_id":210,"name":"c49aa4","steam_id":76561199099537250,"connected_time":5340000000000,"state":"active","ping":53},{"user_id":273,"name":"mao zedong","steam_id":76561199060687332,"connected_time":2015000000000,"state":"active","ping":51},{"user_id":272,"name":"Camden","steam_id":76561198060172263,"connected_time":2021000000000,"state":"active","ping":63},{"user_id":285,"name":"Sammy!","steam_id":76561198184171743,"connected_time":990000000000,"state":"active","ping":65},{"user_id":284,"name":"Smerfee","steam_id":76561198170159521,"connected_time":1167000000000,"state":"active","ping":104},{"user_id":249,"name":"darkness.danny3481","steam_id":76561198132808002,"connected_time":3162000000000,"state":"active","ping":49},{"user_id":253,"name":"Furious George","steam_id":76561198405111646,"connected_time":3007000000000,"state":"active","ping":57},{"user_id":264,"name":"rmbl","steam_id":76561198150137369,"connected_time":2390000000000,"state":"active","ping":45},{"user_id":291,"name":"ayaya?","steam_id":76561199000188109,"connected_time":666000000000,"state":"active","ping":53},{"user_id":250,"name":"Beanssss","steam_id":76561198976050984,"connected_time":3038000000000,"state":"active","ping":172},{"user_id":286,"name":"Delimeat","steam_id":76561198043824595,"connected_time":760000000000,"state":"active","ping":47},{"user_id":288,"name":"Frazzer","steam_id":76561198088679707,"connected_time":751000000000,"state":"active","ping":45}]},{"server_id":112,"name":"Uncletopia | Los Angeles | 2 | All Maps","name_short":"lax-2","host":"lax-1.us.uncletopia.com","port":27025,"enabled":true,"region":"us-west","cc":"us","latitude":33.94279,"longitude":-118.41004,"reserved":0,"last_update":"0001-01-01T00:00:00Z","name_a2s":"Uncletopia | Los Angeles | 2 | All Maps","protocol":17,"map":"koth_highpass","folder":"tf","game":"Team Fortress","app_id":440,"player_count":0,"max_players":24,"Bots":0,"server_type":"Dedicated","server_os":"Linux","password":true,"vac":true,"version":"7757534","steam_id":85568392924469992,"keywords":["cp","nocrits","nodmgspread","uncletopia"],"game_id":440,"stv_port":27026,"stv_name":"Uncletopia | Los Angeles | 2 | All Maps | STV","players":null},{"server_id":324,"name":"Uncletopia | Los Angeles | 3 | All Maps","name_short":"lax-3","host":"lax-1.us.uncletopia.com","port":27035,"enabled":true,"region":"us-west","cc":"us","latitude":33.94279,"longitude":-118.41004,"reserved":0,"last_update":"0001-01-01T00:00:00Z","name_a2s":"Uncletopia | Los Angeles | 3 | All Maps","protocol":17,"map":"cp_snakewater_final1","folder":"tf","game":"Team Fortress","app_id":440,"player_count":0,"max_players":24,"Bots":0,"server_type":"Dedicated","server_os":"Linux","password":true,"vac":true,"version":"7757534","steam_id":85568392924510198,"keywords":["cp","nocrits","nodmgspread","uncletopia"],"game_id":440,"stv_port":27036,"stv_name":"Uncletopia | Los Angeles | 3 | All Maps | STV","players":null},{"server_id":25,"name":"Uncletopia | Los Angeles | 4 | Stopwatch Beta","name_short":"lax-4","host":"lax-1.us.uncletopia.com","port":27045,"enabled":true,"region":"us-west","cc":"us","latitude":33.94279,"longitude":-118.41004,"reserved":0,"last_update":"0001-01-01T00:00:00Z","name_a2s":"Uncletopia | Los Angeles | 4 | Stopwatch Beta","protocol":17,"map":"pl_frontier_final","folder":"tf","game":"Team Fortress","app_id":440,"player_count":0,"max_players":24,"Bots":0,"server_type":"Dedicated","server_os":"Linux","password":true,"vac":true,"version":"7757534","steam_id":85568392924510199,"keywords":["nocrits","nodmgspread","payload","uncletopia"],"game_id":440,"stv_port":27046,"stv_name":"Uncletopia | Los Angeles | 4 | Stopwatch Beta | STV","players":null},{"server_id":11,"name":"Uncletopia | London | 1 | All Maps","name_short":"lon-1","host":"lon-1.uk.uncletopia.com","port":27015,"enabled":true,"region":"eu","cc":"gb","latitude":51.509865,"longitude":-0.118092,"reserved":0,"last_update":"0001-01-01T00:00:00Z","name_a2s":"Uncletopia | London | 1 | All Maps","protocol":17,"map":"koth_lakeside_final","folder":"tf","game":"Team Fortress","app_id":440,"player_count":0,"max_players":24,"Bots":0,"server_type":"Dedicated","server_os":"Linux","password":true,"vac":true,"version":"7757534","steam_id":85568392924367362,"keywords":["cp","nocrits","nodmgspread","uncletopia"],"game_id":440,"stv_port":27016,"stv_name":"Uncletopia | London | 1 | All Maps | STV","players":null},{"server_id":114,"name":"Uncletopia | London | 2 | All Maps","name_short":"lon-2","host":"lon-1.uk.uncletopia.com","port":27025,"enabled":true,"region":"eu","cc":"gb","latitude":51.509865,"longitude":-0.118092,"reserved":0,"last_update":"0001-01-01T00:00:00Z","name_a2s":"Uncletopia | London | 2 | All Maps","protocol":17,"map":"cp_dustbowl","folder":"tf","game":"Team Fortress","app_id":440,"player_count":0,"max_players":24,"Bots":0,"server_type":"Dedicated","server_os":"Linux","password":true,"vac":true,"version":"7757534","steam_id":85568392924470941,"keywords":["cp","nocrits","nodmgspread","uncletopia"],"game_id":440,"stv_port":27026,"stv_name":"Uncletopia | London | 2 | All Maps | STV","players":null},{"server_id":320,"name":"Uncletopia | London | 3 | All Maps","name_short":"lon-3","host":"lon-1.uk.uncletopia.com","port":27035,"enabled":true,"region":"eu","cc":"gb","latitude":51.509865,"longitude":-0.118092,"reserved":0,"last_update":"0001-01-01T00:00:00Z","name_a2s":"Uncletopia | London | 3 | All Maps","protocol":17,"map":"koth_sawmill","folder":"tf","game":"Team Fortress","app_id":440,"player_count":0,"max_players":24,"Bots":0,"server_type":"Dedicated","server_os":"Linux","password":true,"vac":true,"version":"7757534","steam_id":85568392924510192,"keywords":["cp","nocrits","nodmgspread","uncletopia"],"game_id":440,"stv_port":27036,"stv_name":"Uncletopia | London | 3 | All Maps | STV","players":null},{"server_id":321,"name":"Uncletopia | London | 4 | All Maps","name_short":"lon-4","host":"lon-1.uk.uncletopia.com","port":27045,"enabled":true,"region":"eu","cc":"gb","latitude":51.509865,"longitude":-0.118092,"reserved":0,"last_update":"0001-01-01T00:00:00Z","name_a2s":"Uncletopia | London | 4 | All Maps","protocol":17,"map":"pl_frontier_final","folder":"tf","game":"Team Fortress","app_id":440,"player_count":24,"max_players":24,"Bots":0,"server_type":"Dedicated","server_os":"Linux","password":true,"vac":true,"version":"7757534","steam_id":85568392924510193,"keywords":["nocrits","nodmgspread","payload","uncletopia"],"game_id":440,"stv_port":27046,"stv_name":"Uncletopia | London | 4 | All Maps | STV","players":[{"user_id":392,"name":"It's a me Malario","steam_id":76561198176546013,"connected_time":1448000000000,"state":"active","ping":47},{"user_id":386,"name":"Mondocane","steam_id":76561199233979726,"connected_time":2359000000000,"state":"active","ping":93},{"user_id":347,"name":"joe","steam_id":76561198026484403,"connected_time":5151000000000,"state":"active","ping":60},{"user_id":372,"name":"Johnny Cockroach","steam_id":76561198049648277,"connected_time":3807000000000,"state":"active","ping":102},{"user_id":376,"name":"Gang Garrison 2","steam_id":76561197983908081,"connected_time":3555000000000,"state":"active","ping":39},{"user_id":395,"name":"blue","steam_id":76561198216200092,"connected_time":936000000000,"state":"active","ping":45},{"user_id":396,"name":"[PW]aloxuhik","steam_id":76561197997042174,"connected_time":879000000000,"state":"active","ping":64},{"user_id":394,"name":"Rezzarezz","steam_id":76561198092020043,"connected_time":1254000000000,"state":"active","ping":74},{"user_id":401,"name":"Osiris x Saint-14 9k Page Fanfi","steam_id":76561198133063760,"connected_time":378000000000,"state":"active","ping":82},{"user_id":384,"name":"akage","steam_id":76561198095685185,"connected_time":2833000000000,"state":"active","ping":54},{"user_id":302,"name":"Zerfesh","steam_id":76561198117534358,"connected_time":8645000000000,"state":"active","ping":92},{"user_id":315,"name":"nedilya","steam_id":76561198039692077,"connected_time":7953000000000,"state":"active","ping":64},{"user_id":379,"name":"Taste","steam_id":76561197994506978,"connected_time":3453000000000,"state":"active","ping":47},{"user_id":350,"name":"Tanyan","steam_id":76561198132162098,"connected_time":5024000000000,"state":"active","ping":50},{"user_id":389,"name":"NozAr","steam_id":76561198313286576,"connected_time":1978000000000,"state":"active","ping":131},{"user_id":393,"name":"very bad apex player","steam_id":76561198158241015,"connected_time":1301000000000,"state":"active","ping":45},{"user_id":382,"name":"skittle","steam_id":76561198073814263,"connected_time":2987000000000,"state":"active","ping":54},{"user_id":370,"name":"Kris","steam_id":76561198240638652,"connected_time":3926000000000,"state":"active","ping":44},{"user_id":397,"name":"Dreadnawght","steam_id":76561198000973506,"connected_time":877000000000,"state":"active","ping":62},{"user_id":355,"name":"Proto-arc","steam_id":76561198012776747,"connected_time":4723000000000,"state":"active","ping":57},{"user_id":400,"name":"Rave Robber","steam_id":76561199414716848,"connected_time":710000000000,"state":"active","ping":75},{"user_id":399,"name":"Frazzle","steam_id":76561198262577951,"connected_time":829000000000,"state":"active","ping":67},{"user_id":318,"name":"Dinges360","steam_id":76561198042032834,"connected_time":7669000000000,"state":"active","ping":57},{"user_id":385,"name":"Piellino","steam_id":76561198156873276,"connected_time":2417000000000,"state":"active","ping":127}]},{"server_id":21,"name":"Uncletopia | London | 5 | All Maps","name_short":"lon-5","host":"lon-1.uk.uncletopia.com","port":27055,"enabled":true,"region":"eu","cc":"gb","latitude":51.509865,"longitude":-0.118092,"reserved":0,"last_update":"0001-01-01T00:00:00Z","name_a2s":"Uncletopia | London | 5 | All Maps","protocol":17,"map":"koth_cascade","folder":"tf","game":"Team Fortress","app_id":440,"player_count":0,"max_players":24,"Bots":0,"server_type":"Dedicated","server_os":"Linux","password":true,"vac":true,"version":"7757534","steam_id":85568392924742829,"keywords":["cp","nocrits","nodmgspread","uncletopia"],"game_id":440,"stv_port":27056,"stv_name":"Uncletopia | London | 5 | All Maps | STV","players":null},{"server_id":22,"name":"Uncletopia | London | 6 | All Maps","name_short":"lon-6","host":"lon-1.uk.uncletopia.com","port":27065,"enabled":true,"region":"eu","cc":"gb","latitude":51.509865,"longitude":-0.118092,"reserved":0,"last_update":"0001-01-01T00:00:00Z","name_a2s":"Uncletopia | London | 6 | All Maps","protocol":17,"map":"pl_swiftwater_final1","folder":"tf","game":"Team Fortress","app_id":440,"player_count":0,"max_players":24,"Bots":0,"server_type":"Dedicated","server_os":"Linux","password":true,"vac":true,"version":"7757534","steam_id":85568392924742830,"keywords":["nocrits","nodmgspread","payload","uncletopia"],"game_id":440,"stv_port":27066,"stv_name":"Uncletopia | London | 6 | All Maps | STV","players":null},{"server_id":40,"name":"Uncletopia | London | 7 | No Payload","name_short":"lon-7","host":"lon-1.uk.uncletopia.com","port":27075,"enabled":true,"region":"eu","cc":"gb","latitude":51.509865,"longitude":-0.118092,"reserved":0,"last_update":"0001-01-01T00:00:00Z","name_a2s":"Uncletopia | London | 7 | No Payload","protocol":17,"map":"plr_pipeline","folder":"tf","game":"Team Fortress","app_id":440,"player_count":0,"max_players":24,"Bots":0,"server_type":"Dedicated","server_os":"Linux","password":true,"vac":true,"version":"7757534","steam_id":85568392924964314,"keywords":["nocrits","nodmgspread","payload","uncletopia"],"game_id":440,"stv_port":27076,"stv_name":"Uncletopia | London | 7 | No Payload | STV","players":null},{"server_id":41,"name":"Uncletopia | London | 8 | Community","name_short":"lon-8","host":"lon-1.uk.uncletopia.com","port":27085,"enabled":true,"region":"eu","cc":"gb","latitude":51.509865,"longitude":-0.118092,"reserved":0,"last_update":"0001-01-01T00:00:00Z","name_a2s":"Uncletopia | London | 8 | Community","protocol":17,"map":"workshop/cp_croissant_final.ugc458840209","folder":"tf","game":"Team Fortress","app_id":440,"player_count":0,"max_players":24,"Bots":0,"server_type":"Dedicated","server_os":"Linux","password":true,"vac":true,"version":"7757534","steam_id":85568392924964315,"keywords":["cp","nocrits","nodmgspread","uncletopia"],"game_id":440,"stv_port":27086,"stv_name":"Uncletopia | London | 8 | Community | STV","players":null},{"server_id":300,"name":"Uncletopia | Montréal | 1 | All Maps","name_short":"mtl-1","host":"mtl-1.ca.uncletopia.com","port":27015,"enabled":true,"region":"us-east","cc":"ca","latitude":45.50889,"longitude":-73.56167,"reserved":0,"last_update":"0001-01-01T00:00:00Z","name_a2s":"Uncletopia | Montréal | 1 | All Maps","protocol":17,"map":"pl_borneo","folder":"tf","game":"Team Fortress","app_id":440,"player_count":0,"max_players":24,"Bots":0,"server_type":"Dedicated","server_os":"Linux","password":true,"vac":true,"version":"7757534","steam_id":85568392924500087,"keywords":["nocrits","nodmgspread","payload","uncletopia"],"game_id":440,"stv_port":27016,"stv_name":"Uncletopia | Montréal | 1 | All Maps | STV","players":null},{"server_id":301,"name":"Uncletopia | Montréal | 2 | All Maps","name_short":"mtl-2","host":"mtl-1.ca.uncletopia.com","port":27025,"enabled":true,"region":"us-east","cc":"ca","latitude":45.50889,"longitude":-73.56167,"reserved":0,"last_update":"0001-01-01T00:00:00Z","name_a2s":"Uncletopia | Montréal | 2 | All Maps","protocol":17,"map":"pl_frontier_final","folder":"tf","game":"Team Fortress","app_id":440,"player_count":0,"max_players":24,"Bots":0,"server_type":"Dedicated","server_os":"Linux","password":true,"vac":true,"version":"7757534","steam_id":85568392924500088,"keywords":["nocrits","nodmgspread","payload","uncletopia"],"game_id":440,"stv_port":27026,"stv_name":"Uncletopia | Montréal | 2 | All Maps | STV","players":null},{"server_id":302,"name":"Uncletopia | Montréal | 3 | All Maps","name_short":"mtl-3","host":"mtl-1.ca.uncletopia.com","port":27035,"enabled":true,"region":"us-east","cc":"ca","latitude":45.50889,"longitude":-73.56167,"reserved":0,"last_update":"0001-01-01T00:00:00Z","name_a2s":"Uncletopia | Montréal | 3 | All Maps","protocol":17,"map":"koth_highpass","folder":"tf","game":"Team Fortress","app_id":440,"player_count":0,"max_players":24,"Bots":0,"server_type":"Dedicated","server_os":"Linux","password":true,"vac":true,"version":"7757534","steam_id":85568392924500089,"keywords":["cp","nocrits","nodmgspread","uncletopia"],"game_id":440,"stv_port":27036,"stv_name":"Uncletopia | Montréal | 3 | All Maps | STV","players":null},{"server_id":303,"name":"Uncletopia | Montréal | 4 | No Payload","name_short":"mtl-4","host":"mtl-1.ca.uncletopia.com","port":27045,"enabled":true,"region":"us-east","cc":"ca","latitude":45.50889,"longitude":-73.56167,"reserved":0,"last_update":"0001-01-01T00:00:00Z","name_a2s":"Uncletopia | Montréal | 4 | No Payload","protocol":17,"map":"pl_borneo","folder":"tf","game":"Team Fortress","app_id":440,"player_count":0,"max_players":24,"Bots":0,"server_type":"Dedicated","server_os":"Linux","password":true,"vac":true,"version":"7757534","steam_id":85568392924500090,"keywords":["nocrits","nodmgspread","payload","uncletopia"],"game_id":440,"stv_port":27046,"stv_name":"Uncletopia | Montréal | 4 | No Payload | STV","players":null},{"server_id":13,"name":"Uncletopia | New York City | 1 | All Maps","name_short":"nyc-1","host":"nyc-1.us.uncletopia.com","port":27015,"enabled":true,"region":"us-east","cc":"us","latitude":40.73061,"longitude":-73.93524,"reserved":0,"last_update":"0001-01-01T00:00:00Z","name_a2s":"Uncletopia | New York City | 1 | All Maps","protocol":17,"map":"pl_swiftwater_final1","folder":"tf","game":"Team Fortress","app_id":440,"player_count":24,"max_players":24,"Bots":0,"server_type":"Dedicated","server_os":"Linux","password":true,"vac":true,"version":"7757534","steam_id":85568392924469993,"keywords":["nocrits","nodmgspread","payload","uncletopia"],"game_id":440,"stv_port":27016,"stv_name":"Uncletopia | New York City | 1 | All Maps | STV","players":[{"user_id":544,"name":"Ceiling Man","steam_id":76561198003959902,"connected_time":2086000000000,"state":"active","ping":38},{"user_id":530,"name":"Snugboo","steam_id":76561198147970327,"connected_time":2956000000000,"state":"active","ping":33},{"user_id":541,"name":"jnv1013","steam_id":76561198965549228,"connected_time":2120000000000,"state":"active","ping":62},{"user_id":500,"name":"al","steam_id":76561198117181511,"connected_time":4341000000000,"state":"active","ping":67},{"user_id":528,"name":"Buttons :)","steam_id":76561198139478534,"connected_time":3049000000000,"state":"active","ping":117},{"user_id":537,"name":"Kurt Biscuitmaker","steam_id":76561198331701823,"connected_time":2286000000000,"state":"active","ping":60},{"user_id":542,"name":"A Duck Phone!?","steam_id":76561198044707749,"connected_time":2117000000000,"state":"active","ping":67},{"user_id":543,"name":"Joe Beef","steam_id":76561198437703253,"connected_time":2116000000000,"state":"active","ping":58},{"user_id":552,"name":"Your Local NPR Station","steam_id":76561198143830279,"connected_time":1039000000000,"state":"active","ping":52},{"user_id":460,"name":"CobyNoHoes","steam_id":76561198122236594,"connected_time":7644000000000,"state":"active","ping":74},{"user_id":526,"name":"flappyflap2","steam_id":76561198285048973,"connected_time":3214000000000,"state":"active","ping":44},{"user_id":532,"name":"Chombo Cheeto","steam_id":76561198051638630,"connected_time":2628000000000,"state":"active","ping":60},{"user_id":538,"name":"Jennifer❤","steam_id":76561198068691618,"connected_time":2160000000000,"state":"active","ping":96},{"user_id":536,"name":"Vault Tec★Guy","steam_id":76561198247572280,"connected_time":2371000000000,"state":"active","ping":73},{"user_id":539,"name":"LittleMac95","steam_id":76561198054317215,"connected_time":2160000000000,"state":"active","ping":68},{"user_id":545,"name":"SPOOKY HOTDOG","steam_id":76561197964599698,"connected_time":2052000000000,"state":"active","ping":84},{"user_id":553,"name":"LightBulbGlue #SaveTF2","steam_id":76561198329573529,"connected_time":861000000000,"state":"active","ping":86},{"user_id":558,"name":"happs (God is good)","steam_id":76561198364093418,"connected_time":110000000000,"state":"active","ping":76},{"user_id":550,"name":"insafjaleel","steam_id":76561198239445570,"connected_time":1071000000000,"state":"active","ping":60},{"user_id":554,"name":"Megumeme","steam_id":76561198074222282,"connected_time":603000000000,"state":"active","ping":142},{"user_id":555,"name":"rox!","steam_id":76561198307200753,"connected_time":563000000000,"state":"active","ping":69},{"user_id":523,"name":"matthew.caffee","steam_id":76561199069898310,"connected_time":3351000000000,"state":"active","ping":92},{"user_id":525,"name":"Drake the Pixel","steam_id":76561198131824401,"connected_time":3245000000000,"state":"active","ping":42},{"user_id":547,"name":"b4rry","steam_id":76561198365887154,"connected_time":2038000000000,"state":"active","ping":53}]},{"server_id":14,"name":"Uncletopia | New York City | 2 | All Maps","name_short":"nyc-2","host":"nyc-1.us.uncletopia.com","port":27025,"enabled":true,"region":"us-east","cc":"us","latitude":40.73061,"longitude":-73.93524,"reserved":0,"last_update":"0001-01-01T00:00:00Z","name_a2s":"Uncletopia | New York City | 2 | All Maps","protocol":17,"map":"pl_borneo","folder":"tf","game":"Team Fortress","app_id":440,"player_count":23,"max_players":24,"Bots":0,"server_type":"Dedicated","server_os":"Linux","password":true,"vac":true,"version":"7757534","steam_id":85568392924469994,"keywords":["nocrits","nodmgspread","payload","uncletopia"],"game_id":440,"stv_port":27026,"stv_name":"Uncletopia | New York City | 2 | All Maps | STV","players":[{"user_id":352,"name":"LalitoTV","steam_id":76561198334302951,"connected_time":503000000000,"state":"active","ping":133},{"user_id":357,"name":"oh my days","steam_id":76561198072179483,"connected_time":37000000000,"state":"spawning","ping":89},{"user_id":285,"name":"Vegerot","steam_id":76561197997843710,"connected_time":5005000000000,"state":"active","ping":44},{"user_id":344,"name":"mental sickness","steam_id":76561198045547779,"connected_time":1124000000000,"state":"active","ping":65},{"user_id":331,"name":"Bacon Boy","steam_id":76561199284869546,"connected_time":1963000000000,"state":"active","ping":132},{"user_id":342,"name":"Bilgecrank","steam_id":76561197967191751,"connected_time":1140000000000,"state":"active","ping":113},{"user_id":351,"name":"swan","steam_id":76561198012569200,"connected_time":520000000000,"state":"active","ping":59},{"user_id":294,"name":"Russell Crowe","steam_id":76561197970834547,"connected_time":4709000000000,"state":"active","ping":72},{"user_id":350,"name":"sonic the marijuana smoker","steam_id":76561198119651530,"connected_time":824000000000,"state":"active","ping":59},{"user_id":348,"name":"Bi Panic","steam_id":76561198426306122,"connected_time":1066000000000,"state":"active","ping":56},{"user_id":358,"name":"DO NOT call me BART SIMPSON!!","steam_id":76561198069113375,"connected_time":17000000000,"state":"active","ping":63},{"user_id":340,"name":"Guts","steam_id":76561198244702428,"connected_time":1250000000000,"state":"active","ping":81},{"user_id":354,"name":"tooth","steam_id":76561197986437643,"connected_time":439000000000,"state":"active","ping":56},{"user_id":355,"name":"Motorolª","steam_id":76561198358119669,"connected_time":429000000000,"state":"active","ping":143},{"user_id":248,"name":"Adorable Cat","steam_id":76561198165453127,"connected_time":8479000000000,"state":"active","ping":62},{"user_id":356,"name":"ndvr","steam_id":76561199379200102,"connected_time":111000000000,"state":"active","ping":44},{"user_id":332,"name":"EvilCoopz","steam_id":76561198080014161,"connected_time":1942000000000,"state":"active","ping":86},{"user_id":330,"name":"Kasane","steam_id":76561198209006780,"connected_time":2136000000000,"state":"active","ping":87},{"user_id":308,"name":"gallowsCalibrator","steam_id":76561198076388445,"connected_time":3449000000000,"state":"active","ping":80},{"user_id":334,"name":"Murrdogg","steam_id":76561198210491188,"connected_time":1718000000000,"state":"active","ping":78},{"user_id":321,"name":"Public library warrior","steam_id":76561198274715109,"connected_time":2270000000000,"state":"active","ping":56},{"user_id":343,"name":"Jaydyn","steam_id":76561198140326797,"connected_time":1135000000000,"state":"active","ping":63},{"user_id":347,"name":"Chicken Chicken Chicken Chicken","steam_id":76561198384238790,"connected_time":1102000000000,"state":"active","ping":55}]},{"server_id":15,"name":"Uncletopia | New York City | 3 | Stopwatch Beta","name_short":"nyc-3","host":"nyc-1.us.uncletopia.com","port":27035,"enabled":true,"region":"us-east","cc":"us","latitude":40.73061,"longitude":-73.93524,"reserved":0,"last_update":"0001-01-01T00:00:00Z","name_a2s":"Uncletopia | New York City | 3 | Stopwatch Beta","protocol":17,"map":"koth_highpass","folder":"tf","game":"Team Fortress","app_id":440,"player_count":0,"max_players":24,"Bots":0,"server_type":"Dedicated","server_os":"Linux","password":true,"vac":true,"version":"7757534","steam_id":85568392924742820,"keywords":["cp","nocrits","nodmgspread","uncletopia"],"game_id":440,"stv_port":27036,"stv_name":"Uncletopia | New York City | 3 | Stopwatch Beta | STV","players":null},{"server_id":16,"name":"Uncletopia | New York City | 4 | Community","name_short":"nyc-4","host":"nyc-1.us.uncletopia.com","port":27045,"enabled":true,"region":"us-east","cc":"us","latitude":40.73061,"longitude":-73.93524,"reserved":0,"last_update":"0001-01-01T00:00:00Z","name_a2s":"Uncletopia | New York City | 4 | Community","protocol":17,"map":"workshop/koth_product_final.ugc454272353","folder":"tf","game":"Team Fortress","app_id":440,"player_count":17,"max_players":24,"Bots":0,"server_type":"Dedicated","server_os":"Linux","password":true,"vac":true,"version":"7757534","steam_id":85568392924742821,"keywords":["cp","nocrits","nodmgspread","uncletopia"],"game_id":440,"stv_port":27046,"stv_name":"Uncletopia | New York City | 4 | Community | STV","players":[{"user_id":225,"name":"eryn 🗺","steam_id":76561198004433070,"connected_time":739000000000,"state":"active","ping":92},{"user_id":139,"name":"Cooldogjoe","steam_id":76561198105543698,"connected_time":5288000000000,"state":"active","ping":90},{"user_id":215,"name":"Wilhelmktx","steam_id":76561198158102295,"connected_time":996000000000,"state":"active","ping":68},{"user_id":232,"name":"Tacobell_nugget","steam_id":76561199248567851,"connected_time":189000000000,"state":"active","ping":157},{"user_id":226,"name":"(TTV) The_Astrum_Guardian","steam_id":76561198130134103,"connected_time":557000000000,"state":"active","ping":63},{"user_id":231,"name":"Totally_faraam","steam_id":76561199230162663,"connected_time":272000000000,"state":"active","ping":106},{"user_id":192,"name":"uVeins","steam_id":76561198067445528,"connected_time":2616000000000,"state":"active","ping":59},{"user_id":196,"name":"Public Library Warrior","steam_id":76561198817866879,"connected_time":2390000000000,"state":"active","ping":64},{"user_id":162,"name":"IGuy","steam_id":76561197996590728,"connected_time":4153000000000,"state":"active","ping":59},{"user_id":220,"name":"AYE","steam_id":76561198181368101,"connected_time":938000000000,"state":"active","ping":135},{"user_id":212,"name":"impactzack","steam_id":76561198065931053,"connected_time":1252000000000,"state":"active","ping":83},{"user_id":213,"name":"Razz","steam_id":76561198158027533,"connected_time":1070000000000,"state":"active","ping":58},{"user_id":182,"name":"Vexed","steam_id":76561198157557477,"connected_time":3036000000000,"state":"active","ping":97},{"user_id":221,"name":"Slashes","steam_id":76561197968573499,"connected_time":915000000000,"state":"active","ping":42},{"user_id":227,"name":"MajorGrayson","steam_id":76561198849651106,"connected_time":536000000000,"state":"active","ping":87},{"user_id":233,"name":"Gram Tokers Count Doinkula","steam_id":76561198112811565,"connected_time":175000000000,"state":"active","ping":75},{"user_id":210,"name":"NETTASTINI","steam_id":76561199135904313,"connected_time":1409000000000,"state":"active","ping":105}]},{"server_id":142,"name":"Uncletopia | São Paulo | 1 | All Maps","name_short":"sao-1","host":"sao-1.br.uncletopia.com","port":27015,"enabled":true,"region":"sa","cc":"br","latitude":-23.533773,"longitude":-46.62529,"reserved":0,"last_update":"0001-01-01T00:00:00Z","name_a2s":"Uncletopia | São Paulo | 1 | All Maps","protocol":17,"map":"koth_lakeside_final","folder":"tf","game":"Team Fortress","app_id":440,"player_count":0,"max_players":24,"Bots":0,"server_type":"Dedicated","server_os":"Linux","password":true,"vac":true,"version":"7757534","steam_id":85568392924469996,"keywords":["cp","nocrits","nodmgspread","uncletopia"],"game_id":440,"stv_port":27016,"stv_name":"Uncletopia | São Paulo | 1 | All Maps | STV","players":null},{"server_id":143,"name":"Uncletopia | São Paulo | 2 | All Maps","name_short":"sao-2","host":"sao-2.br.uncletopia.com","port":27015,"enabled":true,"region":"sa","cc":"br","latitude":-23.533773,"longitude":-46.62529,"reserved":0,"last_update":"0001-01-01T00:00:00Z","name_a2s":"Uncletopia | São Paulo | 2 | All Maps","protocol":17,"map":"koth_cascade","folder":"tf","game":"Team Fortress","app_id":440,"player_count":0,"max_players":24,"Bots":0,"server_type":"Dedicated","server_os":"Linux","password":true,"vac":true,"version":"7757534","steam_id":85568392924485349,"keywords":["cp","nocrits","nodmgspread","uncletopia"],"game_id":440,"stv_port":27016,"stv_name":"Uncletopia | São Paulo | 2 | All Maps | STV","players":null},{"server_id":7,"name":"Uncletopia | Seattle | 1 | All Maps","name_short":"sea-1","host":"sea-1.us.uncletopia.com","port":27015,"enabled":true,"region":"us-west","cc":"us","latitude":47.608013,"longitude":-122.33517,"reserved":0,"last_update":"0001-01-01T00:00:00Z","name_a2s":"Uncletopia | Seattle | 1 | All Maps","protocol":17,"map":"pl_upward","folder":"tf","game":"Team Fortress","app_id":440,"player_count":24,"max_players":24,"Bots":0,"server_type":"Dedicated","server_os":"Linux","password":true,"vac":true,"version":"7757534","steam_id":85568392924469997,"keywords":["nocrits","nodmgspread","payload","uncletopia"],"game_id":440,"stv_port":27016,"stv_name":"Uncletopia | Seattle | 1 | All Maps | STV","players":[{"user_id":653,"name":"Korey","steam_id":76561198210734407,"connected_time":84000000000,"state":"active","ping":119},{"user_id":637,"name":"〣dust〣 -she/her-","steam_id":76561198045218909,"connected_time":1260000000000,"state":"active","ping":41},{"user_id":642,"name":"HDI","steam_id":76561199062715724,"connected_time":1163000000000,"state":"active","ping":68},{"user_id":624,"name":"ChernobylFriend","steam_id":76561198244676730,"connected_time":1937000000000,"state":"active","ping":107},{"user_id":651,"name":"Divine Kitty","steam_id":76561198293490689,"connected_time":282000000000,"state":"active","ping":72},{"user_id":645,"name":"Blue Protogen - 001198","steam_id":76561198145791867,"connected_time":942000000000,"state":"active","ping":81},{"user_id":602,"name":"[TrC] Dackstrus","steam_id":76561197973518509,"connected_time":3253000000000,"state":"active","ping":56},{"user_id":610,"name":"Dauntless Duelist","steam_id":76561198025056018,"connected_time":2855000000000,"state":"active","ping":56},{"user_id":648,"name":"AmiableNebula","steam_id":76561198094306627,"connected_time":601000000000,"state":"active","ping":75},{"user_id":644,"name":"Peppy","steam_id":76561198866629645,"connected_time":961000000000,"state":"active","ping":89},{"user_id":652,"name":"BLACK MAN FROM JOJO","steam_id":76561198272948471,"connected_time":205000000000,"state":"active","ping":101},{"user_id":639,"name":"we did it mate","steam_id":76561199471434875,"connected_time":1242000000000,"state":"active","ping":39},{"user_id":597,"name":"blizz","steam_id":76561199139715539,"connected_time":3548000000000,"state":"active","ping":68},{"user_id":629,"name":"Snow","steam_id":76561198151556270,"connected_time":1808000000000,"state":"active","ping":91},{"user_id":619,"name":"[503]PH.d4s0n-TPF-","steam_id":76561198027077471,"connected_time":2136000000000,"state":"active","ping":86},{"user_id":630,"name":"Honda Element","steam_id":76561198086907573,"connected_time":1800000000000,"state":"active","ping":90},{"user_id":613,"name":"mimelle","steam_id":76561199471474219,"connected_time":2724000000000,"state":"active","ping":71},{"user_id":631,"name":"Gyr0sphere","steam_id":76561198183900735,"connected_time":1796000000000,"state":"active","ping":90},{"user_id":632,"name":"TV","steam_id":76561198177326926,"connected_time":1793000000000,"state":"active","ping":164},{"user_id":649,"name":"mooney","steam_id":76561199110622484,"connected_time":423000000000,"state":"active","ping":73},{"user_id":605,"name":"[TrC] Nosy","steam_id":76561197978859310,"connected_time":2960000000000,"state":"active","ping":60},{"user_id":622,"name":"captain red","steam_id":76561198191587983,"connected_time":2101000000000,"state":"active","ping":84},{"user_id":526,"name":"Mignyanne :3","steam_id":76561198048754056,"connected_time":9913000000000,"state":"active","ping":60},{"user_id":640,"name":"Tazzz","steam_id":76561198280897107,"connected_time":1242000000000,"state":"active","ping":41}]},{"server_id":119,"name":"Uncletopia | Seattle | 2 | All Maps","name_short":"sea-2","host":"sea-1.us.uncletopia.com","port":27025,"enabled":true,"region":"us-west","cc":"us","latitude":47.608013,"longitude":-122.33517,"reserved":0,"last_update":"0001-01-01T00:00:00Z","name_a2s":"Uncletopia | Seattle | 2 | All Maps","protocol":17,"map":"plr_pipeline","folder":"tf","game":"Team Fortress","app_id":440,"player_count":24,"max_players":24,"Bots":0,"server_type":"Dedicated","server_os":"Linux","password":true,"vac":true,"version":"7757534","steam_id":85568392924469998,"keywords":["nocrits","nodmgspread","payload","uncletopia"],"game_id":440,"stv_port":27026,"stv_name":"Uncletopia | Seattle | 2 | All Maps | STV","players":[{"user_id":198,"name":"Greskrendtregk","steam_id":76561197969553142,"connected_time":2623000000000,"state":"active","ping":46},{"user_id":214,"name":"MonteJT","steam_id":76561198055409360,"connected_time":1243000000000,"state":"active","ping":39},{"user_id":114,"name":"discord kitten","steam_id":76561198210322871,"connected_time":6320000000000,"state":"active","ping":73},{"user_id":231,"name":"thebestman982","steam_id":76561199001698710,"connected_time":366000000000,"state":"active","ping":96},{"user_id":236,"name":"chanoc","steam_id":76561198026734746,"connected_time":118000000000,"state":"active","ping":61},{"user_id":191,"name":"DAS SCHNITZELSTIEN","steam_id":76561198051137159,"connected_time":3184000000000,"state":"active","ping":54},{"user_id":232,"name":"Au2t1n","steam_id":76561199247785795,"connected_time":362000000000,"state":"active","ping":60},{"user_id":212,"name":"matto1120","steam_id":76561198201321499,"connected_time":1718000000000,"state":"active","ping":96},{"user_id":223,"name":"North","steam_id":76561199173696836,"connected_time":622000000000,"state":"active","ping":71},{"user_id":208,"name":"Sweatpants","steam_id":76561198097188001,"connected_time":2038000000000,"state":"active","ping":53},{"user_id":186,"name":"doopsies","steam_id":76561198083000867,"connected_time":3423000000000,"state":"active","ping":57},{"user_id":226,"name":"another breloom","steam_id":76561198006938024,"connected_time":586000000000,"state":"active","ping":62},{"user_id":205,"name":"inubby","steam_id":76561198018471589,"connected_time":2137000000000,"state":"active","ping":67},{"user_id":221,"name":"Wang of Wall St","steam_id":76561198047460598,"connected_time":651000000000,"state":"active","ping":122},{"user_id":209,"name":"sb._","steam_id":76561198010150098,"connected_time":2012000000000,"state":"active","ping":79},{"user_id":234,"name":"Tentai","steam_id":76561198080785124,"connected_time":261000000000,"state":"active","ping":75},{"user_id":115,"name":"Haydob13","steam_id":76561198110378191,"connected_time":6314000000000,"state":"active","ping":58},{"user_id":193,"name":"Bendidy","steam_id":76561198041964300,"connected_time":3148000000000,"state":"active","ping":71},{"user_id":229,"name":"well i'll be","steam_id":76561198272092906,"connected_time":423000000000,"state":"active","ping":87},{"user_id":217,"name":"Fu*kyoubaltimore","steam_id":76561198989308825,"connected_time":787000000000,"state":"active","ping":50},{"user_id":225,"name":"R5-D4","steam_id":76561198025196439,"connected_time":610000000000,"state":"active","ping":58},{"user_id":233,"name":"mepng","steam_id":76561199018758598,"connected_time":341000000000,"state":"active","ping":131},{"user_id":182,"name":"Harold","steam_id":76561198057317770,"connected_time":3679000000000,"state":"active","ping":58},{"user_id":228,"name":"BrightOrangeMango","steam_id":76561198023144607,"connected_time":462000000000,"state":"active","ping":96}]},{"server_id":406,"name":"Uncletopia | Seattle | 3 | Stopwatch Beta","name_short":"sea-3","host":"sea-1.us.uncletopia.com","port":27035,"enabled":true,"region":"us-west","cc":"us","latitude":47.608013,"longitude":-122.33517,"reserved":0,"last_update":"0001-01-01T00:00:00Z","name_a2s":"Uncletopia | Seattle | 3 | Stopwatch Beta","protocol":17,"map":"koth_highpass","folder":"tf","game":"Team Fortress","app_id":440,"player_count":3,"max_players":24,"Bots":0,"server_type":"Dedicated","server_os":"Linux","password":true,"vac":true,"version":"7757534","steam_id":85568392924515217,"keywords":["cp","nocrits","nodmgspread","uncletopia"],"game_id":440,"stv_port":27036,"stv_name":"Uncletopia | Seattle | 3 | Stopwatch Beta | STV","players":[{"user_id":8,"name":"January","steam_id":76561199100225735,"connected_time":3169000000000,"state":"active","ping":43},{"user_id":16,"name":"Ze_german","steam_id":76561199247984086,"connected_time":870000000000,"state":"active","ping":144},{"user_id":19,"name":"josie","steam_id":76561198170848553,"connected_time":491000000000,"state":"active","ping":44}]},{"server_id":17,"name":"Uncletopia | San Francisco | 1 | All Maps","name_short":"sfo-1","host":"sfo-1.us.uncletopia.com","port":27015,"enabled":true,"region":"us-west","cc":"us","latitude":37.77397,"longitude":-122.4313,"reserved":0,"last_update":"0001-01-01T00:00:00Z","name_a2s":"Uncletopia | San Francisco | 1 | All Maps","protocol":17,"map":"pl_snowycoast","folder":"tf","game":"Team Fortress","app_id":440,"player_count":23,"max_players":24,"Bots":0,"server_type":"Dedicated","server_os":"Linux","password":true,"vac":true,"version":"7757534","steam_id":85568392924469999,"keywords":["nocrits","nodmgspread","payload","uncletopia"],"game_id":440,"stv_port":27016,"stv_name":"Uncletopia | San Francisco | 1 | All Maps | STV","players":[{"user_id":457,"name":"Scrotum Stealer","steam_id":76561198362839738,"connected_time":2333000000000,"state":"active","ping":75},{"user_id":449,"name":"Atol","steam_id":76561199011393398,"connected_time":2592000000000,"state":"active","ping":75},{"user_id":427,"name":"SwineFlu","steam_id":76561197989014109,"connected_time":3052000000000,"state":"active","ping":83},{"user_id":493,"name":"klevin","steam_id":76561198799106535,"connected_time":927000000000,"state":"active","ping":84},{"user_id":432,"name":"Private.TwinkleToes","steam_id":76561198276974275,"connected_time":3002000000000,"state":"active","ping":81},{"user_id":492,"name":"Starfruit66","steam_id":76561198069917277,"connected_time":968000000000,"state":"active","ping":60},{"user_id":469,"name":"ic","steam_id":76561198009288860,"connected_time":1554000000000,"state":"active","ping":115},{"user_id":483,"name":"eBay","steam_id":76561198061214569,"connected_time":1257000000000,"state":"active","ping":87},{"user_id":488,"name":"TheMarshall318","steam_id":76561198145794039,"connected_time":1097000000000,"state":"active","ping":112},{"user_id":491,"name":"Phillip Jeffries","steam_id":76561198064052174,"connected_time":1002000000000,"state":"active","ping":116},{"user_id":435,"name":"Dentivent","steam_id":76561197971953043,"connected_time":2917000000000,"state":"active","ping":71},{"user_id":487,"name":"A UsedNom","steam_id":76561198402832756,"connected_time":1105000000000,"state":"active","ping":55},{"user_id":458,"name":"themankeys","steam_id":76561198149339536,"connected_time":2315000000000,"state":"active","ping":114},{"user_id":473,"name":"JingleDingo","steam_id":76561198394666640,"connected_time":1486000000000,"state":"active","ping":66},{"user_id":474,"name":"FiddyFoMike","steam_id":76561198057072581,"connected_time":1471000000000,"state":"active","ping":46},{"user_id":498,"name":"blatgotyahat","steam_id":76561198186630357,"connected_time":9000000000,"state":"spawning","ping":57},{"user_id":438,"name":"Kaluka","steam_id":76561198036861445,"connected_time":2841000000000,"state":"active","ping":107},{"user_id":489,"name":"Uluyo","steam_id":76561198065857148,"connected_time":1060000000000,"state":"active","ping":77},{"user_id":440,"name":"Big kahuna","steam_id":76561198142024812,"connected_time":2808000000000,"state":"active","ping":125},{"user_id":496,"name":"jakob","steam_id":76561198094859796,"connected_time":472000000000,"state":"active","ping":131},{"user_id":497,"name":"shadow wizard money gang","steam_id":76561198150406851,"connected_time":147000000000,"state":"active","ping":59},{"user_id":490,"name":"Lord of the Moon","steam_id":76561198014115769,"connected_time":1037000000000,"state":"active","ping":112},{"user_id":477,"name":"ELECTRA","steam_id":76561199075130898,"connected_time":1449000000000,"state":"active","ping":73}]},{"server_id":18,"name":"Uncletopia | San Francisco | 2 | All Maps","name_short":"sfo-2","host":"sfo-1.us.uncletopia.com","port":27025,"enabled":true,"region":"us-west","cc":"us","latitude":37.77397,"longitude":-122.4313,"reserved":0,"last_update":"0001-01-01T00:00:00Z","name_a2s":"Uncletopia | San Francisco | 2 | All Maps","protocol":17,"map":"pl_barnblitz","folder":"tf","game":"Team Fortress","app_id":440,"player_count":24,"max_players":24,"Bots":0,"server_type":"Dedicated","server_os":"Linux","password":true,"vac":true,"version":"7757534","steam_id":85568392924470000,"keywords":["nocrits","nodmgspread","payload","uncletopia"],"game_id":440,"stv_port":27026,"stv_name":"Uncletopia | San Francisco | 2 | All Maps | STV","players":[{"user_id":107,"name":"Void","steam_id":76561198308290211,"connected_time":21000000000,"state":"active","ping":72},{"user_id":106,"name":"uzr","steam_id":76561198799343084,"connected_time":97000000000,"state":"active","ping":65},{"user_id":33,"name":"tweet","steam_id":76561198166515735,"connected_time":3933000000000,"state":"active","ping":48},{"user_id":92,"name":"Goon","steam_id":76561198074382905,"connected_time":1110000000000,"state":"active","ping":99},{"user_id":80,"name":"jrmadmallard","steam_id":76561198275994616,"connected_time":2402000000000,"state":"active","ping":78},{"user_id":51,"name":"Sjsparrow","steam_id":76561197995352435,"connected_time":3646000000000,"state":"active","ping":100},{"user_id":47,"name":"crumblejon","steam_id":76561198111273302,"connected_time":3728000000000,"state":"active","ping":53},{"user_id":100,"name":".9 lg","steam_id":76561198092238353,"connected_time":630000000000,"state":"active","ping":74},{"user_id":94,"name":"Goldbug","steam_id":76561198025221202,"connected_time":1060000000000,"state":"active","ping":51},{"user_id":95,"name":"WhackyOrc","steam_id":76561199470020355,"connected_time":1039000000000,"state":"active","ping":116},{"user_id":68,"name":"AceSea","steam_id":76561198851176490,"connected_time":3065000000000,"state":"active","ping":39},{"user_id":98,"name":"SanitysEdge","steam_id":76561198130732813,"connected_time":869000000000,"state":"active","ping":50},{"user_id":82,"name":"Ubuntu Phone","steam_id":76561198008110407,"connected_time":2323000000000,"state":"active","ping":81},{"user_id":105,"name":"Johni3FireFly","steam_id":76561198089760607,"connected_time":506000000000,"state":"active","ping":70},{"user_id":99,"name":"Lane","steam_id":76561197965828506,"connected_time":760000000000,"state":"active","ping":87},{"user_id":88,"name":"Soap","steam_id":76561197994893383,"connected_time":2143000000000,"state":"active","ping":73},{"user_id":103,"name":"Freeza","steam_id":76561198050341005,"connected_time":576000000000,"state":"active","ping":44},{"user_id":67,"name":"machomelon","steam_id":76561198043683564,"connected_time":3123000000000,"state":"active","ping":31},{"user_id":56,"name":"Vierzehn","steam_id":76561198070479927,"connected_time":3620000000000,"state":"active","ping":116},{"user_id":83,"name":"giveit5","steam_id":76561198030815437,"connected_time":2243000000000,"state":"active","ping":72},{"user_id":60,"name":"DarthJiggles","steam_id":76561198088383875,"connected_time":3588000000000,"state":"active","ping":43},{"user_id":84,"name":"oinkpig234","steam_id":76561198883733811,"connected_time":2240000000000,"state":"active","ping":90},{"user_id":86,"name":"Bobby Ray","steam_id":76561198044131188,"connected_time":2209000000000,"state":"active","ping":74},{"user_id":89,"name":"CumBob","steam_id":76561198168693975,"connected_time":2142000000000,"state":"active","ping":35}]},{"server_id":19,"name":"Uncletopia | San Francisco | 3 | Stopwatch Beta","name_short":"sfo-3","host":"sfo-1.us.uncletopia.com","port":27035,"enabled":true,"region":"us-west","cc":"us","latitude":37.77397,"longitude":-122.4313,"reserved":0,"last_update":"0001-01-01T00:00:00Z","name_a2s":"Uncletopia | San Francisco | 3 | Stopwatch Beta","protocol":17,"map":"pl_borneo","folder":"tf","game":"Team Fortress","app_id":440,"player_count":0,"max_players":24,"Bots":0,"server_type":"Dedicated","server_os":"Linux","password":true,"vac":true,"version":"7757534","steam_id":85568392924742824,"keywords":["nocrits","nodmgspread","payload","uncletopia"],"game_id":440,"stv_port":27036,"stv_name":"Uncletopia | San Francisco | 3 | Stopwatch Beta | STV","players":null},{"server_id":20,"name":"Uncletopia | San Francisco | 4 | Community","name_short":"sfo-4","host":"sfo-1.us.uncletopia.com","port":27045,"enabled":true,"region":"us-west","cc":"us","latitude":37.77397,"longitude":-122.4313,"reserved":0,"last_update":"0001-01-01T00:00:00Z","name_a2s":"Uncletopia | San Francisco | 4 | Community","protocol":17,"map":"workshop/pl_barnblitz_pro7.ugc582280235","folder":"tf","game":"Team Fortress","app_id":440,"player_count":0,"max_players":24,"Bots":0,"server_type":"Dedicated","server_os":"Linux","password":true,"vac":true,"version":"7757534","steam_id":85568392924742826,"keywords":["nocrits","nodmgspread","payload","uncletopia"],"game_id":440,"stv_port":27046,"stv_name":"Uncletopia | San Francisco | 4 | Community | STV","players":null},{"server_id":141,"name":"Uncletopia | Sydney | 1 | All Maps","name_short":"syd-1","host":"syd-1.au.uncletopia.com","port":27015,"enabled":true,"region":"au","cc":"au","latitude":-33.865143,"longitude":151.2099,"reserved":0,"last_update":"0001-01-01T00:00:00Z","name_a2s":"Uncletopia | Sydney | 1 | All Maps","protocol":17,"map":"cp_snakewater_final1","folder":"tf","game":"Team Fortress","app_id":440,"player_count":1,"max_players":24,"Bots":0,"server_type":"Dedicated","server_os":"Linux","password":true,"vac":true,"version":"7757534","steam_id":85568392924470001,"keywords":["cp","nocrits","nodmgspread","uncletopia"],"game_id":440,"stv_port":27016,"stv_name":"Uncletopia | Sydney | 1 | All Maps | STV","players":[{"user_id":13,"name":"dinxie","steam_id":76561199448765541,"connected_time":102000000000,"state":"active","ping":68}]},{"server_id":123,"name":"Uncletopia | Sydney | 2 | All Maps","name_short":"syd-2","host":"syd-1.au.uncletopia.com","port":27025,"enabled":true,"region":"au","cc":"au","latitude":-33.865143,"longitude":151.2099,"reserved":0,"last_update":"0001-01-01T00:00:00Z","name_a2s":"Uncletopia | Sydney | 2 | All Maps","protocol":17,"map":"koth_highpass","folder":"tf","game":"Team Fortress","app_id":440,"player_count":0,"max_players":24,"Bots":0,"server_type":"Dedicated","server_os":"Linux","password":true,"vac":true,"version":"7757534","steam_id":85568392924470002,"keywords":["cp","nocrits","nodmgspread","uncletopia"],"game_id":440,"stv_port":27026,"stv_name":"Uncletopia | Sydney | 2 | All Maps | STV","players":null},{"server_id":395,"name":"Uncletopia | Sydney | 3 | All Maps","name_short":"syd-3","host":"syd-1.au.uncletopia.com","port":27035,"enabled":true,"region":"au","cc":"au","latitude":-33.865143,"longitude":151.2099,"reserved":0,"last_update":"0001-01-01T00:00:00Z","name_a2s":"Uncletopia | Sydney | 3 | All Maps","protocol":17,"map":"plr_bananabay","folder":"tf","game":"Team Fortress","app_id":440,"player_count":12,"max_players":24,"Bots":0,"server_type":"Dedicated","server_os":"Linux","password":true,"vac":true,"version":"7757534","steam_id":85568392925194467,"keywords":["nocrits","nodmgspread","payload","uncletopia"],"game_id":440,"stv_port":27036,"stv_name":"Uncletopia | Sydney | 3 | All Maps | STV","players":[{"user_id":5,"name":"SaltierThanYou","steam_id":76561198444395188,"connected_time":3914000000000,"state":"active","ping":80},{"user_id":24,"name":"Fyre Rose","steam_id":76561198000527551,"connected_time":421000000000,"state":"active","ping":79},{"user_id":28,"name":"RR Høse_","steam_id":76561198987926475,"connected_time":145000000000,"state":"active","ping":74},{"user_id":26,"name":"Sparkiboi","steam_id":76561199415950432,"connected_time":328000000000,"state":"active","ping":87},{"user_id":10,"name":"gimmick","steam_id":76561198449368846,"connected_time":1925000000000,"state":"active","ping":37},{"user_id":27,"name":"lemur","steam_id":76561198278239170,"connected_time":154000000000,"state":"active","ping":85},{"user_id":29,"name":"bunnies002","steam_id":76561199368512129,"connected_time":48000000000,"state":"active","ping":71},{"user_id":13,"name":"Oysenberry","steam_id":76561198125443335,"connected_time":1729000000000,"state":"active","ping":44},{"user_id":14,"name":"Zeron","steam_id":76561198125778202,"connected_time":1681000000000,"state":"active","ping":45},{"user_id":18,"name":"Draaagon88","steam_id":76561198395952239,"connected_time":1233000000000,"state":"active","ping":97},{"user_id":20,"name":"Potassium_","steam_id":76561199085021046,"connected_time":1117000000000,"state":"active","ping":230},{"user_id":21,"name":"balls","steam_id":76561199062523042,"connected_time":1051000000000,"state":"active","ping":83}]},{"server_id":396,"name":"Uncletopia | Sydney | 4 | All Maps","name_short":"syd-4","host":"syd-1.au.uncletopia.com","port":27045,"enabled":true,"region":"au","cc":"au","latitude":-33.865143,"longitude":151.2099,"reserved":0,"last_update":"0001-01-01T00:00:00Z","name_a2s":"Uncletopia | Sydney | 4 | All Maps","protocol":17,"map":"koth_lakeside_final","folder":"tf","game":"Team Fortress","app_id":440,"player_count":0,"max_players":24,"Bots":0,"server_type":"Dedicated","server_os":"Linux","password":true,"vac":true,"version":"7757534","steam_id":85568392925397958,"keywords":["cp","nocrits","nodmgspread","uncletopia"],"game_id":440,"stv_port":27046,"stv_name":"Uncletopia | Sydney | 4 | All Maps | STV","players":null},{"server_id":58,"name":"Uncletopia | Sydney | 5 | Stopwatch Beta","name_short":"syd-5","host":"syd-1.au.uncletopia.com","port":27055,"enabled":true,"region":"au","cc":"au","latitude":-33.865143,"longitude":151.2099,"reserved":0,"last_update":"0001-01-01T00:00:00Z","name_a2s":"Uncletopia | Sydney | 5 | Stopwatch Beta","protocol":17,"map":"koth_highpass","folder":"tf","game":"Team Fortress","app_id":440,"player_count":0,"max_players":24,"Bots":0,"server_type":"Dedicated","server_os":"Linux","password":true,"vac":true,"version":"7757534","steam_id":85568392925397959,"keywords":["cp","nocrits","nodmgspread","uncletopia"],"game_id":440,"stv_port":27056,"stv_name":"Uncletopia | Sydney | 5 | Stopwatch Beta | STV","players":null},{"server_id":59,"name":"Uncletopia | Sydney | 6 | Community","name_short":"syd-6","host":"syd-1.au.uncletopia.com","port":27065,"enabled":true,"region":"au","cc":"au","latitude":-33.865143,"longitude":151.2099,"reserved":0,"last_update":"0001-01-01T00:00:00Z","name_a2s":"Uncletopia | Sydney | 6 | Community","protocol":17,"map":"workshop/cp_villa_b19.ugc2113052569","folder":"tf","game":"Team Fortress","app_id":440,"player_count":0,"max_players":24,"Bots":0,"server_type":"Dedicated","server_os":"Linux","password":true,"vac":true,"version":"7757534","steam_id":85568392925397960,"keywords":["cp","nocrits","nodmgspread","uncletopia"],"game_id":440,"stv_port":27066,"stv_name":"Uncletopia | Sydney | 6 | Community | STV","players":null},{"server_id":49,"name":"Uncletopia | Warsaw | 1 | All Maps","name_short":"waw-1","host":"waw-1.pl.uncletopia.com","port":27015,"enabled":true,"region":"eu","cc":"pl","latitude":52.2297,"longitude":21.017532,"reserved":0,"last_update":"0001-01-01T00:00:00Z","name_a2s":"","protocol":0,"map":"","folder":"","game":"","app_id":0,"player_count":0,"max_players":0,"Bots":0,"server_type":"","server_os":"","password":false,"vac":false,"version":"","steam_id":0,"keywords":null,"game_id":0,"stv_port":0,"stv_name":"","players":null},{"server_id":50,"name":"Uncletopia | Warsaw | 2 | All Maps","name_short":"waw-2","host":"waw-1.pl.uncletopia.com","port":27025,"enabled":true,"region":"eu","cc":"pl","latitude":52.2297,"longitude":21.017532,"reserved":0,"last_update":"0001-01-01T00:00:00Z","name_a2s":"Uncletopia | Warsaw | 2 | All Maps","protocol":17,"map":"pl_badwater","folder":"tf","game":"Team Fortress","app_id":440,"player_count":0,"max_players":24,"Bots":0,"server_type":"Dedicated","server_os":"Linux","password":true,"vac":true,"version":"7757534","steam_id":85568392925397851,"keywords":["nocrits","nodmgspread","payload","uncletopia"],"game_id":440,"stv_port":27026,"stv_name":"Uncletopia | Warsaw | 2 | All Maps | STV","players":null},{"server_id":51,"name":"Uncletopia | Warsaw | 3 | All Maps","name_short":"waw-3","host":"waw-1.pl.uncletopia.com","port":27035,"enabled":true,"region":"eu","cc":"pl","latitude":52.2297,"longitude":21.017532,"reserved":0,"last_update":"0001-01-01T00:00:00Z","name_a2s":"Uncletopia | Warsaw | 3 | All Maps","protocol":17,"map":"pl_badwater","folder":"tf","game":"Team Fortress","app_id":440,"player_count":0,"max_players":24,"Bots":0,"server_type":"Dedicated","server_os":"Linux","password":true,"vac":true,"version":"7757534","steam_id":85568392925397852,"keywords":["nocrits","nodmgspread","payload","uncletopia"],"game_id":440,"stv_port":27036,"stv_name":"Uncletopia | Warsaw | 3 | All Maps | STV","players":null},{"server_id":52,"name":"Uncletopia | Warsaw | 4 | All Maps","name_short":"waw-4","host":"waw-1.pl.uncletopia.com","port":27045,"enabled":true,"region":"eu","cc":"pl","latitude":52.2297,"longitude":21.017532,"reserved":0,"last_update":"0001-01-01T00:00:00Z","name_a2s":"Uncletopia | Warsaw | 4 | All Maps","protocol":17,"map":"cp_mountainlab","folder":"tf","game":"Team Fortress","app_id":440,"player_count":0,"max_players":24,"Bots":0,"server_type":"Dedicated","server_os":"Linux","password":true,"vac":true,"version":"7757534","steam_id":85568392925397853,"keywords":["cp","nocrits","nodmgspread","uncletopia"],"game_id":440,"stv_port":27046,"stv_name":"Uncletopia | Warsaw | 4 | All Maps | STV","players":null},{"server_id":53,"name":"Uncletopia | Warsaw | 5 | Stopwatch Beta","name_short":"waw-5","host":"waw-1.pl.uncletopia.com","port":27055,"enabled":true,"region":"eu","cc":"pl","latitude":52.2297,"longitude":21.017532,"reserved":0,"last_update":"0001-01-01T00:00:00Z","name_a2s":"Uncletopia | Warsaw | 5 | Stopwatch Beta","protocol":17,"map":"pl_barnblitz","folder":"tf","game":"Team Fortress","app_id":440,"player_count":0,"max_players":24,"Bots":0,"server_type":"Dedicated","server_os":"Linux","password":true,"vac":true,"version":"7757534","steam_id":85568392925397854,"keywords":["nocrits","nodmgspread","payload","uncletopia"],"game_id":440,"stv_port":27056,"stv_name":"Uncletopia | Warsaw | 5 | Stopwatch Beta | STV","players":null},{"server_id":54,"name":"Uncletopia | Warsaw | 6 | Community","name_short":"waw-6","host":"waw-1.pl.uncletopia.com","port":27065,"enabled":true,"region":"eu","cc":"pl","latitude":52.2297,"longitude":21.017532,"reserved":0,"last_update":"0001-01-01T00:00:00Z","name_a2s":"Uncletopia | Warsaw | 6 | Community","protocol":17,"map":"workshop/pl_barnblitz_pro7.ugc582280235","folder":"tf","game":"Team Fortress","app_id":440,"player_count":0,"max_players":24,"Bots":0,"server_type":"Dedicated","server_os":"Linux","password":true,"vac":true,"version":"7757534","steam_id":85568392925397856,"keywords":["nocrits","nodmgspread","payload","uncletopia"],"game_id":440,"stv_port":27066,"stv_name":"Uncletopia | Warsaw | 6 | Community | STV","players":null}]}