{"status":true,"message":"","result":[{"server_id":9,"name":"Uncletopia | Atlanta | 1 | All Maps","name_short":"atl-1","host":"atl-1.us.uncletopia.com","port":27015,"enabled":true,"region":"us-east","cc":"us","latitude":33.753746,"longitude":-84.38633,"reserved":0,"last_update":"0001-01-01T00:00:00Z","name_a2s":"Uncletopia | Atlanta | 1 | All Maps","protocol":17,"map":"plr_pipeline","folder":"tf","game":"Team Fortress","app_id":440,"player_count":23,"max_players":24,"Bots":0,"server_type":"Dedicated","server_os":"Linux","password":true,"vac":true,"version":"7961495","steam_id":85568392924469982,"keywords":["nocrits","nodmgspread","payload","uncletopia"],"game_id":440,"stv_port":27016,"stv_name":"Uncletopia | Atlanta | 1 | All Maps | STV","players":null},{"server_id":104,"name":"Uncletopia | Atlanta | 2 | All Maps","name_short":"atl-2","host":"atl-1.us.uncletopia.com","port":27025,"enabled":true,"region":"us-east","cc":"us","latitude":33.753746,"longitude":-84.38633,"reserved":0,"last_update":"0001-01-01T00:00:00Z","name_a2s":"Uncletopia | Atlanta | 2 | All Maps","protocol":17,"map":"koth_viaduct","folder":"tf","game":"Team Fortress","app_id":440,"player_count":24,"max_players":24,"Bots":0,"server_type":"Dedicated","server_os":"Linux","password":true,"vac":true,"version":"7961495","steam_id":85568392924469983,"keywords":["cp","nocrits","nodmgspread","uncletopia"],"game_id":440,"stv_port":27026,"stv_name":"Uncletopia | Atlanta | 2 | All Maps | STV","players":null},{"server_id":400,"name":"Uncletopia | Atlanta | 3 | Stopwatch","name_short":"atl-3","host":"atl-1.us.uncletopia.com","port":27035,"enabled":true,"region":"us-east","cc":"us","latitude":33.753746,"longitude":-84.38633,"reserved":0,"last_update":"0001-01-01T00:00:00Z","name_a2s":"Uncletopia | Atlanta | 3 | Stopwatch","protocol":17,"map":"koth_bagel_rc6","folder":"tf","game":"Team Fortress","app_id":440,"player_count":22,"max_players":24,"Bots":0,"server_type":"Dedicated","server_os":"Linux","password":true,"vac":true,"version":"7961495","steam_id":85568392924515187,"keywords":["cp","nocrits","nodmgspread","uncletopia"],"game_id":440,"stv_port":27036,"stv_name":"Uncletopia | Atlanta | 3 | Stopwatch | STV","players":null},{"server_id":401,"name":"Uncletopia | Atlanta | 4 | Community","name_short":"atl-4","host":"atl-1.us.uncletopia.com","port":27045,"enabled":true,"region":"us-east","cc":"us","latitude":33.753746,"longitude":-84.38633,"reserved":0,"last_update":"0001-01-01T00:00:00Z","name_a2s":"Uncletopia | Atlanta | 4 | Community","protocol":17,"map":"cp_snowbase_b18","folder":"tf","game":"Team Fortress","app_id":440,"player_count":0,"max_players":24,"Bots":0,"server_type":"Dedicated","server_os":"Linux","password":true,"vac":true,"version":"7961495","steam_id":85568392924515188,"keywords":["cp","nocrits","nodmgspread","uncletopia"],"game_id":440,"stv_port":27046,"stv_name":"Uncletopia | Atlanta | 4 | Community | STV","players":null},{"server_id":2,"name":"Uncletopia | Chicago | 1 | All Maps","name_short":"chi-1","host":"chi-1.us.uncletopia.com","port":27015,"enabled":true,"region":"us-central","cc":"us","latitude":41.881832,"longitude":-87.62318,"reserved":0,"last_update":"0001-01-01T00:00:00Z","name_a2s":"Uncletopia | Chicago | 1 | All Maps","protocol":17,"map":"pl_upward","folder":"tf","game":"Team Fortress","app_id":440,"player_count":23,"max_players":24,"Bots":0,"server_type":"Dedicated","server_os":"Linux","password":true,"vac":true,"version":"7961495","steam_id":85568392924469984,"keywords":["nocrits","nodmgspread","payload","uncletopia"],"game_id":440,"stv_port":27016,"stv_name":"Uncletopia | Chicago | 1 | All Maps | STV","players":[{"user_id":185,"name":"Wengatang","steam_id":76561198021747059,"connected_time":4100000000000,"state":"active","ping":46},{"user_id":214,"name":"sweglord227","steam_id":76561198415510262,"connected_time":1502000000000,"state":"active","ping":50},{"user_id":224,"name":"Lucide","steam_id":76561197998530400,"connected_time":197000000000,"state":"active","ping":103},{"user_id":111,"name":"Boxpipe","steam_id":76561197964501915,"connected_time":11223000000000,"state":"active","ping":46},{"user_id":106,"name":"Jerk Tryhard (roleplay)","steam_id":76561199470538309,"connected_time":11881000000000,"state":"active","ping":56},{"user_id":212,"name":"Kid named download","steam_id":76561199192074448,"connected_time":1570000000000,"state":"active","ping":77},{"user_id":127,"name":"Sunny D+","steam_id":76561197999371052,"connected_time":8311000000000,"state":"active","ping":61},{"user_id":137,"name":"Filthy Acts at Reasonable Price","steam_id":76561198354615890,"connected_time":8084000000000,"state":"active","ping":58},{"user_id":217,"name":"lyra","steam_id":76561198200002859,"connected_time":1288000000000,"state":"active","ping":61},{"user_id":226,"name":"Milkmur","steam_id":76561198210043821,"connected_time":88000000000,"state":"active","ping":61},{"user_id":218,"name":"consumer of bonk","steam_id":76561199041402389,"connected_time":1263000000000,"state":"active","ping":65},{"user_id":211,"name":"Kaya","steam_id":76561198158557303,"connected_time":1720000000000,"state":"active","ping":83},{"user_id":223,"name":"cheetaz","steam_id":76561198224614084,"connected_time":208000000000,"state":"active","ping":69},{"user_id":220,"name":"anonpain","steam_id":76561198081317092,"connected_time":1245000000000,"state":"active","ping":46},{"user_id":221,"name":"Thundermonkey (SMOKE)","steam_id":76561198017631728,"connected_time":213000000000,"state":"active","ping":77},{"user_id":227,"name":"alphatwo","steam_id":76561198012511255,"connected_time":81000000000,"state":"active","ping":69},{"user_id":228,"name":"give me 20 dollars","steam_id":76561199089453214,"connected_time":30000000000,"state":"active","ping":63},{"user_id":208,"name":"ThePatheticMedic","steam_id":76561198873083105,"connected_time":2350000000000,"state":"active","ping":57},{"user_id":196,"name":"Space","steam_id":76561198350489754,"connected_time":3307000000000,"state":"active","ping":53},{"user_id":202,"name":"Wolffkran","steam_id":76561198003018041,"connected_time":2797000000000,"state":"active","ping":109},{"user_id":150,"name":"eloressa","steam_id":76561198120330867,"connected_time":6670000000000,"state":"active","ping":45},{"user_id":204,"name":"Glue Gulper","steam_id":76561198158014525,"connected_time":2673000000000,"state":"active","ping":60},{"user_id":216,"name":"CoconutRice (No Sound)","steam_id":76561198114909164,"connected_time":1458000000000,"state":"active","ping":48}]},{"server_id":106,"name":"Uncletopia | Chicago | 2 | All Maps","name_short":"chi-2","host":"chi-1.us.uncletopia.com","port":27025,"enabled":true,"region":"us-central","cc":"us","latitude":41.881832,"longitude":-87.62318,"reserved":0,"last_update":"0001-01-01T00:00:00Z","name_a2s":"Uncletopia | Chicago | 2 | All Maps","protocol":17,"map":"pl_upward","folder":"tf","game":"Team Fortress","app_id":440,"player_count":24,"max_players":24,"Bots":0,"server_type":"Dedicated","server_os":"Linux","password":true,"vac":true,"version":"7961495","steam_id":85568392924469985,"keywords":["nocrits","nodmgspread","payload","uncletopia"],"game_id":440,"stv_port":27026,"stv_name":"Uncletopia | Chicago | 2 | All Maps | STV","players":[{"user_id":76,"name":"The Supreme Gentleman","steam_id":76561198037123203,"connected_time":2104000000000,"state":"active","ping":72},{"user_id":98,"name":"Dongus","steam_id":76561197979056451,"connected_time":297000000000,"state":"active","ping":96},{"user_id":29,"name":"cool beans","steam_id":76561198321591685,"connected_time":4668000000000,"state":"active","ping":81},{"user_id":52,"name":"shnowshner","steam_id":76561198066450438,"connected_time":3309000000000,"state":"active","ping":83},{"user_id":19,"name":"chiswola","steam_id":76561198046920142,"connected_time":5138000000000,"state":"active","ping":70},{"user_id":91,"name":"sturdybird1","steam_id":76561198073269122,"connected_time":1029000000000,"state":"active","ping":61},{"user_id":72,"name":"leaf","steam_id":76561198372536667,"connected_time":2483000000000,"state":"active","ping":66},{"user_id":87,"name":"AlcoholicKitty","steam_id":76561198084763130,"connected_time":1201000000000,"state":"active","ping":69},{"user_id":99,"name":"her ass is NOT listening","steam_id":76561198079178866,"connected_time":259000000000,"state":"active","ping":69},{"user_id":94,"name":"mn","steam_id":76561198042357436,"connected_time":764000000000,"state":"active","ping":75},{"user_id":25,"name":"lolzfrdawin21","steam_id":76561199006665979,"connected_time":4777000000000,"state":"active","ping":74},{"user_id":78,"name":"DinosaurBeard100","steam_id":76561198122256369,"connected_time":2013000000000,"state":"active","ping":74},{"user_id":80,"name":"Big Bill Haywood","steam_id":76561198142290733,"connected_time":1932000000000,"state":"active","ping":71},{"user_id":92,"name":"chesterwnimitz","steam_id":76561198062664377,"connected_time":951000000000,"state":"active","ping":86},{"user_id":88,"name":"R O D G E D A N","steam_id":76561198226236524,"connected_time":1172000000000,"state":"active","ping":76},{"user_id":100,"name":"Cat on Your Porch","steam_id":76561197979078330,"connected_time":259000000000,"state":"active","ping":59},{"user_id":93,"name":"mcjuice","steam_id":76561198087730829,"connected_time":912000000000,"state":"active","ping":69},{"user_id":101,"name":"Fuzzy Toast","steam_id":76561198028067781,"connected_time":216000000000,"state":"active","ping":45},{"user_id":89,"name":"BooceMaster","steam_id":76561198148520318,"connected_time":1162000000000,"state":"active","ping":71},{"user_id":38,"name":"Doctor Bear ʕ •ᴥ•ʔ","steam_id":76561197968103161,"connected_time":4436000000000,"state":"active","ping":87},{"user_id":71,"name":"dahperson","steam_id":76561198067207467,"connected_time":2500000000000,"state":"active","ping":59},{"user_id":95,"name":"Stream","steam_id":76561198071172609,"connected_time":707000000000,"state":"active","ping":107},{"user_id":86,"name":"Sway Sunnay","steam_id":76561198308817394,"connected_time":1260000000000,"state":"active","ping":60},{"user_id":96,"name":"Satchamo","steam_id":76561198012968239,"connected_time":700000000000,"state":"active","ping":75}]},{"server_id":402,"name":"Uncletopia | Chicago | 3 | All Maps","name_short":"chi-3","host":"chi-1.us.uncletopia.com","port":27035,"enabled":true,"region":"us-central","cc":"us","latitude":41.881832,"longitude":-87.62318,"reserved":0,"last_update":"0001-01-01T00:00:00Z","name_a2s":"Uncletopia | Chicago | 3 | All Maps","protocol":17,"map":"koth_highpass","folder":"tf","game":"Team Fortress","app_id":440,"player_count":22,"max_players":24,"Bots":0,"server_type":"Dedicated","server_os":"Linux","password":true,"vac":true,"version":"7961495","steam_id":85568392924515191,"keywords":["cp","nocrits","nodmgspread","uncletopia"],"game_id":440,"stv_port":27036,"stv_name":"Uncletopia | Chicago | 3 | All Maps | STV","players":[{"user_id":30,"name":"Architect","steam_id":76561198015242016,"connected_time":2838000000000,"state":"active","ping":55},{"user_id":27,"name":"Rami✿","steam_id":76561198993652475,"connected_time":3117000000000,"state":"active","ping":70},{"user_id":45,"name":"Neb2zillion","steam_id":76561198048009670,"connected_time":1605000000000,"state":"active","ping":71},{"user_id":28,"name":"HollyBlocky","steam_id":76561198030156100,"connected_time":3093000000000,"state":"active","ping":74},{"user_id":71,"name":"sqerkbo","steam_id":76561198080012700,"connected_time":837000000000,"state":"active","ping":56},{"user_id":46,"name":"Speed Mockingbird","steam_id":76561198218283363,"connected_time":1557000000000,"state":"active","ping":98},{"user_id":89,"name":"teaspinator","steam_id":76561199069748074,"connected_time":11000000000,"state":"spawning","ping":44},{"user_id":33,"name":"jxh300","steam_id":76561199196579894,"connected_time":2245000000000,"state":"active","ping":70},{"user_id":84,"name":"Weerk","steam_id":76561199209543551,"connected_time":356000000000,"state":"active","ping":81},{"user_id":73,"name":"Ozer","steam_id":76561198390694422,"connected_time":723000000000,"state":"active","ping":54},{"user_id":37,"name":"AbbyRoads","steam_id":76561198868564212,"connected_time":1922000000000,"state":"active","ping":82},{"user_id":44,"name":"Seattle McDebt","steam_id":76561198061383193,"connected_time":1653000000000,"state":"active","ping":49},{"user_id":88,"name":"Acro","steam_id":76561198092451804,"connected_time":29000000000,"state":"spawning","ping":64},{"user_id":83,"name":"ThePalmTopSushi","steam_id":76561198847076153,"connected_time":443000000000,"state":"active","ping":103},{"user_id":86,"name":"Puke Skyfucker","steam_id":76561198012846213,"connected_time":206000000000,"state":"active","ping":74},{"user_id":87,"name":"eat Pant","steam_id":76561197974965536,"connected_time":117000000000,"state":"active","ping":61},{"user_id":78,"name":"SLEEPY-Class NHP","steam_id":76561198064583865,"connected_time":658000000000,"state":"active","ping":63},{"user_id":75,"name":"JopsyJop","steam_id":76561198165542681,"connected_time":698000000000,"state":"active","ping":47},{"user_id":81,"name":"CloudlessZeus6","steam_id":76561198797087293,"connected_time":567000000000,"state":"active","ping":63},{"user_id":58,"name":"neet","steam_id":76561197968115168,"connected_time":1347000000000,"state":"active","ping":56},{"user_id":64,"name":"otcu","steam_id":76561198339644583,"connected_time":1104000000000,"state":"active","ping":56},{"user_id":80,"name":"Vazquez Perez","steam_id":76561199185750989,"connected_time":628000000000,"state":"active","ping":125}]},{"server_id":403,"name":"Uncletopia | Chicago | 4 | All Maps","name_short":"chi-4","host":"chi-1.us.uncletopia.com","port":27045,"enabled":true,"region":"us-central","cc":"us","latitude":41.881832,"longitude":-87.62318,"reserved":0,"last_update":"0001-01-01T00:00:00Z","name_a2s":"Uncletopia | Chicago | 4 | All Maps","protocol":17,"map":"cp_steel","folder":"tf","game":"Team Fortress","app_id":440,"player_count":24,"max_players":24,"Bots":0,"server_type":"Dedicated","server_os":"Linux","password":true,"vac":true,"version":"7961495","steam_id":85568392924515193,"keywords":["cp","nocrits","nodmgspread","uncletopia"],"game_id":440,"stv_port":27046,"stv_name":"Uncletopia | Chicago | 4 | All Maps | STV","players":[{"user_id":144,"name":"Nathan","steam_id":76561199132214008,"connected_time":4052000000000,"state":"active","ping":92},{"user_id":189,"name":"clems17","steam_id":76561199420685482,"connected_time":592000000000,"state":"active","ping":138},{"user_id":123,"name":"thecal","steam_id":76561198307893384,"connected_time":5782000000000,"state":"active","ping":47},{"user_id":178,"name":"Samrizo el Chorizo","steam_id":76561198009838162,"connected_time":1690000000000,"state":"active","ping":68},{"user_id":198,"name":"Tony Pizza","steam_id":76561198276513608,"connected_time":70000000000,"state":"active","ping":165},{"user_id":125,"name":"tA.CHRONIC","steam_id":76561197960760990,"connected_time":5349000000000,"state":"active","ping":53},{"user_id":63,"name":"Toxic Ron","steam_id":76561198089302972,"connected_time":9655000000000,"state":"active","ping":64},{"user_id":194,"name":"Lamb Sauce","steam_id":76561198136059840,"connected_time":169000000000,"state":"active","ping":71},{"user_id":128,"name":"can you help me with my homewor","steam_id":76561198408159536,"connected_time":4945000000000,"state":"active","ping":48},{"user_id":169,"name":"b-dot","steam_id":76561198160786631,"connected_time":2445000000000,"state":"active","ping":76},{"user_id":87,"name":"The Rookie","steam_id":76561198015781346,"connected_time":8257000000000,"state":"active","ping":94},{"user_id":196,"name":"poggerchamp","steam_id":76561199145124973,"connected_time":158000000000,"state":"active","ping":76},{"user_id":190,"name":"Master Of Whales","steam_id":76561198349104889,"connected_time":409000000000,"state":"active","ping":114},{"user_id":186,"name":"Mercury","steam_id":76561198072263852,"connected_time":1124000000000,"state":"active","ping":71},{"user_id":188,"name":"That Darned Imp","steam_id":76561198854501307,"connected_time":848000000000,"state":"active","ping":67},{"user_id":195,"name":"Cosmic sR","steam_id":76561198081738675,"connected_time":162000000000,"state":"active","ping":77},{"user_id":176,"name":"Thephoenix","steam_id":76561198149496837,"connected_time":1740000000000,"state":"active","ping":53},{"user_id":191,"name":"Punished Kong","steam_id":76561198973620882,"connected_time":401000000000,"state":"active","ping":83},{"user_id":107,"name":"schnedwob","steam_id":76561197999146588,"connected_time":6955000000000,"state":"active","ping":72},{"user_id":187,"name":"El Hermano De Jiren","steam_id":76561198093688740,"connected_time":944000000000,"state":"active","ping":75},{"user_id":139,"name":"Urbanzpinapple","steam_id":76561198115426938,"connected_time":4244000000000,"state":"active","ping":120},{"user_id":193,"name":"og biden pack cart","steam_id":76561198253731826,"connected_time":179000000000,"state":"active","ping":63},{"user_id":197,"name":"cj da man","steam_id":76561198303575607,"connected_time":154000000000,"state":"active","ping":85},{"user_id":175,"name":"Yami","steam_id":76561198116546266,"connected_time":1843000000000,"state":"active","ping":54}]},{"server_id":36,"name":"Uncletopia | Chicago | 5 | All Maps","name_short":"chi-5","host":"chi-2.us.uncletopia.com","port":27015,"enabled":true,"region":"us-central","cc":"us","latitude":41.881832,"longitude":-87.62318,"reserved":0,"last_update":"0001-01-01T00:00:00Z","name_a2s":"Uncletopia | Chicago | 5 | All Maps","protocol":17,"map":"pl_upward","folder":"tf","game":"Team Fortress","app_id":440,"player_count":24,"max_players":24,"Bots":0,"server_type":"Dedicated","server_os":"Linux","password":true,"vac":true,"version":"7961495","steam_id":85568392924866362,"keywords":["nocrits","nodmgspread","payload","uncletopia"],"game_id":440,"stv_port":27016,"stv_name":"Uncletopia | Chicago | 5 | All Maps | STV","players":[{"user_id":53,"name":"Moonman327","steam_id":76561197992616059,"connected_time":2086000000000,"state":"active","ping":62},{"user_id":69,"name":"phantom","steam_id":76561197963860777,"connected_time":80000000000,"state":"active","ping":56},{"user_id":58,"name":"Fluffeline","steam_id":76561198352909489,"connected_time":993000000000,"state":"active","ping":143},{"user_id":56,"name":"Chezaus","steam_id":76561198317397837,"connected_time":1852000000000,"state":"active","ping":71},{"user_id":25,"name":"kren","steam_id":76561199050786518,"connected_time":2692000000000,"state":"active","ping":162},{"user_id":60,"name":"blobb","steam_id":76561198950448488,"connected_time":718000000000,"state":"active","ping":51},{"user_id":71,"name":"None of that $9.99 bullshit","steam_id":76561198116169903,"connected_time":49000000000,"state":"active","ping":42},{"user_id":61,"name":"party baby","steam_id":76561198347613238,"connected_time":690000000000,"state":"active","ping":82},{"user_id":62,"name":"aiden","steam_id":76561198449527009,"connected_time":677000000000,"state":"active","ping":90},{"user_id":63,"name":"fellout","steam_id":76561198856016840,"connected_time":670000000000,"state":"active","ping":69},{"user_id":72,"name":"Banana Man","steam_id":76561199141431059,"connected_time":13000000000,"state":"active","ping":79},{"user_id":50,"name":"DJtrickshot2013","steam_id":76561199184622920,"connected_time":2203000000000,"state":"active","ping":83},{"user_id":33,"name":"Jasper™","steam_id":76561198260018463,"connected_time":2520000000000,"state":"active","ping":75},{"user_id":34,"name":"BadLuck","steam_id":76561198096452401,"connected_time":2519000000000,"state":"active","ping":83},{"user_id":64,"name":"Aeris","steam_id":76561198287271028,"connected_time":652000000000,"state":"active","ping":63},{"user_id":52,"name":"DistantJragon","steam_id":76561198117563641,"connected_time":2106000000000,"state":"active","ping":45},{"user_id":48,"name":"bluebird","steam_id":76561198065219155,"connected_time":2309000000000,"state":"active","ping":46},{"user_id":38,"name":"Lucon","steam_id":76561198067147724,"connected_time":2486000000000,"state":"active","ping":64},{"user_id":55,"name":"Ceige LFT","steam_id":76561198068538473,"connected_time":2034000000000,"state":"active","ping":77},{"user_id":68,"name":"ʕ•ᴥ•ʔ","steam_id":76561198185980055,"connected_time":495000000000,"state":"active","ping":60},{"user_id":57,"name":"Myn","steam_id":76561198055438857,"connected_time":1840000000000,"state":"active","ping":77},{"user_id":44,"name":"ImStillWorking","steam_id":76561199126648834,"connected_time":2440000000000,"state":"active","ping":83},{"user_id":45,"name":"|WS| Don't_Taze_Me_Bro","steam_id":76561198043289495,"connected_time":2430000000000,"state":"active","ping":67},{"user_id":46,"name":"ThreatLvl 9 (she/her)","steam_id":76561198079410533,"connected_time":2418000000000,"state":"active","ping":79}]},{"server_id":37,"name":"Uncletopia | Chicago | 6 | All Maps","name_short":"chi-6","host":"chi-2.us.uncletopia.com","port":27025,"enabled":true,"region":"us-central","cc":"us","latitude":41.881832,"longitude":-87.62318,"reserved":0,"last_update":"0001-01-01T00:00:00Z","name_a2s":"Uncletopia | Chicago | 6 | All Maps","protocol":17,"map":"koth_viaduct","folder":"tf","game":"Team Fortress","app_id":440,"player_count":0,"max_players":24,"Bots":0,"server_type":"Dedicated","server_os":"Linux","password":true,"vac":true,"version":"7961495","steam_id":85568392924866363,"keywords":["cp","nocrits","nodmgspread","uncletopia"],"game_id":440,"stv_port":27026,"stv_name":"Uncletopia | Chicago | 6 | All Maps | STV","players":null},{"server_id":38,"name":"Uncletopia | Chicago | 7 | Stopwatch","name_short":"chi-7","host":"chi-2.us.uncletopia.com","port":27035,"enabled":true,"region":"us-central","cc":"us","latitude":41.881832,"longitude":-87.62318,"reserved":0,"last_update":"0001-01-01T00:00:00Z","name_a2s":"Uncletopia | Chicago | 7 | Stopwatch","protocol":17,"map":"pl_upward","folder":"tf","game":"Team Fortress","app_id":440,"player_count":0,"max_players":24,"Bots":0,"server_type":"Dedicated","server_os":"Linux","password":true,"vac":true,"version":"7961495","steam_id":85568392924866364,"keywords":["nocrits","nodmgspread","payload","uncletopia"],"game_id":440,"stv_port":27036,"stv_name":"Uncletopia | Chicago | 7 | Stopwatch | STV","players":null},{"server_id":39,"name":"Uncletopia | Chicago | 8 | Community","name_short":"chi-8","host":"chi-2.us.uncletopia.com","port":27045,"enabled":true,"region":"us-central","cc":"us","latitude":41.881832,"longitude":-87.62318,"reserved":0,"last_update":"0001-01-01T00:00:00Z","name_a2s":"Uncletopia | Chicago | 8 | Community","protocol":17,"map":"workshop/koth_ramjam_rc1.ugc459778887","folder":"tf","game":"Team Fortress","app_id":440,"player_count":1,"max_players":24,"Bots":0,"server_type":"Dedicated","server_os":"Linux","password":true,"vac":true,"version":"7961495","steam_id":85568392924866365,"keywords":["cp","nocrits","nodmgspread","uncletopia"],"game_id":440,"stv_port":27046,"stv_name":"Uncletopia | Chicago | 8 | Community | STV","players":[{"user_id":9,"name":"doamgeo468","steam_id":76561199485287045,"connected_time":214000000000,"state":"active","ping":123}]},{"server_id":8,"name":"Uncletopia | Dallas | 1 | All Maps","name_short":"dal-1","host":"dal-1.us.uncletopia.com","port":27015,"enabled":true,"region":"us-central","cc":"us","latitude":32.779167,"longitude":-96.80889,"reserved":0,"last_update":"0001-01-01T00:00:00Z","name_a2s":"Uncletopia | Dallas | 1 | All Maps","protocol":17,"map":"pl_snowycoast","folder":"tf","game":"Team Fortress","app_id":440,"player_count":24,"max_players":24,"Bots":0,"server_type":"Dedicated","server_os":"Linux","password":true,"vac":true,"version":"7961495","steam_id":85568392924469986,"keywords":["nocrits","nodmgspread","payload","uncletopia"],"game_id":440,"stv_port":27016,"stv_name":"Uncletopia | Dallas | 1 | All Maps | STV","players":[{"user_id":155,"name":"tf2player001","steam_id":76561199497314797,"connected_time":1513000000000,"state":"active","ping":112},{"user_id":102,"name":"Sloth ❦","steam_id":76561197998378462,"connected_time":5017000000000,"state":"active","ping":99},{"user_id":164,"name":"Dr. W0lv","steam_id":76561198129237487,"connected_time":705000000000,"state":"active","ping":58},{"user_id":162,"name":"rocketspires","steam_id":76561198800386026,"connected_time":1071000000000,"state":"active","ping":98},{"user_id":144,"name":"Neptune˖⁺｡˚⋆˙♥","steam_id":76561199054203198,"connected_time":2322000000000,"state":"active","ping":73},{"user_id":146,"name":"miguelrodriguez2013","steam_id":76561198269253587,"connected_time":2016000000000,"state":"active","ping":86},{"user_id":125,"name":"Gem","steam_id":76561198106330075,"connected_time":3171000000000,"state":"active","ping":64},{"user_id":148,"name":"Rhutebeer","steam_id":76561198018302761,"connected_time":1793000000000,"state":"active","ping":86},{"user_id":163,"name":"Darling","steam_id":76561198127525888,"connected_time":867000000000,"state":"active","ping":48},{"user_id":135,"name":"FanaticSalt","steam_id":76561199380123059,"connected_time":2603000000000,"state":"active","ping":59},{"user_id":151,"name":"Mr.E","steam_id":76561198356239468,"connected_time":1764000000000,"state":"active","ping":90},{"user_id":145,"name":"Raz","steam_id":76561198002426150,"connected_time":2306000000000,"state":"active","ping":48},{"user_id":169,"name":"Satori Komeiji","steam_id":76561198158211423,"connected_time":538000000000,"state":"active","ping":80},{"user_id":32,"name":"Smashy","steam_id":76561198030704307,"connected_time":9890000000000,"state":"active","ping":117},{"user_id":157,"name":"i only ubercharge snipers","steam_id":76561198003995600,"connected_time":1237000000000,"state":"active","ping":84},{"user_id":158,"name":"Rockhead","steam_id":76561197995196535,"connected_time":1225000000000,"state":"active","ping":95},{"user_id":166,"name":"lancer","steam_id":76561199124468228,"connected_time":600000000000,"state":"active","ping":53},{"user_id":159,"name":"songcreator","steam_id":76561198076822464,"connected_time":1201000000000,"state":"active","ping":78},{"user_id":167,"name":"IronOat","steam_id":76561198326652249,"connected_time":598000000000,"state":"active","ping":118},{"user_id":138,"name":"FizzTom","steam_id":76561199200953916,"connected_time":2520000000000,"state":"active","ping":102},{"user_id":131,"name":"Bobby Ray","steam_id":76561198044131188,"connected_time":3116000000000,"state":"active","ping":72},{"user_id":153,"name":"LampMan","steam_id":76561198079857527,"connected_time":1583000000000,"state":"active","ping":60},{"user_id":168,"name":"Maurdakar","steam_id":76561197983420976,"connected_time":595000000000,"state":"active","ping":100},{"user_id":152,"name":"Ursus Ludius","steam_id":76561198025470722,"connected_time":1764000000000,"state":"active","ping":101}]},{"server_id":108,"name":"Uncletopia | Dallas | 2 | All Maps","name_short":"dal-2","host":"dal-1.us.uncletopia.com","port":27025,"enabled":true,"region":"us-central","cc":"us","latitude":32.779167,"longitude":-96.80889,"reserved":0,"last_update":"0001-01-01T00:00:00Z","name_a2s":"Uncletopia | Dallas | 2 | All Maps","protocol":17,"map":"pl_barnblitz","folder":"tf","game":"Team Fortress","app_id":440,"player_count":23,"max_players":24,"Bots":0,"server_type":"Dedicated","server_os":"Linux","password":true,"vac":true,"version":"7961495","steam_id":85568392924469988,"keywords":["nocrits","nodmgspread","payload","uncletopia"],"game_id":440,"stv_port":27026,"stv_name":"Uncletopia | Dallas | 2 | All Maps | STV","players":[{"user_id":10,"name":"Insizhen","steam_id":76561198051352605,"connected_time":6503000000000,"state":"active","ping":50},{"user_id":104,"name":"nav","steam_id":76561198872608266,"connected_time":29000000000,"state":"active","ping":79},{"user_id":105,"name":"Fish","steam_id":76561199016308078,"connected_time":13000000000,"state":"spawning","ping":89},{"user_id":86,"name":"radiantlight123","steam_id":76561198161638571,"connected_time":1710000000000,"state":"active","ping":69},{"user_id":87,"name":"Ginnunga","steam_id":76561198000320083,"connected_time":1694000000000,"state":"active","ping":76},{"user_id":81,"name":"Detaer","steam_id":76561197966125964,"connected_time":2066000000000,"state":"active","ping":89},{"user_id":78,"name":"adolf tickler","steam_id":76561198163120788,"connected_time":2181000000000,"state":"active","ping":75},{"user_id":100,"name":"Anonymous_Cletus_TTV","steam_id":76561198243740340,"connected_time":137000000000,"state":"active","ping":101},{"user_id":101,"name":"I'm bad I know thx \u003c3","steam_id":76561198058840477,"connected_time":120000000000,"state":"active","ping":121},{"user_id":102,"name":"CyberSpaceGaming","steam_id":76561198991830883,"connected_time":112000000000,"state":"active","ping":59},{"user_id":103,"name":"BlazingBuizel7","steam_id":76561199026199596,"connected_time":103000000000,"state":"active","ping":87},{"user_id":85,"name":"bluecatter","steam_id":76561199489213557,"connected_time":1841000000000,"state":"active","ping":68},{"user_id":89,"name":"Randumb","steam_id":76561199083286636,"connected_time":1304000000000,"state":"active","ping":90},{"user_id":96,"name":"for the king","steam_id":76561197973488858,"connected_time":831000000000,"state":"active","ping":75},{"user_id":38,"name":"Justy","steam_id":76561198044014069,"connected_time":5507000000000,"state":"active","ping":62},{"user_id":94,"name":"Horse","steam_id":76561198004583631,"connected_time":1215000000000,"state":"active","ping":93},{"user_id":95,"name":"porz","steam_id":76561198195711453,"connected_time":1073000000000,"state":"active","ping":46},{"user_id":39,"name":"firestabber","steam_id":76561198057055577,"connected_time":5473000000000,"state":"active","ping":96},{"user_id":106,"name":"Derply","steam_id":76561198871211642,"connected_time":2000000000,"state":"spawning","ping":69},{"user_id":41,"name":"bobkattbro","steam_id":76561199009438984,"connected_time":5450000000000,"state":"active","ping":131},{"user_id":98,"name":"Billius Sillius","steam_id":76561199021762548,"connected_time":158000000000,"state":"active","ping":95},{"user_id":99,"name":"IMM0RTAL","steam_id":76561198013747901,"connected_time":156000000000,"state":"active","ping":65},{"user_id":46,"name":"mr555","steam_id":76561199128375354,"connected_time":5354000000000,"state":"active","ping":181}]},{"server_id":404,"name":"Uncletopia | Dallas | 3 | All Maps","name_short":"dal-3","host":"dal-1.us.uncletopia.com","port":27035,"enabled":true,"region":"us-central","cc":"us","latitude":32.779167,"longitude":-96.80889,"reserved":0,"last_update":"0001-01-01T00:00:00Z","name_a2s":"Uncletopia | Dallas | 3 | All Maps","protocol":17,"map":"koth_viaduct","folder":"tf","game":"Team Fortress","app_id":440,"player_count":0,"max_players":24,"Bots":0,"server_type":"Dedicated","server_os":"Linux","password":true,"vac":true,"version":"7961495","steam_id":85568392924515219,"keywords":["cp","nocrits","nodmgspread","uncletopia"],"game_id":440,"stv_port":27036,"stv_name":"Uncletopia | Dallas | 3 | All Maps | STV","players":null},{"server_id":405,"name":"Uncletopia | Dallas | 4 | Community","name_short":"dal-4","host":"dal-1.us.uncletopia.com","port":27045,"enabled":true,"region":"us-central","cc":"us","latitude":32.779167,"longitude":-96.80889,"reserved":0,"last_update":"0001-01-01T00:00:00Z","name_a2s":"Uncletopia | Dallas | 4 | Community","protocol":17,"map":"pl_pier","folder":"tf","game":"Team Fortress","app_id":440,"player_count":0,"max_players":24,"Bots":0,"server_type":"Dedicated","server_os":"Linux","password":true,"vac":true,"version":"7961495","steam_id":85568392924515220,"keywords":["nocrits","nodmgspread","payload","uncletopia"],"game_id":440,"stv_port":27046,"stv_name":"Uncletopia | Dallas | 4 | Community | STV","players":null},{"server_id":5,"name":"Uncletopia | Frankfurt | 1 | All Maps","name_short":"frk-1","host":"frk-1.de.uncletopia.com","port":27015,"enabled":true,"region":"eu","cc":"de","latitude":50.110924,"longitude":8.682127,"reserved":0,"last_update":"0001-01-01T00:00:00Z","name_a2s":"Uncletopia | Frankfurt | 1 | All Maps","protocol":17,"map":"pl_badwater","folder":"tf","game":"Team Fortress","app_id":440,"player_count":24,"max_players":24,"Bots":0,"server_type":"Dedicated","server_os":"Linux","password":true,"vac":true,"version":"7961495","steam_id":85568392924469989,"keywords":["nocrits","nodmgspread","payload","uncletopia"],"game_id":440,"stv_port":27016,"stv_name":"Uncletopia | Frankfurt | 1 | All Maps | STV","players":[{"user_id":701,"name":"emir","steam_id":76561198113089831,"connected_time":510000000000,"state":"active","ping":94},{"user_id":632,"name":"fynta","steam_id":76561198315371425,"connected_time":6911000000000,"state":"active","ping":53},{"user_id":713,"name":"You're doin good lad","steam_id":76561198350707031,"connected_time":72000000000,"state":"active","ping":85},{"user_id":702,"name":"Mischail","steam_id":76561198016127010,"connected_time":494000000000,"state":"active","ping":74},{"user_id":691,"name":"n-ski","steam_id":76561198020550849,"connected_time":1377000000000,"state":"active","ping":75},{"user_id":693,"name":"Быдла вой","steam_id":76561198041371314,"connected_time":1332000000000,"state":"active","ping":126},{"user_id":630,"name":"AdeAAa","steam_id":76561198974207724,"connected_time":7001000000000,"state":"active","ping":100},{"user_id":703,"name":"Reljadin","steam_id":76561198054997553,"connected_time":489000000000,"state":"active","ping":82},{"user_id":656,"name":"TheDeath","steam_id":76561198265038954,"connected_time":4781000000000,"state":"active","ping":68},{"user_id":709,"name":"KingDuckTheGreat","steam_id":76561199013190605,"connected_time":223000000000,"state":"active","ping":71},{"user_id":711,"name":"YourNansFlipFlops","steam_id":76561199363301288,"connected_time":127000000000,"state":"active","ping":85},{"user_id":690,"name":"ozz-man","steam_id":76561198084676522,"connected_time":1386000000000,"state":"active","ping":103},{"user_id":710,"name":"Marius","steam_id":76561198253530198,"connected_time":172000000000,"state":"active","ping":61},{"user_id":708,"name":"snowball","steam_id":76561198026525289,"connected_time":252000000000,"state":"active","ping":78},{"user_id":694,"name":"Smoking problem","steam_id":76561198361351449,"connected_time":1327000000000,"state":"active","ping":53},{"user_id":695,"name":"Drinking Problem","steam_id":76561198319162953,"connected_time":1255000000000,"state":"active","ping":68},{"user_id":700,"name":"SPORKULES","steam_id":76561198035540562,"connected_time":992000000000,"state":"active","ping":74},{"user_id":707,"name":"B@yka","steam_id":76561198986736592,"connected_time":431000000000,"state":"active","ping":68},{"user_id":706,"name":"rachel aldana's massive milkers","steam_id":76561198025916703,"connected_time":460000000000,"state":"active","ping":86},{"user_id":699,"name":"Suetolog","steam_id":76561199053090212,"connected_time":1050000000000,"state":"active","ping":50},{"user_id":668,"name":"Dj_Bear","steam_id":76561198149865187,"connected_time":3113000000000,"state":"active","ping":69},{"user_id":660,"name":"LeGerooo","steam_id":76561199110422160,"connected_time":4072000000000,"state":"active","ping":81},{"user_id":604,"name":"John","steam_id":76561198121630215,"connected_time":9106000000000,"state":"active","ping":67},{"user_id":679,"name":"Andy","steam_id":76561198046918834,"connected_time":2163000000000,"state":"active","ping":70}]},{"server_id":110,"name":"Uncletopia | Frankfurt | 2 | All Maps","name_short":"frk-2","host":"frk-1.de.uncletopia.com","port":27025,"enabled":true,"region":"eu","cc":"de","latitude":50.110924,"longitude":8.682127,"reserved":0,"last_update":"0001-01-01T00:00:00Z","name_a2s":"Uncletopia | Frankfurt | 2 | All Maps","protocol":17,"map":"pl_badwater","folder":"tf","game":"Team Fortress","app_id":440,"player_count":24,"max_players":24,"Bots":0,"server_type":"Dedicated","server_os":"Linux","password":true,"vac":true,"version":"7961495","steam_id":85568392924469990,"keywords":["nocrits","nodmgspread","payload","uncletopia"],"game_id":440,"stv_port":27026,"stv_name":"Uncletopia | Frankfurt | 2 | All Maps | STV","players":[{"user_id":146,"name":"Eyosh","steam_id":76561197998352095,"connected_time":1115000000000,"state":"active","ping":60},{"user_id":151,"name":"Fr1Zer","steam_id":76561198357086270,"connected_time":987000000000,"state":"active","ping":86},{"user_id":152,"name":"Clark","steam_id":76561197998520785,"connected_time":959000000000,"state":"active","ping":75},{"user_id":147,"name":"przksk","steam_id":76561198450284221,"connected_time":1114000000000,"state":"active","ping":86},{"user_id":148,"name":"Castellan","steam_id":76561197994861142,"connected_time":1101000000000,"state":"active","ping":55},{"user_id":105,"name":"Caruzon - Obismal","steam_id":76561198036211170,"connected_time":3076000000000,"state":"active","ping":74},{"user_id":155,"name":"❤︎WarMole❤","steam_id":76561198104248760,"connected_time":121000000000,"state":"active","ping":58},{"user_id":112,"name":"0\u003e0","steam_id":76561198049741238,"connected_time":2715000000000,"state":"active","ping":99},{"user_id":116,"name":"WHUSSKEY","steam_id":76561198137827441,"connected_time":2380000000000,"state":"active","ping":64},{"user_id":110,"name":"SocialistBacon","steam_id":76561198055872267,"connected_time":3033000000000,"state":"active","ping":105},{"user_id":113,"name":"mendako","steam_id":76561198295305088,"connected_time":2577000000000,"state":"active","ping":55},{"user_id":49,"name":"Macci - Obismal","steam_id":76561198050485404,"connected_time":6207000000000,"state":"active","ping":75},{"user_id":154,"name":"Finnish Farmer","steam_id":76561198205366043,"connected_time":365000000000,"state":"active","ping":85},{"user_id":120,"name":"fakerman","steam_id":76561198350473059,"connected_time":2163000000000,"state":"active","ping":75},{"user_id":153,"name":"temlan","steam_id":76561198300603001,"connected_time":944000000000,"state":"active","ping":77},{"user_id":150,"name":"skill","steam_id":76561198106012909,"connected_time":1066000000000,"state":"active","ping":63},{"user_id":95,"name":"Birdseye","steam_id":76561198025852216,"connected_time":3687000000000,"state":"active","ping":72},{"user_id":143,"name":"็","steam_id":76561198071226013,"connected_time":1247000000000,"state":"active","ping":77},{"user_id":97,"name":"Space","steam_id":76561198021572167,"connected_time":3637000000000,"state":"active","ping":60},{"user_id":98,"name":"Gimli","steam_id":76561198004149706,"connected_time":3632000000000,"state":"active","ping":70},{"user_id":102,"name":". . .","steam_id":76561198184360615,"connected_time":3483000000000,"state":"active","ping":95},{"user_id":78,"name":"R8N - Obismal","steam_id":76561198007482714,"connected_time":5122000000000,"state":"active","ping":75},{"user_id":114,"name":"bugpov","steam_id":76561198104896547,"connected_time":2488000000000,"state":"active","ping":75},{"user_id":132,"name":"Communist Loser","steam_id":76561198194272686,"connected_time":1677000000000,"state":"active","ping":79}]},{"server_id":308,"name":"Uncletopia | Frankfurt | 3 | All Maps","name_short":"frk-3","host":"frk-1.de.uncletopia.com","port":27035,"enabled":true,"region":"eu","cc":"de","latitude":50.110924,"longitude":8.682127,"reserved":0,"last_update":"0001-01-01T00:00:00Z","name_a2s":"Uncletopia | Frankfurt | 3 | All Maps","protocol":17,"map":"cp_sunshine","folder":"tf","game":"Team Fortress","app_id":440,"player_count":24,"max_players":24,"Bots":0,"server_type":"Dedicated","server_os":"Linux","password":true,"vac":true,"version":"7961495","steam_id":85568392924504274,"keywords":["cp","nocrits","nodmgspread","uncletopia"],"game_id":440,"stv_port":27036,"stv_name":"Uncletopia | Frankfurt | 3 | All Maps | STV","players":[{"user_id":426,"name":"ArcX","steam_id":76561198805049375,"connected_time":748000000000,"state":"active","ping":56},{"user_id":379,"name":"the grongle","steam_id":76561198989398023,"connected_time":3166000000000,"state":"active","ping":107},{"user_id":427,"name":"lurid","steam_id":76561198063159528,"connected_time":738000000000,"state":"active","ping":53},{"user_id":437,"name":"hej","steam_id":76561198110530761,"connected_time":456000000000,"state":"active","ping":61},{"user_id":430,"name":"0xDEADBEEF","steam_id":76561199075416111,"connected_time":630000000000,"state":"active","ping":86},{"user_id":384,"name":"kaitseliitlane","steam_id":76561198159695292,"connected_time":3100000000000,"state":"active","ping":81},{"user_id":421,"name":"my mom","steam_id":76561199225201569,"connected_time":1247000000000,"state":"active","ping":145},{"user_id":446,"name":"Sakari","steam_id":76561197997811299,"connected_time":2000000000,"state":"spawning","ping":41},{"user_id":442,"name":"R4yzan","steam_id":76561198085146731,"connected_time":298000000000,"state":"active","ping":55},{"user_id":429,"name":"PyBOP","steam_id":76561198039583834,"connected_time":710000000000,"state":"active","ping":61},{"user_id":431,"name":":)","steam_id":76561198039964082,"connected_time":629000000000,"state":"active","ping":53},{"user_id":380,"name":"Mark Johnson","steam_id":76561198218293684,"connected_time":3164000000000,"state":"active","ping":75},{"user_id":374,"name":"Intruder","steam_id":76561198156128173,"connected_time":3215000000000,"state":"active","ping":68},{"user_id":439,"name":"marvs","steam_id":76561198851777617,"connected_time":348000000000,"state":"active","ping":57},{"user_id":445,"name":"Apollo","steam_id":76561198067219228,"connected_time":91000000000,"state":"active","ping":89},{"user_id":360,"name":"♂ MGE ♂ PUPSIK ♂","steam_id":76561198308302932,"connected_time":3505000000000,"state":"active","ping":105},{"user_id":433,"name":"I-I","steam_id":76561198267969436,"connected_time":566000000000,"state":"active","ping":59},{"user_id":444,"name":"HAMtastic","steam_id":76561198879769410,"connected_time":99000000000,"state":"active","ping":70},{"user_id":409,"name":"Harry","steam_id":76561198046899720,"connected_time":2021000000000,"state":"active","ping":72},{"user_id":422,"name":"Vee","steam_id":76561198173065294,"connected_time":1185000000000,"state":"active","ping":62},{"user_id":410,"name":"Ben Dover","steam_id":76561199213629970,"connected_time":2001000000000,"state":"active","ping":93},{"user_id":436,"name":"5LMGVGOTY","steam_id":76561199403459247,"connected_time":558000000000,"state":"active","ping":63},{"user_id":441,"name":"cheddar","steam_id":76561199072919985,"connected_time":337000000000,"state":"active","ping":86},{"user_id":412,"name":"anders McFlanders","steam_id":76561198022811995,"connected_time":1966000000000,"state":"active","ping":62}]},{"server_id":309,"name":"Uncletopia | Frankfurt | 4 | All Maps","name_short":"frk-4","host":"frk-1.de.uncletopia.com","port":27045,"enabled":true,"region":"eu","cc":"de","latitude":50.110924,"longitude":8.682127,"reserved":0,"last_update":"0001-01-01T00:00:00Z","name_a2s":"Uncletopia | Frankfurt | 4 | All Maps","protocol":17,"map":"pl_badwater","folder":"tf","game":"Team Fortress","app_id":440,"player_count":22,"max_players":24,"Bots":0,"server_type":"Dedicated","server_os":"Linux","password":true,"vac":true,"version":"7961495","steam_id":85568392924504275,"keywords":["nocrits","nodmgspread","payload","uncletopia"],"game_id":440,"stv_port":27046,"stv_name":"Uncletopia | Frankfurt | 4 | All Maps | STV","players":[{"user_id":448,"name":"Person","steam_id":76561199216957269,"connected_time":9093000000000,"state":"active","ping":100},{"user_id":523,"name":"Waazard","steam_id":76561198383923159,"connected_time":4949000000000,"state":"active","ping":76},{"user_id":567,"name":"alexthecaptain","steam_id":76561198072632194,"connected_time":1000000000000,"state":"active","ping":188},{"user_id":581,"name":"The Ass Slapper","steam_id":76561198904469197,"connected_time":2000000000,"state":"spawning","ping":55},{"user_id":572,"name":"SalDro","steam_id":76561199218262945,"connected_time":773000000000,"state":"active","ping":87},{"user_id":574,"name":"pSy","steam_id":76561198016471415,"connected_time":667000000000,"state":"active","ping":46},{"user_id":575,"name":"galaxy","steam_id":76561198164819022,"connected_time":546000000000,"state":"active","ping":69},{"user_id":525,"name":"plo at u","steam_id":76561198998684199,"connected_time":4926000000000,"state":"active","ping":119},{"user_id":566,"name":"hedonic treadmill","steam_id":76561199114742711,"connected_time":1061000000000,"state":"active","ping":89},{"user_id":569,"name":"Mammut","steam_id":76561198056773933,"connected_time":864000000000,"state":"active","ping":44},{"user_id":543,"name":"Szeregowy LowiRyb","steam_id":76561198855967762,"connected_time":3392000000000,"state":"active","ping":104},{"user_id":509,"name":"H1DD3 gaming","steam_id":76561198855897385,"connected_time":6087000000000,"state":"active","ping":68},{"user_id":557,"name":"Струп на голове","steam_id":76561198052055176,"connected_time":1523000000000,"state":"active","ping":131},{"user_id":530,"name":"biohazard","steam_id":76561198162873354,"connected_time":4788000000000,"state":"active","ping":110},{"user_id":580,"name":"Skidge","steam_id":76561198089624697,"connected_time":40000000000,"state":"spawning","ping":85},{"user_id":501,"name":"john fortress","steam_id":76561198013237629,"connected_time":6262000000000,"state":"active","ping":107},{"user_id":578,"name":"tequila sunset","steam_id":76561198315969106,"connected_time":142000000000,"state":"active","ping":93},{"user_id":571,"name":"windowsinfinitev2","steam_id":76561199120867639,"connected_time":818000000000,"state":"active","ping":133},{"user_id":576,"name":"kelm","steam_id":76561198027166144,"connected_time":286000000000,"state":"active","ping":81},{"user_id":573,"name":"Donki Wonki","steam_id":76561198327761273,"connected_time":770000000000,"state":"active","ping":64},{"user_id":548,"name":"DeCypher \u003c3","steam_id":76561198171992619,"connected_time":2833000000000,"state":"active","ping":70},{"user_id":537,"name":"KFD","steam_id":76561198157183003,"connected_time":4082000000000,"state":"active","ping":80}]},{"server_id":310,"name":"Uncletopia | Frankfurt | 5 | All Maps","name_short":"frk-5","host":"frk-1.de.uncletopia.com","port":27055,"enabled":true,"region":"eu","cc":"de","latitude":50.110924,"longitude":8.682127,"reserved":0,"last_update":"0001-01-01T00:00:00Z","name_a2s":"Uncletopia | Frankfurt | 5 | All Maps","protocol":17,"map":"cp_dustbowl","folder":"tf","game":"Team Fortress","app_id":440,"player_count":21,"max_players":24,"Bots":0,"server_type":"Dedicated","server_os":"Linux","password":true,"vac":true,"version":"7961495","steam_id":85568392924504277,"keywords":["cp","nocrits","nodmgspread","uncletopia"],"game_id":440,"stv_port":27056,"stv_name":"Uncletopia | Frankfurt | 5 | All Maps | STV","players":[{"user_id":470,"name":"Vyllckart","steam_id":76561198119172997,"connected_time":333000000000,"state":"active","ping":85},{"user_id":471,"name":"heavy sings (real)","steam_id":76561199023804405,"connected_time":331000000000,"state":"active","ping":74},{"user_id":472,"name":"kornetov.vitalya","steam_id":76561199286034833,"connected_time":293000000000,"state":"active","ping":91},{"user_id":473,"name":"Katsu!","steam_id":76561198082570310,"connected_time":293000000000,"state":"active","ping":91},{"user_id":474,"name":"Kacperos12","steam_id":76561198044168268,"connected_time":267000000000,"state":"active","ping":88},{"user_id":475,"name":"qunick1","steam_id":76561199007672449,"connected_time":237000000000,"state":"active","ping":84},{"user_id":491,"name":"Lynx","steam_id":76561199274008207,"connected_time":17000000000,"state":"spawning","ping":96},{"user_id":477,"name":"QR code 78","steam_id":76561198073749509,"connected_time":191000000000,"state":"active","ping":59},{"user_id":478,"name":"Daddy-O","steam_id":76561198120101147,"connected_time":181000000000,"state":"active","ping":99},{"user_id":487,"name":"S Ka Y","steam_id":76561197993423450,"connected_time":122000000000,"state":"active","ping":46},{"user_id":480,"name":"Mayonaise on an escalator","steam_id":76561198872266743,"connected_time":176000000000,"state":"active","ping":45},{"user_id":481,"name":"Eox","steam_id":76561198028179912,"connected_time":168000000000,"state":"active","ping":50},{"user_id":482,"name":"Tattletails","steam_id":76561198055690341,"connected_time":167000000000,"state":"active","ping":70},{"user_id":486,"name":"et","steam_id":76561199439627200,"connected_time":122000000000,"state":"active","ping":112},{"user_id":488,"name":"padillacampos","steam_id":76561198161923970,"connected_time":116000000000,"state":"active","ping":72},{"user_id":456,"name":"Derlen","steam_id":76561198905424243,"connected_time":1272000000000,"state":"active","ping":101},{"user_id":490,"name":"john","steam_id":76561199020106029,"connected_time":69000000000,"state":"active","ping":101},{"user_id":492,"name":"tzlil","steam_id":76561198399916290,"connected_time":4000000000,"state":"spawning","ping":191},{"user_id":493,"name":"amjugan","steam_id":76561198018488216,"connected_time":4000000000,"state":"spawning","ping":119},{"user_id":494,"name":"Systematicz0","steam_id":76561198802928862,"connected_time":2000000000,"state":"spawning","ping":32},{"user_id":435,"name":"Fuvuk","steam_id":76561198044458593,"connected_time":2913000000000,"state":"active","ping":78}]},{"server_id":311,"name":"Uncletopia | Frankfurt | 6 | All Maps","name_short":"frk-6","host":"frk-1.de.uncletopia.com","port":27065,"enabled":true,"region":"eu","cc":"de","latitude":50.110924,"longitude":8.682127,"reserved":0,"last_update":"0001-01-01T00:00:00Z","name_a2s":"Uncletopia | Frankfurt | 6 | All Maps","protocol":17,"map":"pl_borneo","folder":"tf","game":"Team Fortress","app_id":440,"player_count":24,"max_players":24,"Bots":0,"server_type":"Dedicated","server_os":"Linux","password":true,"vac":true,"version":"7961495","steam_id":85568392924504278,"keywords":["nocrits","nodmgspread","payload","uncletopia"],"game_id":440,"stv_port":27066,"stv_name":"Uncletopia | Frankfurt | 6 | All Maps | STV","players":[{"user_id":376,"name":"juni","steam_id":76561198036504214,"connected_time":280000000000,"state":"active","ping":46},{"user_id":346,"name":"Not A Fake Uncletopia Server","steam_id":76561198152871288,"connected_time":3771000000000,"state":"active","ping":60},{"user_id":278,"name":"Flohr","steam_id":76561198191948841,"connected_time":7761000000000,"state":"active","ping":55},{"user_id":329,"name":"Zino","steam_id":76561197969422755,"connected_time":5358000000000,"state":"active","ping":83},{"user_id":369,"name":"$t@lker_Tim","steam_id":76561198963658042,"connected_time":1167000000000,"state":"active","ping":106},{"user_id":335,"name":"Enjoyer","steam_id":76561198147399855,"connected_time":5102000000000,"state":"active","ping":131},{"user_id":370,"name":"Qwerty","steam_id":76561198023525894,"connected_time":1121000000000,"state":"active","ping":82},{"user_id":324,"name":"Gardvord","steam_id":76561198120715753,"connected_time":5436000000000,"state":"active","ping":75},{"user_id":325,"name":"Beep","steam_id":76561198151248575,"connected_time":5423000000000,"state":"active","ping":71},{"user_id":354,"name":"Hexagon","steam_id":76561198151205758,"connected_time":3494000000000,"state":"active","ping":52},{"user_id":355,"name":"Dictatorial Karelian","steam_id":76561198196736457,"connected_time":3475000000000,"state":"active","ping":75},{"user_id":371,"name":"brtaba","steam_id":76561198796334790,"connected_time":1101000000000,"state":"active","ping":73},{"user_id":374,"name":"Tiobio","steam_id":76561198355473473,"connected_time":637000000000,"state":"active","ping":75},{"user_id":368,"name":"Rock..","steam_id":76561198004641963,"connected_time":1558000000000,"state":"active","ping":80},{"user_id":381,"name":"paypig","steam_id":76561198035137115,"connected_time":31000000000,"state":"active","ping":60},{"user_id":377,"name":"Magiccomplex","steam_id":76561199203555188,"connected_time":277000000000,"state":"active","ping":45},{"user_id":362,"name":"weaj","steam_id":76561198053628243,"connected_time":2510000000000,"state":"active","ping":54},{"user_id":328,"name":"Bortas","steam_id":76561197972282153,"connected_time":5379000000000,"state":"active","ping":75},{"user_id":378,"name":"I Love Filtered Water","steam_id":76561198016042113,"connected_time":250000000000,"state":"active","ping":82},{"user_id":375,"name":"Gator","steam_id":76561198065624683,"connected_time":290000000000,"state":"active","ping":99},{"user_id":350,"name":"corralled","steam_id":76561198028648627,"connected_time":3656000000000,"state":"active","ping":73},{"user_id":366,"name":"Mr. Mundy","steam_id":76561198132008918,"connected_time":2344000000000,"state":"active","ping":84},{"user_id":380,"name":"Drazmax","steam_id":76561198116750395,"connected_time":234000000000,"state":"active","ping":75},{"user_id":373,"name":"lolimsogreat21","steam_id":76561199052033788,"connected_time":1066000000000,"state":"active","ping":72}]},{"server_id":23,"name":"Uncletopia | Frankfurt | 7 | Stopwatch","name_short":"frk-7","host":"frk-1.de.uncletopia.com","port":27075,"enabled":true,"region":"eu","cc":"de","latitude":50.110924,"longitude":8.682127,"reserved":0,"last_update":"0001-01-01T00:00:00Z","name_a2s":"Uncletopia | Frankfurt | 7 | Stopwatch","protocol":17,"map":"workshop/koth_ashville_final.ugc2130459942","folder":"tf","game":"Team Fortress","app_id":440,"player_count":1,"max_players":24,"Bots":0,"server_type":"Dedicated","server_os":"Linux","password":true,"vac":true,"version":"7961495","steam_id":85568392924742827,"keywords":["cp","nocrits","nodmgspread","uncletopia"],"game_id":440,"stv_port":27076,"stv_name":"Uncletopia | Frankfurt | 7 | Stopwatch | STV","players":[{"user_id":14,"name":"ok","steam_id":76561198345276295,"connected_time":302000000000,"state":"active","ping":57}]},{"server_id":24,"name":"Uncletopia | Frankfurt | 8 | Community","name_short":"frk-8","host":"frk-1.de.uncletopia.com","port":27085,"enabled":true,"region":"eu","cc":"de","latitude":50.110924,"longitude":8.682127,"reserved":0,"last_update":"0001-01-01T00:00:00Z","name_a2s":"Uncletopia | Frankfurt | 8 | Community","protocol":17,"map":"workshop/pl_cactuscanyon_redux_final2.ugc2579644293","folder":"tf","game":"Team Fortress","app_id":440,"player_count":0,"max_players":24,"Bots":0,"server_type":"Dedicated","server_os":"Linux","password":true,"vac":true,"version":"7961495","steam_id":85568392924742828,"keywords":["nocrits","nodmgspread","payload","uncletopia"],"game_id":440,"stv_port":27086,"stv_name":"Uncletopia | Frankfurt | 8 | Community | STV","players":null},{"server_id":202,"name":"Uncletopia | Hong Kong | 1 | All Maps","name_short":"hgk-1","host":"hgk-1.hk.uncletopia.com","port":27015,"enabled":true,"region":"asia","cc":"hk","latitude":22.302711,"longitude":114.177216,"reserved":0,"last_update":"0001-01-01T00:00:00Z","name_a2s":"Uncletopia | Hong Kong | 1 | All Maps","protocol":17,"map":"pl_snowycoast","folder":"tf","game":"Team Fortress","app_id":440,"player_count":0,"max_players":24,"Bots":0,"server_type":"Dedicated","server_os":"Linux","password":true,"vac":true,"version":"7961495","steam_id":85568392924494504,"keywords":["nocrits","nodmgspread","payload","uncletopia"],"game_id":440,"stv_port":27016,"stv_name":"Uncletopia | Hong Kong | 1 | All Maps | STV","players":null},{"server_id":1,"name":"Uncletopia | Los Angeles | 1 | All Maps","name_short":"lax-1","host":"lax-1.us.uncletopia.com","port":27015,"enabled":true,"region":"us-west","cc":"us","latitude":33.94279,"longitude":-118.41004,"reserved":0,"last_update":"0001-01-01T00:00:00Z","name_a2s":"Uncletopia | Los Angeles | 1 | All Maps","protocol":17,"map":"pl_badwater","folder":"tf","game":"Team Fortress","app_id":440,"player_count":23,"max_players":24,"Bots":0,"server_type":"Dedicated","server_os":"Linux","password":true,"vac":true,"version":"7961495","steam_id":85568392924469991,"keywords":["nocrits","nodmgspread","payload","uncletopia"],"game_id":440,"stv_port":27016,"stv_name":"Uncletopia | Los Angeles | 1 | All Maps | STV","players":[{"user_id":264,"name":"ena - d","steam_id":76561198072329335,"connected_time":277000000000,"state":"active","ping":107},{"user_id":253,"name":"The Mug Man","steam_id":76561198283468122,"connected_time":1032000000000,"state":"active","ping":116},{"user_id":262,"name":"roach","steam_id":76561198354811369,"connected_time":344000000000,"state":"active","ping":53},{"user_id":236,"name":"Shalom","steam_id":76561198410005222,"connected_time":2509000000000,"state":"active","ping":76},{"user_id":245,"name":"Jeramosa","steam_id":76561198811000094,"connected_time":1589000000000,"state":"active","ping":90},{"user_id":256,"name":"Closeted femboy enjoyer","steam_id":76561198217747041,"connected_time":808000000000,"state":"active","ping":61},{"user_id":263,"name":"tyrone","steam_id":76561198113817130,"connected_time":321000000000,"state":"active","ping":83},{"user_id":260,"name":"zinnk","steam_id":76561198092081825,"connected_time":746000000000,"state":"active","ping":52},{"user_id":265,"name":"Not Slavoj Žižek","steam_id":76561198004619616,"connected_time":242000000000,"state":"active","ping":57},{"user_id":266,"name":"[ØWQJØ]chubacaalatake","steam_id":76561198136201697,"connected_time":231000000000,"state":"active","ping":89},{"user_id":248,"name":"GLXy","steam_id":76561198207551544,"connected_time":1170000000000,"state":"active","ping":62},{"user_id":213,"name":"IDK_LIZORD","steam_id":76561199244260952,"connected_time":3983000000000,"state":"active","ping":97},{"user_id":261,"name":"FI LO","steam_id":76561198976530881,"connected_time":363000000000,"state":"active","ping":30},{"user_id":201,"name":"Nibotshooter","steam_id":76561199284825579,"connected_time":4412000000000,"state":"active","ping":75},{"user_id":189,"name":"baked garfield","steam_id":76561198069874720,"connected_time":5323000000000,"state":"active","ping":87},{"user_id":259,"name":"rmx^-^","steam_id":76561197961779026,"connected_time":770000000000,"state":"active","ping":53},{"user_id":225,"name":"Sunkenthree51","steam_id":76561198300781307,"connected_time":3359000000000,"state":"active","ping":64},{"user_id":252,"name":"petite missile penis","steam_id":76561198237326598,"connected_time":1131000000000,"state":"active","ping":131},{"user_id":272,"name":"demin","steam_id":76561198441963031,"connected_time":24000000000,"state":"active","ping":226},{"user_id":228,"name":"spherewithahat","steam_id":76561199122192660,"connected_time":2987000000000,"state":"active","ping":126},{"user_id":184,"name":"Birby","steam_id":76561198884009768,"connected_time":5554000000000,"state":"active","ping":59},{"user_id":269,"name":"Watergate Scandal","steam_id":76561198351472424,"connected_time":169000000000,"state":"active","ping":90},{"user_id":242,"name":"nescoceo","steam_id":76561198040801160,"connected_time":2062000000000,"state":"active","ping":54}]},{"server_id":112,"name":"Uncletopia | Los Angeles | 2 | All Maps","name_short":"lax-2","host":"lax-1.us.uncletopia.com","port":27025,"enabled":true,"region":"us-west","cc":"us","latitude":33.94279,"longitude":-118.41004,"reserved":0,"last_update":"0001-01-01T00:00:00Z","name_a2s":"Uncletopia | Los Angeles | 2 | All Maps","protocol":17,"map":"koth_viaduct","folder":"tf","game":"Team Fortress","app_id":440,"player_count":0,"max_players":24,"Bots":0,"server_type":"Dedicated","server_os":"Linux","password":true,"vac":true,"version":"7961495","steam_id":85568392924469992,"keywords":["cp","nocrits","nodmgspread","uncletopia"],"game_id":440,"stv_port":27026,"stv_name":"Uncletopia | Los Angeles | 2 | All Maps | STV","players":null},{"server_id":324,"name":"Uncletopia | Los Angeles | 3 | All Maps","name_short":"lax-3","host":"lax-1.us.uncletopia.com","port":27035,"enabled":true,"region":"us-west","cc":"us","latitude":33.94279,"longitude":-118.41004,"reserved":0,"last_update":"0001-01-01T00:00:00Z","name_a2s":"Uncletopia | Los Angeles | 3 | All Maps","protocol":17,"map":"pl_frontier_final","folder":"tf","game":"Team Fortress","app_id":440,"player_count":0,"max_players":24,"Bots":0,"server_type":"Dedicated","server_os":"Linux","password":true,"vac":true,"version":"7961495","steam_id":85568392924510198,"keywords":["nocrits","nodmgspread","payload","uncletopia"],"game_id":440,"stv_port":27036,"stv_name":"Uncletopia | Los Angeles | 3 | All Maps | STV","players":null},{"server_id":25,"name":"Uncletopia | Los Angeles | 4 | Stopwatch","name_short":"lax-4","host":"lax-1.us.uncletopia.com","port":27045,"enabled":true,"region":"us-west","cc":"us","latitude":33.94279,"longitude":-118.41004,"reserved":0,"last_update":"0001-01-01T00:00:00Z","name_a2s":"Uncletopia | Los Angeles | 4 | Stopwatch","protocol":17,"map":"pl_barnblitz","folder":"tf","game":"Team Fortress","app_id":440,"player_count":0,"max_players":24,"Bots":0,"server_type":"Dedicated","server_os":"Linux","password":true,"vac":true,"version":"7961495","steam_id":85568392924510199,"keywords":["nocrits","nodmgspread","payload","uncletopia"],"game_id":440,"stv_port":27046,"stv_name":"Uncletopia | Los Angeles | 4 | Stopwatch | STV","players":null},{"server_id":11,"name":"Uncletopia | London | 1 | All Maps","name_short":"lon-1","host":"lon-1.uk.uncletopia.com","port":27015,"enabled":true,"region":"eu","cc":"gb","latitude":51.509865,"longitude":-0.118092,"reserved":0,"last_update":"0001-01-01T00:00:00Z","name_a2s":"Uncletopia | London | 1 | All Maps","protocol":17,"map":"pl_badwater","folder":"tf","game":"Team Fortress","app_id":440,"player_count":24,"max_players":24,"Bots":0,"server_type":"Dedicated","server_os":"Linux","password":true,"vac":true,"version":"7961495","steam_id":85568392924367362,"keywords":["nocrits","nodmgspread","payload","uncletopia"],"game_id":440,"stv_port":27016,"stv_name":"Uncletopia | London | 1 | All Maps | STV","players":[{"user_id":457,"name":"gnarly business","steam_id":76561198832688767,"connected_time":10000000000,"state":"spawning","ping":77},{"user_id":381,"name":"Vivian From Paper Mario","steam_id":76561198077624205,"connected_time":5924000000000,"state":"active","ping":70},{"user_id":450,"name":"Maks","steam_id":76561198315278876,"connected_time":596000000000,"state":"active","ping":48},{"user_id":436,"name":"Kahvi","steam_id":76561198723244199,"connected_time":1463000000000,"state":"active","ping":76},{"user_id":408,"name":"hi guys it's me","steam_id":76561198997586136,"connected_time":3379000000000,"state":"active","ping":131},{"user_id":451,"name":"Texas Red","steam_id":76561199069782779,"connected_time":561000000000,"state":"active","ping":82},{"user_id":439,"name":"꒰ ˶• ༝ •˶꒱","steam_id":76561198054474684,"connected_time":1355000000000,"state":"active","ping":87},{"user_id":386,"name":"Mini","steam_id":76561197968634073,"connected_time":5378000000000,"state":"active","ping":93},{"user_id":369,"name":"shooer!","steam_id":76561198110531281,"connected_time":7031000000000,"state":"active","ping":68},{"user_id":428,"name":"KermSlinger","steam_id":76561198854027069,"connected_time":1854000000000,"state":"active","ping":69},{"user_id":440,"name":"Tá prátaí go maith","steam_id":76561198372536459,"connected_time":1341000000000,"state":"active","ping":43},{"user_id":422,"name":"Solus","steam_id":76561199486493777,"connected_time":2569000000000,"state":"active","ping":55},{"user_id":452,"name":"Kai","steam_id":76561198800004578,"connected_time":524000000000,"state":"active","ping":48},{"user_id":429,"name":"drsilenthill","steam_id":76561198044176528,"connected_time":1829000000000,"state":"active","ping":67},{"user_id":430,"name":"Ullr","steam_id":76561198140547483,"connected_time":1811000000000,"state":"active","ping":44},{"user_id":421,"name":"TreatFly","steam_id":76561198069707362,"connected_time":2940000000000,"state":"active","ping":56},{"user_id":441,"name":"V4ren","steam_id":76561198063138371,"connected_time":1332000000000,"state":"active","ping":57},{"user_id":453,"name":".mostech","steam_id":76561198180506521,"connected_time":499000000000,"state":"active","ping":90},{"user_id":449,"name":"most sane mentalist","steam_id":76561198310095220,"connected_time":723000000000,"state":"active","ping":30},{"user_id":448,"name":"Klaus","steam_id":76561198150394201,"connected_time":787000000000,"state":"active","ping":100},{"user_id":455,"name":"BreadBubbles","steam_id":76561198174332826,"connected_time":289000000000,"state":"active","ping":74},{"user_id":364,"name":"jermany","steam_id":76561198126599355,"connected_time":7425000000000,"state":"active","ping":35},{"user_id":454,"name":"Bisque","steam_id":76561198327661850,"connected_time":484000000000,"state":"active","ping":166},{"user_id":304,"name":"lillunya ♡","steam_id":76561198330418866,"connected_time":11945000000000,"state":"active","ping":71}]},{"server_id":114,"name":"Uncletopia | London | 2 | All Maps","name_short":"lon-2","host":"lon-1.uk.uncletopia.com","port":27025,"enabled":true,"region":"eu","cc":"gb","latitude":51.509865,"longitude":-0.118092,"reserved":0,"last_update":"0001-01-01T00:00:00Z","name_a2s":"Uncletopia | London | 2 | All Maps","protocol":17,"map":"pl_borneo","folder":"tf","game":"Team Fortress","app_id":440,"player_count":24,"max_players":24,"Bots":0,"server_type":"Dedicated","server_os":"Linux","password":true,"vac":true,"version":"7961495","steam_id":85568392924470941,"keywords":["nocrits","nodmgspread","payload","uncletopia"],"game_id":440,"stv_port":27026,"stv_name":"Uncletopia | London | 2 | All Maps | STV","players":[{"user_id":447,"name":"Fissure","steam_id":76561198272595481,"connected_time":1938000000000,"state":"active","ping":55},{"user_id":440,"name":"Pogmanson","steam_id":76561198919953445,"connected_time":2159000000000,"state":"active","ping":60},{"user_id":437,"name":"Dude™","steam_id":76561198082099161,"connected_time":2599000000000,"state":"active","ping":95},{"user_id":455,"name":"soap lore 18","steam_id":76561198058879767,"connected_time":558000000000,"state":"active","ping":43},{"user_id":441,"name":"spy among us","steam_id":76561198392537090,"connected_time":2147000000000,"state":"active","ping":64},{"user_id":451,"name":"LonelyScot","steam_id":76561198190830395,"connected_time":1327000000000,"state":"active","ping":45},{"user_id":429,"name":"MONKEYBOY","steam_id":76561198156224952,"connected_time":3018000000000,"state":"active","ping":47},{"user_id":460,"name":"Macro","steam_id":76561199442846226,"connected_time":409000000000,"state":"active","ping":155},{"user_id":454,"name":"2fort's silliest soldier","steam_id":76561198128613675,"connected_time":657000000000,"state":"active","ping":69},{"user_id":443,"name":"KaasKrans","steam_id":76561198240451972,"connected_time":2089000000000,"state":"active","ping":58},{"user_id":448,"name":"meow","steam_id":76561198087215038,"connected_time":1912000000000,"state":"active","ping":87},{"user_id":420,"name":"life of sponge bob","steam_id":76561199497244760,"connected_time":3694000000000,"state":"active","ping":76},{"user_id":324,"name":"dash.","steam_id":76561198084796149,"connected_time":10781000000000,"state":"active","ping":46},{"user_id":457,"name":"Time to die","steam_id":76561198081642249,"connected_time":444000000000,"state":"active","ping":60},{"user_id":449,"name":"Jams","steam_id":76561198118316970,"connected_time":1839000000000,"state":"active","ping":75},{"user_id":446,"name":"night.s","steam_id":76561198326287823,"connected_time":2061000000000,"state":"active","ping":82},{"user_id":450,"name":"kostian","steam_id":76561199134538749,"connected_time":1425000000000,"state":"active","ping":78},{"user_id":415,"name":"piper","steam_id":76561198112687349,"connected_time":4030000000000,"state":"active","ping":53},{"user_id":458,"name":"Krabs","steam_id":76561198161679477,"connected_time":418000000000,"state":"active","ping":39},{"user_id":297,"name":"just_adhenz1284 #SaveTF2","steam_id":76561198293654671,"connected_time":12686000000000,"state":"active","ping":159},{"user_id":398,"name":"Ozzie","steam_id":76561197992915315,"connected_time":6002000000000,"state":"active","ping":68},{"user_id":459,"name":"KiteNock","steam_id":76561198160622922,"connected_time":410000000000,"state":"active","ping":79},{"user_id":417,"name":"Noodlez","steam_id":76561198239993738,"connected_time":3912000000000,"state":"active","ping":60},{"user_id":425,"name":"gamerkiddo","steam_id":76561198047380360,"connected_time":3066000000000,"state":"active","ping":60}]},{"server_id":320,"name":"Uncletopia | London | 3 | All Maps","name_short":"lon-3","host":"lon-1.uk.uncletopia.com","port":27035,"enabled":true,"region":"eu","cc":"gb","latitude":51.509865,"longitude":-0.118092,"reserved":0,"last_update":"0001-01-01T00:00:00Z","name_a2s":"Uncletopia | London | 3 | All Maps","protocol":17,"map":"koth_lakeside_final","folder":"tf","game":"Team Fortress","app_id":440,"player_count":24,"max_players":24,"Bots":0,"server_type":"Dedicated","server_os":"Linux","password":true,"vac":true,"version":"7961495","steam_id":85568392924510192,"keywords":["cp","nocrits","nodmgspread","uncletopia"],"game_id":440,"stv_port":27036,"stv_name":"Uncletopia | London | 3 | All Maps | STV","players":[{"user_id":344,"name":"The man from the window","steam_id":76561198055949151,"connected_time":1247000000000,"state":"active","ping":45},{"user_id":349,"name":"󠀡󠀡","steam_id":76561198059375315,"connected_time":1005000000000,"state":"active","ping":79},{"user_id":359,"name":"ANGHENFILOD","steam_id":76561199492622823,"connected_time":509000000000,"state":"active","ping":44},{"user_id":360,"name":"Hotdog Demo","steam_id":76561199000050049,"connected_time":432000000000,"state":"active","ping":181},{"user_id":289,"name":"[FP] Shiken","steam_id":76561198257905663,"connected_time":5221000000000,"state":"active","ping":66},{"user_id":366,"name":"Semtilion","steam_id":76561198107642445,"connected_time":161000000000,"state":"active","ping":111},{"user_id":307,"name":"Fuzz","steam_id":76561198013049077,"connected_time":4362000000000,"state":"active","ping":76},{"user_id":290,"name":"Beep","steam_id":76561198120500488,"connected_time":5215000000000,"state":"active","ping":55},{"user_id":280,"name":"Dan Dan the Furious","steam_id":76561198091032527,"connected_time":6078000000000,"state":"active","ping":73},{"user_id":337,"name":"Fat Pigeon","steam_id":76561198817940142,"connected_time":2145000000000,"state":"active","ping":45},{"user_id":350,"name":"Tin","steam_id":76561198022201818,"connected_time":962000000000,"state":"active","ping":45},{"user_id":353,"name":"ATH1234","steam_id":76561199164853373,"connected_time":838000000000,"state":"active","ping":37},{"user_id":291,"name":"[FP] Rune","steam_id":76561198030842879,"connected_time":5211000000000,"state":"active","ping":45},{"user_id":362,"name":"casper","steam_id":76561198869567040,"connected_time":382000000000,"state":"active","ping":98},{"user_id":351,"name":"HetNet","steam_id":76561198207584963,"connected_time":961000000000,"state":"active","ping":77},{"user_id":355,"name":"Gruset","steam_id":76561198327512432,"connected_time":817000000000,"state":"active","ping":75},{"user_id":367,"name":"cyanic","steam_id":76561198047828651,"connected_time":53000000000,"state":"active","ping":46},{"user_id":356,"name":"Anri Okita's Massive Milkers","steam_id":76561199186352720,"connected_time":814000000000,"state":"active","ping":60},{"user_id":328,"name":"\u003e\u003c\u003e","steam_id":76561198152392309,"connected_time":2514000000000,"state":"active","ping":48},{"user_id":318,"name":"HYSTERIA","steam_id":76561198139729249,"connected_time":2717000000000,"state":"active","ping":97},{"user_id":317,"name":"Fidacha","steam_id":76561198003060881,"connected_time":3477000000000,"state":"active","ping":72},{"user_id":306,"name":"Trapezoid","steam_id":76561198059369295,"connected_time":4381000000000,"state":"active","ping":75},{"user_id":357,"name":"Itai","steam_id":76561198804555329,"connected_time":803000000000,"state":"active","ping":103},{"user_id":343,"name":"DemoBot (Learning Phase)","steam_id":76561199182863907,"connected_time":1255000000000,"state":"active","ping":141}]},{"server_id":321,"name":"Uncletopia | London | 4 | All Maps","name_short":"lon-4","host":"lon-1.uk.uncletopia.com","port":27045,"enabled":true,"region":"eu","cc":"gb","latitude":51.509865,"longitude":-0.118092,"reserved":0,"last_update":"0001-01-01T00:00:00Z","name_a2s":"Uncletopia | London | 4 | All Maps","protocol":17,"map":"pl_borneo","folder":"tf","game":"Team Fortress","app_id":440,"player_count":24,"max_players":24,"Bots":0,"server_type":"Dedicated","server_os":"Linux","password":true,"vac":true,"version":"7961495","steam_id":85568392924510193,"keywords":["nocrits","nodmgspread","payload","uncletopia"],"game_id":440,"stv_port":27046,"stv_name":"Uncletopia | London | 4 | All Maps | STV","players":[{"user_id":111,"name":"free back real estate","steam_id":76561197999437155,"connected_time":5057000000000,"state":"active","ping":67},{"user_id":166,"name":"ExtraFlames","steam_id":76561199136146246,"connected_time":1292000000000,"state":"active","ping":56},{"user_id":154,"name":"Pfnic","steam_id":76561198157727407,"connected_time":1925000000000,"state":"active","ping":86},{"user_id":135,"name":"I.AM.THE.BOOP.WHICH.IS.APROACHI","steam_id":76561198049342507,"connected_time":3281000000000,"state":"active","ping":94},{"user_id":179,"name":"Place a dispancer here","steam_id":76561198061001376,"connected_time":803000000000,"state":"active","ping":76},{"user_id":180,"name":"DeterminedXD[HUN]","steam_id":76561199469006453,"connected_time":787000000000,"state":"active","ping":99},{"user_id":191,"name":"SodaHead13","steam_id":76561198202990635,"connected_time":21000000000,"state":"spawning","ping":60},{"user_id":168,"name":"Storm's Foreshadow","steam_id":76561198098462526,"connected_time":1205000000000,"state":"active","ping":68},{"user_id":169,"name":"Acucutl","steam_id":76561198133867096,"connected_time":1201000000000,"state":"active","ping":49},{"user_id":170,"name":"God Emperor of Mankind","steam_id":76561198300869935,"connected_time":1161000000000,"state":"active","ping":49},{"user_id":181,"name":"moocow916","steam_id":76561198040954339,"connected_time":782000000000,"state":"active","ping":36},{"user_id":183,"name":"golfmastr","steam_id":76561198993144124,"connected_time":683000000000,"state":"active","ping":60},{"user_id":139,"name":"Benzo Fury","steam_id":76561198025259336,"connected_time":3090000000000,"state":"active","ping":44},{"user_id":182,"name":"drifter","steam_id":76561197998271149,"connected_time":726000000000,"state":"active","ping":75},{"user_id":150,"name":"lulu","steam_id":76561199147764133,"connected_time":2868000000000,"state":"active","ping":65},{"user_id":184,"name":"Random Rogue","steam_id":76561198054075201,"connected_time":670000000000,"state":"active","ping":53},{"user_id":175,"name":"Thors","steam_id":76561197968739075,"connected_time":981000000000,"state":"active","ping":43},{"user_id":190,"name":"LivEssense","steam_id":76561198052476979,"connected_time":373000000000,"state":"active","ping":83},{"user_id":185,"name":"Certified Hood pybro (ua)","steam_id":76561198970562699,"connected_time":593000000000,"state":"active","ping":57},{"user_id":189,"name":"HoneyOTU","steam_id":76561198200366607,"connected_time":403000000000,"state":"active","ping":148},{"user_id":187,"name":"Optimist 50","steam_id":76561198039631442,"connected_time":534000000000,"state":"active","ping":82},{"user_id":188,"name":"Jeffrey Harpen","steam_id":76561199073314677,"connected_time":530000000000,"state":"active","ping":80},{"user_id":165,"name":"Flal","steam_id":76561198453819816,"connected_time":1384000000000,"state":"active","ping":69},{"user_id":151,"name":"ramirez","steam_id":76561198117060048,"connected_time":2735000000000,"state":"active","ping":63}]},{"server_id":21,"name":"Uncletopia | London | 5 | All Maps","name_short":"lon-5","host":"lon-1.uk.uncletopia.com","port":27055,"enabled":true,"region":"eu","cc":"gb","latitude":51.509865,"longitude":-0.118092,"reserved":0,"last_update":"0001-01-01T00:00:00Z","name_a2s":"Uncletopia | London | 5 | All Maps","protocol":17,"map":"pl_swiftwater_final1","folder":"tf","game":"Team Fortress","app_id":440,"player_count":24,"max_players":24,"Bots":0,"server_type":"Dedicated","server_os":"Linux","password":true,"vac":true,"version":"7961495","steam_id":85568392924742829,"keywords":["nocrits","nodmgspread","payload","uncletopia"],"game_id":440,"stv_port":27056,"stv_name":"Uncletopia | London | 5 | All Maps | STV","players":[{"user_id":91,"name":"Bylbameat","steam_id":76561199146468626,"connected_time":1848000000000,"state":"active","ping":130},{"user_id":89,"name":"The Emperor","steam_id":76561198215664905,"connected_time":1930000000000,"state":"active","ping":92},{"user_id":43,"name":"Weegad Wobus","steam_id":76561199429562693,"connected_time":4235000000000,"state":"active","ping":74},{"user_id":93,"name":"Ȩ̶͋̏̿́͒͒̊͊̈́̍̕̕ͅ","steam_id":76561198135000343,"connected_time":1813000000000,"state":"active","ping":61},{"user_id":94,"name":"Nuuppanaani","steam_id":76561198019577687,"connected_time":1768000000000,"state":"active","ping":67},{"user_id":101,"name":"★ Luxe","steam_id":76561198866691839,"connected_time":1642000000000,"state":"active","ping":41},{"user_id":44,"name":"Kenny_killer_69","steam_id":76561199465207725,"connected_time":4224000000000,"state":"active","ping":84},{"user_id":105,"name":"Hanako","steam_id":76561198133272179,"connected_time":967000000000,"state":"active","ping":86},{"user_id":107,"name":"UIguy","steam_id":76561199099790108,"connected_time":873000000000,"state":"active","ping":66},{"user_id":95,"name":"PaukkuPalikka","steam_id":76561198161933705,"connected_time":1761000000000,"state":"active","ping":76},{"user_id":108,"name":"randompixel","steam_id":76561198003941207,"connected_time":841000000000,"state":"active","ping":58},{"user_id":110,"name":"ɘɿɘʜT o||ɘH","steam_id":76561198106275890,"connected_time":755000000000,"state":"active","ping":55},{"user_id":96,"name":"Oxter","steam_id":76561198044951067,"connected_time":1748000000000,"state":"active","ping":75},{"user_id":97,"name":"cuddle","steam_id":76561198805181599,"connected_time":1743000000000,"state":"active","ping":49},{"user_id":80,"name":"FoaxZ","steam_id":76561198271717878,"connected_time":2476000000000,"state":"active","ping":68},{"user_id":111,"name":"Mangoman","steam_id":76561199089290269,"connected_time":717000000000,"state":"active","ping":54},{"user_id":98,"name":"Dark ^^","steam_id":76561198036241064,"connected_time":1711000000000,"state":"active","ping":73},{"user_id":116,"name":"M1rkus","steam_id":76561198171215447,"connected_time":126000000000,"state":"active","ping":75},{"user_id":100,"name":"SpilledMilk","steam_id":76561198174123971,"connected_time":1695000000000,"state":"active","ping":72},{"user_id":115,"name":"Donac Dum","steam_id":76561198064089294,"connected_time":559000000000,"state":"active","ping":51},{"user_id":84,"name":"fence_","steam_id":76561198150386379,"connected_time":2227000000000,"state":"active","ping":49},{"user_id":70,"name":"Dr. Funkenstein","steam_id":76561197977816210,"connected_time":2812000000000,"state":"active","ping":53},{"user_id":114,"name":"willo","steam_id":76561198034442999,"connected_time":600000000000,"state":"active","ping":59},{"user_id":102,"name":"muZ","steam_id":76561198060145190,"connected_time":1591000000000,"state":"active","ping":67}]},{"server_id":22,"name":"Uncletopia | London | 6 | All Maps","name_short":"lon-6","host":"lon-1.uk.uncletopia.com","port":27065,"enabled":true,"region":"eu","cc":"gb","latitude":51.509865,"longitude":-0.118092,"reserved":0,"last_update":"0001-01-01T00:00:00Z","name_a2s":"Uncletopia | London | 6 | All Maps","protocol":17,"map":"pl_borneo","folder":"tf","game":"Team Fortress","app_id":440,"player_count":24,"max_players":24,"Bots":0,"server_type":"Dedicated","server_os":"Linux","password":true,"vac":true,"version":"7961495","steam_id":85568392924742830,"keywords":["nocrits","nodmgspread","payload","uncletopia"],"game_id":440,"stv_port":27066,"stv_name":"Uncletopia | London | 6 | All Maps | STV","players":[{"user_id":239,"name":"Creative","steam_id":76561198835034247,"connected_time":74000000000,"state":"active","ping":88},{"user_id":233,"name":"Fish","steam_id":76561198152128484,"connected_time":406000000000,"state":"active","ping":46},{"user_id":218,"name":"wicked","steam_id":76561198164376035,"connected_time":1952000000000,"state":"active","ping":82},{"user_id":176,"name":"⸸aura⸸","steam_id":76561198066258544,"connected_time":3727000000000,"state":"active","ping":64},{"user_id":214,"name":"cock dick gaming","steam_id":76561199042470246,"connected_time":2133000000000,"state":"active","ping":75},{"user_id":208,"name":"Ixsus\u003c3","steam_id":76561198094756869,"connected_time":2274000000000,"state":"active","ping":69},{"user_id":155,"name":"Fuck it (unhandicaps)","steam_id":76561197983095579,"connected_time":4642000000000,"state":"active","ping":85},{"user_id":163,"name":"dopamine overdose","steam_id":76561199032511302,"connected_time":4387000000000,"state":"active","ping":106},{"user_id":232,"name":"Brian","steam_id":76561198077756206,"connected_time":1013000000000,"state":"active","ping":39},{"user_id":223,"name":"♂ Hagvan ♂","steam_id":76561198106441033,"connected_time":1544000000000,"state":"active","ping":91},{"user_id":229,"name":"david.klemen","steam_id":76561198382246222,"connected_time":1239000000000,"state":"active","ping":93},{"user_id":236,"name":"tralalaOuiOui","steam_id":76561197963471507,"connected_time":312000000000,"state":"active","ping":52},{"user_id":178,"name":"sAmasam","steam_id":76561198114953928,"connected_time":3441000000000,"state":"active","ping":70},{"user_id":222,"name":"hazy","steam_id":76561198189686075,"connected_time":1575000000000,"state":"active","ping":42},{"user_id":241,"name":"LOBZIK","steam_id":76561198114830120,"connected_time":12000000000,"state":"active","ping":137},{"user_id":237,"name":"FNF","steam_id":76561199151422826,"connected_time":300000000000,"state":"active","ping":119},{"user_id":234,"name":"Oak","steam_id":76561198067315672,"connected_time":335000000000,"state":"active","ping":48},{"user_id":235,"name":"Sza","steam_id":76561198022132105,"connected_time":317000000000,"state":"active","ping":65},{"user_id":240,"name":"After8","steam_id":76561198090750865,"connected_time":58000000000,"state":"active","ping":75},{"user_id":213,"name":"Akisян","steam_id":76561198078706435,"connected_time":2162000000000,"state":"active","ping":82},{"user_id":238,"name":"Fkc","steam_id":76561198007018507,"connected_time":131000000000,"state":"active","ping":55},{"user_id":215,"name":"Rockfrenzy","steam_id":76561198005428050,"connected_time":2081000000000,"state":"active","ping":71},{"user_id":226,"name":"LordTrap.exe","steam_id":76561198318089716,"connected_time":1359000000000,"state":"active","ping":60},{"user_id":117,"name":"transgender e-girl","steam_id":76561198168589809,"connected_time":8134000000000,"state":"active","ping":59}]},{"server_id":40,"name":"Uncletopia | London | 7 | Stopwatch","name_short":"lon-7","host":"lon-1.uk.uncletopia.com","port":27075,"enabled":true,"region":"eu","cc":"gb","latitude":51.509865,"longitude":-0.118092,"reserved":0,"last_update":"0001-01-01T00:00:00Z","name_a2s":"Uncletopia | London | 7 | Stopwatch","protocol":17,"map":"cp_metalworks","folder":"tf","game":"Team Fortress","app_id":440,"player_count":0,"max_players":24,"Bots":0,"server_type":"Dedicated","server_os":"Linux","password":true,"vac":true,"version":"7961495","steam_id":85568392924964314,"keywords":["cp","nocrits","nodmgspread","uncletopia"],"game_id":440,"stv_port":27076,"stv_name":"Uncletopia | London | 7 | Stopwatch | STV","players":null},{"server_id":41,"name":"Uncletopia | London | 8 | Community","name_short":"lon-8","host":"lon-1.uk.uncletopia.com","port":27085,"enabled":true,"region":"eu","cc":"gb","latitude":51.509865,"longitude":-0.118092,"reserved":0,"last_update":"0001-01-01T00:00:00Z","name_a2s":"Uncletopia | London | 8 | Community","protocol":17,"map":"workshop/koth_trenchfoot_b1a.ugc731436616","folder":"tf","game":"Team Fortress","app_id":440,"player_count":0,"max_players":24,"Bots":0,"server_type":"Dedicated","server_os":"Linux","password":true,"vac":true,"version":"7961495","steam_id":85568392924964315,"keywords":["cp","nocrits","nodmgspread","uncletopia"],"game_id":440,"stv_port":27086,"stv_name":"Uncletopia | London | 8 | Community | STV","players":null},{"server_id":300,"name":"Uncletopia | Montréal | 1 | One Thousand Uncles","name_short":"mtl-1","host":"mtl-1.ca.uncletopia.com","port":27015,"enabled":true,"region":"us-east","cc":"ca","latitude":45.50889,"longitude":-73.56167,"reserved":0,"last_update":"0001-01-01T00:00:00Z","name_a2s":"","protocol":0,"map":"","folder":"","game":"","app_id":0,"player_count":0,"max_players":0,"Bots":0,"server_type":"","server_os":"","password":false,"vac":false,"version":"","steam_id":0,"keywords":null,"game_id":0,"stv_port":0,"stv_name":"","players":null},{"server_id":301,"name":"Uncletopia | Montréal | 2 | One Thousand Uncles","name_short":"mtl-2","host":"mtl-1.ca.uncletopia.com","port":27025,"enabled":true,"region":"us-east","cc":"ca","latitude":45.50889,"longitude":-73.56167,"reserved":0,"last_update":"0001-01-01T00:00:00Z","name_a2s":"","protocol":0,"map":"","folder":"","game":"","app_id":0,"player_count":0,"max_players":0,"Bots":0,"server_type":"","server_os":"","password":false,"vac":false,"version":"","steam_id":0,"keywords":null,"game_id":0,"stv_port":0,"stv_name":"","players":null},{"server_id":302,"name":"Uncletopia | Montréal | 3 | One Thousand Uncles","name_short":"mtl-3","host":"mtl-1.ca.uncletopia.com","port":27035,"enabled":true,"region":"us-east","cc":"ca","latitude":45.50889,"longitude":-73.56167,"reserved":0,"last_update":"0001-01-01T00:00:00Z","name_a2s":"","protocol":0,"map":"","folder":"","game":"","app_id":0,"player_count":12,"max_players":0,"Bots":0,"server_type":"","server_os":"","password":false,"vac":false,"version":"","steam_id":0,"keywords":null,"game_id":0,"stv_port":0,"stv_name":"","players":[{"user_id":197,"name":"Mysterious Stranger","steam_id":76561198027779564,"connected_time":6189000000000,"state":"active","ping":67},{"user_id":222,"name":"some tree","steam_id":76561198166093346,"connected_time":3620000000000,"state":"active","ping":36},{"user_id":243,"name":"Lumokup","steam_id":76561199188237143,"connected_time":1480000000000,"state":"active","ping":53},{"user_id":161,"name":"Yep","steam_id":76561198041437251,"connected_time":10414000000000,"state":"active","ping":61},{"user_id":241,"name":"hl3 hot gay sex","steam_id":76561199122281764,"connected_time":1934000000000,"state":"active","ping":94},{"user_id":246,"name":"manbearswineflu","steam_id":76561198083945137,"connected_time":1196000000000,"state":"active","ping":75},{"user_id":252,"name":"Psychosis","steam_id":76561198078659070,"connected_time":134000000000,"state":"active","ping":76},{"user_id":240,"name":"Garfield (real)","steam_id":76561199077027954,"connected_time":2021000000000,"state":"active","ping":91},{"user_id":209,"name":"ComatosePhoenix","steam_id":76561198071702821,"connected_time":4292000000000,"state":"active","ping":64},{"user_id":251,"name":"HappyMonkey","steam_id":76561199131602359,"connected_time":329000000000,"state":"active","ping":59},{"user_id":254,"name":"Insecure Potato","steam_id":76561199404322984,"connected_time":65000000000,"state":"active","ping":41},{"user_id":178,"name":"Jake_Spencer","steam_id":76561198025176750,"connected_time":6545000000000,"state":"active","ping":89}]},{"server_id":13,"name":"Uncletopia | New York City | 1 | All Maps","name_short":"nyc-1","host":"nyc-1.us.uncletopia.com","port":27015,"enabled":true,"region":"us-east","cc":"us","latitude":40.73061,"longitude":-73.93524,"reserved":0,"last_update":"0001-01-01T00:00:00Z","name_a2s":"Uncletopia | New York City | 1 | All Maps","protocol":17,"map":"koth_lakeside_final","folder":"tf","game":"Team Fortress","app_id":440,"player_count":24,"max_players":24,"Bots":0,"server_type":"Dedicated","server_os":"Linux","password":true,"vac":true,"version":"7961495","steam_id":85568392924469993,"keywords":["cp","nocrits","nodmgspread","uncletopia"],"game_id":440,"stv_port":27016,"stv_name":"Uncletopia | New York City | 1 | All Maps | STV","players":[{"user_id":159,"name":"BeefClapper420","steam_id":76561198080892634,"connected_time":4000000000,"state":"spawning","ping":29},{"user_id":157,"name":"space man","steam_id":76561198066333670,"connected_time":664000000000,"state":"active","ping":70},{"user_id":153,"name":"The Greendale Human Beings","steam_id":76561198055433422,"connected_time":1619000000000,"state":"active","ping":73},{"user_id":143,"name":"Munchlax","steam_id":76561199071002439,"connected_time":2139000000000,"state":"active","ping":78},{"user_id":156,"name":"Xruffel (mushroom)","steam_id":76561198067697879,"connected_time":1335000000000,"state":"active","ping":47},{"user_id":117,"name":"Your Loyal Familiar","steam_id":76561198106476075,"connected_time":2871000000000,"state":"active","ping":75},{"user_id":118,"name":"jaytheking05","steam_id":76561198856419769,"connected_time":2869000000000,"state":"active","ping":46},{"user_id":81,"name":"dj magdogrozen","steam_id":76561198984131011,"connected_time":5368000000000,"state":"active","ping":68},{"user_id":150,"name":"Jeremopolis","steam_id":76561198079467492,"connected_time":1861000000000,"state":"active","ping":87},{"user_id":140,"name":"bachphong760 | Ham Mafia |","steam_id":76561199433780443,"connected_time":2311000000000,"state":"active","ping":82},{"user_id":121,"name":"Cosmo","steam_id":76561198042147273,"connected_time":2804000000000,"state":"active","ping":85},{"user_id":111,"name":"cyberas","steam_id":76561198257092290,"connected_time":3205000000000,"state":"active","ping":73},{"user_id":90,"name":"--_Cook_--","steam_id":76561198080855748,"connected_time":5260000000000,"state":"active","ping":53},{"user_id":94,"name":"Big Gay Pyro","steam_id":76561198809770239,"connected_time":4670000000000,"state":"active","ping":53},{"user_id":139,"name":"TheWallaby","steam_id":76561198948037546,"connected_time":2348000000000,"state":"active","ping":49},{"user_id":113,"name":"henry","steam_id":76561198313364985,"connected_time":3114000000000,"state":"active","ping":95},{"user_id":86,"name":"Raptorria","steam_id":76561198105613110,"connected_time":5301000000000,"state":"active","ping":60},{"user_id":83,"name":"A Puppy","steam_id":76561198828184456,"connected_time":5335000000000,"state":"active","ping":49},{"user_id":122,"name":"HOODOO_LOVER_2007","steam_id":76561199087691214,"connected_time":2799000000000,"state":"active","ping":93},{"user_id":105,"name":"oxycodone","steam_id":76561198188722751,"connected_time":3434000000000,"state":"active","ping":111},{"user_id":149,"name":"Great","steam_id":76561198895516433,"connected_time":1891000000000,"state":"active","ping":57},{"user_id":144,"name":"Top Frog","steam_id":76561198072793446,"connected_time":2046000000000,"state":"active","ping":69},{"user_id":158,"name":"Birch","steam_id":76561198316231704,"connected_time":509000000000,"state":"active","ping":44},{"user_id":133,"name":"freyjaaaaaaaaaaaaaaaaaaaaaaaaaa","steam_id":76561198249206656,"connected_time":2603000000000,"state":"active","ping":72}]},{"server_id":14,"name":"Uncletopia | New York City | 2 | All Maps","name_short":"nyc-2","host":"nyc-1.us.uncletopia.com","port":27025,"enabled":true,"region":"us-east","cc":"us","latitude":40.73061,"longitude":-73.93524,"reserved":0,"last_update":"0001-01-01T00:00:00Z","name_a2s":"Uncletopia | New York City | 2 | All Maps","protocol":17,"map":"pl_goldrush","folder":"tf","game":"Team Fortress","app_id":440,"player_count":23,"max_players":24,"Bots":0,"server_type":"Dedicated","server_os":"Linux","password":true,"vac":true,"version":"7961495","steam_id":85568392924469994,"keywords":["nocrits","nodmgspread","payload","uncletopia"],"game_id":440,"stv_port":27026,"stv_name":"Uncletopia | New York City | 2 | All Maps | STV","players":[{"user_id":181,"name":"Terminally Online Weeb [Dexgod]","steam_id":76561198017130786,"connected_time":6212000000000,"state":"active","ping":68},{"user_id":250,"name":"Bussy Bandit","steam_id":76561198034028769,"connected_time":1184000000000,"state":"active","ping":71},{"user_id":226,"name":"GuyGoom","steam_id":76561198254522178,"connected_time":2321000000000,"state":"active","ping":70},{"user_id":251,"name":"LennyGaggins","steam_id":76561198119768140,"connected_time":1042000000000,"state":"active","ping":75},{"user_id":218,"name":"epic cheeseburger","steam_id":76561198041995180,"connected_time":2517000000000,"state":"active","ping":87},{"user_id":256,"name":"Nut Commander","steam_id":76561198065989058,"connected_time":445000000000,"state":"active","ping":80},{"user_id":245,"name":"all_classics","steam_id":76561198012738913,"connected_time":1291000000000,"state":"active","ping":70},{"user_id":254,"name":"you forgot the sauce","steam_id":76561198387016713,"connected_time":460000000000,"state":"active","ping":63},{"user_id":134,"name":"Ziath","steam_id":76561198094009164,"connected_time":10315000000000,"state":"active","ping":45},{"user_id":227,"name":"monsterkill4567","steam_id":76561198272986367,"connected_time":2289000000000,"state":"active","ping":115},{"user_id":193,"name":"Tohbeh","steam_id":76561198191173883,"connected_time":5207000000000,"state":"active","ping":111},{"user_id":223,"name":"Zerk","steam_id":76561198133060530,"connected_time":2350000000000,"state":"active","ping":59},{"user_id":236,"name":"artichoke","steam_id":76561198980994364,"connected_time":2131000000000,"state":"active","ping":86},{"user_id":253,"name":"❤Womp❤","steam_id":76561198167488304,"connected_time":615000000000,"state":"active","ping":69},{"user_id":241,"name":"Sigiferd","steam_id":76561198148788110,"connected_time":1748000000000,"state":"active","ping":127},{"user_id":230,"name":"LittleFieryOne","steam_id":76561198107463724,"connected_time":2228000000000,"state":"active","ping":71},{"user_id":247,"name":"JJames","steam_id":76561198055687973,"connected_time":1254000000000,"state":"active","ping":74},{"user_id":237,"name":"YOU WHAT?!","steam_id":76561198418679471,"connected_time":2039000000000,"state":"active","ping":58},{"user_id":242,"name":"D_Gamer","steam_id":76561198964808451,"connected_time":1631000000000,"state":"active","ping":58},{"user_id":243,"name":"cellogamer","steam_id":76561198016937098,"connected_time":1377000000000,"state":"active","ping":56},{"user_id":255,"name":"Sagoogoo","steam_id":76561198176061614,"connected_time":448000000000,"state":"active","ping":84},{"user_id":217,"name":"sudsy wudsy","steam_id":76561199123152847,"connected_time":2589000000000,"state":"active","ping":67},{"user_id":249,"name":"the.land.of.avalon","steam_id":76561198245431668,"connected_time":1233000000000,"state":"active","ping":75}]},{"server_id":15,"name":"Uncletopia | New York City | 3 | Stopwatch","name_short":"nyc-3","host":"nyc-1.us.uncletopia.com","port":27035,"enabled":true,"region":"us-east","cc":"us","latitude":40.73061,"longitude":-73.93524,"reserved":0,"last_update":"0001-01-01T00:00:00Z","name_a2s":"Uncletopia | New York City | 3 | Stopwatch","protocol":17,"map":"workshop/koth_ramjam_rc1.ugc459778887","folder":"tf","game":"Team Fortress","app_id":440,"player_count":2,"max_players":24,"Bots":0,"server_type":"Dedicated","server_os":"Linux","password":true,"vac":true,"version":"7961495","steam_id":85568392924742820,"keywords":["cp","nocrits","nodmgspread","uncletopia"],"game_id":440,"stv_port":27036,"stv_name":"Uncletopia | New York City | 3 | Stopwatch | STV","players":[{"user_id":9,"name":"HowToBruh","steam_id":76561199171433325,"connected_time":1071000000000,"state":"active","ping":77},{"user_id":10,"name":"MerryDrg","steam_id":76561198872466384,"connected_time":1041000000000,"state":"active","ping":72}]},{"server_id":16,"name":"Uncletopia | New York City | 4 | Community","name_short":"nyc-4","host":"nyc-1.us.uncletopia.com","port":27045,"enabled":true,"region":"us-east","cc":"us","latitude":40.73061,"longitude":-73.93524,"reserved":0,"last_update":"0001-01-01T00:00:00Z","name_a2s":"Uncletopia | New York City | 4 | Community","protocol":17,"map":"workshop/koth_product_final.ugc454272353","folder":"tf","game":"Team Fortress","app_id":440,"player_count":7,"max_players":24,"Bots":0,"server_type":"Dedicated","server_os":"Linux","password":true,"vac":true,"version":"7961495","steam_id":85568392924742821,"keywords":["cp","nocrits","nodmgspread","uncletopia"],"game_id":440,"stv_port":27046,"stv_name":"Uncletopia | New York City | 4 | Community | STV","players":[{"user_id":24,"name":"Pearez","steam_id":76561198158141878,"connected_time":40000000000,"state":"active","ping":117},{"user_id":14,"name":"pipebombrater","steam_id":76561199029030831,"connected_time":962000000000,"state":"active","ping":63},{"user_id":19,"name":"sundaesswirling","steam_id":76561199483532151,"connected_time":642000000000,"state":"active","ping":61},{"user_id":10,"name":"Wafflehead","steam_id":76561198053539741,"connected_time":2656000000000,"state":"active","ping":62},{"user_id":16,"name":"DaybreakerYa","steam_id":76561199013632613,"connected_time":758000000000,"state":"active","ping":64},{"user_id":22,"name":"SebastionFletcher2005","steam_id":76561198878574189,"connected_time":214000000000,"state":"active","ping":75},{"user_id":23,"name":"Professional Brohamad","steam_id":76561198824025210,"connected_time":88000000000,"state":"active","ping":60}]},{"server_id":142,"name":"Uncletopia | São Paulo | 1 | All Maps","name_short":"sao-1","host":"sao-1.br.uncletopia.com","port":27015,"enabled":true,"region":"sa","cc":"br","latitude":-23.533773,"longitude":-46.62529,"reserved":0,"last_update":"0001-01-01T00:00:00Z","name_a2s":"Uncletopia | São Paulo | 1 | All Maps","protocol":17,"map":"koth_lakeside_final","folder":"tf","game":"Team Fortress","app_id":440,"player_count":0,"max_players":24,"Bots":0,"server_type":"Dedicated","server_os":"Linux","password":true,"vac":true,"version":"7961495","steam_id":85568392924469996,"keywords":["cp","nocrits","nodmgspread","uncletopia"],"game_id":440,"stv_port":27016,"stv_name":"Uncletopia | São Paulo | 1 | All Maps | STV","players":null},{"server_id":143,"name":"Uncletopia | São Paulo | 2 | Community","name_short":"sao-2","host":"sao-2.br.uncletopia.com","port":27015,"enabled":true,"region":"sa","cc":"br","latitude":-23.533773,"longitude":-46.62529,"reserved":0,"last_update":"0001-01-01T00:00:00Z","name_a2s":"Uncletopia | São Paulo | 2 | Community","protocol":17,"map":"workshop/pl_divulgence_b4b.ugc2884808746","folder":"tf","game":"Team Fortress","app_id":440,"player_count":0,"max_players":24,"Bots":0,"server_type":"Dedicated","server_os":"Linux","password":true,"vac":true,"version":"7961495","steam_id":85568392924485349,"keywords":["nocrits","nodmgspread","payload","uncletopia"],"game_id":440,"stv_port":27016,"stv_name":"Uncletopia | São Paulo | 2 | Community | STV","players":null},{"server_id":7,"name":"Uncletopia | Seattle | 1 | All Maps","name_short":"sea-1","host":"sea-1.us.uncletopia.com","port":27015,"enabled":true,"region":"us-west","cc":"us","latitude":47.608013,"longitude":-122.33517,"reserved":0,"last_update":"0001-01-01T00:00:00Z","name_a2s":"Uncletopia | Seattle | 1 | All Maps","protocol":17,"map":"pl_goldrush","folder":"tf","game":"Team Fortress","app_id":440,"player_count":24,"max_players":24,"Bots":0,"server_type":"Dedicated","server_os":"Linux","password":true,"vac":true,"version":"7961495","steam_id":85568392924469997,"keywords":["nocrits","nodmgspread","payload","uncletopia"],"game_id":440,"stv_port":27016,"stv_name":"Uncletopia | Seattle | 1 | All Maps | STV","players":[{"user_id":89,"name":"Cloud","steam_id":76561198272454184,"connected_time":13380000000000,"state":"active","ping":163},{"user_id":201,"name":"ThePriceIsRice","steam_id":76561198079069543,"connected_time":3245000000000,"state":"active","ping":61},{"user_id":197,"name":"worker","steam_id":76561198039608940,"connected_time":3731000000000,"state":"active","ping":64},{"user_id":226,"name":"tum","steam_id":76561198084712019,"connected_time":314000000000,"state":"active","ping":81},{"user_id":196,"name":"O","steam_id":76561198450073779,"connected_time":3779000000000,"state":"active","ping":45},{"user_id":233,"name":"amagicowl","steam_id":76561199060487814,"connected_time":227000000000,"state":"active","ping":59},{"user_id":162,"name":"TheMagicMrWaffle","steam_id":76561198104357256,"connected_time":8752000000000,"state":"active","ping":70},{"user_id":237,"name":"Dimple #TF2Center","steam_id":76561198980324190,"connected_time":43000000000,"state":"active","ping":48},{"user_id":224,"name":"amish","steam_id":76561199033484246,"connected_time":615000000000,"state":"active","ping":74},{"user_id":229,"name":"Pile of Spinach","steam_id":76561198043068841,"connected_time":294000000000,"state":"active","ping":71},{"user_id":217,"name":"allMAX","steam_id":76561198270980670,"connected_time":1255000000000,"state":"active","ping":151},{"user_id":212,"name":"UserLeft","steam_id":76561197998297379,"connected_time":1782000000000,"state":"active","ping":70},{"user_id":236,"name":"VeryRareSkin","steam_id":76561199443527900,"connected_time":195000000000,"state":"active","ping":114},{"user_id":231,"name":"ѕυ【ʕ•ᴥ•ʔ】","steam_id":76561198071233302,"connected_time":278000000000,"state":"active","ping":73},{"user_id":232,"name":"Rustyorion","steam_id":76561198439186347,"connected_time":275000000000,"state":"active","ping":58},{"user_id":234,"name":"=Silver=","steam_id":76561198292307127,"connected_time":221000000000,"state":"active","ping":73},{"user_id":203,"name":"TheCowledWiz","steam_id":76561198016735868,"connected_time":3135000000000,"state":"active","ping":46},{"user_id":235,"name":"boffo","steam_id":76561198096978718,"connected_time":220000000000,"state":"active","ping":63},{"user_id":221,"name":"has not touched grass in 6 year","steam_id":76561198007867721,"connected_time":700000000000,"state":"active","ping":77},{"user_id":171,"name":"wicked nasty killstreak medigun","steam_id":76561199488457138,"connected_time":8227000000000,"state":"active","ping":57},{"user_id":225,"name":"Steve","steam_id":76561198352805460,"connected_time":401000000000,"state":"active","ping":69},{"user_id":195,"name":"some nerd","steam_id":76561198297272878,"connected_time":3872000000000,"state":"active","ping":75},{"user_id":179,"name":"Preston","steam_id":76561198255721392,"connected_time":5824000000000,"state":"active","ping":114},{"user_id":209,"name":"Tom Skirrett","steam_id":76561198014600788,"connected_time":1872000000000,"state":"active","ping":64}]},{"server_id":119,"name":"Uncletopia | Seattle | 2 | All Maps","name_short":"sea-2","host":"sea-1.us.uncletopia.com","port":27025,"enabled":true,"region":"us-west","cc":"us","latitude":47.608013,"longitude":-122.33517,"reserved":0,"last_update":"0001-01-01T00:00:00Z","name_a2s":"Uncletopia | Seattle | 2 | All Maps","protocol":17,"map":"ctf_sawmill","folder":"tf","game":"Team Fortress","app_id":440,"player_count":10,"max_players":24,"Bots":0,"server_type":"Dedicated","server_os":"Linux","password":true,"vac":true,"version":"7961495","steam_id":85568392924469998,"keywords":["ctf","nocrits","nodmgspread","uncletopia"],"game_id":440,"stv_port":27026,"stv_name":"Uncletopia | Seattle | 2 | All Maps | STV","players":[{"user_id":14,"name":"Birdman743","steam_id":76561198799636748,"connected_time":2692000000000,"state":"active","ping":45},{"user_id":15,"name":"blue duck the 2nd","steam_id":76561198263142765,"connected_time":1996000000000,"state":"active","ping":129},{"user_id":17,"name":"jacob.antonmx","steam_id":76561198973846951,"connected_time":1630000000000,"state":"active","ping":148},{"user_id":38,"name":"kdhbuilder","steam_id":76561199058095193,"connected_time":36000000000,"state":"active","ping":123},{"user_id":39,"name":"YoursTruely","steam_id":76561198072129131,"connected_time":16000000000,"state":"spawning","ping":71},{"user_id":36,"name":"SirFroot","steam_id":76561198410239576,"connected_time":356000000000,"state":"active","ping":51},{"user_id":35,"name":"Nyx","steam_id":76561199010550945,"connected_time":374000000000,"state":"active","ping":39},{"user_id":37,"name":"ThatOneHermit","steam_id":76561199030898903,"connected_time":280000000000,"state":"active","ping":106},{"user_id":24,"name":"FlexTape","steam_id":76561198871834867,"connected_time":946000000000,"state":"active","ping":110},{"user_id":25,"name":"gamerkiddude08","steam_id":76561198403417575,"connected_time":939000000000,"state":"active","ping":72}]},{"server_id":406,"name":"Uncletopia | Seattle | 3 | Stopwatch","name_short":"sea-3","host":"sea-1.us.uncletopia.com","port":27035,"enabled":true,"region":"us-west","cc":"us","latitude":47.608013,"longitude":-122.33517,"reserved":0,"last_update":"0001-01-01T00:00:00Z","name_a2s":"Uncletopia | Seattle | 3 | Stopwatch","protocol":17,"map":"workshop/pl_badwater_pro_v12.ugc2142942074","folder":"tf","game":"Team Fortress","app_id":440,"player_count":0,"max_players":24,"Bots":0,"server_type":"Dedicated","server_os":"Linux","password":true,"vac":true,"version":"7961495","steam_id":85568392924515217,"keywords":["nocrits","nodmgspread","payload","uncletopia"],"game_id":440,"stv_port":27036,"stv_name":"Uncletopia | Seattle | 3 | Stopwatch | STV","players":null},{"server_id":17,"name":"Uncletopia | San Francisco | 1 | All Maps","name_short":"sfo-1","host":"sfo-1.us.uncletopia.com","port":27015,"enabled":true,"region":"us-west","cc":"us","latitude":37.77397,"longitude":-122.4313,"reserved":0,"last_update":"0001-01-01T00:00:00Z","name_a2s":"Uncletopia | San Francisco | 1 | All Maps","protocol":17,"map":"pl_borneo","folder":"tf","game":"Team Fortress","app_id":440,"player_count":1,"max_players":24,"Bots":0,"server_type":"Dedicated","server_os":"Linux","password":true,"vac":true,"version":"7961495","steam_id":85568392924469999,"keywords":["nocrits","nodmgspread","payload","uncletopia"],"game_id":440,"stv_port":27016,"stv_name":"Uncletopia | San Francisco | 1 | All Maps | STV","players":[{"user_id":22,"name":"PizzaMuncher89","steam_id":76561199121856753,"connected_time":316000000000,"state":"active","ping":77}]},{"server_id":18,"name":"Uncletopia | San Francisco | 2 | All Maps","name_short":"sfo-2","host":"sfo-1.us.uncletopia.com","port":27025,"enabled":true,"region":"us-west","cc":"us","latitude":37.77397,"longitude":-122.4313,"reserved":0,"last_update":"0001-01-01T00:00:00Z","name_a2s":"Uncletopia | San Francisco | 2 | All Maps","protocol":17,"map":"pl_frontier_final","folder":"tf","game":"Team Fortress","app_id":440,"player_count":0,"max_players":24,"Bots":0,"server_type":"Dedicated","server_os":"Linux","password":true,"vac":true,"version":"7961495","steam_id":85568392924470000,"keywords":["nocrits","nodmgspread","payload","uncletopia"],"game_id":440,"stv_port":27026,"stv_name":"Uncletopia | San Francisco | 2 | All Maps | STV","players":null},{"server_id":19,"name":"Uncletopia | San Francisco | 3 | Stopwatch","name_short":"sfo-3","host":"sfo-1.us.uncletopia.com","port":27035,"enabled":true,"region":"us-west","cc":"us","latitude":37.77397,"longitude":-122.4313,"reserved":0,"last_update":"0001-01-01T00:00:00Z","name_a2s":"Uncletopia | San Francisco | 3 | Stopwatch","protocol":17,"map":"pl_pier","folder":"tf","game":"Team Fortress","app_id":440,"player_count":0,"max_players":24,"Bots":0,"server_type":"Dedicated","server_os":"Linux","password":true,"vac":true,"version":"7961495","steam_id":85568392924742824,"keywords":["nocrits","nodmgspread","payload","uncletopia"],"game_id":440,"stv_port":27036,"stv_name":"Uncletopia | San Francisco | 3 | Stopwatch | STV","players":null},{"server_id":20,"name":"Uncletopia | San Francisco | 4 | Community","name_short":"sfo-4","host":"sfo-1.us.uncletopia.com","port":27045,"enabled":true,"region":"us-west","cc":"us","latitude":37.77397,"longitude":-122.4313,"reserved":0,"last_update":"0001-01-01T00:00:00Z","name_a2s":"Uncletopia | San Francisco | 4 | Community","protocol":17,"map":"pl_pier","folder":"tf","game":"Team Fortress","app_id":440,"player_count":0,"max_players":24,"Bots":0,"server_type":"Dedicated","server_os":"Linux","password":true,"vac":true,"version":"7961495","steam_id":85568392924742826,"keywords":["nocrits","nodmgspread","payload","uncletopia"],"game_id":440,"stv_port":27046,"stv_name":"Uncletopia | San Francisco | 4 | Community | STV","players":null},{"server_id":141,"name":"Uncletopia | Sydney | 1 | All Maps","name_short":"syd-1","host":"syd-1.au.uncletopia.com","port":27015,"enabled":true,"region":"au","cc":"au","latitude":-33.865143,"longitude":151.2099,"reserved":0,"last_update":"0001-01-01T00:00:00Z","name_a2s":"Uncletopia | Sydney | 1 | All Maps","protocol":17,"map":"koth_cascade","folder":"tf","game":"Team Fortress","app_id":440,"player_count":0,"max_players":24,"Bots":0,"server_type":"Dedicated","server_os":"Linux","password":true,"vac":true,"version":"7961495","steam_id":85568392924470001,"keywords":["cp","nocrits","nodmgspread","uncletopia"],"game_id":440,"stv_port":27016,"stv_name":"Uncletopia | Sydney | 1 | All Maps | STV","players":null},{"server_id":123,"name":"Uncletopia | Sydney | 2 | All Maps","name_short":"syd-2","host":"syd-1.au.uncletopia.com","port":27025,"enabled":true,"region":"au","cc":"au","latitude":-33.865143,"longitude":151.2099,"reserved":0,"last_update":"0001-01-01T00:00:00Z","name_a2s":"Uncletopia | Sydney | 2 | All Maps","protocol":17,"map":"pl_swiftwater_final1","folder":"tf","game":"Team Fortress","app_id":440,"player_count":0,"max_players":24,"Bots":0,"server_type":"Dedicated","server_os":"Linux","password":true,"vac":true,"version":"7961495","steam_id":85568392924470002,"keywords":["nocrits","nodmgspread","payload","uncletopia"],"game_id":440,"stv_port":27026,"stv_name":"Uncletopia | Sydney | 2 | All Maps | STV","players":null},{"server_id":395,"name":"Uncletopia | Sydney | 3 | All Maps","name_short":"syd-3","host":"syd-1.au.uncletopia.com","port":27035,"enabled":true,"region":"au","cc":"au","latitude":-33.865143,"longitude":151.2099,"reserved":0,"last_update":"0001-01-01T00:00:00Z","name_a2s":"Uncletopia | Sydney | 3 | All Maps","protocol":17,"map":"pl_borneo","folder":"tf","game":"Team Fortress","app_id":440,"player_count":0,"max_players":24,"Bots":0,"server_type":"Dedicated","server_os":"Linux","password":true,"vac":true,"version":"7961495","steam_id":85568392925194467,"keywords":["nocrits","nodmgspread","payload","uncletopia"],"game_id":440,"stv_port":27036,"stv_name":"Uncletopia | Sydney | 3 | All Maps | STV","players":null},{"server_id":396,"name":"Uncletopia | Sydney | 4 | All Maps","name_short":"syd-4","host":"syd-1.au.uncletopia.com","port":27045,"enabled":true,"region":"au","cc":"au","latitude":-33.865143,"longitude":151.2099,"reserved":0,"last_update":"0001-01-01T00:00:00Z","name_a2s":"Uncletopia | Sydney | 4 | All Maps","protocol":17,"map":"koth_lakeside_final","folder":"tf","game":"Team Fortress","app_id":440,"player_count":0,"max_players":24,"Bots":0,"server_type":"Dedicated","server_os":"Linux","password":true,"vac":true,"version":"7961495","steam_id":85568392925397958,"keywords":["cp","nocrits","nodmgspread","uncletopia"],"game_id":440,"stv_port":27046,"stv_name":"Uncletopia | Sydney | 4 | All Maps | STV","players":null},{"server_id":58,"name":"Uncletopia | Sydney | 5 | Stopwatch","name_short":"syd-5","host":"syd-1.au.uncletopia.com","port":27055,"enabled":true,"region":"au","cc":"au","latitude":-33.865143,"longitude":151.2099,"reserved":0,"last_update":"0001-01-01T00:00:00Z","name_a2s":"Uncletopia | Sydney | 5 | Stopwatch","protocol":17,"map":"workshop/cp_reckoner_rc6.ugc674719999","folder":"tf","game":"Team Fortress","app_id":440,"player_count":0,"max_players":24,"Bots":0,"server_type":"Dedicated","server_os":"Linux","password":true,"vac":true,"version":"7961495","steam_id":85568392925397959,"keywords":["cp","nocrits","nodmgspread","uncletopia"],"game_id":440,"stv_port":27056,"stv_name":"Uncletopia | Sydney | 5 | Stopwatch | STV","players":null},{"server_id":59,"name":"Uncletopia | Sydney | 6 | Community","name_short":"syd-6","host":"syd-1.au.uncletopia.com","port":27065,"enabled":true,"region":"au","cc":"au","latitude":-33.865143,"longitude":151.2099,"reserved":0,"last_update":"0001-01-01T00:00:00Z","name_a2s":"Uncletopia | Sydney | 6 | Community","protocol":17,"map":"workshop/pl_badwater_pro_v12.ugc2142942074","folder":"tf","game":"Team Fortress","app_id":440,"player_count":0,"max_players":24,"Bots":0,"server_type":"Dedicated","server_os":"Linux","password":true,"vac":true,"version":"7961495","steam_id":85568392925397960,"keywords":["nocrits","nodmgspread","payload","uncletopia"],"game_id":440,"stv_port":27066,"stv_name":"Uncletopia | Sydney | 6 | Community | STV","players":null},{"server_id":49,"name":"Uncletopia | Warsaw | 1 | One Thousand Uncles","name_short":"waw-1","host":"waw-1.pl.uncletopia.com","port":27015,"enabled":true,"region":"eu","cc":"pl","latitude":52.2297,"longitude":21.017532,"reserved":0,"last_update":"0001-01-01T00:00:00Z","name_a2s":"Uncletopia | Warsaw | 1 | One Thousand Uncles","protocol":17,"map":"pl_snowycoast","folder":"tf","game":"Team Fortress","app_id":440,"player_count":28,"max_players":32,"Bots":16,"server_type":"Dedicated","server_os":"Linux","password":true,"vac":true,"version":"7961495","steam_id":85568392925397850,"keywords":["alltalk","bots","danepve","increased_maxplayers","nocrits","norespawntime","payload","uncletopia"],"game_id":440,"stv_port":0,"stv_name":"","players":[{"user_id":467,"name":"мастер по СПИДу","steam_id":76561199043540951,"connected_time":2519000000000,"state":"active","ping":122},{"user_id":486,"name":"Азатот","steam_id":76561198870752175,"connected_time":356000000000,"state":"active","ping":84},{"user_id":470,"name":"Frylock","steam_id":76561198050292560,"connected_time":2009000000000,"state":"active","ping":61},{"user_id":506,"name":"board","steam_id":76561198031682308,"connected_time":122000000000,"state":"active","ping":67},{"user_id":473,"name":"Kewlan","steam_id":76561198042775020,"connected_time":1501000000000,"state":"active","ping":89},{"user_id":474,"name":"Eno I 217","steam_id":76561199106317833,"connected_time":1416000000000,"state":"active","ping":89},{"user_id":475,"name":"Amon Gus","steam_id":76561199094540960,"connected_time":1169000000000,"state":"active","ping":66},{"user_id":476,"name":"turknaskooyun","steam_id":76561199222306117,"connected_time":1117000000000,"state":"active","ping":175},{"user_id":477,"name":"Mabert","steam_id":76561198436058407,"connected_time":1114000000000,"state":"active","ping":45},{"user_id":485,"name":"ashi","steam_id":76561198424646794,"connected_time":380000000000,"state":"active","ping":78},{"user_id":484,"name":"KENZO","steam_id":76561197993520279,"connected_time":439000000000,"state":"active","ping":62},{"user_id":487,"name":"vananagaev812","steam_id":76561198354166513,"connected_time":343000000000,"state":"active","ping":57}]},{"server_id":50,"name":"Uncletopia | Warsaw | 2 | One Thousand Uncles","name_short":"waw-2","host":"waw-1.pl.uncletopia.com","port":27025,"enabled":true,"region":"eu","cc":"pl","latitude":52.2297,"longitude":21.017532,"reserved":0,"last_update":"0001-01-01T00:00:00Z","name_a2s":"Uncletopia | Warsaw | 2 | One Thousand Uncles","protocol":17,"map":"pl_goldrush","folder":"tf","game":"Team Fortress","app_id":440,"player_count":30,"max_players":32,"Bots":16,"server_type":"Dedicated","server_os":"Linux","password":true,"vac":true,"version":"7961495","steam_id":85568392925397851,"keywords":["alltalk","bots","danepve","increased_maxplayers","nocrits","norespawntime","payload","uncletopia"],"game_id":440,"stv_port":0,"stv_name":"","players":[{"user_id":32,"name":"The guy who makes ruzzian cry","steam_id":76561199252795027,"connected_time":2137000000000,"state":"active","ping":59},{"user_id":33,"name":"Rodia","steam_id":76561197968293161,"connected_time":1777000000000,"state":"active","ping":45},{"user_id":34,"name":"heheboi","steam_id":76561198866196217,"connected_time":1635000000000,"state":"active","ping":98},{"user_id":24,"name":"JuJuMann","steam_id":76561198289461028,"connected_time":3479000000000,"state":"active","ping":184},{"user_id":35,"name":"Purpurea","steam_id":76561198075376419,"connected_time":1248000000000,"state":"active","ping":76},{"user_id":26,"name":"TheJustTeaPlayer","steam_id":76561198980203796,"connected_time":3314000000000,"state":"active","ping":106},{"user_id":43,"name":"ng13900","steam_id":76561198259725885,"connected_time":32000000000,"state":"active","ping":145},{"user_id":37,"name":"matvejisakov7","steam_id":76561199493568179,"connected_time":940000000000,"state":"active","ping":167},{"user_id":38,"name":"shannon","steam_id":76561199073540887,"connected_time":673000000000,"state":"active","ping":94},{"user_id":39,"name":"Strangerdanger","steam_id":76561198206728500,"connected_time":492000000000,"state":"active","ping":88},{"user_id":40,"name":"average heavy main","steam_id":76561198993742816,"connected_time":245000000000,"state":"active","ping":348},{"user_id":42,"name":"dabomb gaming","steam_id":76561198350475019,"connected_time":170000000000,"state":"active","ping":57},{"user_id":44,"name":"TOP G","steam_id":76561198138928548,"connected_time":17000000000,"state":"active","ping":59},{"user_id":45,"name":"joey deathrun","steam_id":76561198142070141,"connected_time":2000000000,"state":"spawning","ping":72}]},{"server_id":51,"name":"Uncletopia | Warsaw | 3 | All Maps","name_short":"waw-3","host":"waw-1.pl.uncletopia.com","port":27035,"enabled":true,"region":"eu","cc":"pl","latitude":52.2297,"longitude":21.017532,"reserved":0,"last_update":"0001-01-01T00:00:00Z","name_a2s":"Uncletopia | Warsaw | 3 | All Maps","protocol":17,"map":"pl_badwater","folder":"tf","game":"Team Fortress","app_id":440,"player_count":4,"max_players":24,"Bots":0,"server_type":"Dedicated","server_os":"Linux","password":true,"vac":true,"version":"7961495","steam_id":85568392925397852,"keywords":["nocrits","nodmgspread","payload","uncletopia"],"game_id":440,"stv_port":27036,"stv_name":"Uncletopia | Warsaw | 3 | All Maps | STV","players":[{"user_id":152,"name":"TacoDragon","steam_id":76561198215345581,"connected_time":163000000000,"state":"active","ping":72},{"user_id":114,"name":"♦nudzeku♦","steam_id":76561199196336940,"connected_time":4372000000000,"state":"active","ping":73},{"user_id":132,"name":"blissful overdose","steam_id":76561199092286532,"connected_time":2956000000000,"state":"active","ping":62},{"user_id":136,"name":"Ziemniaczki z koperkiem","steam_id":76561198829123464,"connected_time":2711000000000,"state":"active","ping":41}]},{"server_id":52,"name":"Uncletopia | Warsaw | 4 | All Maps","name_short":"waw-4","host":"waw-1.pl.uncletopia.com","port":27045,"enabled":true,"region":"eu","cc":"pl","latitude":52.2297,"longitude":21.017532,"reserved":0,"last_update":"0001-01-01T00:00:00Z","name_a2s":"Uncletopia | Warsaw | 4 | All Maps","protocol":17,"map":"pl_frontier_final","folder":"tf","game":"Team Fortress","app_id":440,"player_count":0,"max_players":24,"Bots":0,"server_type":"Dedicated","server_os":"Linux","password":true,"vac":true,"version":"7961495","steam_id":85568392925397853,"keywords":["nocrits","nodmgspread","payload","uncletopia"],"game_id":440,"stv_port":27046,"stv_name":"Uncletopia | Warsaw | 4 | All Maps | STV","players":null},{"server_id":53,"name":"Uncletopia | Warsaw | 5 | Stopwatch","name_short":"waw-5","host":"waw-1.pl.uncletopia.com","port":27055,"enabled":true,"region":"eu","cc":"pl","latitude":52.2297,"longitude":21.017532,"reserved":0,"last_update":"0001-01-01T00:00:00Z","name_a2s":"Uncletopia | Warsaw | 5 | Stopwatch","protocol":17,"map":"pl_upward","folder":"tf","game":"Team Fortress","app_id":440,"player_count":0,"max_players":24,"Bots":0,"server_type":"Dedicated","server_os":"Linux","password":true,"vac":true,"version":"7961495","steam_id":85568392925397854,"keywords":["nocrits","nodmgspread","payload","uncletopia"],"game_id":440,"stv_port":27056,"stv_name":"Uncletopia | Warsaw | 5 | Stopwatch | STV","players":null},{"server_id":54,"name":"Uncletopia | Warsaw | 6 | Community","name_short":"waw-6","host":"waw-1.pl.uncletopia.com","port":27065,"enabled":true,"region":"eu","cc":"pl","latitude":52.2297,"longitude":21.017532,"reserved":0,"last_update":"0001-01-01T00:00:00Z","name_a2s":"Uncletopia | Warsaw | 6 | Community","protocol":17,"map":"workshop/koth_kemptown_rc1.ugc767410655","folder":"tf","game":"Team Fortress","app_id":440,"player_count":1,"max_players":24,"Bots":0,"server_type":"Dedicated","server_os":"Linux","password":true,"vac":true,"version":"7961495","steam_id":85568392925397856,"keywords":["cp","nocrits","nodmgspread","uncletopia"],"game_id":440,"stv_port":27066,"stv_name":"Uncletopia | Warsaw | 6 | Community | STV","players":[{"user_id":17,"name":"Deniek","steam_id":76561198977304909,"connected_time":585000000000,"state":"active","ping":61}]}]}