{"status":true,"message":"","result":[{"server_id":9,"name":"Uncletopia | Atlanta | 1 | All Maps","name_short":"atl-1","host":"atl-1.us.uncletopia.com","port":27015,"enabled":true,"region":"us-east","cc":"us","latitude":33.753746,"longitude":-84.38633,"reserved":0,"last_update":"0001-01-01T00:00:00Z","name_a2s":"Uncletopia | Atlanta | 1 | All Maps","protocol":17,"map":"koth_highpass","folder":"tf","game":"Team Fortress","app_id":440,"player_count":0,"max_players":24,"Bots":0,"server_type":"Dedicated","server_os":"Linux","password":true,"vac":true,"version":"7961495","steam_id":85568392924469982,"keywords":["cp","nocrits","nodmgspread","uncletopia"],"game_id":440,"stv_port":27016,"stv_name":"Uncletopia | Atlanta | 1 | All Maps | STV","players":null},{"server_id":104,"name":"Uncletopia | Atlanta | 2 | All Maps","name_short":"atl-2","host":"atl-1.us.uncletopia.com","port":27025,"enabled":true,"region":"us-east","cc":"us","latitude":33.753746,"longitude":-84.38633,"reserved":0,"last_update":"0001-01-01T00:00:00Z","name_a2s":"Uncletopia | Atlanta | 2 | All Maps","protocol":17,"map":"pl_pier","folder":"tf","game":"Team Fortress","app_id":440,"player_count":0,"max_players":24,"Bots":0,"server_type":"Dedicated","server_os":"Linux","password":true,"vac":true,"version":"7961495","steam_id":85568392924469983,"keywords":["nocrits","nodmgspread","payload","uncletopia"],"game_id":440,"stv_port":27026,"stv_name":"Uncletopia | Atlanta | 2 | All Maps | STV","players":null},{"server_id":400,"name":"Uncletopia | Atlanta | 3 | All Maps","name_short":"atl-3","host":"atl-1.us.uncletopia.com","port":27035,"enabled":true,"region":"us-east","cc":"us","latitude":33.753746,"longitude":-84.38633,"reserved":0,"last_update":"0001-01-01T00:00:00Z","name_a2s":"Uncletopia | Atlanta | 3 | All Maps","protocol":17,"map":"cp_process_final","folder":"tf","game":"Team Fortress","app_id":440,"player_count":0,"max_players":24,"Bots":0,"server_type":"Dedicated","server_os":"Linux","password":true,"vac":true,"version":"7961495","steam_id":85568392924515187,"keywords":["cp","nocrits","nodmgspread","uncletopia"],"game_id":440,"stv_port":27036,"stv_name":"Uncletopia | Atlanta | 3 | All Maps | STV","players":null},{"server_id":401,"name":"Uncletopia | Atlanta | 4 | Community","name_short":"atl-4","host":"atl-1.us.uncletopia.com","port":27045,"enabled":true,"region":"us-east","cc":"us","latitude":33.753746,"longitude":-84.38633,"reserved":0,"last_update":"0001-01-01T00:00:00Z","name_a2s":"Uncletopia | Atlanta | 4 | Community","protocol":17,"map":"koth_cascade","folder":"tf","game":"Team Fortress","app_id":440,"player_count":0,"max_players":24,"Bots":0,"server_type":"Dedicated","server_os":"Linux","password":true,"vac":true,"version":"7961495","steam_id":85568392924515188,"keywords":["cp","nocrits","nodmgspread","uncletopia"],"game_id":440,"stv_port":27046,"stv_name":"Uncletopia | Atlanta | 4 | Community | STV","players":null},{"server_id":2,"name":"Uncletopia | Chicago | 1 | All Maps","name_short":"chi-1","host":"chi-1.us.uncletopia.com","port":27015,"enabled":true,"region":"us-central","cc":"us","latitude":41.881832,"longitude":-87.62318,"reserved":0,"last_update":"0001-01-01T00:00:00Z","name_a2s":"Uncletopia | Chicago | 1 | All Maps","protocol":17,"map":"pl_goldrush","folder":"tf","game":"Team Fortress","app_id":440,"player_count":24,"max_players":24,"Bots":0,"server_type":"Dedicated","server_os":"Linux","password":true,"vac":true,"version":"7961495","steam_id":85568392924469984,"keywords":["nocrits","nodmgspread","payload","uncletopia"],"game_id":440,"stv_port":27016,"stv_name":"Uncletopia | Chicago | 1 | All Maps | STV","players":[{"user_id":245,"name":"Kiss Master","steam_id":76561198289572271,"connected_time":728000000000,"state":"active","ping":72},{"user_id":250,"name":"lil hog","steam_id":76561199230929836,"connected_time":239000000000,"state":"active","ping":71},{"user_id":251,"name":"Donthedank","steam_id":76561198138119039,"connected_time":101000000000,"state":"active","ping":119},{"user_id":246,"name":"a Hippobottomus","steam_id":76561198126853441,"connected_time":716000000000,"state":"active","ping":62},{"user_id":243,"name":"Nutz On Yo Chin","steam_id":76561197962978554,"connected_time":1022000000000,"state":"active","ping":70},{"user_id":249,"name":"Rat","steam_id":76561198064814474,"connected_time":263000000000,"state":"active","ping":45},{"user_id":217,"name":"Lost","steam_id":76561198093713427,"connected_time":2709000000000,"state":"active","ping":60},{"user_id":226,"name":"TheFriendlyPybro","steam_id":76561198119425604,"connected_time":1576000000000,"state":"active","ping":72},{"user_id":215,"name":"Satchamo","steam_id":76561198012968239,"connected_time":2825000000000,"state":"active","ping":72},{"user_id":230,"name":"Marrow","steam_id":76561199076969033,"connected_time":1362000000000,"state":"active","ping":59},{"user_id":209,"name":"D0VE","steam_id":76561198151618566,"connected_time":3429000000000,"state":"active","ping":125},{"user_id":252,"name":"Bigg Papa Clay","steam_id":76561198217613244,"connected_time":100000000000,"state":"active","ping":100},{"user_id":220,"name":"The Hams-ter man","steam_id":76561199054591319,"connected_time":2599000000000,"state":"active","ping":93},{"user_id":232,"name":"pinglefingle","steam_id":76561198216580197,"connected_time":1323000000000,"state":"active","ping":80},{"user_id":202,"name":"Ojen","steam_id":76561197998414482,"connected_time":3808000000000,"state":"active","ping":65},{"user_id":171,"name":"a baby dog","steam_id":76561197981404672,"connected_time":4982000000000,"state":"active","ping":69},{"user_id":235,"name":"Herr M√ºller","steam_id":76561198064876829,"connected_time":1258000000000,"state":"active","ping":92},{"user_id":208,"name":"CHEWSDAY","steam_id":76561198839930170,"connected_time":3477000000000,"state":"active","ping":92},{"user_id":227,"name":"B.","steam_id":76561198040445907,"connected_time":1539000000000,"state":"active","ping":74},{"user_id":194,"name":"e doctor","steam_id":76561198081851446,"connected_time":4127000000000,"state":"active","ping":45},{"user_id":236,"name":"Petrivus","steam_id":76561198202152453,"connected_time":1244000000000,"state":"active","ping":111},{"user_id":242,"name":"peterochs","steam_id":76561198288802283,"connected_time":1076000000000,"state":"active","ping":81},{"user_id":239,"name":";^)","steam_id":76561198269497358,"connected_time":1203000000000,"state":"active","ping":89},{"user_id":247,"name":"brad","steam_id":76561198817573493,"connected_time":624000000000,"state":"active","ping":72}]},{"server_id":106,"name":"Uncletopia | Chicago | 2 | All Maps","name_short":"chi-2","host":"chi-1.us.uncletopia.com","port":27025,"enabled":true,"region":"us-central","cc":"us","latitude":41.881832,"longitude":-87.62318,"reserved":0,"last_update":"0001-01-01T00:00:00Z","name_a2s":"Uncletopia | Chicago | 2 | All Maps","protocol":17,"map":"koth_lakeside_final","folder":"tf","game":"Team Fortress","app_id":440,"player_count":0,"max_players":24,"Bots":0,"server_type":"Dedicated","server_os":"Linux","password":true,"vac":true,"version":"7961495","steam_id":85568392924469985,"keywords":["cp","nocrits","nodmgspread","uncletopia"],"game_id":440,"stv_port":27026,"stv_name":"Uncletopia | Chicago | 2 | All Maps | STV","players":null},{"server_id":402,"name":"Uncletopia | Chicago | 3 | All Maps","name_short":"chi-3","host":"chi-1.us.uncletopia.com","port":27035,"enabled":true,"region":"us-central","cc":"us","latitude":41.881832,"longitude":-87.62318,"reserved":0,"last_update":"0001-01-01T00:00:00Z","name_a2s":"Uncletopia | Chicago | 3 | All Maps","protocol":17,"map":"koth_cascade","folder":"tf","game":"Team Fortress","app_id":440,"player_count":24,"max_players":24,"Bots":0,"server_type":"Dedicated","server_os":"Linux","password":true,"vac":true,"version":"7961495","steam_id":85568392924515191,"keywords":["cp","nocrits","nodmgspread","uncletopia"],"game_id":440,"stv_port":27036,"stv_name":"Uncletopia | Chicago | 3 | All Maps | STV","players":[{"user_id":93,"name":"freddo.","steam_id":76561198203171349,"connected_time":710000000000,"state":"active","ping":66},{"user_id":95,"name":"Shark","steam_id":76561198219031981,"connected_time":695000000000,"state":"active","ping":69},{"user_id":106,"name":"Most Jewish Rabbi","steam_id":76561198143826450,"connected_time":457000000000,"state":"active","ping":41},{"user_id":92,"name":"Gibs Degrossi","steam_id":76561198066152609,"connected_time":712000000000,"state":"active","ping":55},{"user_id":96,"name":"Rein","steam_id":76561198300340427,"connected_time":677000000000,"state":"active","ping":62},{"user_id":110,"name":"Mr. Mime","steam_id":76561199197676776,"connected_time":164000000000,"state":"active","ping":86},{"user_id":108,"name":"Ventastega","steam_id":76561197999366317,"connected_time":182000000000,"state":"active","ping":85},{"user_id":98,"name":"Tornado Bandit","steam_id":76561198147009260,"connected_time":600000000000,"state":"active","ping":107},{"user_id":99,"name":"skent6621","steam_id":76561199210134404,"connected_time":588000000000,"state":"active","ping":83},{"user_id":100,"name":"Travorski","steam_id":76561198072493142,"connected_time":581000000000,"state":"active","ping":89},{"user_id":79,"name":"Cookie","steam_id":76561198047736899,"connected_time":2885000000000,"state":"active","ping":59},{"user_id":109,"name":"Deltaco","steam_id":76561198094572694,"connected_time":172000000000,"state":"active","ping":107},{"user_id":77,"name":"Sigiferd","steam_id":76561198148788110,"connected_time":3173000000000,"state":"active","ping":115},{"user_id":102,"name":"Mr. Klauk","steam_id":76561199085666301,"connected_time":569000000000,"state":"active","ping":74},{"user_id":88,"name":"Adum","steam_id":76561198181162382,"connected_time":2114000000000,"state":"active","ping":66},{"user_id":111,"name":"Urist McDwarf","steam_id":76561198164004939,"connected_time":136000000000,"state":"active","ping":119},{"user_id":104,"name":"Chiki","steam_id":76561198063590320,"connected_time":527000000000,"state":"active","ping":67},{"user_id":105,"name":"Idiot Princess","steam_id":76561198048205270,"connected_time":522000000000,"state":"active","ping":80},{"user_id":70,"name":"is there anything unfappable?","steam_id":76561198032259680,"connected_time":3909000000000,"state":"active","ping":76},{"user_id":42,"name":"wobba","steam_id":76561198376632408,"connected_time":6252000000000,"state":"active","ping":81},{"user_id":61,"name":"The Snackgod himself Bob Ross","steam_id":76561198177705481,"connected_time":4539000000000,"state":"active","ping":85},{"user_id":112,"name":"PocketTieAMPLFY","steam_id":76561199080485881,"connected_time":128000000000,"state":"active","ping":116},{"user_id":66,"name":"MoonlightDragon","steam_id":76561198124808865,"connected_time":4223000000000,"state":"active","ping":81},{"user_id":72,"name":"BudTuggly","steam_id":76561198026873580,"connected_time":3790000000000,"state":"active","ping":47}]},{"server_id":403,"name":"Uncletopia | Chicago | 4 | All Maps","name_short":"chi-4","host":"chi-1.us.uncletopia.com","port":27045,"enabled":true,"region":"us-central","cc":"us","latitude":41.881832,"longitude":-87.62318,"reserved":0,"last_update":"0001-01-01T00:00:00Z","name_a2s":"Uncletopia | Chicago | 4 | All Maps","protocol":17,"map":"cp_altitude","folder":"tf","game":"Team Fortress","app_id":440,"player_count":0,"max_players":24,"Bots":0,"server_type":"Dedicated","server_os":"Linux","password":true,"vac":true,"version":"7961495","steam_id":85568392924515193,"keywords":["cp","nocrits","nodmgspread","uncletopia"],"game_id":440,"stv_port":27046,"stv_name":"Uncletopia | Chicago | 4 | All Maps | STV","players":null},{"server_id":36,"name":"Uncletopia | Chicago | 5 | All Maps","name_short":"chi-5","host":"chi-2.us.uncletopia.com","port":27015,"enabled":true,"region":"us-central","cc":"us","latitude":41.881832,"longitude":-87.62318,"reserved":0,"last_update":"0001-01-01T00:00:00Z","name_a2s":"Uncletopia | Chicago | 5 | All Maps","protocol":17,"map":"cp_snakewater_final1","folder":"tf","game":"Team Fortress","app_id":440,"player_count":0,"max_players":24,"Bots":0,"server_type":"Dedicated","server_os":"Linux","password":true,"vac":true,"version":"7961495","steam_id":85568392924866362,"keywords":["cp","nocrits","nodmgspread","uncletopia"],"game_id":440,"stv_port":27016,"stv_name":"Uncletopia | Chicago | 5 | All Maps | STV","players":null},{"server_id":37,"name":"Uncletopia | Chicago | 6 | All Maps","name_short":"chi-6","host":"chi-2.us.uncletopia.com","port":27025,"enabled":true,"region":"us-central","cc":"us","latitude":41.881832,"longitude":-87.62318,"reserved":0,"last_update":"0001-01-01T00:00:00Z","name_a2s":"Uncletopia | Chicago | 6 | All Maps","protocol":17,"map":"pl_borneo","folder":"tf","game":"Team Fortress","app_id":440,"player_count":0,"max_players":24,"Bots":0,"server_type":"Dedicated","server_os":"Linux","password":true,"vac":true,"version":"7961495","steam_id":85568392924866363,"keywords":["nocrits","nodmgspread","payload","uncletopia"],"game_id":440,"stv_port":27026,"stv_name":"Uncletopia | Chicago | 6 | All Maps | STV","players":null},{"server_id":38,"name":"Uncletopia | Chicago | 7 | Stopwatch Beta","name_short":"chi-7","host":"chi-2.us.uncletopia.com","port":27035,"enabled":true,"region":"us-central","cc":"us","latitude":41.881832,"longitude":-87.62318,"reserved":0,"last_update":"0001-01-01T00:00:00Z","name_a2s":"Uncletopia | Chicago | 7 | Stopwatch Beta","protocol":17,"map":"pl_badwater","folder":"tf","game":"Team Fortress","app_id":440,"player_count":0,"max_players":24,"Bots":0,"server_type":"Dedicated","server_os":"Linux","password":true,"vac":true,"version":"7961495","steam_id":85568392924866364,"keywords":["nocrits","nodmgspread","payload","uncletopia"],"game_id":440,"stv_port":27036,"stv_name":"Uncletopia | Chicago | 7 | Stopwatch Beta | STV","players":null},{"server_id":39,"name":"Uncletopia | Chicago | 8 | Community","name_short":"chi-8","host":"chi-2.us.uncletopia.com","port":27045,"enabled":true,"region":"us-central","cc":"us","latitude":41.881832,"longitude":-87.62318,"reserved":0,"last_update":"0001-01-01T00:00:00Z","name_a2s":"Uncletopia | Chicago | 8 | Community","protocol":17,"map":"koth_cascade","folder":"tf","game":"Team Fortress","app_id":440,"player_count":0,"max_players":24,"Bots":0,"server_type":"Dedicated","server_os":"Linux","password":true,"vac":true,"version":"7961495","steam_id":85568392924866365,"keywords":["cp","nocrits","nodmgspread","uncletopia"],"game_id":440,"stv_port":27046,"stv_name":"Uncletopia | Chicago | 8 | Community | STV","players":null},{"server_id":8,"name":"Uncletopia | Dallas | 1 | All Maps","name_short":"dal-1","host":"dal-1.us.uncletopia.com","port":27015,"enabled":true,"region":"us-central","cc":"us","latitude":32.779167,"longitude":-96.80889,"reserved":0,"last_update":"0001-01-01T00:00:00Z","name_a2s":"Uncletopia | Dallas | 1 | All Maps","protocol":17,"map":"pl_pier","folder":"tf","game":"Team Fortress","app_id":440,"player_count":0,"max_players":24,"Bots":0,"server_type":"Dedicated","server_os":"Linux","password":true,"vac":true,"version":"7961495","steam_id":85568392924469986,"keywords":["nocrits","nodmgspread","payload","uncletopia"],"game_id":440,"stv_port":27016,"stv_name":"Uncletopia | Dallas | 1 | All Maps | STV","players":null},{"server_id":108,"name":"Uncletopia | Dallas | 2 | All Maps","name_short":"dal-2","host":"dal-1.us.uncletopia.com","port":27025,"enabled":true,"region":"us-central","cc":"us","latitude":32.779167,"longitude":-96.80889,"reserved":0,"last_update":"0001-01-01T00:00:00Z","name_a2s":"Uncletopia | Dallas | 2 | All Maps","protocol":17,"map":"koth_highpass","folder":"tf","game":"Team Fortress","app_id":440,"player_count":0,"max_players":24,"Bots":0,"server_type":"Dedicated","server_os":"Linux","password":true,"vac":true,"version":"7961495","steam_id":85568392924469988,"keywords":["cp","nocrits","nodmgspread","uncletopia"],"game_id":440,"stv_port":27026,"stv_name":"Uncletopia | Dallas | 2 | All Maps | STV","players":null},{"server_id":404,"name":"Uncletopia | Dallas | 3 | All Maps","name_short":"dal-3","host":"dal-1.us.uncletopia.com","port":27035,"enabled":true,"region":"us-central","cc":"us","latitude":32.779167,"longitude":-96.80889,"reserved":0,"last_update":"0001-01-01T00:00:00Z","name_a2s":"Uncletopia | Dallas | 3 | All Maps","protocol":17,"map":"koth_viaduct","folder":"tf","game":"Team Fortress","app_id":440,"player_count":21,"max_players":24,"Bots":0,"server_type":"Dedicated","server_os":"Linux","password":true,"vac":true,"version":"7961495","steam_id":85568392924515219,"keywords":["cp","nocrits","nodmgspread","uncletopia"],"game_id":440,"stv_port":27036,"stv_name":"Uncletopia | Dallas | 3 | All Maps | STV","players":[{"user_id":37,"name":"Ivan Drago","steam_id":76561198097700500,"connected_time":1223000000000,"state":"active","ping":63},{"user_id":4,"name":"Cruisin'","steam_id":76561199245457119,"connected_time":3398000000000,"state":"active","ping":86},{"user_id":28,"name":"airballer","steam_id":76561198165899125,"connected_time":1618000000000,"state":"active","ping":86},{"user_id":49,"name":"resh!","steam_id":76561198066619792,"connected_time":517000000000,"state":"active","ping":67},{"user_id":58,"name":"FI LO","steam_id":76561198976530881,"connected_time":130000000000,"state":"active","ping":70},{"user_id":59,"name":"EmuBoy","steam_id":76561198325001850,"connected_time":60000000000,"state":"active","ping":79},{"user_id":60,"name":"Maceman007","steam_id":76561199166008171,"connected_time":58000000000,"state":"active","ping":69},{"user_id":14,"name":"GLG.Liz","steam_id":76561198021957956,"connected_time":2301000000000,"state":"active","ping":51},{"user_id":61,"name":"A Duck Phone!?","steam_id":76561198044707749,"connected_time":49000000000,"state":"active","ping":77},{"user_id":15,"name":"Bully Maguire","steam_id":76561199081621029,"connected_time":2154000000000,"state":"active","ping":76},{"user_id":57,"name":"stile","steam_id":76561198149443710,"connected_time":255000000000,"state":"active","ping":77},{"user_id":55,"name":"ùí•ùëúùìáùìâùìà","steam_id":76561198111878431,"connected_time":455000000000,"state":"active","ping":109},{"user_id":18,"name":"jumbi!","steam_id":76561198353456379,"connected_time":2028000000000,"state":"active","ping":62},{"user_id":62,"name":"Frank Gehry","steam_id":76561198437703253,"connected_time":39000000000,"state":"active","ping":78},{"user_id":20,"name":"a","steam_id":76561198058079708,"connected_time":1977000000000,"state":"active","ping":75},{"user_id":52,"name":"Snorlax","steam_id":76561198123124356,"connected_time":506000000000,"state":"active","ping":51},{"user_id":56,"name":"Shalom","steam_id":76561198410005222,"connected_time":348000000000,"state":"active","ping":52},{"user_id":25,"name":"Jae","steam_id":76561198060026844,"connected_time":1707000000000,"state":"active","ping":65},{"user_id":53,"name":"viedoamges","steam_id":76561198025295263,"connected_time":503000000000,"state":"active","ping":52},{"user_id":33,"name":"GandalfTheGrey6","steam_id":76561199116701903,"connected_time":1438000000000,"state":"active","ping":77},{"user_id":39,"name":"ShellBug","steam_id":76561198144187527,"connected_time":1160000000000,"state":"active","ping":88}]},{"server_id":405,"name":"Uncletopia | Dallas | 4 | Community","name_short":"dal-4","host":"dal-1.us.uncletopia.com","port":27045,"enabled":true,"region":"us-central","cc":"us","latitude":32.779167,"longitude":-96.80889,"reserved":0,"last_update":"0001-01-01T00:00:00Z","name_a2s":"Uncletopia | Dallas | 4 | Community","protocol":17,"map":"pl_badwater","folder":"tf","game":"Team Fortress","app_id":440,"player_count":0,"max_players":24,"Bots":0,"server_type":"Dedicated","server_os":"Linux","password":true,"vac":true,"version":"7961495","steam_id":85568392924515220,"keywords":["nocrits","nodmgspread","payload","uncletopia"],"game_id":440,"stv_port":27046,"stv_name":"Uncletopia | Dallas | 4 | Community | STV","players":null},{"server_id":5,"name":"Uncletopia | Frankfurt | 1 | All Maps","name_short":"frk-1","host":"frk-1.de.uncletopia.com","port":27015,"enabled":true,"region":"eu","cc":"de","latitude":50.110924,"longitude":8.682127,"reserved":0,"last_update":"0001-01-01T00:00:00Z","name_a2s":"Uncletopia | Frankfurt | 1 | All Maps","protocol":17,"map":"cp_dustbowl","folder":"tf","game":"Team Fortress","app_id":440,"player_count":24,"max_players":24,"Bots":0,"server_type":"Dedicated","server_os":"Linux","password":true,"vac":true,"version":"7961495","steam_id":85568392924469989,"keywords":["cp","nocrits","nodmgspread","uncletopia"],"game_id":440,"stv_port":27016,"stv_name":"Uncletopia | Frankfurt | 1 | All Maps | STV","players":[{"user_id":152,"name":"slorp","steam_id":76561198239927434,"connected_time":1049000000000,"state":"active","ping":81},{"user_id":157,"name":"dotdotdot","steam_id":76561198057628751,"connected_time":743000000000,"state":"active","ping":66},{"user_id":171,"name":"Krat","steam_id":76561198171765813,"connected_time":57000000000,"state":"active","ping":66},{"user_id":172,"name":"T√° pr√°ta√≠ go maith","steam_id":76561198372536459,"connected_time":25000000000,"state":"active","ping":54},{"user_id":149,"name":"Peas4nt","steam_id":76561198287510052,"connected_time":1078000000000,"state":"active","ping":64},{"user_id":137,"name":"Engineer gaming","steam_id":76561198275942961,"connected_time":2304000000000,"state":"active","ping":44},{"user_id":158,"name":"StingyLettuce","steam_id":76561199010337406,"connected_time":724000000000,"state":"active","ping":115},{"user_id":103,"name":"Sawk","steam_id":76561198080113283,"connected_time":4387000000000,"state":"active","ping":48},{"user_id":125,"name":"Hugh Neutron","steam_id":76561198415861726,"connected_time":3013000000000,"state":"active","ping":61},{"user_id":166,"name":"Xepi","steam_id":76561199481038248,"connected_time":454000000000,"state":"active","ping":70},{"user_id":83,"name":"Sir Cauterize","steam_id":76561198047079422,"connected_time":5652000000000,"state":"active","ping":64},{"user_id":167,"name":"howabe","steam_id":76561197996486818,"connected_time":262000000000,"state":"active","ping":56},{"user_id":138,"name":"gernade","steam_id":76561199199499453,"connected_time":2303000000000,"state":"active","ping":75},{"user_id":156,"name":"Skydrae","steam_id":76561198149611217,"connected_time":819000000000,"state":"active","ping":80},{"user_id":94,"name":"Shovelhalfrusty","steam_id":76561198346447513,"connected_time":4815000000000,"state":"active","ping":61},{"user_id":165,"name":"Foreskin Gamer","steam_id":76561198283106341,"connected_time":478000000000,"state":"active","ping":51},{"user_id":146,"name":"snsmac","steam_id":76561198082821185,"connected_time":1257000000000,"state":"active","ping":48},{"user_id":159,"name":"CEO of Racism","steam_id":76561198042317958,"connected_time":720000000000,"state":"active","ping":54},{"user_id":123,"name":"blonde furry femboy","steam_id":76561198273361428,"connected_time":3075000000000,"state":"active","ping":73},{"user_id":160,"name":"ArcticTea","steam_id":76561197978587653,"connected_time":710000000000,"state":"active","ping":90},{"user_id":154,"name":"Koleisus","steam_id":76561198045374646,"connected_time":961000000000,"state":"active","ping":66},{"user_id":169,"name":"Ross from F.R.I.E.N.D.S.","steam_id":76561198008511665,"connected_time":214000000000,"state":"active","ping":59},{"user_id":110,"name":"spicy","steam_id":76561198103592543,"connected_time":3857000000000,"state":"active","ping":72},{"user_id":145,"name":"scallywag toni","steam_id":76561198891845999,"connected_time":1281000000000,"state":"active","ping":71}]},{"server_id":110,"name":"Uncletopia | Frankfurt | 2 | All Maps","name_short":"frk-2","host":"frk-1.de.uncletopia.com","port":27025,"enabled":true,"region":"eu","cc":"de","latitude":50.110924,"longitude":8.682127,"reserved":0,"last_update":"0001-01-01T00:00:00Z","name_a2s":"Uncletopia | Frankfurt | 2 | All Maps","protocol":17,"map":"cp_mountainlab","folder":"tf","game":"Team Fortress","app_id":440,"player_count":0,"max_players":24,"Bots":0,"server_type":"Dedicated","server_os":"Linux","password":true,"vac":true,"version":"7961495","steam_id":85568392924469990,"keywords":["cp","nocrits","nodmgspread","uncletopia"],"game_id":440,"stv_port":27026,"stv_name":"Uncletopia | Frankfurt | 2 | All Maps | STV","players":null},{"server_id":308,"name":"Uncletopia | Frankfurt | 3 | All Maps","name_short":"frk-3","host":"frk-1.de.uncletopia.com","port":27035,"enabled":true,"region":"eu","cc":"de","latitude":50.110924,"longitude":8.682127,"reserved":0,"last_update":"0001-01-01T00:00:00Z","name_a2s":"Uncletopia | Frankfurt | 3 | All Maps","protocol":17,"map":"pl_borneo","folder":"tf","game":"Team Fortress","app_id":440,"player_count":24,"max_players":24,"Bots":0,"server_type":"Dedicated","server_os":"Linux","password":true,"vac":true,"version":"7961495","steam_id":85568392924504274,"keywords":["nocrits","nodmgspread","payload","uncletopia"],"game_id":440,"stv_port":27036,"stv_name":"Uncletopia | Frankfurt | 3 | All Maps | STV","players":[{"user_id":42,"name":"bacon_lover_","steam_id":76561198893458049,"connected_time":1890000000000,"state":"active","ping":68},{"user_id":20,"name":"Vonk","steam_id":76561199080400526,"connected_time":2388000000000,"state":"active","ping":69},{"user_id":12,"name":"sunshine","steam_id":76561198084597975,"connected_time":3804000000000,"state":"active","ping":51},{"user_id":47,"name":"Fiurius","steam_id":76561198151910950,"connected_time":1794000000000,"state":"active","ping":63},{"user_id":70,"name":"Icarus300","steam_id":76561198015125766,"connected_time":109000000000,"state":"active","ping":89},{"user_id":17,"name":"MKULTRAFGT","steam_id":76561198147383704,"connected_time":2621000000000,"state":"active","ping":76},{"user_id":18,"name":"c17:i4o","steam_id":76561198054872158,"connected_time":2614000000000,"state":"active","ping":67},{"user_id":34,"name":"AleXandriX","steam_id":76561198035203950,"connected_time":2012000000000,"state":"active","ping":53},{"user_id":72,"name":"table","steam_id":76561198091145295,"connected_time":16000000000,"state":"active","ping":94},{"user_id":23,"name":"roblan11","steam_id":76561198066839258,"connected_time":2336000000000,"state":"active","ping":44},{"user_id":69,"name":"luma","steam_id":76561198081649669,"connected_time":584000000000,"state":"active","ping":60},{"user_id":33,"name":"chocolate flavoured femboy","steam_id":76561198819353867,"connected_time":2105000000000,"state":"active","ping":45},{"user_id":29,"name":"REN","steam_id":76561198000596385,"connected_time":2197000000000,"state":"active","ping":86},{"user_id":43,"name":"Weeb exterminator","steam_id":76561198078964973,"connected_time":1885000000000,"state":"active","ping":68},{"user_id":58,"name":"LOKKI","steam_id":76561198259022887,"connected_time":1479000000000,"state":"active","ping":63},{"user_id":59,"name":"Kanny","steam_id":76561198058810184,"connected_time":1297000000000,"state":"active","ping":60},{"user_id":60,"name":"fralek","steam_id":76561198133047605,"connected_time":1222000000000,"state":"active","ping":89},{"user_id":62,"name":"miiq130","steam_id":76561198188010666,"connected_time":1062000000000,"state":"active","ping":83},{"user_id":68,"name":"–µ–±—É—á–∏–π —Å–ª—É—á–∞–π","steam_id":76561199087920612,"connected_time":723000000000,"state":"active","ping":123},{"user_id":49,"name":"quak","steam_id":76561198053928976,"connected_time":1702000000000,"state":"active","ping":79},{"user_id":54,"name":"Fish 'n' Chips","steam_id":76561198033476886,"connected_time":1581000000000,"state":"active","ping":53},{"user_id":65,"name":"screenshot2020-25-09","steam_id":76561198255275650,"connected_time":889000000000,"state":"active","ping":46},{"user_id":56,"name":"Bottle O' Scrumpy","steam_id":76561199244250562,"connected_time":1574000000000,"state":"active","ping":87},{"user_id":46,"name":"Matteo Il Biondo","steam_id":76561198315389475,"connected_time":1855000000000,"state":"active","ping":75}]},{"server_id":309,"name":"Uncletopia | Frankfurt | 4 | All Maps","name_short":"frk-4","host":"frk-1.de.uncletopia.com","port":27045,"enabled":true,"region":"eu","cc":"de","latitude":50.110924,"longitude":8.682127,"reserved":0,"last_update":"0001-01-01T00:00:00Z","name_a2s":"Uncletopia | Frankfurt | 4 | All Maps","protocol":17,"map":"cp_sunshine","folder":"tf","game":"Team Fortress","app_id":440,"player_count":24,"max_players":24,"Bots":0,"server_type":"Dedicated","server_os":"Linux","password":true,"vac":true,"version":"7961495","steam_id":85568392924504275,"keywords":["cp","nocrits","nodmgspread","uncletopia"],"game_id":440,"stv_port":27046,"stv_name":"Uncletopia | Frankfurt | 4 | All Maps | STV","players":[{"user_id":75,"name":"Speedy Speed Boy","steam_id":76561198339382996,"connected_time":493000000000,"state":"active","ping":84},{"user_id":67,"name":"Dapper","steam_id":76561198081694974,"connected_time":1662000000000,"state":"active","ping":58},{"user_id":57,"name":"Confused1221","steam_id":76561199061802741,"connected_time":2409000000000,"state":"active","ping":68},{"user_id":71,"name":"koko","steam_id":76561198903997529,"connected_time":1378000000000,"state":"active","ping":77},{"user_id":76,"name":"WHUSSKEY","steam_id":76561198137827441,"connected_time":487000000000,"state":"active","ping":72},{"user_id":65,"name":"Junk1e","steam_id":76561198031265942,"connected_time":1787000000000,"state":"active","ping":80},{"user_id":60,"name":"Suvis","steam_id":76561198153048602,"connected_time":2180000000000,"state":"active","ping":84},{"user_id":77,"name":"caramelldancin'","steam_id":76561198193357946,"connected_time":480000000000,"state":"active","ping":105},{"user_id":30,"name":"thuke","steam_id":76561198093821065,"connected_time":4593000000000,"state":"active","ping":87},{"user_id":78,"name":"Twitch.tv/SirSealVT","steam_id":76561198431661319,"connected_time":460000000000,"state":"active","ping":100},{"user_id":85,"name":"Rwqriuwm","steam_id":76561199143232222,"connected_time":233000000000,"state":"active","ping":101},{"user_id":73,"name":"i love gaming","steam_id":76561198305115828,"connected_time":1228000000000,"state":"active","ping":96},{"user_id":80,"name":"bastard","steam_id":76561198993925146,"connected_time":446000000000,"state":"active","ping":77},{"user_id":66,"name":"engineer drip","steam_id":76561198991032570,"connected_time":1785000000000,"state":"active","ping":87},{"user_id":81,"name":"Anadddest","steam_id":76561198992528373,"connected_time":437000000000,"state":"active","ping":74},{"user_id":40,"name":"pretty boy","steam_id":76561198345972230,"connected_time":3882000000000,"state":"active","ping":77},{"user_id":20,"name":"The Third Degree collector","steam_id":76561199165355017,"connected_time":5096000000000,"state":"active","ping":90},{"user_id":82,"name":"happy","steam_id":76561198053141766,"connected_time":403000000000,"state":"active","ping":107},{"user_id":62,"name":"Envy","steam_id":76561198132723219,"connected_time":2166000000000,"state":"active","ping":100},{"user_id":38,"name":"ea","steam_id":76561198039254055,"connected_time":4083000000000,"state":"active","ping":130},{"user_id":25,"name":"KnugenIV","steam_id":76561198127091993,"connected_time":5048000000000,"state":"active","ping":55},{"user_id":83,"name":"spungeboob #saveTF2","steam_id":76561198841563383,"connected_time":397000000000,"state":"active","ping":75},{"user_id":84,"name":"Chicken pot pie","steam_id":76561198084997090,"connected_time":396000000000,"state":"active","ping":66},{"user_id":54,"name":"Lazuli","steam_id":76561198058636964,"connected_time":2629000000000,"state":"active","ping":60}]},{"server_id":310,"name":"Uncletopia | Frankfurt | 5 | All Maps","name_short":"frk-5","host":"frk-1.de.uncletopia.com","port":27055,"enabled":true,"region":"eu","cc":"de","latitude":50.110924,"longitude":8.682127,"reserved":0,"last_update":"0001-01-01T00:00:00Z","name_a2s":"Uncletopia | Frankfurt | 5 | All Maps","protocol":17,"map":"pl_snowycoast","folder":"tf","game":"Team Fortress","app_id":440,"player_count":24,"max_players":24,"Bots":0,"server_type":"Dedicated","server_os":"Linux","password":true,"vac":true,"version":"7961495","steam_id":85568392924504277,"keywords":["nocrits","nodmgspread","payload","uncletopia"],"game_id":440,"stv_port":27056,"stv_name":"Uncletopia | Frankfurt | 5 | All Maps | STV","players":[{"user_id":84,"name":"bady_3","steam_id":76561199030975778,"connected_time":3792000000000,"state":"active","ping":142},{"user_id":125,"name":"OzKo","steam_id":76561198245355476,"connected_time":783000000000,"state":"active","ping":173},{"user_id":74,"name":"ddec45","steam_id":76561198153175196,"connected_time":4649000000000,"state":"active","ping":79},{"user_id":128,"name":"hot guy","steam_id":76561198083063005,"connected_time":392000000000,"state":"active","ping":49},{"user_id":136,"name":"john fortress","steam_id":76561198013237629,"connected_time":116000000000,"state":"active","ping":105},{"user_id":87,"name":"G/3","steam_id":76561198234844188,"connected_time":3486000000000,"state":"active","ping":60},{"user_id":134,"name":"FishNachoz","steam_id":76561198026519426,"connected_time":185000000000,"state":"active","ping":60},{"user_id":119,"name":"The One (and only)","steam_id":76561198827193499,"connected_time":1162000000000,"state":"active","ping":68},{"user_id":139,"name":"Definitely not Ray","steam_id":76561197991390018,"connected_time":44000000000,"state":"active","ping":54},{"user_id":133,"name":"Flanjam","steam_id":76561198020525331,"connected_time":199000000000,"state":"active","ping":84},{"user_id":137,"name":"Mike Ockslong","steam_id":76561198263233108,"connected_time":110000000000,"state":"active","ping":97},{"user_id":138,"name":"AwZooom","steam_id":76561198154061149,"connected_time":108000000000,"state":"active","ping":45},{"user_id":130,"name":"Ardello","steam_id":76561198864484125,"connected_time":313000000000,"state":"spawning","ping":4375},{"user_id":129,"name":"Abaddon","steam_id":76561199205559813,"connected_time":322000000000,"state":"active","ping":45},{"user_id":135,"name":"one spliff sesh legend","steam_id":76561198101292843,"connected_time":174000000000,"state":"active","ping":56},{"user_id":57,"name":"mixxxa_french","steam_id":76561198085098243,"connected_time":5423000000000,"state":"active","ping":106},{"user_id":101,"name":"G_0N","steam_id":76561199403909211,"connected_time":2409000000000,"state":"active","ping":53},{"user_id":102,"name":"midlpsyzl47","steam_id":76561199475972637,"connected_time":2263000000000,"state":"active","ping":70},{"user_id":90,"name":"DooWooD","steam_id":76561198335810106,"connected_time":3390000000000,"state":"active","ping":80},{"user_id":132,"name":"bAdmon","steam_id":76561197961785793,"connected_time":246000000000,"state":"active","ping":60},{"user_id":105,"name":"James","steam_id":76561198138558005,"connected_time":1697000000000,"state":"active","ping":74},{"user_id":140,"name":"slug","steam_id":76561198065902089,"connected_time":9000000000,"state":"spawning","ping":59},{"user_id":126,"name":"Krefa12","steam_id":76561198268375393,"connected_time":770000000000,"state":"active","ping":82},{"user_id":77,"name":"Quadraticrat","steam_id":76561199032586760,"connected_time":4503000000000,"state":"active","ping":70}]},{"server_id":311,"name":"Uncletopia | Frankfurt | 6 | All Maps","name_short":"frk-6","host":"frk-1.de.uncletopia.com","port":27065,"enabled":true,"region":"eu","cc":"de","latitude":50.110924,"longitude":8.682127,"reserved":0,"last_update":"0001-01-01T00:00:00Z","name_a2s":"Uncletopia | Frankfurt | 6 | All Maps","protocol":17,"map":"pl_snowycoast","folder":"tf","game":"Team Fortress","app_id":440,"player_count":24,"max_players":24,"Bots":0,"server_type":"Dedicated","server_os":"Linux","password":true,"vac":true,"version":"7961495","steam_id":85568392924504278,"keywords":["nocrits","nodmgspread","payload","uncletopia"],"game_id":440,"stv_port":27066,"stv_name":"Uncletopia | Frankfurt | 6 | All Maps | STV","players":[{"user_id":86,"name":"Saul Goodman","steam_id":76561199182988206,"connected_time":1436000000000,"state":"active","ping":102},{"user_id":110,"name":"I Don't Know","steam_id":76561198841011430,"connected_time":163000000000,"state":"active","ping":73},{"user_id":89,"name":"Kamikrazy","steam_id":76561198044254918,"connected_time":908000000000,"state":"active","ping":66},{"user_id":111,"name":"lofimonkeyjazz","steam_id":76561198117059662,"connected_time":162000000000,"state":"active","ping":85},{"user_id":105,"name":"ax","steam_id":76561199201206556,"connected_time":360000000000,"state":"active","ping":76},{"user_id":117,"name":"Dolcelatte","steam_id":76561198038501770,"connected_time":44000000000,"state":"active","ping":57},{"user_id":98,"name":"Mike","steam_id":76561198228455736,"connected_time":670000000000,"state":"active","ping":62},{"user_id":114,"name":"vadim_kotler","steam_id":76561199016634369,"connected_time":111000000000,"state":"active","ping":106},{"user_id":72,"name":"Testicular torsion","steam_id":76561198119547399,"connected_time":3051000000000,"state":"active","ping":61},{"user_id":115,"name":"dakkafex","steam_id":76561198020254869,"connected_time":84000000000,"state":"active","ping":47},{"user_id":88,"name":"Vectillion","steam_id":76561198074292454,"connected_time":1302000000000,"state":"active","ping":75},{"user_id":112,"name":"Ecy","steam_id":76561198110756682,"connected_time":159000000000,"state":"active","ping":57},{"user_id":116,"name":"bubbleTea","steam_id":76561199487938189,"connected_time":54000000000,"state":"active","ping":60},{"user_id":113,"name":"Klonky","steam_id":76561199068329886,"connected_time":155000000000,"state":"active","ping":75},{"user_id":94,"name":"Rask","steam_id":76561198052934944,"connected_time":810000000000,"state":"active","ping":95},{"user_id":103,"name":"„É¨„É¢„É≥ Pinoy Slayer üíØ","steam_id":76561198085537473,"connected_time":450000000000,"state":"active","ping":55},{"user_id":20,"name":"Magic Intermediate","steam_id":76561199013457963,"connected_time":5407000000000,"state":"active","ping":60},{"user_id":22,"name":"Magicsimple","steam_id":76561198054047446,"connected_time":5401000000000,"state":"active","ping":60},{"user_id":73,"name":"TH3 V1CT0R","steam_id":76561198007025172,"connected_time":2807000000000,"state":"active","ping":60},{"user_id":35,"name":"SchmitShot","steam_id":76561197974486633,"connected_time":5195000000000,"state":"active","ping":45},{"user_id":104,"name":"SoupER","steam_id":76561198063056668,"connected_time":450000000000,"state":"active","ping":60},{"user_id":27,"name":"SVIFT ympo","steam_id":76561198202441870,"connected_time":5380000000000,"state":"active","ping":60},{"user_id":70,"name":"Ennard777","steam_id":76561198965409493,"connected_time":3266000000000,"state":"active","ping":106},{"user_id":91,"name":"Mountain Dew Voltage","steam_id":76561198332226709,"connected_time":833000000000,"state":"active","ping":143}]},{"server_id":23,"name":"Uncletopia | Frankfurt | 7 | Stopwatch Beta","name_short":"frk-7","host":"frk-1.de.uncletopia.com","port":27075,"enabled":true,"region":"eu","cc":"de","latitude":50.110924,"longitude":8.682127,"reserved":0,"last_update":"0001-01-01T00:00:00Z","name_a2s":"Uncletopia | Frankfurt | 7 | Stopwatch Beta","protocol":17,"map":"koth_cascade","folder":"tf","game":"Team Fortress","app_id":440,"player_count":0,"max_players":24,"Bots":0,"server_type":"Dedicated","server_os":"Linux","password":true,"vac":true,"version":"7961495","steam_id":85568392924742827,"keywords":["cp","nocrits","nodmgspread","uncletopia"],"game_id":440,"stv_port":27076,"stv_name":"Uncletopia | Frankfurt | 7 | Stopwatch Beta | STV","players":null},{"server_id":24,"name":"Uncletopia | Frankfurt | 8 | Community","name_short":"frk-8","host":"frk-1.de.uncletopia.com","port":27085,"enabled":true,"region":"eu","cc":"de","latitude":50.110924,"longitude":8.682127,"reserved":0,"last_update":"0001-01-01T00:00:00Z","name_a2s":"Uncletopia | Frankfurt | 8 | Community","protocol":17,"map":"workshop/pl_badwater_pro_v12.ugc2142942074","folder":"tf","game":"Team Fortress","app_id":440,"player_count":24,"max_players":24,"Bots":0,"server_type":"Dedicated","server_os":"Linux","password":true,"vac":true,"version":"7961495","steam_id":85568392924742828,"keywords":["nocrits","nodmgspread","payload","uncletopia"],"game_id":440,"stv_port":27086,"stv_name":"Uncletopia | Frankfurt | 8 | Community | STV","players":[{"user_id":16,"name":"SomeNerv2","steam_id":76561198963285057,"connected_time":4732000000000,"state":"active","ping":65},{"user_id":73,"name":"deFaulty","steam_id":76561198106394179,"connected_time":2512000000000,"state":"active","ping":85},{"user_id":104,"name":"Boki","steam_id":76561198044553351,"connected_time":1102000000000,"state":"active","ping":74},{"user_id":86,"name":"TylowStar","steam_id":76561198357107806,"connected_time":1672000000000,"state":"active","ping":60},{"user_id":102,"name":"MargoulGetron","steam_id":76561198020551698,"connected_time":1215000000000,"state":"active","ping":62},{"user_id":92,"name":"Trollstoy","steam_id":76561198072017175,"connected_time":1511000000000,"state":"active","ping":68},{"user_id":30,"name":"Z.","steam_id":76561198367362266,"connected_time":4196000000000,"state":"active","ping":80},{"user_id":88,"name":"Dommy","steam_id":76561197990864747,"connected_time":1605000000000,"state":"active","ping":45},{"user_id":108,"name":"thomas3003","steam_id":76561198209860039,"connected_time":487000000000,"state":"active","ping":51},{"user_id":94,"name":"griffith","steam_id":76561198178227903,"connected_time":1465000000000,"state":"active","ping":77},{"user_id":91,"name":"DecryptNGZ","steam_id":76561198971807867,"connected_time":1524000000000,"state":"active","ping":51},{"user_id":57,"name":"Surry Fex","steam_id":76561198090586031,"connected_time":3348000000000,"state":"active","ping":80},{"user_id":105,"name":"fernandobmwm355555","steam_id":76561198086609447,"connected_time":1059000000000,"state":"active","ping":59},{"user_id":107,"name":"Stan √Ålvarez (Satan)","steam_id":76561198045538223,"connected_time":750000000000,"state":"active","ping":56},{"user_id":96,"name":"edmund","steam_id":76561198378470149,"connected_time":1393000000000,"state":"active","ping":62},{"user_id":38,"name":"Rillegin","steam_id":76561198000376638,"connected_time":3997000000000,"state":"active","ping":70},{"user_id":97,"name":"dongheron33934316981+9=1","steam_id":76561198306593373,"connected_time":1393000000000,"state":"active","ping":73},{"user_id":98,"name":"NANI?!?!?!","steam_id":76561198172078559,"connected_time":1385000000000,"state":"active","ping":77},{"user_id":109,"name":"noobdog","steam_id":76561198036486671,"connected_time":238000000000,"state":"active","ping":59},{"user_id":52,"name":"yonnyful‚òÜ","steam_id":76561198008521297,"connected_time":3562000000000,"state":"active","ping":60},{"user_id":100,"name":"zapdos981","steam_id":76561198119674397,"connected_time":1341000000000,"state":"active","ping":70},{"user_id":45,"name":"killbind irl","steam_id":76561198180637374,"connected_time":3904000000000,"state":"active","ping":83},{"user_id":79,"name":"Diamhair","steam_id":76561198109020178,"connected_time":2136000000000,"state":"active","ping":77},{"user_id":76,"name":"Underground - Hard Rock R1700G","steam_id":76561198215986979,"connected_time":2449000000000,"state":"active","ping":59}]},{"server_id":202,"name":"Uncletopia | Hong Kong | 1 | All Maps","name_short":"hgk-1","host":"hgk-1.hk.uncletopia.com","port":27015,"enabled":true,"region":"asia","cc":"hk","latitude":22.302711,"longitude":114.177216,"reserved":0,"last_update":"0001-01-01T00:00:00Z","name_a2s":"","protocol":0,"map":"","folder":"","game":"","app_id":0,"player_count":0,"max_players":0,"Bots":0,"server_type":"","server_os":"","password":false,"vac":false,"version":"","steam_id":0,"keywords":null,"game_id":0,"stv_port":0,"stv_name":"","players":null},{"server_id":1,"name":"Uncletopia | Los Angeles | 1 | All Maps","name_short":"lax-1","host":"lax-1.us.uncletopia.com","port":27015,"enabled":true,"region":"us-west","cc":"us","latitude":33.94279,"longitude":-118.41004,"reserved":0,"last_update":"0001-01-01T00:00:00Z","name_a2s":"Uncletopia | Los Angeles | 1 | All Maps","protocol":17,"map":"cp_mountainlab","folder":"tf","game":"Team Fortress","app_id":440,"player_count":0,"max_players":24,"Bots":0,"server_type":"Dedicated","server_os":"Linux","password":true,"vac":true,"version":"7961495","steam_id":85568392924469991,"keywords":["cp","nocrits","nodmgspread","uncletopia"],"game_id":440,"stv_port":27016,"stv_name":"Uncletopia | Los Angeles | 1 | All Maps | STV","players":null},{"server_id":112,"name":"Uncletopia | Los Angeles | 2 | All Maps","name_short":"lax-2","host":"lax-1.us.uncletopia.com","port":27025,"enabled":true,"region":"us-west","cc":"us","latitude":33.94279,"longitude":-118.41004,"reserved":0,"last_update":"0001-01-01T00:00:00Z","name_a2s":"Uncletopia | Los Angeles | 2 | All Maps","protocol":17,"map":"pl_borneo","folder":"tf","game":"Team Fortress","app_id":440,"player_count":0,"max_players":24,"Bots":0,"server_type":"Dedicated","server_os":"Linux","password":true,"vac":true,"version":"7961495","steam_id":85568392924469992,"keywords":["nocrits","nodmgspread","payload","uncletopia"],"game_id":440,"stv_port":27026,"stv_name":"Uncletopia | Los Angeles | 2 | All Maps | STV","players":null},{"server_id":324,"name":"Uncletopia | Los Angeles | 3 | All Maps","name_short":"lax-3","host":"lax-1.us.uncletopia.com","port":27035,"enabled":true,"region":"us-west","cc":"us","latitude":33.94279,"longitude":-118.41004,"reserved":0,"last_update":"0001-01-01T00:00:00Z","name_a2s":"Uncletopia | Los Angeles | 3 | All Maps","protocol":17,"map":"cp_process_final","folder":"tf","game":"Team Fortress","app_id":440,"player_count":0,"max_players":24,"Bots":0,"server_type":"Dedicated","server_os":"Linux","password":true,"vac":true,"version":"7961495","steam_id":85568392924510198,"keywords":["cp","nocrits","nodmgspread","uncletopia"],"game_id":440,"stv_port":27036,"stv_name":"Uncletopia | Los Angeles | 3 | All Maps | STV","players":null},{"server_id":25,"name":"Uncletopia | Los Angeles | 4 | Stopwatch Beta","name_short":"lax-4","host":"lax-1.us.uncletopia.com","port":27045,"enabled":true,"region":"us-west","cc":"us","latitude":33.94279,"longitude":-118.41004,"reserved":0,"last_update":"0001-01-01T00:00:00Z","name_a2s":"Uncletopia | Los Angeles | 4 | Stopwatch Beta","protocol":17,"map":"pl_upward","folder":"tf","game":"Team Fortress","app_id":440,"player_count":0,"max_players":24,"Bots":0,"server_type":"Dedicated","server_os":"Linux","password":true,"vac":true,"version":"7961495","steam_id":85568392924510199,"keywords":["nocrits","nodmgspread","payload","uncletopia"],"game_id":440,"stv_port":27046,"stv_name":"Uncletopia | Los Angeles | 4 | Stopwatch Beta | STV","players":null},{"server_id":11,"name":"Uncletopia | London | 1 | All Maps","name_short":"lon-1","host":"lon-1.uk.uncletopia.com","port":27015,"enabled":true,"region":"eu","cc":"gb","latitude":51.509865,"longitude":-0.118092,"reserved":0,"last_update":"0001-01-01T00:00:00Z","name_a2s":"Uncletopia | London | 1 | All Maps","protocol":17,"map":"pl_badwater","folder":"tf","game":"Team Fortress","app_id":440,"player_count":24,"max_players":24,"Bots":0,"server_type":"Dedicated","server_os":"Linux","password":true,"vac":true,"version":"7961495","steam_id":85568392924367362,"keywords":["nocrits","nodmgspread","payload","uncletopia"],"game_id":440,"stv_port":27016,"stv_name":"Uncletopia | London | 1 | All Maps | STV","players":[{"user_id":86,"name":"nymph","steam_id":76561199249569889,"connected_time":779000000000,"state":"active","ping":60},{"user_id":87,"name":"man of piss and shit","steam_id":76561199129509545,"connected_time":232000000000,"state":"active","ping":120},{"user_id":58,"name":"Isuurn","steam_id":76561198150201094,"connected_time":3497000000000,"state":"active","ping":81},{"user_id":55,"name":"Zm4j","steam_id":76561198259465946,"connected_time":3507000000000,"state":"active","ping":79},{"user_id":78,"name":"ein'd","steam_id":76561198152162834,"connected_time":1501000000000,"state":"active","ping":96},{"user_id":79,"name":"Puss in Boots","steam_id":76561198211599767,"connected_time":1327000000000,"state":"active","ping":55},{"user_id":89,"name":"Vivian From Paper Mario","steam_id":76561198077624205,"connected_time":124000000000,"state":"active","ping":70},{"user_id":16,"name":"impossible whopper eater","steam_id":76561198058641805,"connected_time":5233000000000,"state":"active","ping":59},{"user_id":13,"name":"Kiers","steam_id":76561198834266801,"connected_time":5238000000000,"state":"active","ping":68},{"user_id":88,"name":"Dark ^^","steam_id":76561198036241064,"connected_time":216000000000,"state":"active","ping":70},{"user_id":76,"name":"holy moly","steam_id":76561198163081194,"connected_time":1567000000000,"state":"active","ping":45},{"user_id":68,"name":"jimmy bob","steam_id":76561198319583692,"connected_time":2328000000000,"state":"active","ping":60},{"user_id":81,"name":"quickfast","steam_id":76561199438900919,"connected_time":1120000000000,"state":"active","ping":44},{"user_id":80,"name":"Mish","steam_id":76561198302973642,"connected_time":1201000000000,"state":"active","ping":119},{"user_id":31,"name":"CallMePlatypus","steam_id":76561198071140845,"connected_time":5143000000000,"state":"active","ping":120},{"user_id":23,"name":"Mega Man Legends 3","steam_id":76561198014110199,"connected_time":5205000000000,"state":"active","ping":42},{"user_id":46,"name":"Seron-Lowell","steam_id":76561198070291347,"connected_time":4126000000000,"state":"active","ping":60},{"user_id":25,"name":"prophits","steam_id":76561198011854314,"connected_time":5189000000000,"state":"active","ping":60},{"user_id":66,"name":"Jane Doe","steam_id":76561198058675116,"connected_time":2341000000000,"state":"active","ping":79},{"user_id":85,"name":"unconditional love","steam_id":76561199026097466,"connected_time":815000000000,"state":"active","ping":76},{"user_id":74,"name":"UltimateAura","steam_id":76561198338361324,"connected_time":1843000000000,"state":"active","ping":41},{"user_id":77,"name":"Exgone","steam_id":76561198296655773,"connected_time":1567000000000,"state":"active","ping":72},{"user_id":33,"name":"Argon","steam_id":76561198076340211,"connected_time":5014000000000,"state":"active","ping":122},{"user_id":50,"name":"glyph","steam_id":76561197980736364,"connected_time":3666000000000,"state":"active","ping":92}]},{"server_id":114,"name":"Uncletopia | London | 2 | All Maps","name_short":"lon-2","host":"lon-1.uk.uncletopia.com","port":27025,"enabled":true,"region":"eu","cc":"gb","latitude":51.509865,"longitude":-0.118092,"reserved":0,"last_update":"0001-01-01T00:00:00Z","name_a2s":"Uncletopia | London | 2 | All Maps","protocol":17,"map":"cp_junction_final","folder":"tf","game":"Team Fortress","app_id":440,"player_count":20,"max_players":24,"Bots":0,"server_type":"Dedicated","server_os":"Linux","password":true,"vac":true,"version":"7961495","steam_id":85568392924470941,"keywords":["cp","nocrits","nodmgspread","uncletopia"],"game_id":440,"stv_port":27026,"stv_name":"Uncletopia | London | 2 | All Maps | STV","players":[{"user_id":24,"name":"JUST","steam_id":76561198069064885,"connected_time":4112000000000,"state":"active","ping":60},{"user_id":87,"name":"flybynyt","steam_id":76561198121747990,"connected_time":209000000000,"state":"active","ping":68},{"user_id":84,"name":"MewZe","steam_id":76561198293664673,"connected_time":342000000000,"state":"active","ping":55},{"user_id":70,"name":"Eqxd","steam_id":76561199055592635,"connected_time":2012000000000,"state":"active","ping":70},{"user_id":86,"name":"One Hop Dis Time *BWRAB*","steam_id":76561198146081601,"connected_time":220000000000,"state":"active","ping":55},{"user_id":73,"name":"pyrosnark","steam_id":76561198981868580,"connected_time":1469000000000,"state":"active","ping":117},{"user_id":27,"name":"Zappron","steam_id":76561198058014558,"connected_time":3812000000000,"state":"active","ping":81},{"user_id":63,"name":"„Ç´„Çµ„É´109","steam_id":76561199060729711,"connected_time":2297000000000,"state":"active","ping":67},{"user_id":88,"name":"jeezource 2","steam_id":76561198123592400,"connected_time":169000000000,"state":"active","ping":88},{"user_id":30,"name":"Arthurnator","steam_id":76561198102173746,"connected_time":3749000000000,"state":"active","ping":85},{"user_id":92,"name":"Tiddle Thimblecock","steam_id":76561197978755321,"connected_time":39000000000,"state":"active","ping":147},{"user_id":93,"name":"Major Winters","steam_id":76561198020884130,"connected_time":22000000000,"state":"active","ping":166},{"user_id":50,"name":"Hentai","steam_id":76561198076449591,"connected_time":3248000000000,"state":"active","ping":98},{"user_id":94,"name":"dank pank","steam_id":76561198995052713,"connected_time":21000000000,"state":"spawning","ping":69},{"user_id":42,"name":"‚ô• Cirno ‚ô•","steam_id":76561198834982738,"connected_time":3467000000000,"state":"active","ping":71},{"user_id":55,"name":"Francis","steam_id":76561199486493777,"connected_time":3075000000000,"state":"active","ping":54},{"user_id":72,"name":"Rubix Cube‚Ñ¢","steam_id":76561198067610940,"connected_time":1553000000000,"state":"active","ping":58},{"user_id":82,"name":"Dr.Sees [F2P]","steam_id":76561199219233587,"connected_time":1033000000000,"state":"active","ping":72},{"user_id":53,"name":"SaddlePatch","steam_id":76561199302872185,"connected_time":3212000000000,"state":"active","ping":118},{"user_id":57,"name":"Penis Contortionist","steam_id":76561198073663784,"connected_time":2907000000000,"state":"active","ping":33}]},{"server_id":320,"name":"Uncletopia | London | 3 | All Maps","name_short":"lon-3","host":"lon-1.uk.uncletopia.com","port":27035,"enabled":true,"region":"eu","cc":"gb","latitude":51.509865,"longitude":-0.118092,"reserved":0,"last_update":"0001-01-01T00:00:00Z","name_a2s":"Uncletopia | London | 3 | All Maps","protocol":17,"map":"koth_viaduct","folder":"tf","game":"Team Fortress","app_id":440,"player_count":24,"max_players":24,"Bots":0,"server_type":"Dedicated","server_os":"Linux","password":true,"vac":true,"version":"7961495","steam_id":85568392924510192,"keywords":["cp","nocrits","nodmgspread","uncletopia"],"game_id":440,"stv_port":27036,"stv_name":"Uncletopia | London | 3 | All Maps | STV","players":[{"user_id":56,"name":"–ê–¥–≤–æ–∫–∞—Ç","steam_id":76561198883195641,"connected_time":86000000000,"state":"active","ping":88},{"user_id":50,"name":"Mr. Enjoy da money","steam_id":76561198152681460,"connected_time":272000000000,"state":"active","ping":75},{"user_id":54,"name":"soup","steam_id":76561198386933065,"connected_time":92000000000,"state":"active","ping":72},{"user_id":28,"name":"hmm","steam_id":76561199471582243,"connected_time":621000000000,"state":"active","ping":100},{"user_id":29,"name":"MaRo","steam_id":76561198992286676,"connected_time":614000000000,"state":"active","ping":46},{"user_id":58,"name":"GigglingGibbon","steam_id":76561198389058247,"connected_time":71000000000,"state":"active","ping":68},{"user_id":15,"name":"_3tHeR_","steam_id":76561199109870743,"connected_time":1203000000000,"state":"active","ping":60},{"user_id":18,"name":"lorislk989","steam_id":76561199224251630,"connected_time":1064000000000,"state":"active","ping":68},{"user_id":20,"name":"flub_","steam_id":76561198337519315,"connected_time":941000000000,"state":"active","ping":41},{"user_id":46,"name":"Na'vi Misato (by popular demand","steam_id":76561198130860698,"connected_time":376000000000,"state":"active","ping":55},{"user_id":22,"name":"_(:–∑)‚à†)_","steam_id":76561198007464245,"connected_time":809000000000,"state":"active","ping":152},{"user_id":49,"name":"GetCremeEgged","steam_id":76561199123415870,"connected_time":296000000000,"state":"active","ping":89},{"user_id":31,"name":"Lifes Lemons","steam_id":76561199033413195,"connected_time":589000000000,"state":"active","ping":52},{"user_id":51,"name":"fabacher","steam_id":76561198057905272,"connected_time":272000000000,"state":"active","ping":60},{"user_id":27,"name":"Government Hooker","steam_id":76561198005361358,"connected_time":667000000000,"state":"active","ping":66},{"user_id":32,"name":"Peep","steam_id":76561198132508552,"connected_time":584000000000,"state":"active","ping":44},{"user_id":60,"name":"Sham!","steam_id":76561198050434275,"connected_time":11000000000,"state":"active","ping":71},{"user_id":34,"name":"KNACKERED RONALD","steam_id":76561198110773463,"connected_time":545000000000,"state":"active","ping":88},{"user_id":37,"name":"‚ô• trixy ‚ô•","steam_id":76561199474154775,"connected_time":505000000000,"state":"active","ping":60},{"user_id":47,"name":"cynosure","steam_id":76561198121286517,"connected_time":371000000000,"state":"active","ping":32},{"user_id":39,"name":"G R U G","steam_id":76561198188231318,"connected_time":492000000000,"state":"active","ping":80},{"user_id":40,"name":"Ruby Everred","steam_id":76561199015581680,"connected_time":491000000000,"state":"active","ping":110},{"user_id":42,"name":"Silvestro","steam_id":76561198021660066,"connected_time":488000000000,"state":"active","ping":84},{"user_id":55,"name":"K.V. #RemoveRandomCrits","steam_id":76561197994832993,"connected_time":91000000000,"state":"active","ping":83}]},{"server_id":321,"name":"Uncletopia | London | 4 | All Maps","name_short":"lon-4","host":"lon-1.uk.uncletopia.com","port":27045,"enabled":true,"region":"eu","cc":"gb","latitude":51.509865,"longitude":-0.118092,"reserved":0,"last_update":"0001-01-01T00:00:00Z","name_a2s":"Uncletopia | London | 4 | All Maps","protocol":17,"map":"koth_cascade","folder":"tf","game":"Team Fortress","app_id":440,"player_count":1,"max_players":24,"Bots":0,"server_type":"Dedicated","server_os":"Linux","password":true,"vac":true,"version":"7961495","steam_id":85568392924510193,"keywords":["cp","nocrits","nodmgspread","uncletopia"],"game_id":440,"stv_port":27046,"stv_name":"Uncletopia | London | 4 | All Maps | STV","players":[{"user_id":16,"name":"I-I","steam_id":76561198267969436,"connected_time":992000000000,"state":"active","ping":72}]},{"server_id":21,"name":"Uncletopia | London | 5 | All Maps","name_short":"lon-5","host":"lon-1.uk.uncletopia.com","port":27055,"enabled":true,"region":"eu","cc":"gb","latitude":51.509865,"longitude":-0.118092,"reserved":0,"last_update":"0001-01-01T00:00:00Z","name_a2s":"Uncletopia | London | 5 | All Maps","protocol":17,"map":"pl_barnblitz","folder":"tf","game":"Team Fortress","app_id":440,"player_count":3,"max_players":24,"Bots":0,"server_type":"Dedicated","server_os":"Linux","password":true,"vac":true,"version":"7961495","steam_id":85568392924742829,"keywords":["nocrits","nodmgspread","payload","uncletopia"],"game_id":440,"stv_port":27056,"stv_name":"Uncletopia | London | 5 | All Maps | STV","players":[{"user_id":8,"name":"daworsenoobs","steam_id":76561199219918900,"connected_time":565000000000,"state":"active","ping":47},{"user_id":9,"name":"luikillar666","steam_id":76561199093116152,"connected_time":473000000000,"state":"active","ping":51},{"user_id":10,"name":"Curls","steam_id":76561198079039937,"connected_time":326000000000,"state":"active","ping":61}]},{"server_id":22,"name":"Uncletopia | London | 6 | All Maps","name_short":"lon-6","host":"lon-1.uk.uncletopia.com","port":27065,"enabled":true,"region":"eu","cc":"gb","latitude":51.509865,"longitude":-0.118092,"reserved":0,"last_update":"0001-01-01T00:00:00Z","name_a2s":"Uncletopia | London | 6 | All Maps","protocol":17,"map":"pl_swiftwater_final1","folder":"tf","game":"Team Fortress","app_id":440,"player_count":0,"max_players":24,"Bots":0,"server_type":"Dedicated","server_os":"Linux","password":true,"vac":true,"version":"7961495","steam_id":85568392924742830,"keywords":["nocrits","nodmgspread","payload","uncletopia"],"game_id":440,"stv_port":27066,"stv_name":"Uncletopia | London | 6 | All Maps | STV","players":null},{"server_id":40,"name":"Uncletopia | London | 7 | No Payload","name_short":"lon-7","host":"lon-1.uk.uncletopia.com","port":27075,"enabled":true,"region":"eu","cc":"gb","latitude":51.509865,"longitude":-0.118092,"reserved":0,"last_update":"0001-01-01T00:00:00Z","name_a2s":"Uncletopia | London | 7 | No Payload","protocol":17,"map":"pl_pier","folder":"tf","game":"Team Fortress","app_id":440,"player_count":0,"max_players":24,"Bots":0,"server_type":"Dedicated","server_os":"Linux","password":true,"vac":true,"version":"7961495","steam_id":85568392924964314,"keywords":["nocrits","nodmgspread","payload","uncletopia"],"game_id":440,"stv_port":27076,"stv_name":"Uncletopia | London | 7 | No Payload | STV","players":null},{"server_id":41,"name":"Uncletopia | London | 8 | Community","name_short":"lon-8","host":"lon-1.uk.uncletopia.com","port":27085,"enabled":true,"region":"eu","cc":"gb","latitude":51.509865,"longitude":-0.118092,"reserved":0,"last_update":"0001-01-01T00:00:00Z","name_a2s":"Uncletopia | London | 8 | Community","protocol":17,"map":"pl_borneo","folder":"tf","game":"Team Fortress","app_id":440,"player_count":0,"max_players":24,"Bots":0,"server_type":"Dedicated","server_os":"Linux","password":true,"vac":true,"version":"7961495","steam_id":85568392924964315,"keywords":["nocrits","nodmgspread","payload","uncletopia"],"game_id":440,"stv_port":27086,"stv_name":"Uncletopia | London | 8 | Community | STV","players":null},{"server_id":300,"name":"Uncletopia | Montr√©al | 1 | All Maps","name_short":"mtl-1","host":"mtl-1.ca.uncletopia.com","port":27015,"enabled":true,"region":"us-east","cc":"ca","latitude":45.50889,"longitude":-73.56167,"reserved":0,"last_update":"0001-01-01T00:00:00Z","name_a2s":"Uncletopia | Montr√©al | 1 | All Maps","protocol":17,"map":"pl_swiftwater_final1","folder":"tf","game":"Team Fortress","app_id":440,"player_count":0,"max_players":24,"Bots":0,"server_type":"Dedicated","server_os":"Linux","password":true,"vac":true,"version":"7961495","steam_id":85568392924500087,"keywords":["nocrits","nodmgspread","payload","uncletopia"],"game_id":440,"stv_port":27016,"stv_name":"Uncletopia | Montr√©al | 1 | All Maps | STV","players":null},{"server_id":301,"name":"Uncletopia | Montr√©al | 2 | All Maps","name_short":"mtl-2","host":"mtl-1.ca.uncletopia.com","port":27025,"enabled":true,"region":"us-east","cc":"ca","latitude":45.50889,"longitude":-73.56167,"reserved":0,"last_update":"0001-01-01T00:00:00Z","name_a2s":"Uncletopia | Montr√©al | 2 | All Maps","protocol":17,"map":"cp_dustbowl","folder":"tf","game":"Team Fortress","app_id":440,"player_count":0,"max_players":24,"Bots":0,"server_type":"Dedicated","server_os":"Linux","password":true,"vac":true,"version":"7961495","steam_id":85568392924500088,"keywords":["cp","nocrits","nodmgspread","uncletopia"],"game_id":440,"stv_port":27026,"stv_name":"Uncletopia | Montr√©al | 2 | All Maps | STV","players":null},{"server_id":302,"name":"Uncletopia | Montr√©al | 3 | All Maps","name_short":"mtl-3","host":"mtl-1.ca.uncletopia.com","port":27035,"enabled":true,"region":"us-east","cc":"ca","latitude":45.50889,"longitude":-73.56167,"reserved":0,"last_update":"0001-01-01T00:00:00Z","name_a2s":"Uncletopia | Montr√©al | 3 | All Maps","protocol":17,"map":"koth_cascade","folder":"tf","game":"Team Fortress","app_id":440,"player_count":0,"max_players":24,"Bots":0,"server_type":"Dedicated","server_os":"Linux","password":true,"vac":true,"version":"7961495","steam_id":85568392924500089,"keywords":["cp","nocrits","nodmgspread","uncletopia"],"game_id":440,"stv_port":27036,"stv_name":"Uncletopia | Montr√©al | 3 | All Maps | STV","players":null},{"server_id":303,"name":"Uncletopia | Montr√©al | 4 | No Payload","name_short":"mtl-4","host":"mtl-1.ca.uncletopia.com","port":27045,"enabled":true,"region":"us-east","cc":"ca","latitude":45.50889,"longitude":-73.56167,"reserved":0,"last_update":"0001-01-01T00:00:00Z","name_a2s":"Uncletopia | Montr√©al | 4 | No Payload","protocol":17,"map":"koth_lakeside_final","folder":"tf","game":"Team Fortress","app_id":440,"player_count":0,"max_players":24,"Bots":0,"server_type":"Dedicated","server_os":"Linux","password":true,"vac":true,"version":"7961495","steam_id":85568392924500090,"keywords":["cp","nocrits","nodmgspread","uncletopia"],"game_id":440,"stv_port":27046,"stv_name":"Uncletopia | Montr√©al | 4 | No Payload | STV","players":null},{"server_id":13,"name":"Uncletopia | New York City | 1 | All Maps","name_short":"nyc-1","host":"nyc-1.us.uncletopia.com","port":27015,"enabled":true,"region":"us-east","cc":"us","latitude":40.73061,"longitude":-73.93524,"reserved":0,"last_update":"0001-01-01T00:00:00Z","name_a2s":"Uncletopia | New York City | 1 | All Maps","protocol":17,"map":"cp_mountainlab","folder":"tf","game":"Team Fortress","app_id":440,"player_count":24,"max_players":24,"Bots":0,"server_type":"Dedicated","server_os":"Linux","password":true,"vac":true,"version":"7961495","steam_id":85568392924469993,"keywords":["cp","nocrits","nodmgspread","uncletopia"],"game_id":440,"stv_port":27016,"stv_name":"Uncletopia | New York City | 1 | All Maps | STV","players":[{"user_id":211,"name":"Arjen PSN 23","steam_id":76561198963682232,"connected_time":1008000000000,"state":"active","ping":45},{"user_id":97,"name":"Bag","steam_id":76561198012395490,"connected_time":10348000000000,"state":"active","ping":70},{"user_id":196,"name":"fast3r","steam_id":76561198415542035,"connected_time":2451000000000,"state":"active","ping":128},{"user_id":212,"name":"Revenge of the Jews in 3D","steam_id":76561199381623663,"connected_time":995000000000,"state":"active","ping":173},{"user_id":226,"name":"Nic0","steam_id":76561198305690218,"connected_time":363000000000,"state":"active","ping":57},{"user_id":229,"name":"pabloramirez1998@gmail.com","steam_id":76561198969675306,"connected_time":75000000000,"state":"active","ping":60},{"user_id":213,"name":"Crouching Noob Hidden Sniper","steam_id":76561197971328473,"connected_time":990000000000,"state":"active","ping":89},{"user_id":192,"name":"Rodgedan","steam_id":76561198226236524,"connected_time":2870000000000,"state":"active","ping":80},{"user_id":222,"name":"killerdragon130","steam_id":76561198899790922,"connected_time":781000000000,"state":"active","ping":89},{"user_id":225,"name":"giogioboi235","steam_id":76561199102124882,"connected_time":536000000000,"state":"active","ping":63},{"user_id":216,"name":"Eraserhead Baby","steam_id":76561198010968514,"connected_time":917000000000,"state":"active","ping":106},{"user_id":206,"name":"TwoBit","steam_id":76561198062437559,"connected_time":1528000000000,"state":"active","ping":60},{"user_id":223,"name":"Navis","steam_id":76561198996230924,"connected_time":641000000000,"state":"active","ping":76},{"user_id":227,"name":"mar","steam_id":76561199187162134,"connected_time":353000000000,"state":"active","ping":80},{"user_id":228,"name":"Mopler","steam_id":76561198252904364,"connected_time":127000000000,"state":"active","ping":86},{"user_id":218,"name":"BRO_TEIN_SHAKE","steam_id":76561198035547173,"connected_time":882000000000,"state":"active","ping":87},{"user_id":202,"name":"littlesack","steam_id":76561197960270526,"connected_time":2078000000000,"state":"active","ping":119},{"user_id":179,"name":"carrion goat","steam_id":76561198262064871,"connected_time":3170000000000,"state":"active","ping":40},{"user_id":180,"name":"randymarsh004","steam_id":76561199078097804,"connected_time":3144000000000,"state":"active","ping":54},{"user_id":186,"name":"SANGOMI","steam_id":76561199383217951,"connected_time":3045000000000,"state":"active","ping":130},{"user_id":187,"name":"Mury","steam_id":76561198069743049,"connected_time":3043000000000,"state":"active","ping":83},{"user_id":220,"name":"neet","steam_id":76561197968115168,"connected_time":852000000000,"state":"active","ping":51},{"user_id":189,"name":"nonstopdisco","steam_id":76561198014036814,"connected_time":3034000000000,"state":"active","ping":73},{"user_id":221,"name":"Stolas \u003c3","steam_id":76561198835430280,"connected_time":851000000000,"state":"active","ping":81}]},{"server_id":14,"name":"Uncletopia | New York City | 2 | All Maps","name_short":"nyc-2","host":"nyc-1.us.uncletopia.com","port":27025,"enabled":true,"region":"us-east","cc":"us","latitude":40.73061,"longitude":-73.93524,"reserved":0,"last_update":"0001-01-01T00:00:00Z","name_a2s":"Uncletopia | New York City | 2 | All Maps","protocol":17,"map":"pl_snowycoast","folder":"tf","game":"Team Fortress","app_id":440,"player_count":24,"max_players":24,"Bots":0,"server_type":"Dedicated","server_os":"Linux","password":true,"vac":true,"version":"7961495","steam_id":85568392924469994,"keywords":["nocrits","nodmgspread","payload","uncletopia"],"game_id":440,"stv_port":27026,"stv_name":"Uncletopia | New York City | 2 | All Maps | STV","players":[{"user_id":107,"name":"Frajer","steam_id":76561198059129680,"connected_time":259000000000,"state":"active","ping":62},{"user_id":75,"name":"The Knight","steam_id":76561198055320626,"connected_time":2740000000000,"state":"active","ping":165},{"user_id":89,"name":"Uncle Dan","steam_id":76561198435354491,"connected_time":2199000000000,"state":"active","ping":70},{"user_id":83,"name":"George Washington 2","steam_id":76561199202527150,"connected_time":2430000000000,"state":"active","ping":59},{"user_id":38,"name":"tooth","steam_id":76561197986437643,"connected_time":4609000000000,"state":"active","ping":56},{"user_id":99,"name":"DJThunderHeart","steam_id":76561198274197575,"connected_time":1622000000000,"state":"active","ping":49},{"user_id":91,"name":"Rusty","steam_id":76561198055585129,"connected_time":1982000000000,"state":"active","ping":115},{"user_id":93,"name":"Magnolia","steam_id":76561199044602594,"connected_time":1841000000000,"state":"active","ping":44},{"user_id":64,"name":"DRLdestroyer","steam_id":76561198085803893,"connected_time":3573000000000,"state":"active","ping":51},{"user_id":65,"name":"[scumge] sketchie","steam_id":76561198015655864,"connected_time":3497000000000,"state":"active","ping":60},{"user_id":68,"name":"Poggy Woggy","steam_id":76561198119481545,"connected_time":3204000000000,"state":"active","ping":53},{"user_id":84,"name":"Shadoe","steam_id":76561198218577281,"connected_time":2414000000000,"state":"active","ping":62},{"user_id":30,"name":"ArtoMeister","steam_id":76561198374963088,"connected_time":4934000000000,"state":"active","ping":110},{"user_id":96,"name":"Mog","steam_id":76561198025575870,"connected_time":1663000000000,"state":"active","ping":73},{"user_id":101,"name":"you forgot the sauce","steam_id":76561198387016713,"connected_time":867000000000,"state":"active","ping":62},{"user_id":105,"name":"Albundy","steam_id":76561198075394127,"connected_time":425000000000,"state":"active","ping":56},{"user_id":97,"name":"Astrocircuit","steam_id":76561198014437544,"connected_time":1660000000000,"state":"active","ping":50},{"user_id":103,"name":"Swege","steam_id":76561198047941849,"connected_time":598000000000,"state":"active","ping":71},{"user_id":44,"name":"orbisg","steam_id":76561198004133638,"connected_time":4372000000000,"state":"active","ping":116},{"user_id":53,"name":"Lindir","steam_id":76561198330755050,"connected_time":4055000000000,"state":"active","ping":64},{"user_id":100,"name":"Skag","steam_id":76561198812913145,"connected_time":1049000000000,"state":"active","ping":89},{"user_id":85,"name":"bluefoxx118","steam_id":76561198182884975,"connected_time":2372000000000,"state":"active","ping":76},{"user_id":86,"name":"FrostyFoxDrake","steam_id":76561198109068082,"connected_time":2332000000000,"state":"active","ping":70},{"user_id":87,"name":"3am drywall","steam_id":76561198964609865,"connected_time":2308000000000,"state":"active","ping":78}]},{"server_id":15,"name":"Uncletopia | New York City | 3 | Stopwatch Beta","name_short":"nyc-3","host":"nyc-1.us.uncletopia.com","port":27035,"enabled":true,"region":"us-east","cc":"us","latitude":40.73061,"longitude":-73.93524,"reserved":0,"last_update":"0001-01-01T00:00:00Z","name_a2s":"Uncletopia | New York City | 3 | Stopwatch Beta","protocol":17,"map":"workshop/cp_process_f12.ugc2302948105","folder":"tf","game":"Team Fortress","app_id":440,"player_count":0,"max_players":24,"Bots":0,"server_type":"Dedicated","server_os":"Linux","password":true,"vac":true,"version":"7961495","steam_id":85568392924742820,"keywords":["cp","nocrits","nodmgspread","uncletopia"],"game_id":440,"stv_port":27036,"stv_name":"Uncletopia | New York City | 3 | Stopwatch Beta | STV","players":null},{"server_id":16,"name":"Uncletopia | New York City | 4 | Community","name_short":"nyc-4","host":"nyc-1.us.uncletopia.com","port":27045,"enabled":true,"region":"us-east","cc":"us","latitude":40.73061,"longitude":-73.93524,"reserved":0,"last_update":"0001-01-01T00:00:00Z","name_a2s":"Uncletopia | New York City | 4 | Community","protocol":17,"map":"workshop/pl_cashworks_final1.ugc2904065412","folder":"tf","game":"Team Fortress","app_id":440,"player_count":2,"max_players":24,"Bots":0,"server_type":"Dedicated","server_os":"Linux","password":true,"vac":true,"version":"7961495","steam_id":85568392924742821,"keywords":["nocrits","nodmgspread","payload","uncletopia"],"game_id":440,"stv_port":27046,"stv_name":"Uncletopia | New York City | 4 | Community | STV","players":[{"user_id":3,"name":"marcadoni money gang thug #1","steam_id":76561198304612032,"connected_time":410000000000,"state":"active","ping":61},{"user_id":5,"name":"adog3","steam_id":76561198376525598,"connected_time":105000000000,"state":"active","ping":96}]},{"server_id":142,"name":"Uncletopia | S√£o Paulo | 1 | All Maps","name_short":"sao-1","host":"sao-1.br.uncletopia.com","port":27015,"enabled":true,"region":"sa","cc":"br","latitude":-23.533773,"longitude":-46.62529,"reserved":0,"last_update":"0001-01-01T00:00:00Z","name_a2s":"Uncletopia | S√£o Paulo | 1 | All Maps","protocol":17,"map":"koth_highpass","folder":"tf","game":"Team Fortress","app_id":440,"player_count":0,"max_players":24,"Bots":0,"server_type":"Dedicated","server_os":"Linux","password":true,"vac":true,"version":"7961495","steam_id":85568392924469996,"keywords":["cp","nocrits","nodmgspread","uncletopia"],"game_id":440,"stv_port":27016,"stv_name":"Uncletopia | S√£o Paulo | 1 | All Maps | STV","players":null},{"server_id":143,"name":"Uncletopia | S√£o Paulo | 2 | Community","name_short":"sao-2","host":"sao-2.br.uncletopia.com","port":27015,"enabled":true,"region":"sa","cc":"br","latitude":-23.533773,"longitude":-46.62529,"reserved":0,"last_update":"0001-01-01T00:00:00Z","name_a2s":"Uncletopia | S√£o Paulo | 2 | Community","protocol":17,"map":"cp_snakewater_final1","folder":"tf","game":"Team Fortress","app_id":440,"player_count":0,"max_players":24,"Bots":0,"server_type":"Dedicated","server_os":"Linux","password":true,"vac":true,"version":"7961495","steam_id":85568392924485349,"keywords":["cp","nocrits","nodmgspread","uncletopia"],"game_id":440,"stv_port":27016,"stv_name":"Uncletopia | S√£o Paulo | 2 | Community | STV","players":null},{"server_id":7,"name":"Uncletopia | Seattle | 1 | All Maps","name_short":"sea-1","host":"sea-1.us.uncletopia.com","port":27015,"enabled":true,"region":"us-west","cc":"us","latitude":47.608013,"longitude":-122.33517,"reserved":0,"last_update":"0001-01-01T00:00:00Z","name_a2s":"Uncletopia | Seattle | 1 | All Maps","protocol":17,"map":"koth_lakeside_final","folder":"tf","game":"Team Fortress","app_id":440,"player_count":0,"max_players":24,"Bots":0,"server_type":"Dedicated","server_os":"Linux","password":true,"vac":true,"version":"7961495","steam_id":85568392924469997,"keywords":["cp","nocrits","nodmgspread","uncletopia"],"game_id":440,"stv_port":27016,"stv_name":"Uncletopia | Seattle | 1 | All Maps | STV","players":null},{"server_id":119,"name":"Uncletopia | Seattle | 2 | All Maps","name_short":"sea-2","host":"sea-1.us.uncletopia.com","port":27025,"enabled":true,"region":"us-west","cc":"us","latitude":47.608013,"longitude":-122.33517,"reserved":0,"last_update":"0001-01-01T00:00:00Z","name_a2s":"Uncletopia | Seattle | 2 | All Maps","protocol":17,"map":"cp_process_final","folder":"tf","game":"Team Fortress","app_id":440,"player_count":0,"max_players":24,"Bots":0,"server_type":"Dedicated","server_os":"Linux","password":true,"vac":true,"version":"7961495","steam_id":85568392924469998,"keywords":["cp","nocrits","nodmgspread","uncletopia"],"game_id":440,"stv_port":27026,"stv_name":"Uncletopia | Seattle | 2 | All Maps | STV","players":null},{"server_id":406,"name":"Uncletopia | Seattle | 3 | Stopwatch Beta","name_short":"sea-3","host":"sea-1.us.uncletopia.com","port":27035,"enabled":true,"region":"us-west","cc":"us","latitude":47.608013,"longitude":-122.33517,"reserved":0,"last_update":"0001-01-01T00:00:00Z","name_a2s":"Uncletopia | Seattle | 3 | Stopwatch Beta","protocol":17,"map":"koth_lakeside_final","folder":"tf","game":"Team Fortress","app_id":440,"player_count":0,"max_players":24,"Bots":0,"server_type":"Dedicated","server_os":"Linux","password":true,"vac":true,"version":"7961495","steam_id":85568392924515217,"keywords":["cp","nocrits","nodmgspread","uncletopia"],"game_id":440,"stv_port":27036,"stv_name":"Uncletopia | Seattle | 3 | Stopwatch Beta | STV","players":null},{"server_id":17,"name":"Uncletopia | San Francisco | 1 | All Maps","name_short":"sfo-1","host":"sfo-1.us.uncletopia.com","port":27015,"enabled":true,"region":"us-west","cc":"us","latitude":37.77397,"longitude":-122.4313,"reserved":0,"last_update":"0001-01-01T00:00:00Z","name_a2s":"Uncletopia | San Francisco | 1 | All Maps","protocol":17,"map":"pl_snowycoast","folder":"tf","game":"Team Fortress","app_id":440,"player_count":0,"max_players":24,"Bots":0,"server_type":"Dedicated","server_os":"Linux","password":true,"vac":true,"version":"7961495","steam_id":85568392924469999,"keywords":["nocrits","nodmgspread","payload","uncletopia"],"game_id":440,"stv_port":27016,"stv_name":"Uncletopia | San Francisco | 1 | All Maps | STV","players":null},{"server_id":18,"name":"Uncletopia | San Francisco | 2 | All Maps","name_short":"sfo-2","host":"sfo-1.us.uncletopia.com","port":27025,"enabled":true,"region":"us-west","cc":"us","latitude":37.77397,"longitude":-122.4313,"reserved":0,"last_update":"0001-01-01T00:00:00Z","name_a2s":"Uncletopia | San Francisco | 2 | All Maps","protocol":17,"map":"cp_process_final","folder":"tf","game":"Team Fortress","app_id":440,"player_count":0,"max_players":24,"Bots":0,"server_type":"Dedicated","server_os":"Linux","password":true,"vac":true,"version":"7961495","steam_id":85568392924470000,"keywords":["cp","nocrits","nodmgspread","uncletopia"],"game_id":440,"stv_port":27026,"stv_name":"Uncletopia | San Francisco | 2 | All Maps | STV","players":null},{"server_id":19,"name":"Uncletopia | San Francisco | 3 | Stopwatch Beta","name_short":"sfo-3","host":"sfo-1.us.uncletopia.com","port":27035,"enabled":true,"region":"us-west","cc":"us","latitude":37.77397,"longitude":-122.4313,"reserved":0,"last_update":"0001-01-01T00:00:00Z","name_a2s":"Uncletopia | San Francisco | 3 | Stopwatch Beta","protocol":17,"map":"pl_borneo","folder":"tf","game":"Team Fortress","app_id":440,"player_count":0,"max_players":24,"Bots":0,"server_type":"Dedicated","server_os":"Linux","password":true,"vac":true,"version":"7961495","steam_id":85568392924742824,"keywords":["nocrits","nodmgspread","payload","uncletopia"],"game_id":440,"stv_port":27036,"stv_name":"Uncletopia | San Francisco | 3 | Stopwatch Beta | STV","players":null},{"server_id":20,"name":"Uncletopia | San Francisco | 4 | Community","name_short":"sfo-4","host":"sfo-1.us.uncletopia.com","port":27045,"enabled":true,"region":"us-west","cc":"us","latitude":37.77397,"longitude":-122.4313,"reserved":0,"last_update":"0001-01-01T00:00:00Z","name_a2s":"Uncletopia | San Francisco | 4 | Community","protocol":17,"map":"koth_viaduct","folder":"tf","game":"Team Fortress","app_id":440,"player_count":0,"max_players":24,"Bots":0,"server_type":"Dedicated","server_os":"Linux","password":true,"vac":true,"version":"7961495","steam_id":85568392924742826,"keywords":["cp","nocrits","nodmgspread","uncletopia"],"game_id":440,"stv_port":27046,"stv_name":"Uncletopia | San Francisco | 4 | Community | STV","players":null},{"server_id":141,"name":"Uncletopia | Sydney | 1 | All Maps","name_short":"syd-1","host":"syd-1.au.uncletopia.com","port":27015,"enabled":true,"region":"au","cc":"au","latitude":-33.865143,"longitude":151.2099,"reserved":0,"last_update":"0001-01-01T00:00:00Z","name_a2s":"","protocol":0,"map":"","folder":"","game":"","app_id":0,"player_count":0,"max_players":0,"Bots":0,"server_type":"","server_os":"","password":false,"vac":false,"version":"","steam_id":0,"keywords":null,"game_id":0,"stv_port":0,"stv_name":"","players":null},{"server_id":123,"name":"Uncletopia | Sydney | 2 | All Maps","name_short":"syd-2","host":"syd-1.au.uncletopia.com","port":27025,"enabled":true,"region":"au","cc":"au","latitude":-33.865143,"longitude":151.2099,"reserved":0,"last_update":"0001-01-01T00:00:00Z","name_a2s":"","protocol":0,"map":"","folder":"","game":"","app_id":0,"player_count":0,"max_players":0,"Bots":0,"server_type":"","server_os":"","password":false,"vac":false,"version":"","steam_id":0,"keywords":null,"game_id":0,"stv_port":0,"stv_name":"","players":null},{"server_id":395,"name":"Uncletopia | Sydney | 3 | All Maps","name_short":"syd-3","host":"syd-1.au.uncletopia.com","port":27035,"enabled":true,"region":"au","cc":"au","latitude":-33.865143,"longitude":151.2099,"reserved":0,"last_update":"0001-01-01T00:00:00Z","name_a2s":"","protocol":0,"map":"","folder":"","game":"","app_id":0,"player_count":0,"max_players":0,"Bots":0,"server_type":"","server_os":"","password":false,"vac":false,"version":"","steam_id":0,"keywords":null,"game_id":0,"stv_port":0,"stv_name":"","players":null},{"server_id":396,"name":"Uncletopia | Sydney | 4 | All Maps","name_short":"syd-4","host":"syd-1.au.uncletopia.com","port":27045,"enabled":true,"region":"au","cc":"au","latitude":-33.865143,"longitude":151.2099,"reserved":0,"last_update":"0001-01-01T00:00:00Z","name_a2s":"","protocol":0,"map":"","folder":"","game":"","app_id":0,"player_count":0,"max_players":0,"Bots":0,"server_type":"","server_os":"","password":false,"vac":false,"version":"","steam_id":0,"keywords":null,"game_id":0,"stv_port":0,"stv_name":"","players":null},{"server_id":58,"name":"Uncletopia | Sydney | 5 | No Payload","name_short":"syd-5","host":"syd-1.au.uncletopia.com","port":27055,"enabled":true,"region":"au","cc":"au","latitude":-33.865143,"longitude":151.2099,"reserved":0,"last_update":"0001-01-01T00:00:00Z","name_a2s":"","protocol":0,"map":"","folder":"","game":"","app_id":0,"player_count":0,"max_players":0,"Bots":0,"server_type":"","server_os":"","password":false,"vac":false,"version":"","steam_id":0,"keywords":null,"game_id":0,"stv_port":0,"stv_name":"","players":null},{"server_id":59,"name":"Uncletopia | Sydney | 6 | Community","name_short":"syd-6","host":"syd-1.au.uncletopia.com","port":27065,"enabled":true,"region":"au","cc":"au","latitude":-33.865143,"longitude":151.2099,"reserved":0,"last_update":"0001-01-01T00:00:00Z","name_a2s":"","protocol":0,"map":"","folder":"","game":"","app_id":0,"player_count":0,"max_players":0,"Bots":0,"server_type":"","server_os":"","password":false,"vac":false,"version":"","steam_id":0,"keywords":null,"game_id":0,"stv_port":0,"stv_name":"","players":null},{"server_id":49,"name":"Uncletopia | Warsaw | 1 | All Maps","name_short":"waw-1","host":"waw-1.pl.uncletopia.com","port":27015,"enabled":true,"region":"eu","cc":"pl","latitude":52.2297,"longitude":21.017532,"reserved":0,"last_update":"0001-01-01T00:00:00Z","name_a2s":"","protocol":0,"map":"","folder":"","game":"","app_id":0,"player_count":0,"max_players":0,"Bots":0,"server_type":"","server_os":"","password":false,"vac":false,"version":"","steam_id":0,"keywords":null,"game_id":0,"stv_port":0,"stv_name":"","players":null},{"server_id":50,"name":"Uncletopia | Warsaw | 2 | All Maps","name_short":"waw-2","host":"waw-1.pl.uncletopia.com","port":27025,"enabled":true,"region":"eu","cc":"pl","latitude":52.2297,"longitude":21.017532,"reserved":0,"last_update":"0001-01-01T00:00:00Z","name_a2s":"","protocol":0,"map":"","folder":"","game":"","app_id":0,"player_count":0,"max_players":0,"Bots":0,"server_type":"","server_os":"","password":false,"vac":false,"version":"","steam_id":0,"keywords":null,"game_id":0,"stv_port":0,"stv_name":"","players":null},{"server_id":51,"name":"Uncletopia | Warsaw | 3 | All Maps","name_short":"waw-3","host":"waw-1.pl.uncletopia.com","port":27035,"enabled":true,"region":"eu","cc":"pl","latitude":52.2297,"longitude":21.017532,"reserved":0,"last_update":"0001-01-01T00:00:00Z","name_a2s":"","protocol":0,"map":"","folder":"","game":"","app_id":0,"player_count":0,"max_players":0,"Bots":0,"server_type":"","server_os":"","password":false,"vac":false,"version":"","steam_id":0,"keywords":null,"game_id":0,"stv_port":0,"stv_name":"","players":null},{"server_id":52,"name":"Uncletopia | Warsaw | 4 | All Maps","name_short":"waw-4","host":"waw-1.pl.uncletopia.com","port":27045,"enabled":true,"region":"eu","cc":"pl","latitude":52.2297,"longitude":21.017532,"reserved":0,"last_update":"0001-01-01T00:00:00Z","name_a2s":"","protocol":0,"map":"","folder":"","game":"","app_id":0,"player_count":0,"max_players":0,"Bots":0,"server_type":"","server_os":"","password":false,"vac":false,"version":"","steam_id":0,"keywords":null,"game_id":0,"stv_port":0,"stv_name":"","players":null},{"server_id":53,"name":"Uncletopia | Warsaw | 5 | No Payload","name_short":"waw-5","host":"waw-1.pl.uncletopia.com","port":27055,"enabled":true,"region":"eu","cc":"pl","latitude":52.2297,"longitude":21.017532,"reserved":0,"last_update":"0001-01-01T00:00:00Z","name_a2s":"","protocol":0,"map":"","folder":"","game":"","app_id":0,"player_count":0,"max_players":0,"Bots":0,"server_type":"","server_os":"","password":false,"vac":false,"version":"","steam_id":0,"keywords":null,"game_id":0,"stv_port":0,"stv_name":"","players":null},{"server_id":54,"name":"Uncletopia | Warsaw | 6 | Community","name_short":"waw-6","host":"waw-1.pl.uncletopia.com","port":27065,"enabled":true,"region":"eu","cc":"pl","latitude":52.2297,"longitude":21.017532,"reserved":0,"last_update":"0001-01-01T00:00:00Z","name_a2s":"","protocol":0,"map":"","folder":"","game":"","app_id":0,"player_count":0,"max_players":0,"Bots":0,"server_type":"","server_os":"","password":false,"vac":false,"version":"","steam_id":0,"keywords":null,"game_id":0,"stv_port":0,"stv_name":"","players":null}]}