{"status":true,"message":"","result":[{"server_id":9,"name":"Uncletopia | Atlanta | 1 | All Maps","name_short":"atl-1","host":"atl-1.us.uncletopia.com","port":27015,"enabled":true,"region":"us-east","cc":"us","latitude":33.753746,"longitude":-84.38633,"reserved":0,"last_update":"0001-01-01T00:00:00Z","name_a2s":"Uncletopia | Atlanta | 1 | All Maps","protocol":17,"map":"plr_bananabay","folder":"tf","game":"Team Fortress","app_id":440,"player_count":24,"max_players":24,"Bots":0,"server_type":"Dedicated","server_os":"Linux","password":true,"vac":true,"version":"7961495","steam_id":85568392924469982,"keywords":["nocrits","nodmgspread","payload","uncletopia"],"game_id":440,"stv_port":27016,"stv_name":"Uncletopia | Atlanta | 1 | All Maps | STV","players":[{"user_id":242,"name":"Deltaco","steam_id":76561198094572694,"connected_time":1116000000000,"state":"active","ping":109},{"user_id":171,"name":"DuckMann","steam_id":76561198197058638,"connected_time":6367000000000,"state":"active","ping":48},{"user_id":227,"name":"Waffle Wannabe","steam_id":76561198064510650,"connected_time":2731000000000,"state":"active","ping":59},{"user_id":248,"name":"punk cock","steam_id":76561198418182764,"connected_time":444000000000,"state":"active","ping":67},{"user_id":140,"name":"the controller pyro","steam_id":76561199468748840,"connected_time":7581000000000,"state":"active","ping":75},{"user_id":133,"name":"Typh","steam_id":76561198315344079,"connected_time":7729000000000,"state":"active","ping":65},{"user_id":238,"name":"Jojo","steam_id":76561198332887086,"connected_time":1941000000000,"state":"active","ping":59},{"user_id":201,"name":"BiggSlorp","steam_id":76561199130776156,"connected_time":3853000000000,"state":"active","ping":67},{"user_id":184,"name":"lu","steam_id":76561198080731872,"connected_time":5124000000000,"state":"active","ping":75},{"user_id":189,"name":"ATL 1 | Save your wifi","steam_id":76561198286147372,"connected_time":4503000000000,"state":"active","ping":62},{"user_id":245,"name":"NeoWolf","steam_id":76561198144759784,"connected_time":748000000000,"state":"active","ping":96},{"user_id":250,"name":"Silly-Brained Sh3ba","steam_id":76561198047412394,"connected_time":376000000000,"state":"active","ping":85},{"user_id":176,"name":"Jesus Burgess","steam_id":76561199343316814,"connected_time":5865000000000,"state":"active","ping":58},{"user_id":169,"name":"Sunny D+","steam_id":76561197999371052,"connected_time":6475000000000,"state":"active","ping":86},{"user_id":249,"name":"Mog","steam_id":76561198025575870,"connected_time":442000000000,"state":"active","ping":72},{"user_id":246,"name":"why","steam_id":76561199059732212,"connected_time":721000000000,"state":"active","ping":58},{"user_id":254,"name":"Obelisk","steam_id":76561198049416866,"connected_time":224000000000,"state":"active","ping":56},{"user_id":196,"name":"ATL1 | cola","steam_id":76561198374390458,"connected_time":3947000000000,"state":"active","ping":68},{"user_id":251,"name":"spider","steam_id":76561198130032444,"connected_time":364000000000,"state":"active","ping":113},{"user_id":252,"name":"ChocoMcFudgeCake","steam_id":76561197994591295,"connected_time":363000000000,"state":"active","ping":75},{"user_id":233,"name":"Le4n!!!","steam_id":76561198045522596,"connected_time":2021000000000,"state":"active","ping":74},{"user_id":197,"name":"YourFriendJessie","steam_id":76561198176883097,"connected_time":3934000000000,"state":"active","ping":74},{"user_id":234,"name":"crunchy obama","steam_id":76561198044485217,"connected_time":2017000000000,"state":"active","ping":111},{"user_id":237,"name":"Im High","steam_id":76561198049954886,"connected_time":1973000000000,"state":"active","ping":79}]},{"server_id":104,"name":"Uncletopia | Atlanta | 2 | All Maps","name_short":"atl-2","host":"atl-1.us.uncletopia.com","port":27025,"enabled":true,"region":"us-east","cc":"us","latitude":33.753746,"longitude":-84.38633,"reserved":0,"last_update":"0001-01-01T00:00:00Z","name_a2s":"Uncletopia | Atlanta | 2 | All Maps","protocol":17,"map":"plr_hightower","folder":"tf","game":"Team Fortress","app_id":440,"player_count":24,"max_players":24,"Bots":0,"server_type":"Dedicated","server_os":"Linux","password":true,"vac":true,"version":"7961495","steam_id":85568392924469983,"keywords":["nocrits","nodmgspread","payload","uncletopia"],"game_id":440,"stv_port":27026,"stv_name":"Uncletopia | Atlanta | 2 | All Maps | STV","players":[{"user_id":216,"name":"KillSwitch","steam_id":76561198271909107,"connected_time":5167000000000,"state":"active","ping":70},{"user_id":261,"name":"illious","steam_id":76561198169925494,"connected_time":1161000000000,"state":"active","ping":59},{"user_id":266,"name":"P.C. Baby","steam_id":76561198067011379,"connected_time":414000000000,"state":"active","ping":103},{"user_id":277,"name":"RushOfJustice","steam_id":76561198077369877,"connected_time":131000000000,"state":"active","ping":112},{"user_id":268,"name":"loudIV","steam_id":76561198119296381,"connected_time":407000000000,"state":"active","ping":72},{"user_id":272,"name":"Monkey Mode","steam_id":76561197961267543,"connected_time":298000000000,"state":"active","ping":49},{"user_id":244,"name":"InchMan","steam_id":76561198272658825,"connected_time":2479000000000,"state":"active","ping":66},{"user_id":228,"name":"Nikoe","steam_id":76561198272837450,"connected_time":4550000000000,"state":"active","ping":67},{"user_id":271,"name":"Furious George","steam_id":76561198405111646,"connected_time":334000000000,"state":"active","ping":113},{"user_id":150,"name":"LazyDoll","steam_id":76561198053186338,"connected_time":9779000000000,"state":"active","ping":100},{"user_id":278,"name":"Sporp","steam_id":76561197987957133,"connected_time":93000000000,"state":"active","ping":76},{"user_id":260,"name":"Oopsie Daisy ❋","steam_id":76561198042144492,"connected_time":1345000000000,"state":"active","ping":55},{"user_id":225,"name":"Pshycopyro","steam_id":76561198161453655,"connected_time":4662000000000,"state":"active","ping":78},{"user_id":273,"name":"pablust","steam_id":76561199091011384,"connected_time":259000000000,"state":"active","ping":179},{"user_id":279,"name":"chowdah908","steam_id":76561198075858535,"connected_time":76000000000,"state":"active","ping":68},{"user_id":274,"name":"WM1 PYRO","steam_id":76561198045893896,"connected_time":233000000000,"state":"active","ping":116},{"user_id":250,"name":"Ginger Jesus","steam_id":76561198052386458,"connected_time":2366000000000,"state":"active","ping":63},{"user_id":259,"name":"SasukeGOD","steam_id":76561199077255310,"connected_time":1473000000000,"state":"active","ping":75},{"user_id":223,"name":"Juicy","steam_id":76561198049220780,"connected_time":4950000000000,"state":"active","ping":84},{"user_id":264,"name":"corviraptor!!!!!!","steam_id":76561198058284392,"connected_time":675000000000,"state":"active","ping":113},{"user_id":256,"name":"Bombsgamer","steam_id":76561198350009050,"connected_time":1937000000000,"state":"active","ping":110},{"user_id":276,"name":"Wow!","steam_id":76561198046350805,"connected_time":194000000000,"state":"active","ping":78},{"user_id":213,"name":"Artixes","steam_id":76561198379574232,"connected_time":5197000000000,"state":"active","ping":39},{"user_id":254,"name":"Hey","steam_id":76561198447517893,"connected_time":2029000000000,"state":"active","ping":57}]},{"server_id":400,"name":"Uncletopia | Atlanta | 3 | Stopwatch","name_short":"atl-3","host":"atl-1.us.uncletopia.com","port":27035,"enabled":true,"region":"us-east","cc":"us","latitude":33.753746,"longitude":-84.38633,"reserved":0,"last_update":"0001-01-01T00:00:00Z","name_a2s":"Uncletopia | Atlanta | 3 | Stopwatch","protocol":17,"map":"pl_badwater","folder":"tf","game":"Team Fortress","app_id":440,"player_count":0,"max_players":24,"Bots":0,"server_type":"Dedicated","server_os":"Linux","password":true,"vac":true,"version":"7961495","steam_id":85568392924515187,"keywords":["nocrits","nodmgspread","payload","uncletopia"],"game_id":440,"stv_port":27036,"stv_name":"Uncletopia | Atlanta | 3 | Stopwatch | STV","players":null},{"server_id":401,"name":"Uncletopia | Atlanta | 4 | Community","name_short":"atl-4","host":"atl-1.us.uncletopia.com","port":27045,"enabled":true,"region":"us-east","cc":"us","latitude":33.753746,"longitude":-84.38633,"reserved":0,"last_update":"0001-01-01T00:00:00Z","name_a2s":"Uncletopia | Atlanta | 4 | Community","protocol":17,"map":"workshop/koth_slaughter_rc1.ugc1712845210","folder":"tf","game":"Team Fortress","app_id":440,"player_count":0,"max_players":24,"Bots":0,"server_type":"Dedicated","server_os":"Linux","password":true,"vac":true,"version":"7961495","steam_id":85568392924515188,"keywords":["cp","nocrits","nodmgspread","uncletopia"],"game_id":440,"stv_port":27046,"stv_name":"Uncletopia | Atlanta | 4 | Community | STV","players":null},{"server_id":2,"name":"Uncletopia | Chicago | 1 | All Maps","name_short":"chi-1","host":"chi-1.us.uncletopia.com","port":27015,"enabled":true,"region":"us-central","cc":"us","latitude":41.881832,"longitude":-87.62318,"reserved":0,"last_update":"0001-01-01T00:00:00Z","name_a2s":"Uncletopia | Chicago | 1 | All Maps","protocol":17,"map":"pl_upward","folder":"tf","game":"Team Fortress","app_id":440,"player_count":24,"max_players":24,"Bots":0,"server_type":"Dedicated","server_os":"Linux","password":true,"vac":true,"version":"7961495","steam_id":85568392924469984,"keywords":["nocrits","nodmgspread","payload","uncletopia"],"game_id":440,"stv_port":27016,"stv_name":"Uncletopia | Chicago | 1 | All Maps | STV","players":[{"user_id":308,"name":"Cheese4Everyone","steam_id":76561198022333985,"connected_time":1973000000000,"state":"active","ping":72},{"user_id":309,"name":"ThatGamingKiwi","steam_id":76561199170522237,"connected_time":1939000000000,"state":"active","ping":75},{"user_id":163,"name":"pea ttv/peabeanz","steam_id":76561198119551968,"connected_time":14925000000000,"state":"active","ping":76},{"user_id":297,"name":"StudioMania (#SAVETF2)","steam_id":76561198211315795,"connected_time":3070000000000,"state":"active","ping":66},{"user_id":261,"name":"King","steam_id":76561198039763676,"connected_time":6317000000000,"state":"active","ping":59},{"user_id":312,"name":"LF egirl mommy rp","steam_id":76561198274742715,"connected_time":1444000000000,"state":"active","ping":47},{"user_id":314,"name":"dree","steam_id":76561198079178866,"connected_time":1157000000000,"state":"active","ping":72},{"user_id":315,"name":"crusty toilet stains","steam_id":76561198156873737,"connected_time":1147000000000,"state":"active","ping":61},{"user_id":320,"name":"Cupidmeh","steam_id":76561198138669654,"connected_time":429000000000,"state":"active","ping":62},{"user_id":323,"name":"twinblock","steam_id":76561198157414556,"connected_time":219000000000,"state":"active","ping":80},{"user_id":283,"name":"Plazma1234","steam_id":76561198394203523,"connected_time":3877000000000,"state":"active","ping":154},{"user_id":311,"name":"The Doc K","steam_id":76561198035695029,"connected_time":1520000000000,"state":"active","ping":96},{"user_id":306,"name":"epic_corndog","steam_id":76561198061530137,"connected_time":2877000000000,"state":"active","ping":41},{"user_id":316,"name":"CONKER","steam_id":76561197986079320,"connected_time":1083000000000,"state":"active","ping":75},{"user_id":277,"name":"kermitcreeper(ZAZA)","steam_id":76561199222829972,"connected_time":4574000000000,"state":"active","ping":57},{"user_id":300,"name":"Temujin","steam_id":76561198030936583,"connected_time":3014000000000,"state":"active","ping":46},{"user_id":295,"name":"Tyler\u0026Fingers","steam_id":76561198085154485,"connected_time":3151000000000,"state":"active","ping":84},{"user_id":288,"name":"astrobob911","steam_id":76561199099110654,"connected_time":3813000000000,"state":"active","ping":77},{"user_id":307,"name":"Bi0llante","steam_id":76561198291007860,"connected_time":2831000000000,"state":"active","ping":108},{"user_id":292,"name":"MINILEGOLAS","steam_id":76561198859362058,"connected_time":3600000000000,"state":"active","ping":98},{"user_id":272,"name":"Voracious Puma","steam_id":76561197963621649,"connected_time":5207000000000,"state":"active","ping":86},{"user_id":310,"name":"Siz","steam_id":76561198072962154,"connected_time":1561000000000,"state":"active","ping":65},{"user_id":318,"name":"hämis","steam_id":76561198089616341,"connected_time":1040000000000,"state":"active","ping":69},{"user_id":319,"name":"faceplanttttttttttttttttttttttt","steam_id":76561198249206656,"connected_time":713000000000,"state":"active","ping":61}]},{"server_id":106,"name":"Uncletopia | Chicago | 2 | All Maps","name_short":"chi-2","host":"chi-1.us.uncletopia.com","port":27025,"enabled":true,"region":"us-central","cc":"us","latitude":41.881832,"longitude":-87.62318,"reserved":0,"last_update":"0001-01-01T00:00:00Z","name_a2s":"Uncletopia | Chicago | 2 | All Maps","protocol":17,"map":"pl_pier","folder":"tf","game":"Team Fortress","app_id":440,"player_count":24,"max_players":24,"Bots":0,"server_type":"Dedicated","server_os":"Linux","password":true,"vac":true,"version":"7961495","steam_id":85568392924469985,"keywords":["nocrits","nodmgspread","payload","uncletopia"],"game_id":440,"stv_port":27026,"stv_name":"Uncletopia | Chicago | 2 | All Maps | STV","players":[{"user_id":123,"name":"Goob Oy","steam_id":76561198889932456,"connected_time":2074000000000,"state":"active","ping":58},{"user_id":141,"name":"funny animal advocate","steam_id":76561198420227358,"connected_time":283000000000,"state":"active","ping":58},{"user_id":136,"name":"FlamingManiac","steam_id":76561198361996837,"connected_time":1050000000000,"state":"active","ping":74},{"user_id":95,"name":"the gentleman","steam_id":76561198046083342,"connected_time":4471000000000,"state":"active","ping":60},{"user_id":137,"name":"Andrew","steam_id":76561198070615190,"connected_time":1014000000000,"state":"active","ping":56},{"user_id":127,"name":"Laventhey","steam_id":76561198977523626,"connected_time":1632000000000,"state":"active","ping":70},{"user_id":142,"name":"Hulkster","steam_id":76561198278156353,"connected_time":147000000000,"state":"active","ping":118},{"user_id":140,"name":"anonpain","steam_id":76561198081317092,"connected_time":787000000000,"state":"active","ping":56},{"user_id":121,"name":"Nathan Yeet","steam_id":76561198883966591,"connected_time":2191000000000,"state":"active","ping":59},{"user_id":133,"name":"Butt Cheese Wanky","steam_id":76561198006569710,"connected_time":1199000000000,"state":"active","ping":86},{"user_id":130,"name":"nerfington","steam_id":76561198062785419,"connected_time":1563000000000,"state":"active","ping":84},{"user_id":128,"name":"Rat Bastard","steam_id":76561198153443658,"connected_time":1621000000000,"state":"active","ping":83},{"user_id":46,"name":"Jesse Bear","steam_id":76561198217075305,"connected_time":8033000000000,"state":"active","ping":86},{"user_id":122,"name":"roast pig with apple in mouth","steam_id":76561198051353647,"connected_time":2116000000000,"state":"active","ping":66},{"user_id":98,"name":"(1)the gentleman","steam_id":76561198135563495,"connected_time":3753000000000,"state":"active","ping":71},{"user_id":139,"name":"Pvt. Parts","steam_id":76561198375915439,"connected_time":829000000000,"state":"active","ping":69},{"user_id":109,"name":"Doctor Bear ʕ •ᴥ•ʔ","steam_id":76561197968103161,"connected_time":3170000000000,"state":"active","ping":68},{"user_id":138,"name":"shinoda","steam_id":76561198017914809,"connected_time":999000000000,"state":"active","ping":52},{"user_id":77,"name":"paper mousepad gaming","steam_id":76561198315692300,"connected_time":6447000000000,"state":"active","ping":57},{"user_id":113,"name":"ᗜˬᗜ","steam_id":76561198831996918,"connected_time":2711000000000,"state":"active","ping":60},{"user_id":114,"name":"vaines- #chellwidenuking","steam_id":76561198089852954,"connected_time":2466000000000,"state":"active","ping":83},{"user_id":126,"name":"Mburesh","steam_id":76561198137460717,"connected_time":1645000000000,"state":"active","ping":59},{"user_id":103,"name":"kashroomski","steam_id":76561198057076267,"connected_time":3391000000000,"state":"active","ping":84},{"user_id":120,"name":"cannanza * \u003c3 teafy","steam_id":76561198103496593,"connected_time":2263000000000,"state":"active","ping":61}]},{"server_id":402,"name":"Uncletopia | Chicago | 3 | All Maps","name_short":"chi-3","host":"chi-1.us.uncletopia.com","port":27035,"enabled":true,"region":"us-central","cc":"us","latitude":41.881832,"longitude":-87.62318,"reserved":0,"last_update":"0001-01-01T00:00:00Z","name_a2s":"Uncletopia | Chicago | 3 | All Maps","protocol":17,"map":"koth_highpass","folder":"tf","game":"Team Fortress","app_id":440,"player_count":0,"max_players":24,"Bots":0,"server_type":"Dedicated","server_os":"Linux","password":true,"vac":true,"version":"7961495","steam_id":85568392924515191,"keywords":["cp","nocrits","nodmgspread","uncletopia"],"game_id":440,"stv_port":27036,"stv_name":"Uncletopia | Chicago | 3 | All Maps | STV","players":null},{"server_id":403,"name":"Uncletopia | Chicago | 4 | All Maps","name_short":"chi-4","host":"chi-1.us.uncletopia.com","port":27045,"enabled":true,"region":"us-central","cc":"us","latitude":41.881832,"longitude":-87.62318,"reserved":0,"last_update":"0001-01-01T00:00:00Z","name_a2s":"Uncletopia | Chicago | 4 | All Maps","protocol":17,"map":"koth_cascade","folder":"tf","game":"Team Fortress","app_id":440,"player_count":0,"max_players":24,"Bots":0,"server_type":"Dedicated","server_os":"Linux","password":true,"vac":true,"version":"7961495","steam_id":85568392924515193,"keywords":["cp","nocrits","nodmgspread","uncletopia"],"game_id":440,"stv_port":27046,"stv_name":"Uncletopia | Chicago | 4 | All Maps | STV","players":null},{"server_id":36,"name":"Uncletopia | Chicago | 5 | All Maps","name_short":"chi-5","host":"chi-2.us.uncletopia.com","port":27015,"enabled":true,"region":"us-central","cc":"us","latitude":41.881832,"longitude":-87.62318,"reserved":0,"last_update":"0001-01-01T00:00:00Z","name_a2s":"Uncletopia | Chicago | 5 | All Maps","protocol":17,"map":"koth_viaduct","folder":"tf","game":"Team Fortress","app_id":440,"player_count":0,"max_players":24,"Bots":0,"server_type":"Dedicated","server_os":"Linux","password":true,"vac":true,"version":"7961495","steam_id":85568392924866362,"keywords":["cp","nocrits","nodmgspread","uncletopia"],"game_id":440,"stv_port":27016,"stv_name":"Uncletopia | Chicago | 5 | All Maps | STV","players":null},{"server_id":37,"name":"Uncletopia | Chicago | 6 | All Maps","name_short":"chi-6","host":"chi-2.us.uncletopia.com","port":27025,"enabled":true,"region":"us-central","cc":"us","latitude":41.881832,"longitude":-87.62318,"reserved":0,"last_update":"0001-01-01T00:00:00Z","name_a2s":"Uncletopia | Chicago | 6 | All Maps","protocol":17,"map":"cp_snakewater_final1","folder":"tf","game":"Team Fortress","app_id":440,"player_count":0,"max_players":24,"Bots":0,"server_type":"Dedicated","server_os":"Linux","password":true,"vac":true,"version":"7961495","steam_id":85568392924866363,"keywords":["cp","nocrits","nodmgspread","uncletopia"],"game_id":440,"stv_port":27026,"stv_name":"Uncletopia | Chicago | 6 | All Maps | STV","players":null},{"server_id":38,"name":"Uncletopia | Chicago | 7 | Stopwatch","name_short":"chi-7","host":"chi-2.us.uncletopia.com","port":27035,"enabled":true,"region":"us-central","cc":"us","latitude":41.881832,"longitude":-87.62318,"reserved":0,"last_update":"0001-01-01T00:00:00Z","name_a2s":"Uncletopia | Chicago | 7 | Stopwatch","protocol":17,"map":"workshop/koth_ashville_final.ugc2130459942","folder":"tf","game":"Team Fortress","app_id":440,"player_count":0,"max_players":24,"Bots":0,"server_type":"Dedicated","server_os":"Linux","password":true,"vac":true,"version":"7961495","steam_id":85568392924866364,"keywords":["cp","nocrits","nodmgspread","uncletopia"],"game_id":440,"stv_port":27036,"stv_name":"Uncletopia | Chicago | 7 | Stopwatch | STV","players":null},{"server_id":39,"name":"Uncletopia | Chicago | 8 | Community","name_short":"chi-8","host":"chi-2.us.uncletopia.com","port":27045,"enabled":true,"region":"us-central","cc":"us","latitude":41.881832,"longitude":-87.62318,"reserved":0,"last_update":"0001-01-01T00:00:00Z","name_a2s":"Uncletopia | Chicago | 8 | Community","protocol":17,"map":"pl_pier","folder":"tf","game":"Team Fortress","app_id":440,"player_count":0,"max_players":24,"Bots":0,"server_type":"Dedicated","server_os":"Linux","password":true,"vac":true,"version":"7961495","steam_id":85568392924866365,"keywords":["nocrits","nodmgspread","payload","uncletopia"],"game_id":440,"stv_port":27046,"stv_name":"Uncletopia | Chicago | 8 | Community | STV","players":null},{"server_id":8,"name":"Uncletopia | Dallas | 1 | All Maps","name_short":"dal-1","host":"dal-1.us.uncletopia.com","port":27015,"enabled":true,"region":"us-central","cc":"us","latitude":32.779167,"longitude":-96.80889,"reserved":0,"last_update":"0001-01-01T00:00:00Z","name_a2s":"Uncletopia | Dallas | 1 | All Maps","protocol":17,"map":"koth_highpass","folder":"tf","game":"Team Fortress","app_id":440,"player_count":0,"max_players":24,"Bots":0,"server_type":"Dedicated","server_os":"Linux","password":true,"vac":true,"version":"7961495","steam_id":85568392924469986,"keywords":["cp","nocrits","nodmgspread","uncletopia"],"game_id":440,"stv_port":27016,"stv_name":"Uncletopia | Dallas | 1 | All Maps | STV","players":null},{"server_id":108,"name":"Uncletopia | Dallas | 2 | All Maps","name_short":"dal-2","host":"dal-1.us.uncletopia.com","port":27025,"enabled":true,"region":"us-central","cc":"us","latitude":32.779167,"longitude":-96.80889,"reserved":0,"last_update":"0001-01-01T00:00:00Z","name_a2s":"Uncletopia | Dallas | 2 | All Maps","protocol":17,"map":"cp_steel","folder":"tf","game":"Team Fortress","app_id":440,"player_count":24,"max_players":24,"Bots":0,"server_type":"Dedicated","server_os":"Linux","password":true,"vac":true,"version":"7961495","steam_id":85568392924469988,"keywords":["cp","nocrits","nodmgspread","uncletopia"],"game_id":440,"stv_port":27026,"stv_name":"Uncletopia | Dallas | 2 | All Maps | STV","players":[{"user_id":7,"name":"Sneed-poster","steam_id":76561198206198937,"connected_time":3151000000000,"state":"active","ping":70},{"user_id":8,"name":"Coolcat","steam_id":76561198180933957,"connected_time":3135000000000,"state":"active","ping":47},{"user_id":9,"name":"GANJAMAGICIAN1997","steam_id":76561198079496953,"connected_time":2892000000000,"state":"active","ping":49},{"user_id":52,"name":"Peppa Pig","steam_id":76561198147772879,"connected_time":205000000000,"state":"active","ping":60},{"user_id":50,"name":"Drakon","steam_id":76561198078210822,"connected_time":268000000000,"state":"active","ping":90},{"user_id":53,"name":"Noelle Holliday","steam_id":76561198359994674,"connected_time":190000000000,"state":"active","ping":105},{"user_id":48,"name":"Ting","steam_id":76561198111669760,"connected_time":323000000000,"state":"active","ping":103},{"user_id":54,"name":"SHUSH nikoOS","steam_id":76561198180020521,"connected_time":190000000000,"state":"active","ping":159},{"user_id":16,"name":"Username","steam_id":76561198198918781,"connected_time":2164000000000,"state":"active","ping":98},{"user_id":17,"name":"oatmeal enthusiast","steam_id":76561198062763756,"connected_time":2156000000000,"state":"active","ping":75},{"user_id":42,"name":"HanakoToast","steam_id":76561198045233131,"connected_time":1184000000000,"state":"active","ping":82},{"user_id":55,"name":"Cambonieboo","steam_id":76561198139174433,"connected_time":183000000000,"state":"active","ping":62},{"user_id":46,"name":"Huawei Factory Manager  党药\ufffd","steam_id":76561198217647192,"connected_time":818000000000,"state":"active","ping":119},{"user_id":35,"name":"Nari","steam_id":76561199220038535,"connected_time":1578000000000,"state":"active","ping":80},{"user_id":43,"name":"mkl","steam_id":76561197986401685,"connected_time":1169000000000,"state":"active","ping":50},{"user_id":51,"name":"The Caretaker","steam_id":76561198125241411,"connected_time":261000000000,"state":"active","ping":101},{"user_id":56,"name":"UnkownGamerLOL","steam_id":76561198225902368,"connected_time":172000000000,"state":"active","ping":69},{"user_id":38,"name":"Jester","steam_id":76561198153102922,"connected_time":1344000000000,"state":"active","ping":53},{"user_id":31,"name":"YolkOnYou","steam_id":76561198088760655,"connected_time":1757000000000,"state":"active","ping":67},{"user_id":28,"name":"UnforeseenCabbages","steam_id":76561198079386608,"connected_time":1848000000000,"state":"active","ping":70},{"user_id":36,"name":"The janitor(El coyote)","steam_id":76561198414300607,"connected_time":1508000000000,"state":"active","ping":96},{"user_id":58,"name":"jimmy skillet","steam_id":76561198067232126,"connected_time":21000000000,"state":"spawning","ping":33},{"user_id":57,"name":"Pissless Pissmass Pissman","steam_id":76561198409907417,"connected_time":92000000000,"state":"active","ping":97},{"user_id":45,"name":"bonehead","steam_id":76561199201489468,"connected_time":1150000000000,"state":"active","ping":98}]},{"server_id":404,"name":"Uncletopia | Dallas | 3 | All Maps","name_short":"dal-3","host":"dal-1.us.uncletopia.com","port":27035,"enabled":true,"region":"us-central","cc":"us","latitude":32.779167,"longitude":-96.80889,"reserved":0,"last_update":"0001-01-01T00:00:00Z","name_a2s":"Uncletopia | Dallas | 3 | All Maps","protocol":17,"map":"koth_viaduct","folder":"tf","game":"Team Fortress","app_id":440,"player_count":0,"max_players":24,"Bots":0,"server_type":"Dedicated","server_os":"Linux","password":true,"vac":true,"version":"7961495","steam_id":85568392924515219,"keywords":["cp","nocrits","nodmgspread","uncletopia"],"game_id":440,"stv_port":27036,"stv_name":"Uncletopia | Dallas | 3 | All Maps | STV","players":null},{"server_id":405,"name":"Uncletopia | Dallas | 4 | Community","name_short":"dal-4","host":"dal-1.us.uncletopia.com","port":27045,"enabled":true,"region":"us-central","cc":"us","latitude":32.779167,"longitude":-96.80889,"reserved":0,"last_update":"0001-01-01T00:00:00Z","name_a2s":"Uncletopia | Dallas | 4 | Community","protocol":17,"map":"pl_pier","folder":"tf","game":"Team Fortress","app_id":440,"player_count":0,"max_players":24,"Bots":0,"server_type":"Dedicated","server_os":"Linux","password":true,"vac":true,"version":"7961495","steam_id":85568392924515220,"keywords":["nocrits","nodmgspread","payload","uncletopia"],"game_id":440,"stv_port":27046,"stv_name":"Uncletopia | Dallas | 4 | Community | STV","players":null},{"server_id":5,"name":"Uncletopia | Frankfurt | 1 | All Maps","name_short":"frk-1","host":"frk-1.de.uncletopia.com","port":27015,"enabled":true,"region":"eu","cc":"de","latitude":50.110924,"longitude":8.682127,"reserved":0,"last_update":"0001-01-01T00:00:00Z","name_a2s":"Uncletopia | Frankfurt | 1 | All Maps","protocol":17,"map":"pl_swiftwater_final1","folder":"tf","game":"Team Fortress","app_id":440,"player_count":24,"max_players":24,"Bots":0,"server_type":"Dedicated","server_os":"Linux","password":true,"vac":true,"version":"7961495","steam_id":85568392924469989,"keywords":["nocrits","nodmgspread","payload","uncletopia"],"game_id":440,"stv_port":27016,"stv_name":"Uncletopia | Frankfurt | 1 | All Maps | STV","players":[{"user_id":97,"name":"Vytuzas","steam_id":76561198012868436,"connected_time":637000000000,"state":"active","ping":72},{"user_id":105,"name":"aaaa","steam_id":76561198086304421,"connected_time":268000000000,"state":"active","ping":75},{"user_id":104,"name":"lucifer_on_vacation","steam_id":76561198088956059,"connected_time":274000000000,"state":"active","ping":103},{"user_id":95,"name":"VolcanicArts","steam_id":76561198063453246,"connected_time":659000000000,"state":"active","ping":65},{"user_id":103,"name":"[O\u0026O]YaboiDucki","steam_id":76561198195976589,"connected_time":434000000000,"state":"active","ping":97},{"user_id":110,"name":"breadbear \u003c3","steam_id":76561198036895007,"connected_time":173000000000,"state":"active","ping":93},{"user_id":45,"name":"Ullapool scotsman","steam_id":76561199407941086,"connected_time":2632000000000,"state":"active","ping":63},{"user_id":111,"name":"Rezzarezz","steam_id":76561198092020043,"connected_time":170000000000,"state":"active","ping":59},{"user_id":99,"name":"The one True Mads","steam_id":76561197999204692,"connected_time":627000000000,"state":"active","ping":66},{"user_id":112,"name":"Waltuh","steam_id":76561199137533994,"connected_time":153000000000,"state":"active","ping":115},{"user_id":102,"name":":D","steam_id":76561199101935694,"connected_time":481000000000,"state":"active","ping":66},{"user_id":93,"name":"ok","steam_id":76561198320042443,"connected_time":722000000000,"state":"active","ping":94},{"user_id":88,"name":"invis","steam_id":76561198120668070,"connected_time":933000000000,"state":"active","ping":60},{"user_id":54,"name":"RandomName","steam_id":76561198055552108,"connected_time":2119000000000,"state":"active","ping":47},{"user_id":108,"name":"mick","steam_id":76561199473954060,"connected_time":217000000000,"state":"active","ping":94},{"user_id":100,"name":"scrumpeh_","steam_id":76561198274841593,"connected_time":614000000000,"state":"active","ping":153},{"user_id":113,"name":"Matbanan","steam_id":76561198228537672,"connected_time":146000000000,"state":"active","ping":83},{"user_id":83,"name":"anders McFlanders","steam_id":76561198022811995,"connected_time":1204000000000,"state":"active","ping":60},{"user_id":115,"name":"IlayTheWaffle","steam_id":76561198446702785,"connected_time":117000000000,"state":"active","ping":101},{"user_id":116,"name":"Punk","steam_id":76561198268369013,"connected_time":13000000000,"state":"active","ping":72},{"user_id":65,"name":"Pchell","steam_id":76561198983730384,"connected_time":1956000000000,"state":"active","ping":103},{"user_id":67,"name":"Schogard","steam_id":76561198847318421,"connected_time":1917000000000,"state":"active","ping":116},{"user_id":70,"name":"Isak","steam_id":76561198085959762,"connected_time":1850000000000,"state":"active","ping":83},{"user_id":101,"name":"Milten","steam_id":76561198191768569,"connected_time":603000000000,"state":"active","ping":75}]},{"server_id":110,"name":"Uncletopia | Frankfurt | 2 | All Maps","name_short":"frk-2","host":"frk-1.de.uncletopia.com","port":27025,"enabled":true,"region":"eu","cc":"de","latitude":50.110924,"longitude":8.682127,"reserved":0,"last_update":"0001-01-01T00:00:00Z","name_a2s":"Uncletopia | Frankfurt | 2 | All Maps","protocol":17,"map":"cp_metalworks","folder":"tf","game":"Team Fortress","app_id":440,"player_count":20,"max_players":24,"Bots":0,"server_type":"Dedicated","server_os":"Linux","password":true,"vac":true,"version":"7961495","steam_id":85568392924469990,"keywords":["cp","nocrits","nodmgspread","uncletopia"],"game_id":440,"stv_port":27026,"stv_name":"Uncletopia | Frankfurt | 2 | All Maps | STV","players":[{"user_id":436,"name":"Fat Pigeon","steam_id":76561198817940142,"connected_time":6315000000000,"state":"active","ping":60},{"user_id":493,"name":"Josh","steam_id":76561198274546904,"connected_time":1487000000000,"state":"active","ping":129},{"user_id":475,"name":"LaZe","steam_id":76561198202191400,"connected_time":3695000000000,"state":"active","ping":72},{"user_id":486,"name":"ElSuedi","steam_id":76561198074722832,"connected_time":2272000000000,"state":"active","ping":51},{"user_id":489,"name":"static","steam_id":76561198836825741,"connected_time":1881000000000,"state":"active","ping":63},{"user_id":488,"name":"Mr. Hunts","steam_id":76561197981910397,"connected_time":1969000000000,"state":"active","ping":62},{"user_id":501,"name":"jaime","steam_id":76561197980590671,"connected_time":569000000000,"state":"active","ping":79},{"user_id":441,"name":"Cookies and Bakies","steam_id":76561198017442928,"connected_time":6072000000000,"state":"active","ping":71},{"user_id":461,"name":"salami","steam_id":76561198297812094,"connected_time":4411000000000,"state":"active","ping":96},{"user_id":502,"name":"Bermy","steam_id":76561198842456702,"connected_time":566000000000,"state":"active","ping":55},{"user_id":490,"name":"r^f nyanezt","steam_id":76561198253734265,"connected_time":1777000000000,"state":"active","ping":78},{"user_id":455,"name":"AxyzS | affenbr0t_6o4","steam_id":76561197981823456,"connected_time":5254000000000,"state":"active","ping":58},{"user_id":494,"name":"TJ1212","steam_id":76561199013575313,"connected_time":1484000000000,"state":"active","ping":65},{"user_id":480,"name":"Marukuso","steam_id":76561198154229845,"connected_time":2744000000000,"state":"active","ping":60},{"user_id":399,"name":"Nittugai","steam_id":76561198067366462,"connected_time":9606000000000,"state":"active","ping":73},{"user_id":462,"name":"r^f shrrrrrrekkkkk","steam_id":76561198347241576,"connected_time":4326000000000,"state":"active","ping":60},{"user_id":498,"name":"Waltcha","steam_id":76561198007691468,"connected_time":1255000000000,"state":"active","ping":61},{"user_id":499,"name":"Rusty","steam_id":76561198382642979,"connected_time":1223000000000,"state":"active","ping":96},{"user_id":459,"name":"Xtis","steam_id":76561198043837480,"connected_time":5172000000000,"state":"active","ping":61},{"user_id":500,"name":"goofy","steam_id":76561199098460786,"connected_time":629000000000,"state":"active","ping":73}]},{"server_id":308,"name":"Uncletopia | Frankfurt | 3 | All Maps","name_short":"frk-3","host":"frk-1.de.uncletopia.com","port":27035,"enabled":true,"region":"eu","cc":"de","latitude":50.110924,"longitude":8.682127,"reserved":0,"last_update":"0001-01-01T00:00:00Z","name_a2s":"Uncletopia | Frankfurt | 3 | All Maps","protocol":17,"map":"cp_mountainlab","folder":"tf","game":"Team Fortress","app_id":440,"player_count":23,"max_players":24,"Bots":0,"server_type":"Dedicated","server_os":"Linux","password":true,"vac":true,"version":"7961495","steam_id":85568392924504274,"keywords":["cp","nocrits","nodmgspread","uncletopia"],"game_id":440,"stv_port":27036,"stv_name":"Uncletopia | Frankfurt | 3 | All Maps | STV","players":[{"user_id":177,"name":"GRASSY","steam_id":76561198277180883,"connected_time":530000000000,"state":"active","ping":85},{"user_id":125,"name":"Nick","steam_id":76561198036109469,"connected_time":3757000000000,"state":"active","ping":87},{"user_id":165,"name":"Reflector","steam_id":76561198078999855,"connected_time":1599000000000,"state":"active","ping":178},{"user_id":135,"name":"ShadowTwin","steam_id":76561198046658200,"connected_time":3154000000000,"state":"active","ping":83},{"user_id":144,"name":"shoras","steam_id":76561198019680159,"connected_time":2472000000000,"state":"active","ping":85},{"user_id":171,"name":"henoadam","steam_id":76561198151350377,"connected_time":939000000000,"state":"active","ping":75},{"user_id":178,"name":"Rock..","steam_id":76561198004641963,"connected_time":479000000000,"state":"active","ping":75},{"user_id":167,"name":"Hexagon","steam_id":76561198151205758,"connected_time":1426000000000,"state":"active","ping":45},{"user_id":176,"name":"Cioly","steam_id":76561198257791981,"connected_time":612000000000,"state":"active","ping":61},{"user_id":169,"name":"Dogdigger","steam_id":76561198032893130,"connected_time":1287000000000,"state":"active","ping":83},{"user_id":131,"name":"Mafew","steam_id":76561198119993886,"connected_time":3417000000000,"state":"active","ping":73},{"user_id":118,"name":"Degenerate","steam_id":76561198124120385,"connected_time":4332000000000,"state":"active","ping":111},{"user_id":128,"name":"rob","steam_id":76561198122211848,"connected_time":3701000000000,"state":"active","ping":103},{"user_id":182,"name":"magnificent darkness","steam_id":76561199059524050,"connected_time":182000000000,"state":"active","ping":74},{"user_id":175,"name":"Sammy The Human","steam_id":76561198044066322,"connected_time":709000000000,"state":"active","ping":60},{"user_id":179,"name":"blud thinks he cold","steam_id":76561199386061683,"connected_time":476000000000,"state":"active","ping":90},{"user_id":174,"name":"Deeber","steam_id":76561198043957106,"connected_time":814000000000,"state":"active","ping":58},{"user_id":141,"name":"Hoff","steam_id":76561198138540938,"connected_time":2854000000000,"state":"active","ping":79},{"user_id":163,"name":"LoLo","steam_id":76561199403387863,"connected_time":1701000000000,"state":"active","ping":63},{"user_id":123,"name":"JC","steam_id":76561198029213352,"connected_time":4129000000000,"state":"active","ping":60},{"user_id":180,"name":"Your Ad Here","steam_id":76561198055446385,"connected_time":448000000000,"state":"active","ping":74},{"user_id":149,"name":"Mr. Mundy","steam_id":76561198132008918,"connected_time":2312000000000,"state":"active","ping":74},{"user_id":181,"name":"Doggo336","steam_id":76561198166707002,"connected_time":439000000000,"state":"active","ping":49}]},{"server_id":309,"name":"Uncletopia | Frankfurt | 4 | All Maps","name_short":"frk-4","host":"frk-1.de.uncletopia.com","port":27045,"enabled":true,"region":"eu","cc":"de","latitude":50.110924,"longitude":8.682127,"reserved":0,"last_update":"0001-01-01T00:00:00Z","name_a2s":"Uncletopia | Frankfurt | 4 | All Maps","protocol":17,"map":"pl_borneo","folder":"tf","game":"Team Fortress","app_id":440,"player_count":24,"max_players":24,"Bots":0,"server_type":"Dedicated","server_os":"Linux","password":true,"vac":true,"version":"7961495","steam_id":85568392924504275,"keywords":["nocrits","nodmgspread","payload","uncletopia"],"game_id":440,"stv_port":27046,"stv_name":"Uncletopia | Frankfurt | 4 | All Maps | STV","players":[{"user_id":366,"name":"Кашак","steam_id":76561198206102275,"connected_time":340000000000,"state":"active","ping":86},{"user_id":311,"name":"CzechMate #SaveTF2","steam_id":76561198012687703,"connected_time":4131000000000,"state":"active","ping":48},{"user_id":318,"name":"NALA","steam_id":76561198039806469,"connected_time":3882000000000,"state":"active","ping":65},{"user_id":350,"name":"Той, що овець пас\ufffd","steam_id":76561198237056456,"connected_time":1191000000000,"state":"active","ping":60},{"user_id":361,"name":"Richard_HUN","steam_id":76561198299050967,"connected_time":593000000000,"state":"active","ping":96},{"user_id":293,"name":"Doriian","steam_id":76561198071438810,"connected_time":4499000000000,"state":"active","ping":77},{"user_id":344,"name":"SaltyCupcakes","steam_id":76561198256386417,"connected_time":1815000000000,"state":"active","ping":58},{"user_id":324,"name":"Topme","steam_id":76561198091734693,"connected_time":3338000000000,"state":"active","ping":90},{"user_id":259,"name":"Gaxkang","steam_id":76561198125768571,"connected_time":8076000000000,"state":"active","ping":71},{"user_id":343,"name":"Marxman","steam_id":76561198856249022,"connected_time":1827000000000,"state":"active","ping":179},{"user_id":349,"name":"_3tHeR_","steam_id":76561199109870743,"connected_time":1225000000000,"state":"active","ping":56},{"user_id":301,"name":"Wild_Xray26","steam_id":76561198059386050,"connected_time":4232000000000,"state":"active","ping":74},{"user_id":346,"name":"Bruschetta","steam_id":76561198251927162,"connected_time":1631000000000,"state":"active","ping":62},{"user_id":352,"name":"the lorax","steam_id":76561199180176442,"connected_time":1037000000000,"state":"active","ping":69},{"user_id":338,"name":"Zerfesh","steam_id":76561198117534358,"connected_time":2565000000000,"state":"active","ping":93},{"user_id":367,"name":"Techm32","steam_id":76561198317134994,"connected_time":175000000000,"state":"active","ping":56},{"user_id":368,"name":"Fabric","steam_id":76561198118742661,"connected_time":155000000000,"state":"active","ping":107},{"user_id":356,"name":"soup","steam_id":76561198386933065,"connected_time":868000000000,"state":"active","ping":58},{"user_id":347,"name":"Carry Krypl","steam_id":76561198136938121,"connected_time":1307000000000,"state":"active","ping":57},{"user_id":362,"name":"Schaffheld.CZ","steam_id":76561198041388499,"connected_time":580000000000,"state":"active","ping":82},{"user_id":360,"name":"Dolcelatte","steam_id":76561198038501770,"connected_time":703000000000,"state":"active","ping":57},{"user_id":363,"name":"✦ Apeiron","steam_id":76561198165294687,"connected_time":560000000000,"state":"active","ping":178},{"user_id":329,"name":"LivEssense","steam_id":76561198052476979,"connected_time":3073000000000,"state":"active","ping":76},{"user_id":364,"name":"godmodule","steam_id":76561198165995444,"connected_time":554000000000,"state":"active","ping":63}]},{"server_id":310,"name":"Uncletopia | Frankfurt | 5 | All Maps","name_short":"frk-5","host":"frk-1.de.uncletopia.com","port":27055,"enabled":true,"region":"eu","cc":"de","latitude":50.110924,"longitude":8.682127,"reserved":0,"last_update":"0001-01-01T00:00:00Z","name_a2s":"Uncletopia | Frankfurt | 5 | All Maps","protocol":17,"map":"pl_barnblitz","folder":"tf","game":"Team Fortress","app_id":440,"player_count":24,"max_players":24,"Bots":0,"server_type":"Dedicated","server_os":"Linux","password":true,"vac":true,"version":"7961495","steam_id":85568392924504277,"keywords":["nocrits","nodmgspread","payload","uncletopia"],"game_id":440,"stv_port":27056,"stv_name":"Uncletopia | Frankfurt | 5 | All Maps | STV","players":[{"user_id":34,"name":"Radegast the Brown","steam_id":76561198075489505,"connected_time":4943000000000,"state":"active","ping":73},{"user_id":46,"name":"Lustadinnye (HUN)","steam_id":76561198280206427,"connected_time":3874000000000,"state":"active","ping":102},{"user_id":93,"name":"obi","steam_id":76561198040154461,"connected_time":1410000000000,"state":"active","ping":57},{"user_id":85,"name":"Pfaff Ferenc","steam_id":76561199502583278,"connected_time":2095000000000,"state":"active","ping":55},{"user_id":104,"name":"executive producer larry david","steam_id":76561198057868438,"connected_time":782000000000,"state":"active","ping":57},{"user_id":105,"name":"Saint","steam_id":76561198003296382,"connected_time":763000000000,"state":"active","ping":61},{"user_id":35,"name":"Rypík","steam_id":76561198243646524,"connected_time":4851000000000,"state":"active","ping":72},{"user_id":94,"name":"clozz","steam_id":76561198135315083,"connected_time":1376000000000,"state":"active","ping":92},{"user_id":109,"name":"Asocial","steam_id":76561198328594578,"connected_time":664000000000,"state":"active","ping":101},{"user_id":113,"name":"Milo","steam_id":76561198407461881,"connected_time":9000000000,"state":"spawning","ping":64},{"user_id":76,"name":"alcha","steam_id":76561198248628176,"connected_time":2336000000000,"state":"active","ping":72},{"user_id":111,"name":"Demo #saveTF2","steam_id":76561198102850854,"connected_time":318000000000,"state":"active","ping":59},{"user_id":112,"name":"boo_thefeared","steam_id":76561198127967685,"connected_time":102000000000,"state":"active","ping":58},{"user_id":90,"name":"EmbidIsAFRAUD #JokicMVP","steam_id":76561198076219289,"connected_time":1750000000000,"state":"active","ping":59},{"user_id":99,"name":"chair 2.0","steam_id":76561199233470150,"connected_time":1169000000000,"state":"active","ping":44},{"user_id":103,"name":"Buck824","steam_id":76561198082538898,"connected_time":944000000000,"state":"active","ping":73},{"user_id":55,"name":"InsaneBear","steam_id":76561198036086678,"connected_time":3442000000000,"state":"active","ping":77},{"user_id":56,"name":"-KamA","steam_id":76561198017363375,"connected_time":3431000000000,"state":"active","ping":78},{"user_id":107,"name":"Monkey","steam_id":76561199008411791,"connected_time":679000000000,"state":"active","ping":54},{"user_id":101,"name":"Gaius","steam_id":76561198188174963,"connected_time":1100000000000,"state":"active","ping":56},{"user_id":81,"name":"PlayingPiotr480p","steam_id":76561198046873337,"connected_time":2245000000000,"state":"active","ping":61},{"user_id":108,"name":"Jimmy Poppadopolos","steam_id":76561198044825612,"connected_time":677000000000,"state":"active","ping":65},{"user_id":110,"name":"Razef","steam_id":76561198030309484,"connected_time":640000000000,"state":"active","ping":71},{"user_id":100,"name":"Frazzle","steam_id":76561198262577951,"connected_time":1168000000000,"state":"active","ping":87}]},{"server_id":311,"name":"Uncletopia | Frankfurt | 6 | All Maps","name_short":"frk-6","host":"frk-1.de.uncletopia.com","port":27065,"enabled":true,"region":"eu","cc":"de","latitude":50.110924,"longitude":8.682127,"reserved":0,"last_update":"0001-01-01T00:00:00Z","name_a2s":"Uncletopia | Frankfurt | 6 | All Maps","protocol":17,"map":"koth_viaduct","folder":"tf","game":"Team Fortress","app_id":440,"player_count":20,"max_players":24,"Bots":0,"server_type":"Dedicated","server_os":"Linux","password":true,"vac":true,"version":"7961495","steam_id":85568392924504278,"keywords":["cp","nocrits","nodmgspread","uncletopia"],"game_id":440,"stv_port":27066,"stv_name":"Uncletopia | Frankfurt | 6 | All Maps | STV","players":[{"user_id":229,"name":"Ziemniaczki","steam_id":76561198061866742,"connected_time":2577000000000,"state":"active","ping":56},{"user_id":245,"name":"DeCypher \u003c3","steam_id":76561198171992619,"connected_time":1291000000000,"state":"active","ping":179},{"user_id":258,"name":"Big Rod","steam_id":76561198353087230,"connected_time":231000000000,"state":"active","ping":68},{"user_id":180,"name":"cl","steam_id":76561199436640904,"connected_time":5708000000000,"state":"active","ping":71},{"user_id":239,"name":"selkie","steam_id":76561198329321007,"connected_time":1578000000000,"state":"active","ping":114},{"user_id":259,"name":"Mommy O.","steam_id":76561198122933193,"connected_time":91000000000,"state":"active","ping":92},{"user_id":260,"name":"Ika","steam_id":76561198039208044,"connected_time":57000000000,"state":"active","ping":64},{"user_id":240,"name":"PLSNO (RYAN)","steam_id":76561198086542505,"connected_time":1574000000000,"state":"active","ping":75},{"user_id":257,"name":"MaciekToGigachad","steam_id":76561199387550937,"connected_time":490000000000,"state":"active","ping":55},{"user_id":253,"name":"pyrofightermag","steam_id":76561198089228732,"connected_time":827000000000,"state":"active","ping":60},{"user_id":241,"name":"tyler wit da green hat","steam_id":76561198053007276,"connected_time":1534000000000,"state":"active","ping":60},{"user_id":256,"name":"darth nihilus","steam_id":76561199403666142,"connected_time":606000000000,"state":"active","ping":58},{"user_id":252,"name":"Fiklis","steam_id":76561198352475540,"connected_time":975000000000,"state":"active","ping":60},{"user_id":250,"name":"Skulldow","steam_id":76561198431433977,"connected_time":1038000000000,"state":"active","ping":69},{"user_id":202,"name":"HellJumper","steam_id":76561198064758540,"connected_time":3995000000000,"state":"active","ping":55},{"user_id":254,"name":"Turtle","steam_id":76561198053254139,"connected_time":679000000000,"state":"active","ping":46},{"user_id":39,"name":"Hot Bean","steam_id":76561198803639155,"connected_time":14135000000000,"state":"active","ping":89},{"user_id":214,"name":"Buncarski","steam_id":76561198063842461,"connected_time":2927000000000,"state":"active","ping":99},{"user_id":243,"name":"Gregor Samsa","steam_id":76561198973069177,"connected_time":1522000000000,"state":"active","ping":48},{"user_id":244,"name":"Ourseem","steam_id":76561199406432468,"connected_time":1511000000000,"state":"active","ping":160}]},{"server_id":23,"name":"Uncletopia | Frankfurt | 7 | Stopwatch","name_short":"frk-7","host":"frk-1.de.uncletopia.com","port":27075,"enabled":true,"region":"eu","cc":"de","latitude":50.110924,"longitude":8.682127,"reserved":0,"last_update":"0001-01-01T00:00:00Z","name_a2s":"Uncletopia | Frankfurt | 7 | Stopwatch","protocol":17,"map":"workshop/pl_vigil_rc10.ugc1266210012","folder":"tf","game":"Team Fortress","app_id":440,"player_count":0,"max_players":24,"Bots":0,"server_type":"Dedicated","server_os":"Linux","password":true,"vac":true,"version":"7961495","steam_id":85568392924742827,"keywords":["nocrits","nodmgspread","payload","uncletopia"],"game_id":440,"stv_port":27076,"stv_name":"Uncletopia | Frankfurt | 7 | Stopwatch | STV","players":null},{"server_id":24,"name":"Uncletopia | Frankfurt | 8 | Community","name_short":"frk-8","host":"frk-1.de.uncletopia.com","port":27085,"enabled":true,"region":"eu","cc":"de","latitude":50.110924,"longitude":8.682127,"reserved":0,"last_update":"0001-01-01T00:00:00Z","name_a2s":"Uncletopia | Frankfurt | 8 | Community","protocol":17,"map":"workshop/pl_emerge_rc2.ugc888027758","folder":"tf","game":"Team Fortress","app_id":440,"player_count":0,"max_players":24,"Bots":0,"server_type":"Dedicated","server_os":"Linux","password":true,"vac":true,"version":"7961495","steam_id":85568392924742828,"keywords":["nocrits","nodmgspread","payload","uncletopia"],"game_id":440,"stv_port":27086,"stv_name":"Uncletopia | Frankfurt | 8 | Community | STV","players":null},{"server_id":202,"name":"Uncletopia | Hong Kong | 1 | All Maps","name_short":"hgk-1","host":"hgk-1.hk.uncletopia.com","port":27015,"enabled":true,"region":"asia","cc":"hk","latitude":22.302711,"longitude":114.177216,"reserved":0,"last_update":"0001-01-01T00:00:00Z","name_a2s":"Uncletopia | Hong Kong | 1 | All Maps","protocol":17,"map":"koth_cascade","folder":"tf","game":"Team Fortress","app_id":440,"player_count":0,"max_players":24,"Bots":0,"server_type":"Dedicated","server_os":"Linux","password":true,"vac":true,"version":"7961495","steam_id":85568392924494504,"keywords":["cp","nocrits","nodmgspread","uncletopia"],"game_id":440,"stv_port":27016,"stv_name":"Uncletopia | Hong Kong | 1 | All Maps | STV","players":null},{"server_id":1,"name":"Uncletopia | Los Angeles | 1 | All Maps","name_short":"lax-1","host":"lax-1.us.uncletopia.com","port":27015,"enabled":true,"region":"us-west","cc":"us","latitude":33.94279,"longitude":-118.41004,"reserved":0,"last_update":"0001-01-01T00:00:00Z","name_a2s":"Uncletopia | Los Angeles | 1 | All Maps","protocol":17,"map":"cp_mountainlab","folder":"tf","game":"Team Fortress","app_id":440,"player_count":24,"max_players":24,"Bots":0,"server_type":"Dedicated","server_os":"Linux","password":true,"vac":true,"version":"7961495","steam_id":85568392924469991,"keywords":["cp","nocrits","nodmgspread","uncletopia"],"game_id":440,"stv_port":27016,"stv_name":"Uncletopia | Los Angeles | 1 | All Maps | STV","players":[{"user_id":105,"name":"Failsafe","steam_id":76561198976237598,"connected_time":213000000000,"state":"active","ping":85},{"user_id":95,"name":"Wilma","steam_id":76561198138420251,"connected_time":1044000000000,"state":"active","ping":115},{"user_id":7,"name":"the ya ha ha genius","steam_id":76561198240764504,"connected_time":7897000000000,"state":"active","ping":45},{"user_id":94,"name":"Insomniac","steam_id":76561199180653046,"connected_time":1110000000000,"state":"active","ping":160},{"user_id":48,"name":"Katie_Fox","steam_id":76561198285289776,"connected_time":4886000000000,"state":"active","ping":118},{"user_id":96,"name":"TheGrassMan (He/Him)","steam_id":76561198118984048,"connected_time":939000000000,"state":"active","ping":118},{"user_id":89,"name":"Thaberii","steam_id":76561198275818707,"connected_time":2230000000000,"state":"active","ping":62},{"user_id":15,"name":"aBigPoo","steam_id":76561198425027856,"connected_time":6591000000000,"state":"active","ping":75},{"user_id":76,"name":"Imitation Caucasian","steam_id":76561198320536166,"connected_time":3358000000000,"state":"active","ping":78},{"user_id":18,"name":"GhostBerb","steam_id":76561198087908151,"connected_time":6438000000000,"state":"active","ping":90},{"user_id":92,"name":"Ockulus","steam_id":76561199069638460,"connected_time":1229000000000,"state":"active","ping":50},{"user_id":97,"name":"gretchling","steam_id":76561198046111695,"connected_time":919000000000,"state":"active","ping":72},{"user_id":70,"name":"shid","steam_id":76561198105374054,"connected_time":3523000000000,"state":"active","ping":74},{"user_id":98,"name":"Dosux2","steam_id":76561198390916062,"connected_time":869000000000,"state":"active","ping":163},{"user_id":29,"name":"DJThunderHeart","steam_id":76561198274197575,"connected_time":5897000000000,"state":"active","ping":107},{"user_id":99,"name":"Fly Man","steam_id":76561198201036790,"connected_time":847000000000,"state":"active","ping":135},{"user_id":77,"name":"Petrivus","steam_id":76561198202152453,"connected_time":3342000000000,"state":"active","ping":69},{"user_id":34,"name":"FOX News goblin","steam_id":76561198167648580,"connected_time":5780000000000,"state":"active","ping":47},{"user_id":104,"name":"zinnk","steam_id":76561198092081825,"connected_time":277000000000,"state":"active","ping":58},{"user_id":83,"name":"usedhalfcart","steam_id":76561198072621852,"connected_time":2664000000000,"state":"active","ping":86},{"user_id":101,"name":"the pizza","steam_id":76561198221331476,"connected_time":791000000000,"state":"active","ping":49},{"user_id":82,"name":"peachy","steam_id":76561198028721790,"connected_time":3010000000000,"state":"active","ping":52},{"user_id":102,"name":"Thequirka","steam_id":76561198968058652,"connected_time":786000000000,"state":"active","ping":81},{"user_id":103,"name":"Sleepy Himbo","steam_id":76561198022687146,"connected_time":402000000000,"state":"active","ping":74}]},{"server_id":112,"name":"Uncletopia | Los Angeles | 2 | All Maps","name_short":"lax-2","host":"lax-1.us.uncletopia.com","port":27025,"enabled":true,"region":"us-west","cc":"us","latitude":33.94279,"longitude":-118.41004,"reserved":0,"last_update":"0001-01-01T00:00:00Z","name_a2s":"Uncletopia | Los Angeles | 2 | All Maps","protocol":17,"map":"cp_mountainlab","folder":"tf","game":"Team Fortress","app_id":440,"player_count":0,"max_players":24,"Bots":0,"server_type":"Dedicated","server_os":"Linux","password":true,"vac":true,"version":"7961495","steam_id":85568392924469992,"keywords":["cp","nocrits","nodmgspread","uncletopia"],"game_id":440,"stv_port":27026,"stv_name":"Uncletopia | Los Angeles | 2 | All Maps | STV","players":null},{"server_id":324,"name":"Uncletopia | Los Angeles | 3 | All Maps","name_short":"lax-3","host":"lax-1.us.uncletopia.com","port":27035,"enabled":true,"region":"us-west","cc":"us","latitude":33.94279,"longitude":-118.41004,"reserved":0,"last_update":"0001-01-01T00:00:00Z","name_a2s":"Uncletopia | Los Angeles | 3 | All Maps","protocol":17,"map":"pl_frontier_final","folder":"tf","game":"Team Fortress","app_id":440,"player_count":0,"max_players":24,"Bots":0,"server_type":"Dedicated","server_os":"Linux","password":true,"vac":true,"version":"7961495","steam_id":85568392924510198,"keywords":["nocrits","nodmgspread","payload","uncletopia"],"game_id":440,"stv_port":27036,"stv_name":"Uncletopia | Los Angeles | 3 | All Maps | STV","players":null},{"server_id":25,"name":"Uncletopia | Los Angeles | 4 | Stopwatch","name_short":"lax-4","host":"lax-1.us.uncletopia.com","port":27045,"enabled":true,"region":"us-west","cc":"us","latitude":33.94279,"longitude":-118.41004,"reserved":0,"last_update":"0001-01-01T00:00:00Z","name_a2s":"Uncletopia | Los Angeles | 4 | Stopwatch","protocol":17,"map":"pl_barnblitz","folder":"tf","game":"Team Fortress","app_id":440,"player_count":0,"max_players":24,"Bots":0,"server_type":"Dedicated","server_os":"Linux","password":true,"vac":true,"version":"7961495","steam_id":85568392924510199,"keywords":["nocrits","nodmgspread","payload","uncletopia"],"game_id":440,"stv_port":27046,"stv_name":"Uncletopia | Los Angeles | 4 | Stopwatch | STV","players":null},{"server_id":11,"name":"Uncletopia | London | 1 | All Maps","name_short":"lon-1","host":"lon-1.uk.uncletopia.com","port":27015,"enabled":true,"region":"eu","cc":"gb","latitude":51.509865,"longitude":-0.118092,"reserved":0,"last_update":"0001-01-01T00:00:00Z","name_a2s":"Uncletopia | London | 1 | All Maps","protocol":17,"map":"pl_pier","folder":"tf","game":"Team Fortress","app_id":440,"player_count":24,"max_players":24,"Bots":0,"server_type":"Dedicated","server_os":"Linux","password":true,"vac":true,"version":"7961495","steam_id":85568392924367362,"keywords":["nocrits","nodmgspread","payload","uncletopia"],"game_id":440,"stv_port":27016,"stv_name":"Uncletopia | London | 1 | All Maps | STV","players":[{"user_id":588,"name":"pold0","steam_id":76561198028986074,"connected_time":1756000000000,"state":"active","ping":72},{"user_id":578,"name":"Rezolt","steam_id":76561198069074807,"connected_time":2890000000000,"state":"active","ping":132},{"user_id":599,"name":"Craig Crusade","steam_id":76561199225918086,"connected_time":1117000000000,"state":"active","ping":51},{"user_id":598,"name":"Jesus","steam_id":76561198055998828,"connected_time":1151000000000,"state":"active","ping":67},{"user_id":589,"name":"Coenoes","steam_id":76561199085694898,"connected_time":1740000000000,"state":"active","ping":62},{"user_id":600,"name":"Ozzie","steam_id":76561197992915315,"connected_time":1059000000000,"state":"active","ping":60},{"user_id":574,"name":"JayKey","steam_id":76561198008847925,"connected_time":3176000000000,"state":"active","ping":50},{"user_id":606,"name":"odran","steam_id":76561199122931272,"connected_time":401000000000,"state":"active","ping":53},{"user_id":520,"name":"Tuosan","steam_id":76561198062611429,"connected_time":6255000000000,"state":"active","ping":81},{"user_id":561,"name":"Lubi Animal","steam_id":76561199041620433,"connected_time":4263000000000,"state":"active","ping":57},{"user_id":592,"name":"fish","steam_id":76561198205475839,"connected_time":1655000000000,"state":"active","ping":102},{"user_id":579,"name":"reika","steam_id":76561198043601838,"connected_time":2786000000000,"state":"active","ping":60},{"user_id":601,"name":"Astronnilath","steam_id":76561198001123928,"connected_time":1031000000000,"state":"active","ping":67},{"user_id":593,"name":"Boki","steam_id":76561198044553351,"connected_time":1655000000000,"state":"active","ping":75},{"user_id":586,"name":"Ice || Black ツ","steam_id":76561198308680638,"connected_time":1912000000000,"state":"active","ping":120},{"user_id":474,"name":"ඞauraඞ","steam_id":76561198066258544,"connected_time":10147000000000,"state":"active","ping":58},{"user_id":597,"name":"Front Facing Troll Face","steam_id":76561198330040827,"connected_time":1253000000000,"state":"active","ping":67},{"user_id":595,"name":"ₔkacper2010sₔ","steam_id":76561199074731477,"connected_time":1459000000000,"state":"active","ping":106},{"user_id":580,"name":"r0la","steam_id":76561198128315340,"connected_time":2693000000000,"state":"active","ping":86},{"user_id":571,"name":"Cöffee","steam_id":76561198115131952,"connected_time":3738000000000,"state":"active","ping":100},{"user_id":576,"name":"eon","steam_id":76561197971360276,"connected_time":2942000000000,"state":"active","ping":72},{"user_id":572,"name":"silicon based life form","steam_id":76561199127121346,"connected_time":3713000000000,"state":"active","ping":59},{"user_id":603,"name":"Slifer The Sky Dragon Furry","steam_id":76561198062255803,"connected_time":818000000000,"state":"active","ping":72},{"user_id":604,"name":"whimsy.","steam_id":76561198878171763,"connected_time":817000000000,"state":"active","ping":43}]},{"server_id":114,"name":"Uncletopia | London | 2 | All Maps","name_short":"lon-2","host":"lon-1.uk.uncletopia.com","port":27025,"enabled":true,"region":"eu","cc":"gb","latitude":51.509865,"longitude":-0.118092,"reserved":0,"last_update":"0001-01-01T00:00:00Z","name_a2s":"Uncletopia | London | 2 | All Maps","protocol":17,"map":"pl_snowycoast","folder":"tf","game":"Team Fortress","app_id":440,"player_count":20,"max_players":24,"Bots":0,"server_type":"Dedicated","server_os":"Linux","password":true,"vac":true,"version":"7961495","steam_id":85568392924470941,"keywords":["nocrits","nodmgspread","payload","uncletopia"],"game_id":440,"stv_port":27026,"stv_name":"Uncletopia | London | 2 | All Maps | STV","players":[{"user_id":381,"name":"Femboy Thighs","steam_id":76561198115496457,"connected_time":1937000000000,"state":"active","ping":41},{"user_id":407,"name":"ILoveKey2","steam_id":76561198814559564,"connected_time":492000000000,"state":"active","ping":74},{"user_id":406,"name":"British Disapproval","steam_id":76561198001375260,"connected_time":566000000000,"state":"active","ping":58},{"user_id":371,"name":"Loaf","steam_id":76561198111670210,"connected_time":2514000000000,"state":"active","ping":49},{"user_id":412,"name":"Grog the caveman","steam_id":76561199040975062,"connected_time":2000000000,"state":"spawning","ping":70},{"user_id":410,"name":"Oviraptor Supreme","steam_id":76561198044262534,"connected_time":55000000000,"state":"active","ping":157},{"user_id":411,"name":"ACG_Dubsy","steam_id":76561198797308565,"connected_time":6000000000,"state":"spawning","ping":72},{"user_id":395,"name":"0rdinal","steam_id":76561198109034326,"connected_time":1112000000000,"state":"active","ping":34},{"user_id":401,"name":"Boil em mash em","steam_id":76561198026508026,"connected_time":815000000000,"state":"active","ping":70},{"user_id":380,"name":"Xenometan","steam_id":76561198208408392,"connected_time":1957000000000,"state":"active","ping":98},{"user_id":344,"name":"FistfulOfKittens","steam_id":76561198323611129,"connected_time":3969000000000,"state":"active","ping":69},{"user_id":399,"name":"Lorents","steam_id":76561198796919618,"connected_time":861000000000,"state":"active","ping":67},{"user_id":353,"name":"Plep","steam_id":76561198840259819,"connected_time":3582000000000,"state":"active","ping":54},{"user_id":389,"name":"asa004","steam_id":76561198160323444,"connected_time":1566000000000,"state":"active","ping":84},{"user_id":396,"name":"Skinny101","steam_id":76561197985599360,"connected_time":1099000000000,"state":"active","ping":65},{"user_id":400,"name":"[Sheep] Tomco","steam_id":76561198388549261,"connected_time":835000000000,"state":"active","ping":60},{"user_id":378,"name":"Snd","steam_id":76561198010816408,"connected_time":2175000000000,"state":"active","ping":119},{"user_id":402,"name":"owlsie","steam_id":76561198094883280,"connected_time":798000000000,"state":"active","ping":64},{"user_id":357,"name":"wasto-/-™","steam_id":76561198102888038,"connected_time":3514000000000,"state":"active","ping":56},{"user_id":405,"name":"dibija","steam_id":76561199504113697,"connected_time":649000000000,"state":"active","ping":189}]},{"server_id":320,"name":"Uncletopia | London | 3 | All Maps","name_short":"lon-3","host":"lon-1.uk.uncletopia.com","port":27035,"enabled":true,"region":"eu","cc":"gb","latitude":51.509865,"longitude":-0.118092,"reserved":0,"last_update":"0001-01-01T00:00:00Z","name_a2s":"Uncletopia | London | 3 | All Maps","protocol":17,"map":"pl_swiftwater_final1","folder":"tf","game":"Team Fortress","app_id":440,"player_count":22,"max_players":24,"Bots":0,"server_type":"Dedicated","server_os":"Linux","password":true,"vac":true,"version":"7961495","steam_id":85568392924510192,"keywords":["nocrits","nodmgspread","payload","uncletopia"],"game_id":440,"stv_port":27036,"stv_name":"Uncletopia | London | 3 | All Maps | STV","players":[{"user_id":177,"name":"MR-XTREME","steam_id":76561199158386096,"connected_time":1536000000000,"state":"active","ping":67},{"user_id":166,"name":"Negative iq haver","steam_id":76561199017850242,"connected_time":1776000000000,"state":"active","ping":63},{"user_id":178,"name":"Sean","steam_id":76561198892489967,"connected_time":1494000000000,"state":"active","ping":131},{"user_id":168,"name":"Nox Equites","steam_id":76561198115438449,"connected_time":1663000000000,"state":"active","ping":86},{"user_id":179,"name":"Goon Spoons","steam_id":76561198116391675,"connected_time":1346000000000,"state":"active","ping":55},{"user_id":180,"name":"TheEmeraldStar","steam_id":76561198072942529,"connected_time":1338000000000,"state":"active","ping":65},{"user_id":202,"name":"Flowey ♡(,,•ω•,,´)","steam_id":76561198211605049,"connected_time":208000000000,"state":"active","ping":64},{"user_id":171,"name":"tube sock","steam_id":76561198073576350,"connected_time":1619000000000,"state":"active","ping":80},{"user_id":172,"name":"bear girl gwen","steam_id":76561198198872409,"connected_time":1603000000000,"state":"active","ping":56},{"user_id":197,"name":"Warrior555MainsGanon","steam_id":76561198388627786,"connected_time":377000000000,"state":"active","ping":67},{"user_id":190,"name":"peruna","steam_id":76561198000721196,"connected_time":532000000000,"state":"active","ping":95},{"user_id":199,"name":"Chambersite","steam_id":76561198197022399,"connected_time":309000000000,"state":"active","ping":67},{"user_id":173,"name":"[FP] Rune","steam_id":76561198030842879,"connected_time":1589000000000,"state":"active","ping":45},{"user_id":198,"name":"Waltism","steam_id":76561199447676489,"connected_time":375000000000,"state":"active","ping":168},{"user_id":201,"name":"dissociated and delusional","steam_id":76561198323757113,"connected_time":248000000000,"state":"active","ping":75},{"user_id":175,"name":"[FP] Scewtch","steam_id":76561198120500488,"connected_time":1586000000000,"state":"active","ping":59},{"user_id":176,"name":"348","steam_id":76561198372993027,"connected_time":1586000000000,"state":"active","ping":74},{"user_id":181,"name":"BreadBear","steam_id":76561198213900651,"connected_time":1261000000000,"state":"active","ping":98},{"user_id":183,"name":"Feels Good","steam_id":76561198058030054,"connected_time":1193000000000,"state":"active","ping":125},{"user_id":182,"name":"Rodia","steam_id":76561197968293161,"connected_time":1220000000000,"state":"active","ping":75},{"user_id":200,"name":"Nagisa","steam_id":76561199156698557,"connected_time":276000000000,"state":"active","ping":62},{"user_id":192,"name":"tete","steam_id":76561198045222850,"connected_time":429000000000,"state":"active","ping":68}]},{"server_id":321,"name":"Uncletopia | London | 4 | All Maps","name_short":"lon-4","host":"lon-1.uk.uncletopia.com","port":27045,"enabled":true,"region":"eu","cc":"gb","latitude":51.509865,"longitude":-0.118092,"reserved":0,"last_update":"0001-01-01T00:00:00Z","name_a2s":"Uncletopia | London | 4 | All Maps","protocol":17,"map":"koth_king","folder":"tf","game":"Team Fortress","app_id":440,"player_count":22,"max_players":24,"Bots":0,"server_type":"Dedicated","server_os":"Linux","password":true,"vac":true,"version":"7961495","steam_id":85568392924510193,"keywords":["cp","nocrits","nodmgspread","uncletopia"],"game_id":440,"stv_port":27046,"stv_name":"Uncletopia | London | 4 | All Maps | STV","players":[{"user_id":145,"name":"TomNoSocks","steam_id":76561198114071046,"connected_time":1024000000000,"state":"active","ping":63},{"user_id":146,"name":"KermSlinger","steam_id":76561198854027069,"connected_time":919000000000,"state":"active","ping":66},{"user_id":132,"name":"Para Bellum","steam_id":76561198375413446,"connected_time":1966000000000,"state":"active","ping":45},{"user_id":147,"name":"Moe Swanson","steam_id":76561198120035423,"connected_time":850000000000,"state":"active","ping":50},{"user_id":170,"name":"Loki Beaker","steam_id":76561198048086250,"connected_time":145000000000,"state":"active","ping":48},{"user_id":133,"name":"Ullr","steam_id":76561198140547483,"connected_time":1845000000000,"state":"active","ping":43},{"user_id":149,"name":"koffei","steam_id":76561198065683178,"connected_time":833000000000,"state":"active","ping":70},{"user_id":152,"name":"F","steam_id":76561199149462792,"connected_time":817000000000,"state":"active","ping":63},{"user_id":163,"name":"noah","steam_id":76561198099457089,"connected_time":385000000000,"state":"active","ping":62},{"user_id":135,"name":"Joejee","steam_id":76561199122423976,"connected_time":1812000000000,"state":"active","ping":64},{"user_id":155,"name":"Skrankly","steam_id":76561199001837576,"connected_time":670000000000,"state":"active","ping":53},{"user_id":106,"name":"I.AM.THE.BOOP.WHICH.IS.APROACHI","steam_id":76561198049342507,"connected_time":4122000000000,"state":"active","ping":97},{"user_id":154,"name":"Ray William Johson from =3","steam_id":76561198129755592,"connected_time":774000000000,"state":"active","ping":43},{"user_id":164,"name":"Pink_Slime","steam_id":76561198279172546,"connected_time":324000000000,"state":"active","ping":72},{"user_id":156,"name":"LETS GO LIQUID","steam_id":76561198403684042,"connected_time":656000000000,"state":"active","ping":64},{"user_id":157,"name":"Fissure","steam_id":76561198272595481,"connected_time":654000000000,"state":"active","ping":66},{"user_id":141,"name":"Prawo Jazdy","steam_id":76561198121589024,"connected_time":1447000000000,"state":"active","ping":65},{"user_id":125,"name":"BenteBent","steam_id":76561198297920637,"connected_time":2828000000000,"state":"active","ping":34},{"user_id":159,"name":"Dispenser(Dispenser)","steam_id":76561199211831658,"connected_time":641000000000,"state":"active","ping":62},{"user_id":85,"name":"Finem Belli","steam_id":76561198227177976,"connected_time":5498000000000,"state":"active","ping":46},{"user_id":166,"name":"mr.resetti","steam_id":76561198974520642,"connected_time":282000000000,"state":"active","ping":70},{"user_id":169,"name":"Jethro Tull","steam_id":76561199034041634,"connected_time":226000000000,"state":"active","ping":61}]},{"server_id":21,"name":"Uncletopia | London | 5 | All Maps","name_short":"lon-5","host":"lon-1.uk.uncletopia.com","port":27055,"enabled":true,"region":"eu","cc":"gb","latitude":51.509865,"longitude":-0.118092,"reserved":0,"last_update":"0001-01-01T00:00:00Z","name_a2s":"Uncletopia | London | 5 | All Maps","protocol":17,"map":"cp_process_final","folder":"tf","game":"Team Fortress","app_id":440,"player_count":22,"max_players":24,"Bots":0,"server_type":"Dedicated","server_os":"Linux","password":true,"vac":true,"version":"7961495","steam_id":85568392924742829,"keywords":["cp","nocrits","nodmgspread","uncletopia"],"game_id":440,"stv_port":27056,"stv_name":"Uncletopia | London | 5 | All Maps | STV","players":[{"user_id":288,"name":"snake","steam_id":76561198097712283,"connected_time":21000000000,"state":"active","ping":74},{"user_id":287,"name":"bogdagod","steam_id":76561198286968297,"connected_time":70000000000,"state":"active","ping":196},{"user_id":264,"name":"caramelldancin'","steam_id":76561198193357946,"connected_time":781000000000,"state":"active","ping":103},{"user_id":269,"name":"toomas2018(vote for toomas2018)","steam_id":76561199105796083,"connected_time":600000000000,"state":"active","ping":102},{"user_id":256,"name":"cof","steam_id":76561199128417805,"connected_time":1063000000000,"state":"active","ping":43},{"user_id":267,"name":"Egor Pomidor","steam_id":76561199175688390,"connected_time":685000000000,"state":"active","ping":90},{"user_id":254,"name":"Caliban","steam_id":76561197999696839,"connected_time":1450000000000,"state":"active","ping":121},{"user_id":286,"name":"smoking the zaza","steam_id":76561198061344952,"connected_time":148000000000,"state":"active","ping":60},{"user_id":277,"name":"yeyegoncas","steam_id":76561198061217656,"connected_time":472000000000,"state":"active","ping":70},{"user_id":266,"name":"Hillnick","steam_id":76561198287764464,"connected_time":705000000000,"state":"active","ping":70},{"user_id":218,"name":"Aregularhuman","steam_id":76561198343319848,"connected_time":4121000000000,"state":"active","ping":46},{"user_id":259,"name":"anabolic swag","steam_id":76561198214848887,"connected_time":928000000000,"state":"active","ping":61},{"user_id":221,"name":"sloppy transgirl toppy","steam_id":76561198057092208,"connected_time":4047000000000,"state":"active","ping":74},{"user_id":281,"name":"cheetah","steam_id":76561198160020162,"connected_time":438000000000,"state":"active","ping":71},{"user_id":284,"name":"Mario Judah","steam_id":76561197971514714,"connected_time":292000000000,"state":"active","ping":62},{"user_id":282,"name":"waitrose gaming","steam_id":76561198011450253,"connected_time":415000000000,"state":"active","ping":54},{"user_id":285,"name":"Michael","steam_id":76561198003146906,"connected_time":224000000000,"state":"active","ping":45},{"user_id":274,"name":"angry russian man","steam_id":76561198386712795,"connected_time":498000000000,"state":"active","ping":51},{"user_id":275,"name":"☛☚","steam_id":76561199154193088,"connected_time":497000000000,"state":"active","ping":72},{"user_id":219,"name":"Artemis","steam_id":76561198199091801,"connected_time":4115000000000,"state":"active","ping":48},{"user_id":278,"name":"czajnik","steam_id":76561198840758149,"connected_time":472000000000,"state":"active","ping":95},{"user_id":280,"name":"LivinInTheMyst","steam_id":76561199109119765,"connected_time":466000000000,"state":"active","ping":139}]},{"server_id":22,"name":"Uncletopia | London | 6 | All Maps","name_short":"lon-6","host":"lon-1.uk.uncletopia.com","port":27065,"enabled":true,"region":"eu","cc":"gb","latitude":51.509865,"longitude":-0.118092,"reserved":0,"last_update":"0001-01-01T00:00:00Z","name_a2s":"Uncletopia | London | 6 | All Maps","protocol":17,"map":"pl_frontier_final","folder":"tf","game":"Team Fortress","app_id":440,"player_count":3,"max_players":24,"Bots":0,"server_type":"Dedicated","server_os":"Linux","password":true,"vac":true,"version":"7961495","steam_id":85568392924742830,"keywords":["nocrits","nodmgspread","payload","uncletopia"],"game_id":440,"stv_port":27066,"stv_name":"Uncletopia | London | 6 | All Maps | STV","players":[{"user_id":21,"name":"Oligamer3690","steam_id":76561198827869629,"connected_time":1456000000000,"state":"active","ping":54},{"user_id":22,"name":"Truegr","steam_id":76561198811912339,"connected_time":1320000000000,"state":"active","ping":88},{"user_id":24,"name":"Ralsei","steam_id":76561199351767640,"connected_time":1070000000000,"state":"active","ping":51}]},{"server_id":40,"name":"Uncletopia | London | 7 | Stopwatch","name_short":"lon-7","host":"lon-1.uk.uncletopia.com","port":27075,"enabled":true,"region":"eu","cc":"gb","latitude":51.509865,"longitude":-0.118092,"reserved":0,"last_update":"0001-01-01T00:00:00Z","name_a2s":"Uncletopia | London | 7 | Stopwatch","protocol":17,"map":"koth_highpass","folder":"tf","game":"Team Fortress","app_id":440,"player_count":0,"max_players":24,"Bots":0,"server_type":"Dedicated","server_os":"Linux","password":true,"vac":true,"version":"7961495","steam_id":85568392924964314,"keywords":["cp","nocrits","nodmgspread","uncletopia"],"game_id":440,"stv_port":27076,"stv_name":"Uncletopia | London | 7 | Stopwatch | STV","players":null},{"server_id":41,"name":"Uncletopia | London | 8 | Community","name_short":"lon-8","host":"lon-1.uk.uncletopia.com","port":27085,"enabled":true,"region":"eu","cc":"gb","latitude":51.509865,"longitude":-0.118092,"reserved":0,"last_update":"0001-01-01T00:00:00Z","name_a2s":"Uncletopia | London | 8 | Community","protocol":17,"map":"cp_snakewater_final1","folder":"tf","game":"Team Fortress","app_id":440,"player_count":0,"max_players":24,"Bots":0,"server_type":"Dedicated","server_os":"Linux","password":true,"vac":true,"version":"7961495","steam_id":85568392924964315,"keywords":["cp","nocrits","nodmgspread","uncletopia"],"game_id":440,"stv_port":27086,"stv_name":"Uncletopia | London | 8 | Community | STV","players":null},{"server_id":300,"name":"Uncletopia | Montréal | 1 | One Thousand Uncles","name_short":"mtl-1","host":"mtl-1.ca.uncletopia.com","port":27015,"enabled":true,"region":"us-east","cc":"ca","latitude":45.50889,"longitude":-73.56167,"reserved":0,"last_update":"0001-01-01T00:00:00Z","name_a2s":"","protocol":0,"map":"","folder":"","game":"","app_id":0,"player_count":0,"max_players":0,"Bots":0,"server_type":"","server_os":"","password":false,"vac":false,"version":"","steam_id":0,"keywords":null,"game_id":0,"stv_port":0,"stv_name":"","players":null},{"server_id":301,"name":"Uncletopia | Montréal | 2 | One Thousand Uncles","name_short":"mtl-2","host":"mtl-1.ca.uncletopia.com","port":27025,"enabled":true,"region":"us-east","cc":"ca","latitude":45.50889,"longitude":-73.56167,"reserved":0,"last_update":"0001-01-01T00:00:00Z","name_a2s":"","protocol":0,"map":"","folder":"","game":"","app_id":0,"player_count":0,"max_players":0,"Bots":0,"server_type":"","server_os":"","password":false,"vac":false,"version":"","steam_id":0,"keywords":null,"game_id":0,"stv_port":0,"stv_name":"","players":null},{"server_id":302,"name":"Uncletopia | Montréal | 3 | One Thousand Uncles","name_short":"mtl-3","host":"mtl-1.ca.uncletopia.com","port":27035,"enabled":true,"region":"us-east","cc":"ca","latitude":45.50889,"longitude":-73.56167,"reserved":0,"last_update":"0001-01-01T00:00:00Z","name_a2s":"","protocol":0,"map":"","folder":"","game":"","app_id":0,"player_count":0,"max_players":0,"Bots":0,"server_type":"","server_os":"","password":false,"vac":false,"version":"","steam_id":0,"keywords":null,"game_id":0,"stv_port":0,"stv_name":"","players":null},{"server_id":13,"name":"Uncletopia | New York City | 1 | All Maps","name_short":"nyc-1","host":"nyc-1.us.uncletopia.com","port":27015,"enabled":true,"region":"us-east","cc":"us","latitude":40.73061,"longitude":-73.93524,"reserved":0,"last_update":"0001-01-01T00:00:00Z","name_a2s":"Uncletopia | New York City | 1 | All Maps","protocol":17,"map":"pl_badwater","folder":"tf","game":"Team Fortress","app_id":440,"player_count":24,"max_players":24,"Bots":0,"server_type":"Dedicated","server_os":"Linux","password":true,"vac":true,"version":"7961495","steam_id":85568392924469993,"keywords":["nocrits","nodmgspread","payload","uncletopia"],"game_id":440,"stv_port":27016,"stv_name":"Uncletopia | New York City | 1 | All Maps | STV","players":[{"user_id":11,"name":"SpaceSanctum","steam_id":76561198805242305,"connected_time":4099000000000,"state":"active","ping":42},{"user_id":12,"name":"De","steam_id":76561198206728044,"connected_time":4068000000000,"state":"active","ping":75},{"user_id":59,"name":"domy","steam_id":76561198156084643,"connected_time":1297000000000,"state":"active","ping":70},{"user_id":44,"name":"EPGツ","steam_id":76561198155624038,"connected_time":2369000000000,"state":"active","ping":60},{"user_id":50,"name":"Jasper™","steam_id":76561198260018463,"connected_time":1752000000000,"state":"active","ping":87},{"user_id":49,"name":"D","steam_id":76561198292908619,"connected_time":1798000000000,"state":"active","ping":75},{"user_id":69,"name":"Female Gamer","steam_id":76561199366482682,"connected_time":329000000000,"state":"active","ping":126},{"user_id":63,"name":"kibble","steam_id":76561198239909096,"connected_time":1070000000000,"state":"active","ping":59},{"user_id":70,"name":"guy","steam_id":76561198079925551,"connected_time":70000000000,"state":"active","ping":45},{"user_id":20,"name":"Niceness(Charisma)","steam_id":76561198079345172,"connected_time":3479000000000,"state":"active","ping":105},{"user_id":21,"name":"Cyberpunk McDonald's Play Place","steam_id":76561198063512035,"connected_time":3441000000000,"state":"active","ping":61},{"user_id":45,"name":"saurhead","steam_id":76561198132937722,"connected_time":2175000000000,"state":"active","ping":45},{"user_id":66,"name":"Gargathor the Entity Catcher","steam_id":76561198189429665,"connected_time":578000000000,"state":"active","ping":80},{"user_id":27,"name":"The All-Seeing Tim","steam_id":76561198075510786,"connected_time":3132000000000,"state":"active","ping":93},{"user_id":28,"name":"xFactr","steam_id":76561198129007422,"connected_time":3063000000000,"state":"active","ping":44},{"user_id":30,"name":"raccocooon","steam_id":76561199138602425,"connected_time":2879000000000,"state":"active","ping":85},{"user_id":33,"name":"yourcollectivemothers","steam_id":76561198875958142,"connected_time":2799000000000,"state":"active","ping":69},{"user_id":34,"name":"o helvete","steam_id":76561198005806915,"connected_time":2783000000000,"state":"active","ping":75},{"user_id":68,"name":"DualiTea","steam_id":76561198081733870,"connected_time":392000000000,"state":"active","ping":75},{"user_id":64,"name":"クケイ","steam_id":76561198215122444,"connected_time":955000000000,"state":"active","ping":70},{"user_id":67,"name":"Ryoko","steam_id":76561198084725087,"connected_time":494000000000,"state":"active","ping":55},{"user_id":71,"name":"KeyMaster28150","steam_id":76561199482024428,"connected_time":7000000000,"state":"spawning","ping":66},{"user_id":56,"name":"StretchySnail59","steam_id":76561198073535005,"connected_time":1455000000000,"state":"active","ping":63},{"user_id":62,"name":"Bluedime","steam_id":76561198123181025,"connected_time":1201000000000,"state":"active","ping":33}]},{"server_id":14,"name":"Uncletopia | New York City | 2 | All Maps","name_short":"nyc-2","host":"nyc-1.us.uncletopia.com","port":27025,"enabled":true,"region":"us-east","cc":"us","latitude":40.73061,"longitude":-73.93524,"reserved":0,"last_update":"0001-01-01T00:00:00Z","name_a2s":"Uncletopia | New York City | 2 | All Maps","protocol":17,"map":"koth_viaduct","folder":"tf","game":"Team Fortress","app_id":440,"player_count":0,"max_players":24,"Bots":0,"server_type":"Dedicated","server_os":"Linux","password":true,"vac":true,"version":"7961495","steam_id":85568392924469994,"keywords":["cp","nocrits","nodmgspread","uncletopia"],"game_id":440,"stv_port":27026,"stv_name":"Uncletopia | New York City | 2 | All Maps | STV","players":null},{"server_id":15,"name":"Uncletopia | New York City | 3 | Stopwatch","name_short":"nyc-3","host":"nyc-1.us.uncletopia.com","port":27035,"enabled":true,"region":"us-east","cc":"us","latitude":40.73061,"longitude":-73.93524,"reserved":0,"last_update":"0001-01-01T00:00:00Z","name_a2s":"Uncletopia | New York City | 3 | Stopwatch","protocol":17,"map":"pl_snowycoast","folder":"tf","game":"Team Fortress","app_id":440,"player_count":0,"max_players":24,"Bots":0,"server_type":"Dedicated","server_os":"Linux","password":true,"vac":true,"version":"7961495","steam_id":85568392924742820,"keywords":["nocrits","nodmgspread","payload","uncletopia"],"game_id":440,"stv_port":27036,"stv_name":"Uncletopia | New York City | 3 | Stopwatch | STV","players":null},{"server_id":16,"name":"Uncletopia | New York City | 4 | Community","name_short":"nyc-4","host":"nyc-1.us.uncletopia.com","port":27045,"enabled":true,"region":"us-east","cc":"us","latitude":40.73061,"longitude":-73.93524,"reserved":0,"last_update":"0001-01-01T00:00:00Z","name_a2s":"Uncletopia | New York City | 4 | Community","protocol":17,"map":"workshop/koth_kemptown_rc1.ugc767410655","folder":"tf","game":"Team Fortress","app_id":440,"player_count":0,"max_players":24,"Bots":0,"server_type":"Dedicated","server_os":"Linux","password":true,"vac":true,"version":"7961495","steam_id":85568392924742821,"keywords":["cp","nocrits","nodmgspread","uncletopia"],"game_id":440,"stv_port":27046,"stv_name":"Uncletopia | New York City | 4 | Community | STV","players":null},{"server_id":142,"name":"Uncletopia | São Paulo | 1 | All Maps","name_short":"sao-1","host":"sao-1.br.uncletopia.com","port":27015,"enabled":true,"region":"sa","cc":"br","latitude":-23.533773,"longitude":-46.62529,"reserved":0,"last_update":"0001-01-01T00:00:00Z","name_a2s":"Uncletopia | São Paulo | 1 | All Maps","protocol":17,"map":"cp_mountainlab","folder":"tf","game":"Team Fortress","app_id":440,"player_count":0,"max_players":24,"Bots":0,"server_type":"Dedicated","server_os":"Linux","password":true,"vac":true,"version":"7961495","steam_id":85568392924469996,"keywords":["cp","nocrits","nodmgspread","uncletopia"],"game_id":440,"stv_port":27016,"stv_name":"Uncletopia | São Paulo | 1 | All Maps | STV","players":null},{"server_id":143,"name":"Uncletopia | São Paulo | 2 | Community","name_short":"sao-2","host":"sao-2.br.uncletopia.com","port":27015,"enabled":true,"region":"sa","cc":"br","latitude":-23.533773,"longitude":-46.62529,"reserved":0,"last_update":"0001-01-01T00:00:00Z","name_a2s":"Uncletopia | São Paulo | 2 | Community","protocol":17,"map":"workshop/pl_barnblitz_pro7.ugc582280235","folder":"tf","game":"Team Fortress","app_id":440,"player_count":0,"max_players":24,"Bots":0,"server_type":"Dedicated","server_os":"Linux","password":true,"vac":true,"version":"7961495","steam_id":85568392924485349,"keywords":["nocrits","nodmgspread","payload","uncletopia"],"game_id":440,"stv_port":27016,"stv_name":"Uncletopia | São Paulo | 2 | Community | STV","players":null},{"server_id":7,"name":"Uncletopia | Seattle | 1 | All Maps","name_short":"sea-1","host":"sea-1.us.uncletopia.com","port":27015,"enabled":true,"region":"us-west","cc":"us","latitude":47.608013,"longitude":-122.33517,"reserved":0,"last_update":"0001-01-01T00:00:00Z","name_a2s":"Uncletopia | Seattle | 1 | All Maps","protocol":17,"map":"koth_highpass","folder":"tf","game":"Team Fortress","app_id":440,"player_count":6,"max_players":24,"Bots":0,"server_type":"Dedicated","server_os":"Linux","password":true,"vac":true,"version":"7961495","steam_id":85568392924469997,"keywords":["cp","nocrits","nodmgspread","uncletopia"],"game_id":440,"stv_port":27016,"stv_name":"Uncletopia | Seattle | 1 | All Maps | STV","players":[{"user_id":15,"name":"deeeefers","steam_id":76561198082592496,"connected_time":1512000000000,"state":"active","ping":44},{"user_id":18,"name":"The rot consumes","steam_id":76561199206827767,"connected_time":719000000000,"state":"active","ping":65},{"user_id":17,"name":"Gul'dan","steam_id":76561198240466940,"connected_time":1437000000000,"state":"active","ping":216},{"user_id":22,"name":"Gregg Rulz ok","steam_id":76561199027131213,"connected_time":236000000000,"state":"active","ping":44},{"user_id":20,"name":"Toaster (Hamilton Beach)","steam_id":76561198039891934,"connected_time":377000000000,"state":"active","ping":60},{"user_id":21,"name":"Firedust19","steam_id":76561198153238631,"connected_time":359000000000,"state":"active","ping":90}]},{"server_id":119,"name":"Uncletopia | Seattle | 2 | All Maps","name_short":"sea-2","host":"sea-1.us.uncletopia.com","port":27025,"enabled":true,"region":"us-west","cc":"us","latitude":47.608013,"longitude":-122.33517,"reserved":0,"last_update":"0001-01-01T00:00:00Z","name_a2s":"Uncletopia | Seattle | 2 | All Maps","protocol":17,"map":"cp_process_final","folder":"tf","game":"Team Fortress","app_id":440,"player_count":0,"max_players":24,"Bots":0,"server_type":"Dedicated","server_os":"Linux","password":true,"vac":true,"version":"7961495","steam_id":85568392924469998,"keywords":["cp","nocrits","nodmgspread","uncletopia"],"game_id":440,"stv_port":27026,"stv_name":"Uncletopia | Seattle | 2 | All Maps | STV","players":null},{"server_id":406,"name":"Uncletopia | Seattle | 3 | Stopwatch","name_short":"sea-3","host":"sea-1.us.uncletopia.com","port":27035,"enabled":true,"region":"us-west","cc":"us","latitude":47.608013,"longitude":-122.33517,"reserved":0,"last_update":"0001-01-01T00:00:00Z","name_a2s":"Uncletopia | Seattle | 3 | Stopwatch","protocol":17,"map":"pl_pier","folder":"tf","game":"Team Fortress","app_id":440,"player_count":0,"max_players":24,"Bots":0,"server_type":"Dedicated","server_os":"Linux","password":true,"vac":true,"version":"7961495","steam_id":85568392924515217,"keywords":["nocrits","nodmgspread","payload","uncletopia"],"game_id":440,"stv_port":27036,"stv_name":"Uncletopia | Seattle | 3 | Stopwatch | STV","players":null},{"server_id":17,"name":"Uncletopia | San Francisco | 1 | All Maps","name_short":"sfo-1","host":"sfo-1.us.uncletopia.com","port":27015,"enabled":true,"region":"us-west","cc":"us","latitude":37.77397,"longitude":-122.4313,"reserved":0,"last_update":"0001-01-01T00:00:00Z","name_a2s":"Uncletopia | San Francisco | 1 | All Maps","protocol":17,"map":"koth_cascade","folder":"tf","game":"Team Fortress","app_id":440,"player_count":0,"max_players":24,"Bots":0,"server_type":"Dedicated","server_os":"Linux","password":true,"vac":true,"version":"7961495","steam_id":85568392924469999,"keywords":["cp","nocrits","nodmgspread","uncletopia"],"game_id":440,"stv_port":27016,"stv_name":"Uncletopia | San Francisco | 1 | All Maps | STV","players":null},{"server_id":18,"name":"Uncletopia | San Francisco | 2 | All Maps","name_short":"sfo-2","host":"sfo-1.us.uncletopia.com","port":27025,"enabled":true,"region":"us-west","cc":"us","latitude":37.77397,"longitude":-122.4313,"reserved":0,"last_update":"0001-01-01T00:00:00Z","name_a2s":"Uncletopia | San Francisco | 2 | All Maps","protocol":17,"map":"pl_frontier_final","folder":"tf","game":"Team Fortress","app_id":440,"player_count":0,"max_players":24,"Bots":0,"server_type":"Dedicated","server_os":"Linux","password":true,"vac":true,"version":"7961495","steam_id":85568392924470000,"keywords":["nocrits","nodmgspread","payload","uncletopia"],"game_id":440,"stv_port":27026,"stv_name":"Uncletopia | San Francisco | 2 | All Maps | STV","players":null},{"server_id":19,"name":"Uncletopia | San Francisco | 3 | Stopwatch","name_short":"sfo-3","host":"sfo-1.us.uncletopia.com","port":27035,"enabled":true,"region":"us-west","cc":"us","latitude":37.77397,"longitude":-122.4313,"reserved":0,"last_update":"0001-01-01T00:00:00Z","name_a2s":"Uncletopia | San Francisco | 3 | Stopwatch","protocol":17,"map":"pl_pier","folder":"tf","game":"Team Fortress","app_id":440,"player_count":0,"max_players":24,"Bots":0,"server_type":"Dedicated","server_os":"Linux","password":true,"vac":true,"version":"7961495","steam_id":85568392924742824,"keywords":["nocrits","nodmgspread","payload","uncletopia"],"game_id":440,"stv_port":27036,"stv_name":"Uncletopia | San Francisco | 3 | Stopwatch | STV","players":null},{"server_id":20,"name":"Uncletopia | San Francisco | 4 | Community","name_short":"sfo-4","host":"sfo-1.us.uncletopia.com","port":27045,"enabled":true,"region":"us-west","cc":"us","latitude":37.77397,"longitude":-122.4313,"reserved":0,"last_update":"0001-01-01T00:00:00Z","name_a2s":"Uncletopia | San Francisco | 4 | Community","protocol":17,"map":"pl_pier","folder":"tf","game":"Team Fortress","app_id":440,"player_count":0,"max_players":24,"Bots":0,"server_type":"Dedicated","server_os":"Linux","password":true,"vac":true,"version":"7961495","steam_id":85568392924742826,"keywords":["nocrits","nodmgspread","payload","uncletopia"],"game_id":440,"stv_port":27046,"stv_name":"Uncletopia | San Francisco | 4 | Community | STV","players":null},{"server_id":141,"name":"Uncletopia | Sydney | 1 | All Maps","name_short":"syd-1","host":"syd-1.au.uncletopia.com","port":27015,"enabled":true,"region":"au","cc":"au","latitude":-33.865143,"longitude":151.2099,"reserved":0,"last_update":"0001-01-01T00:00:00Z","name_a2s":"Uncletopia | Sydney | 1 | All Maps","protocol":17,"map":"cp_process_final","folder":"tf","game":"Team Fortress","app_id":440,"player_count":0,"max_players":24,"Bots":0,"server_type":"Dedicated","server_os":"Linux","password":true,"vac":true,"version":"7961495","steam_id":85568392924470001,"keywords":["cp","nocrits","nodmgspread","uncletopia"],"game_id":440,"stv_port":27016,"stv_name":"Uncletopia | Sydney | 1 | All Maps | STV","players":null},{"server_id":123,"name":"Uncletopia | Sydney | 2 | All Maps","name_short":"syd-2","host":"syd-1.au.uncletopia.com","port":27025,"enabled":true,"region":"au","cc":"au","latitude":-33.865143,"longitude":151.2099,"reserved":0,"last_update":"0001-01-01T00:00:00Z","name_a2s":"Uncletopia | Sydney | 2 | All Maps","protocol":17,"map":"koth_highpass","folder":"tf","game":"Team Fortress","app_id":440,"player_count":1,"max_players":24,"Bots":0,"server_type":"Dedicated","server_os":"Linux","password":true,"vac":true,"version":"7961495","steam_id":85568392924470002,"keywords":["cp","nocrits","nodmgspread","uncletopia"],"game_id":440,"stv_port":27026,"stv_name":"Uncletopia | Sydney | 2 | All Maps | STV","players":[{"user_id":208,"name":"A$AP","steam_id":76561198345752595,"connected_time":15000000000,"state":"spawning","ping":204}]},{"server_id":395,"name":"Uncletopia | Sydney | 3 | All Maps","name_short":"syd-3","host":"syd-1.au.uncletopia.com","port":27035,"enabled":true,"region":"au","cc":"au","latitude":-33.865143,"longitude":151.2099,"reserved":0,"last_update":"0001-01-01T00:00:00Z","name_a2s":"Uncletopia | Sydney | 3 | All Maps","protocol":17,"map":"koth_highpass","folder":"tf","game":"Team Fortress","app_id":440,"player_count":0,"max_players":24,"Bots":0,"server_type":"Dedicated","server_os":"Linux","password":true,"vac":true,"version":"7961495","steam_id":85568392925194467,"keywords":["cp","nocrits","nodmgspread","uncletopia"],"game_id":440,"stv_port":27036,"stv_name":"Uncletopia | Sydney | 3 | All Maps | STV","players":null},{"server_id":396,"name":"Uncletopia | Sydney | 4 | All Maps","name_short":"syd-4","host":"syd-1.au.uncletopia.com","port":27045,"enabled":true,"region":"au","cc":"au","latitude":-33.865143,"longitude":151.2099,"reserved":0,"last_update":"0001-01-01T00:00:00Z","name_a2s":"Uncletopia | Sydney | 4 | All Maps","protocol":17,"map":"cp_sunshine","folder":"tf","game":"Team Fortress","app_id":440,"player_count":0,"max_players":24,"Bots":0,"server_type":"Dedicated","server_os":"Linux","password":true,"vac":true,"version":"7961495","steam_id":85568392925397958,"keywords":["cp","nocrits","nodmgspread","uncletopia"],"game_id":440,"stv_port":27046,"stv_name":"Uncletopia | Sydney | 4 | All Maps | STV","players":null},{"server_id":58,"name":"Uncletopia | Sydney | 5 | Stopwatch","name_short":"syd-5","host":"syd-1.au.uncletopia.com","port":27055,"enabled":true,"region":"au","cc":"au","latitude":-33.865143,"longitude":151.2099,"reserved":0,"last_update":"0001-01-01T00:00:00Z","name_a2s":"Uncletopia | Sydney | 5 | Stopwatch","protocol":17,"map":"workshop/pl_badwater_pro_v12.ugc2142942074","folder":"tf","game":"Team Fortress","app_id":440,"player_count":0,"max_players":24,"Bots":0,"server_type":"Dedicated","server_os":"Linux","password":true,"vac":true,"version":"7961495","steam_id":85568392925397959,"keywords":["nocrits","nodmgspread","payload","uncletopia"],"game_id":440,"stv_port":27056,"stv_name":"Uncletopia | Sydney | 5 | Stopwatch | STV","players":null},{"server_id":59,"name":"Uncletopia | Sydney | 6 | Community","name_short":"syd-6","host":"syd-1.au.uncletopia.com","port":27065,"enabled":true,"region":"au","cc":"au","latitude":-33.865143,"longitude":151.2099,"reserved":0,"last_update":"0001-01-01T00:00:00Z","name_a2s":"Uncletopia | Sydney | 6 | Community","protocol":17,"map":"workshop/koth_slaughter_rc1.ugc1712845210","folder":"tf","game":"Team Fortress","app_id":440,"player_count":0,"max_players":24,"Bots":0,"server_type":"Dedicated","server_os":"Linux","password":true,"vac":true,"version":"7961495","steam_id":85568392925397960,"keywords":["cp","nocrits","nodmgspread","uncletopia"],"game_id":440,"stv_port":27066,"stv_name":"Uncletopia | Sydney | 6 | Community | STV","players":null},{"server_id":49,"name":"Uncletopia | Warsaw | 1 | One Thousand Uncles","name_short":"waw-1","host":"waw-1.pl.uncletopia.com","port":27015,"enabled":true,"region":"eu","cc":"pl","latitude":52.2297,"longitude":21.017532,"reserved":0,"last_update":"0001-01-01T00:00:00Z","name_a2s":"Uncletopia | Warsaw | 1 | One Thousand Uncles","protocol":17,"map":"cp_dustbowl","folder":"tf","game":"Team Fortress","app_id":440,"player_count":24,"max_players":32,"Bots":16,"server_type":"Dedicated","server_os":"Linux","password":true,"vac":true,"version":"7961495","steam_id":85568392925397850,"keywords":["alltalk","bots","cp","danepve","increased_maxplayers","nocrits","norespawntime","uncletopia"],"game_id":440,"stv_port":0,"stv_name":"","players":[{"user_id":262,"name":"Ksiedzu","steam_id":76561198844946261,"connected_time":1816000000000,"state":"active","ping":71},{"user_id":257,"name":"in the balls","steam_id":76561199196015973,"connected_time":3452000000000,"state":"active","ping":89},{"user_id":258,"name":"Pascal Darras","steam_id":76561198052136478,"connected_time":3405000000000,"state":"active","ping":73},{"user_id":268,"name":"Classic Aga-Mem-Non","steam_id":76561198140331860,"connected_time":169000000000,"state":"active","ping":82},{"user_id":261,"name":"[SQ UA] MartianDill","steam_id":76561198405382822,"connected_time":2038000000000,"state":"active","ping":52},{"user_id":225,"name":"Jetstream Sam","steam_id":76561199101991783,"connected_time":6094000000000,"state":"active","ping":57},{"user_id":230,"name":"skike","steam_id":76561198071079992,"connected_time":4933000000000,"state":"active","ping":94},{"user_id":238,"name":"MegaChungusUnderCheeto_69420","steam_id":76561199159878197,"connected_time":4193000000000,"state":"active","ping":71}]},{"server_id":50,"name":"Uncletopia | Warsaw | 2 | One Thousand Uncles","name_short":"waw-2","host":"waw-1.pl.uncletopia.com","port":27025,"enabled":true,"region":"eu","cc":"pl","latitude":52.2297,"longitude":21.017532,"reserved":0,"last_update":"0001-01-01T00:00:00Z","name_a2s":"Uncletopia | Warsaw | 2 | One Thousand Uncles","protocol":17,"map":"cp_dustbowl","folder":"tf","game":"Team Fortress","app_id":440,"player_count":29,"max_players":32,"Bots":16,"server_type":"Dedicated","server_os":"Linux","password":true,"vac":true,"version":"7961495","steam_id":85568392925397851,"keywords":["alltalk","bots","cp","danepve","increased_maxplayers","nocrits","norespawntime","uncletopia"],"game_id":440,"stv_port":0,"stv_name":"","players":[{"user_id":556,"name":"Slav_monke","steam_id":76561199243657026,"connected_time":153000000000,"state":"active","ping":65},{"user_id":536,"name":"Pvt Talbot","steam_id":76561198261001389,"connected_time":1631000000000,"state":"active","ping":73},{"user_id":524,"name":"Riky95","steam_id":76561198095289436,"connected_time":2321000000000,"state":"active","ping":64},{"user_id":549,"name":"quato lemons","steam_id":76561199161287973,"connected_time":1263000000000,"state":"active","ping":51},{"user_id":550,"name":"alexx","steam_id":76561198156394629,"connected_time":1107000000000,"state":"active","ping":71},{"user_id":551,"name":"Tispy","steam_id":76561199207410049,"connected_time":988000000000,"state":"active","ping":110},{"user_id":521,"name":"titi3820","steam_id":76561199201199218,"connected_time":2746000000000,"state":"active","ping":79},{"user_id":555,"name":"JayMaloney","steam_id":76561198050173547,"connected_time":194000000000,"state":"active","ping":74},{"user_id":522,"name":"yes mann","steam_id":76561199403589748,"connected_time":2692000000000,"state":"active","ping":163},{"user_id":557,"name":"FalconBalcon","steam_id":76561199123991020,"connected_time":139000000000,"state":"active","ping":85},{"user_id":503,"name":"Bobo","steam_id":76561198967534741,"connected_time":7203000000000,"state":"active","ping":43},{"user_id":558,"name":"Mata","steam_id":76561198308191713,"connected_time":91000000000,"state":"active","ping":63},{"user_id":559,"name":"sspinerowski","steam_id":76561199296741065,"connected_time":86000000000,"state":"spawning","ping":64}]},{"server_id":51,"name":"Uncletopia | Warsaw | 3 | All Maps","name_short":"waw-3","host":"waw-1.pl.uncletopia.com","port":27035,"enabled":true,"region":"eu","cc":"pl","latitude":52.2297,"longitude":21.017532,"reserved":0,"last_update":"0001-01-01T00:00:00Z","name_a2s":"Uncletopia | Warsaw | 3 | All Maps","protocol":17,"map":"plr_pipeline","folder":"tf","game":"Team Fortress","app_id":440,"player_count":1,"max_players":24,"Bots":0,"server_type":"Dedicated","server_os":"Linux","password":true,"vac":true,"version":"7961495","steam_id":85568392925397852,"keywords":["nocrits","nodmgspread","payload","uncletopia"],"game_id":440,"stv_port":27036,"stv_name":"Uncletopia | Warsaw | 3 | All Maps | STV","players":[{"user_id":20,"name":"Godjan","steam_id":76561198077554447,"connected_time":63000000000,"state":"active","ping":105}]},{"server_id":52,"name":"Uncletopia | Warsaw | 4 | All Maps","name_short":"waw-4","host":"waw-1.pl.uncletopia.com","port":27045,"enabled":true,"region":"eu","cc":"pl","latitude":52.2297,"longitude":21.017532,"reserved":0,"last_update":"0001-01-01T00:00:00Z","name_a2s":"Uncletopia | Warsaw | 4 | All Maps","protocol":17,"map":"pl_pier","folder":"tf","game":"Team Fortress","app_id":440,"player_count":0,"max_players":24,"Bots":0,"server_type":"Dedicated","server_os":"Linux","password":true,"vac":true,"version":"7961495","steam_id":85568392925397853,"keywords":["nocrits","nodmgspread","payload","uncletopia"],"game_id":440,"stv_port":27046,"stv_name":"Uncletopia | Warsaw | 4 | All Maps | STV","players":null},{"server_id":53,"name":"Uncletopia | Warsaw | 5 | Stopwatch","name_short":"waw-5","host":"waw-1.pl.uncletopia.com","port":27055,"enabled":true,"region":"eu","cc":"pl","latitude":52.2297,"longitude":21.017532,"reserved":0,"last_update":"0001-01-01T00:00:00Z","name_a2s":"Uncletopia | Warsaw | 5 | Stopwatch","protocol":17,"map":"koth_lakeside_final","folder":"tf","game":"Team Fortress","app_id":440,"player_count":0,"max_players":24,"Bots":0,"server_type":"Dedicated","server_os":"Linux","password":true,"vac":true,"version":"7961495","steam_id":85568392925397854,"keywords":["cp","nocrits","nodmgspread","uncletopia"],"game_id":440,"stv_port":27056,"stv_name":"Uncletopia | Warsaw | 5 | Stopwatch | STV","players":null},{"server_id":54,"name":"Uncletopia | Warsaw | 6 | Community","name_short":"waw-6","host":"waw-1.pl.uncletopia.com","port":27065,"enabled":true,"region":"eu","cc":"pl","latitude":52.2297,"longitude":21.017532,"reserved":0,"last_update":"0001-01-01T00:00:00Z","name_a2s":"Uncletopia | Warsaw | 6 | Community","protocol":17,"map":"workshop/cp_propaganda_b18.ugc1603743849","folder":"tf","game":"Team Fortress","app_id":440,"player_count":0,"max_players":24,"Bots":0,"server_type":"Dedicated","server_os":"Linux","password":true,"vac":true,"version":"7961495","steam_id":85568392925397856,"keywords":["cp","nocrits","nodmgspread","uncletopia"],"game_id":440,"stv_port":27066,"stv_name":"Uncletopia | Warsaw | 6 | Community | STV","players":null}]}