{"status":true,"message":"","result":[{"server_id":9,"name":"Uncletopia | Atlanta | 1 | All Maps","name_short":"atl-1","host":"atl-1.us.uncletopia.com","port":27015,"enabled":true,"region":"us-east","cc":"us","latitude":33.753746,"longitude":-84.38633,"reserved":0,"last_update":"0001-01-01T00:00:00Z","name_a2s":"Uncletopia | Atlanta | 1 | All Maps","protocol":17,"map":"pl_swiftwater_final1","folder":"tf","game":"Team Fortress","app_id":440,"player_count":24,"max_players":24,"Bots":0,"server_type":"Dedicated","server_os":"Linux","password":true,"vac":true,"version":"7961495","steam_id":85568392924469982,"keywords":["nocrits","nodmgspread","payload","uncletopia"],"game_id":440,"stv_port":27016,"stv_name":"Uncletopia | Atlanta | 1 | All Maps | STV","players":null},{"server_id":104,"name":"Uncletopia | Atlanta | 2 | All Maps","name_short":"atl-2","host":"atl-1.us.uncletopia.com","port":27025,"enabled":true,"region":"us-east","cc":"us","latitude":33.753746,"longitude":-84.38633,"reserved":0,"last_update":"0001-01-01T00:00:00Z","name_a2s":"Uncletopia | Atlanta | 2 | All Maps","protocol":17,"map":"koth_cascade","folder":"tf","game":"Team Fortress","app_id":440,"player_count":0,"max_players":24,"Bots":0,"server_type":"Dedicated","server_os":"Linux","password":true,"vac":true,"version":"7961495","steam_id":85568392924469983,"keywords":["cp","nocrits","nodmgspread","uncletopia"],"game_id":440,"stv_port":27026,"stv_name":"Uncletopia | Atlanta | 2 | All Maps | STV","players":null},{"server_id":400,"name":"Uncletopia | Atlanta | 3 | Stopwatch","name_short":"atl-3","host":"atl-1.us.uncletopia.com","port":27035,"enabled":true,"region":"us-east","cc":"us","latitude":33.753746,"longitude":-84.38633,"reserved":0,"last_update":"0001-01-01T00:00:00Z","name_a2s":"Uncletopia | Atlanta | 3 | Stopwatch","protocol":17,"map":"pl_vigil_rc10","folder":"tf","game":"Team Fortress","app_id":440,"player_count":0,"max_players":24,"Bots":0,"server_type":"Dedicated","server_os":"Linux","password":true,"vac":true,"version":"7961495","steam_id":85568392924515187,"keywords":["nocrits","nodmgspread","payload","uncletopia"],"game_id":440,"stv_port":27036,"stv_name":"Uncletopia | Atlanta | 3 | Stopwatch | STV","players":null},{"server_id":401,"name":"Uncletopia | Atlanta | 4 | Community","name_short":"atl-4","host":"atl-1.us.uncletopia.com","port":27045,"enabled":true,"region":"us-east","cc":"us","latitude":33.753746,"longitude":-84.38633,"reserved":0,"last_update":"0001-01-01T00:00:00Z","name_a2s":"Uncletopia | Atlanta | 4 | Community","protocol":17,"map":"koth_kemptown_rc1","folder":"tf","game":"Team Fortress","app_id":440,"player_count":0,"max_players":24,"Bots":0,"server_type":"Dedicated","server_os":"Linux","password":true,"vac":true,"version":"7961495","steam_id":85568392924515188,"keywords":["cp","nocrits","nodmgspread","uncletopia"],"game_id":440,"stv_port":27046,"stv_name":"Uncletopia | Atlanta | 4 | Community | STV","players":null},{"server_id":2,"name":"Uncletopia | Chicago | 1 | All Maps","name_short":"chi-1","host":"chi-1.us.uncletopia.com","port":27015,"enabled":true,"region":"us-central","cc":"us","latitude":41.881832,"longitude":-87.62318,"reserved":0,"last_update":"0001-01-01T00:00:00Z","name_a2s":"Uncletopia | Chicago | 1 | All Maps","protocol":17,"map":"pl_goldrush","folder":"tf","game":"Team Fortress","app_id":440,"player_count":23,"max_players":24,"Bots":0,"server_type":"Dedicated","server_os":"Linux","password":true,"vac":true,"version":"7961495","steam_id":85568392924469984,"keywords":["nocrits","nodmgspread","payload","uncletopia"],"game_id":440,"stv_port":27016,"stv_name":"Uncletopia | Chicago | 1 | All Maps | STV","players":[{"user_id":451,"name":"*TyTerminator","steam_id":76561198056450091,"connected_time":4220000000000,"state":"active","ping":70},{"user_id":491,"name":"Milkf porn","steam_id":76561198152601497,"connected_time":518000000000,"state":"active","ping":67},{"user_id":464,"name":"God","steam_id":76561198131089513,"connected_time":2787000000000,"state":"active","ping":46},{"user_id":492,"name":"sansa musa","steam_id":76561198163723555,"connected_time":207000000000,"state":"active","ping":60},{"user_id":483,"name":"rat eater","steam_id":76561199216874750,"connected_time":1181000000000,"state":"active","ping":59},{"user_id":455,"name":"agentish","steam_id":76561198055088122,"connected_time":3627000000000,"state":"active","ping":52},{"user_id":450,"name":"Goons206","steam_id":76561198071642603,"connected_time":4405000000000,"state":"active","ping":113},{"user_id":493,"name":"Fatmonkey","steam_id":76561197964456477,"connected_time":194000000000,"state":"active","ping":66},{"user_id":480,"name":"Kero","steam_id":76561198343231436,"connected_time":1284000000000,"state":"active","ping":58},{"user_id":459,"name":"Eviscerator","steam_id":76561197980073637,"connected_time":3275000000000,"state":"active","ping":69},{"user_id":494,"name":"nova","steam_id":76561199129194252,"connected_time":152000000000,"state":"active","ping":71},{"user_id":446,"name":"Do it to em¬≤","steam_id":76561197993975210,"connected_time":4945000000000,"state":"active","ping":69},{"user_id":487,"name":"Crazy Insane Proboscis Monkey","steam_id":76561198061011176,"connected_time":1002000000000,"state":"active","ping":99},{"user_id":484,"name":"Jey Sus","steam_id":76561198129254533,"connected_time":1134000000000,"state":"active","ping":86},{"user_id":468,"name":"Tito","steam_id":76561198041702529,"connected_time":2694000000000,"state":"active","ping":86},{"user_id":497,"name":"Nexo Fighter","steam_id":76561199187418090,"connected_time":6000000000,"state":"spawning","ping":361},{"user_id":478,"name":"I.C.","steam_id":76561198049256017,"connected_time":1463000000000,"state":"active","ping":75},{"user_id":496,"name":"We Go Crazy","steam_id":76561198209641359,"connected_time":46000000000,"state":"active","ping":60},{"user_id":423,"name":"Lia_Rein","steam_id":76561198151569597,"connected_time":6121000000000,"state":"active","ping":155},{"user_id":477,"name":"Clean Lines","steam_id":76561197960691518,"connected_time":2121000000000,"state":"active","ping":52},{"user_id":485,"name":"DededeMain | trade.tf","steam_id":76561198310951632,"connected_time":1122000000000,"state":"active","ping":74},{"user_id":460,"name":"Bustling Fungus","steam_id":76561198183374302,"connected_time":2962000000000,"state":"active","ping":73},{"user_id":490,"name":"Ras","steam_id":76561198123546775,"connected_time":577000000000,"state":"active","ping":92}]},{"server_id":106,"name":"Uncletopia | Chicago | 2 | All Maps","name_short":"chi-2","host":"chi-1.us.uncletopia.com","port":27025,"enabled":true,"region":"us-central","cc":"us","latitude":41.881832,"longitude":-87.62318,"reserved":0,"last_update":"0001-01-01T00:00:00Z","name_a2s":"Uncletopia | Chicago | 2 | All Maps","protocol":17,"map":"pl_thundermountain","folder":"tf","game":"Team Fortress","app_id":440,"player_count":24,"max_players":24,"Bots":0,"server_type":"Dedicated","server_os":"Linux","password":true,"vac":true,"version":"7961495","steam_id":85568392924469985,"keywords":["nocrits","nodmgspread","payload","uncletopia"],"game_id":440,"stv_port":27026,"stv_name":"Uncletopia | Chicago | 2 | All Maps | STV","players":[{"user_id":8,"name":"Bobato Chaps","steam_id":76561198065103552,"connected_time":20006000000000,"state":"active","ping":45},{"user_id":202,"name":"thatguy_luigi","steam_id":76561198968055462,"connected_time":5572000000000,"state":"active","ping":105},{"user_id":227,"name":"big joe's backwoods pack","steam_id":76561198204995668,"connected_time":3591000000000,"state":"active","ping":77},{"user_id":257,"name":"Clear Sights","steam_id":76561198006215683,"connected_time":270000000000,"state":"active","ping":55},{"user_id":252,"name":"R{FITH}‚Ñ¢Infornando","steam_id":76561198094891050,"connected_time":839000000000,"state":"active","ping":105},{"user_id":258,"name":"HOTA","steam_id":76561199002778841,"connected_time":258000000000,"state":"active","ping":74},{"user_id":234,"name":"I am the pinnacle of funny","steam_id":76561198306393090,"connected_time":2452000000000,"state":"active","ping":45},{"user_id":256,"name":"cyclops","steam_id":76561197970370198,"connected_time":325000000000,"state":"active","ping":69},{"user_id":248,"name":"–ØawrFatcat","steam_id":76561198017698926,"connected_time":1404000000000,"state":"active","ping":90},{"user_id":259,"name":"Steven","steam_id":76561198075526342,"connected_time":245000000000,"state":"active","ping":73},{"user_id":238,"name":"Palkia Plush","steam_id":76561198291486319,"connected_time":2171000000000,"state":"active","ping":66},{"user_id":241,"name":"TeaCat","steam_id":76561198814841367,"connected_time":1816000000000,"state":"active","ping":61},{"user_id":226,"name":"Mortal Flame","steam_id":76561198130698418,"connected_time":3926000000000,"state":"active","ping":87},{"user_id":249,"name":"Pengi","steam_id":76561198333097000,"connected_time":956000000000,"state":"active","ping":44},{"user_id":219,"name":"[82DK] Ike","steam_id":76561198135256526,"connected_time":4175000000000,"state":"active","ping":71},{"user_id":209,"name":"MikeLovesRabbit","steam_id":76561197997742625,"connected_time":4787000000000,"state":"active","ping":69},{"user_id":244,"name":"Dabbledornk","steam_id":76561198065241300,"connected_time":1765000000000,"state":"active","ping":60},{"user_id":225,"name":"Moop","steam_id":76561198096984681,"connected_time":3986000000000,"state":"active","ping":93},{"user_id":214,"name":"kimchy101","steam_id":76561198202721584,"connected_time":4304000000000,"state":"active","ping":57},{"user_id":260,"name":"puddles","steam_id":76561198110832624,"connected_time":224000000000,"state":"active","ping":45},{"user_id":262,"name":"cowboy","steam_id":76561199079124758,"connected_time":63000000000,"state":"active","ping":58},{"user_id":247,"name":"Artyom","steam_id":76561198132986712,"connected_time":1678000000000,"state":"active","ping":99},{"user_id":189,"name":"JxyGREED","steam_id":76561198345026653,"connected_time":6879000000000,"state":"active","ping":77},{"user_id":253,"name":"fi_ji","steam_id":76561198126087725,"connected_time":785000000000,"state":"active","ping":76}]},{"server_id":402,"name":"Uncletopia | Chicago | 3 | All Maps","name_short":"chi-3","host":"chi-1.us.uncletopia.com","port":27035,"enabled":true,"region":"us-central","cc":"us","latitude":41.881832,"longitude":-87.62318,"reserved":0,"last_update":"0001-01-01T00:00:00Z","name_a2s":"Uncletopia | Chicago | 3 | All Maps","protocol":17,"map":"cp_sunshine","folder":"tf","game":"Team Fortress","app_id":440,"player_count":24,"max_players":24,"Bots":0,"server_type":"Dedicated","server_os":"Linux","password":true,"vac":true,"version":"7961495","steam_id":85568392924515191,"keywords":["cp","nocrits","nodmgspread","uncletopia"],"game_id":440,"stv_port":27036,"stv_name":"Uncletopia | Chicago | 3 | All Maps | STV","players":[{"user_id":131,"name":"Vaudeville Villain","steam_id":76561199212093339,"connected_time":530000000000,"state":"active","ping":68},{"user_id":129,"name":"genius of love","steam_id":76561198282764599,"connected_time":632000000000,"state":"active","ping":44},{"user_id":125,"name":"Scrumpy Main","steam_id":76561198146302597,"connected_time":1095000000000,"state":"active","ping":45},{"user_id":141,"name":"THE CUMEST LORD","steam_id":76561198061412592,"connected_time":185000000000,"state":"active","ping":83},{"user_id":136,"name":"Toxic Ron","steam_id":76561198089302972,"connected_time":369000000000,"state":"active","ping":61},{"user_id":149,"name":"Gustavo Fring","steam_id":76561198132807405,"connected_time":4000000000,"state":"spawning","ping":84},{"user_id":51,"name":"coms","steam_id":76561198359456881,"connected_time":5140000000000,"state":"active","ping":46},{"user_id":137,"name":"Mog","steam_id":76561198025575870,"connected_time":368000000000,"state":"active","ping":52},{"user_id":122,"name":"NvAka","steam_id":76561199044781490,"connected_time":1258000000000,"state":"active","ping":55},{"user_id":116,"name":"Zimil","steam_id":76561199187045818,"connected_time":1683000000000,"state":"active","ping":95},{"user_id":121,"name":"Hamz","steam_id":76561199287459211,"connected_time":1380000000000,"state":"active","ping":74},{"user_id":138,"name":"ThePizzaBoy","steam_id":76561198275797198,"connected_time":362000000000,"state":"active","ping":68},{"user_id":40,"name":"yoodle doodle","steam_id":76561198054897884,"connected_time":5724000000000,"state":"active","ping":70},{"user_id":128,"name":"OddSlaush","steam_id":76561198043898488,"connected_time":720000000000,"state":"active","ping":104},{"user_id":85,"name":"Quark","steam_id":76561198328155605,"connected_time":3050000000000,"state":"active","ping":54},{"user_id":132,"name":"Ojen","steam_id":76561197998414482,"connected_time":404000000000,"state":"active","ping":68},{"user_id":139,"name":"Beepleton The 3rd","steam_id":76561198081466207,"connected_time":317000000000,"state":"active","ping":76},{"user_id":140,"name":"MILKY","steam_id":76561198073114061,"connected_time":259000000000,"state":"active","ping":69},{"user_id":143,"name":"Soupcan","steam_id":76561198012807915,"connected_time":167000000000,"state":"active","ping":82},{"user_id":144,"name":"Vess","steam_id":76561197972587155,"connected_time":156000000000,"state":"active","ping":90},{"user_id":147,"name":"Mr. Meebles","steam_id":76561198309103417,"connected_time":30000000000,"state":"active","ping":82},{"user_id":111,"name":"Doctor_Redstone","steam_id":76561198061947161,"connected_time":1826000000000,"state":"active","ping":100},{"user_id":112,"name":"Hertz","steam_id":76561198245322982,"connected_time":1809000000000,"state":"active","ping":45},{"user_id":148,"name":"Dude","steam_id":76561199058616824,"connected_time":17000000000,"state":"spawning","ping":73}]},{"server_id":403,"name":"Uncletopia | Chicago | 4 | All Maps","name_short":"chi-4","host":"chi-1.us.uncletopia.com","port":27045,"enabled":true,"region":"us-central","cc":"us","latitude":41.881832,"longitude":-87.62318,"reserved":0,"last_update":"0001-01-01T00:00:00Z","name_a2s":"Uncletopia | Chicago | 4 | All Maps","protocol":17,"map":"plr_nightfall_final","folder":"tf","game":"Team Fortress","app_id":440,"player_count":0,"max_players":24,"Bots":0,"server_type":"Dedicated","server_os":"Linux","password":true,"vac":true,"version":"7961495","steam_id":85568392924515193,"keywords":["nocrits","nodmgspread","payload","uncletopia"],"game_id":440,"stv_port":27046,"stv_name":"Uncletopia | Chicago | 4 | All Maps | STV","players":null},{"server_id":36,"name":"Uncletopia | Chicago | 5 | All Maps","name_short":"chi-5","host":"chi-2.us.uncletopia.com","port":27015,"enabled":true,"region":"us-central","cc":"us","latitude":41.881832,"longitude":-87.62318,"reserved":0,"last_update":"0001-01-01T00:00:00Z","name_a2s":"Uncletopia | Chicago | 5 | All Maps","protocol":17,"map":"pl_upward","folder":"tf","game":"Team Fortress","app_id":440,"player_count":24,"max_players":24,"Bots":0,"server_type":"Dedicated","server_os":"Linux","password":true,"vac":true,"version":"7961495","steam_id":85568392924866362,"keywords":["nocrits","nodmgspread","payload","uncletopia"],"game_id":440,"stv_port":27016,"stv_name":"Uncletopia | Chicago | 5 | All Maps | STV","players":[{"user_id":134,"name":"Chezaus","steam_id":76561198317397837,"connected_time":499000000000,"state":"active","ping":80},{"user_id":112,"name":"Andrew","steam_id":76561198070615190,"connected_time":2588000000000,"state":"active","ping":60},{"user_id":105,"name":"0100101101100001011100100110110","steam_id":76561198034028769,"connected_time":3226000000000,"state":"active","ping":64},{"user_id":78,"name":"AkimboAoki","steam_id":76561198158323058,"connected_time":4729000000000,"state":"active","ping":96},{"user_id":95,"name":"1337 _+FUCKNOOBS.ORG -gA- Sy","steam_id":76561199089196165,"connected_time":3335000000000,"state":"active","ping":73},{"user_id":124,"name":"ivan","steam_id":76561199017754044,"connected_time":1468000000000,"state":"active","ping":76},{"user_id":79,"name":"Retro Phoenix","steam_id":76561198077176271,"connected_time":4698000000000,"state":"active","ping":61},{"user_id":97,"name":"Carton","steam_id":76561198989473391,"connected_time":3323000000000,"state":"active","ping":85},{"user_id":64,"name":"[NAME-REDACTED]","steam_id":76561198035682975,"connected_time":5747000000000,"state":"active","ping":71},{"user_id":137,"name":"Bear","steam_id":76561198062949510,"connected_time":117000000000,"state":"active","ping":58},{"user_id":132,"name":"Yeagle","steam_id":76561199086620299,"connected_time":727000000000,"state":"active","ping":78},{"user_id":138,"name":"KidSans77","steam_id":76561198832155955,"connected_time":81000000000,"state":"active","ping":74},{"user_id":109,"name":"cheesebro","steam_id":76561198002072852,"connected_time":2788000000000,"state":"active","ping":99},{"user_id":114,"name":"Minecraft Villager Gaming","steam_id":76561198280321704,"connected_time":2573000000000,"state":"active","ping":73},{"user_id":115,"name":"songcreator","steam_id":76561198076822464,"connected_time":2521000000000,"state":"active","ping":50},{"user_id":88,"name":"Eins","steam_id":76561199030343810,"connected_time":3866000000000,"state":"active","ping":56},{"user_id":139,"name":"DuragGod69","steam_id":76561198067814426,"connected_time":17000000000,"state":"spawning","ping":61},{"user_id":117,"name":"FIREPOW","steam_id":76561198111259720,"connected_time":2485000000000,"state":"active","ping":66},{"user_id":130,"name":"‚í∑‚ì™‚ì™‚ì£‚ì®‚ìí‚ìê‚ìö‚ìî‚ì¢","steam_id":76561198088776421,"connected_time":776000000000,"state":"active","ping":64},{"user_id":135,"name":"CinnamonBoy","steam_id":76561198882330338,"connected_time":466000000000,"state":"active","ping":68},{"user_id":133,"name":"roast pig with apple in mouth","steam_id":76561198051353647,"connected_time":673000000000,"state":"active","ping":63},{"user_id":127,"name":"Stardust","steam_id":76561198169175897,"connected_time":1104000000000,"state":"active","ping":66},{"user_id":136,"name":"Torensz64(But weezer)","steam_id":76561198239036482,"connected_time":227000000000,"state":"active","ping":50},{"user_id":44,"name":"Cyndaquil Fan","steam_id":76561198799205521,"connected_time":6900000000000,"state":"active","ping":76}]},{"server_id":37,"name":"Uncletopia | Chicago | 6 | All Maps","name_short":"chi-6","host":"chi-2.us.uncletopia.com","port":27025,"enabled":true,"region":"us-central","cc":"us","latitude":41.881832,"longitude":-87.62318,"reserved":0,"last_update":"0001-01-01T00:00:00Z","name_a2s":"Uncletopia | Chicago | 6 | All Maps","protocol":17,"map":"pl_frontier_final","folder":"tf","game":"Team Fortress","app_id":440,"player_count":0,"max_players":24,"Bots":0,"server_type":"Dedicated","server_os":"Linux","password":true,"vac":true,"version":"7961495","steam_id":85568392924866363,"keywords":["nocrits","nodmgspread","payload","uncletopia"],"game_id":440,"stv_port":27026,"stv_name":"Uncletopia | Chicago | 6 | All Maps | STV","players":null},{"server_id":38,"name":"Uncletopia | Chicago | 7 | Stopwatch","name_short":"chi-7","host":"chi-2.us.uncletopia.com","port":27035,"enabled":true,"region":"us-central","cc":"us","latitude":41.881832,"longitude":-87.62318,"reserved":0,"last_update":"0001-01-01T00:00:00Z","name_a2s":"Uncletopia | Chicago | 7 | Stopwatch","protocol":17,"map":"cp_process_final","folder":"tf","game":"Team Fortress","app_id":440,"player_count":23,"max_players":24,"Bots":0,"server_type":"Dedicated","server_os":"Linux","password":true,"vac":true,"version":"7961495","steam_id":85568392924866364,"keywords":["cp","nocrits","nodmgspread","uncletopia"],"game_id":440,"stv_port":27036,"stv_name":"Uncletopia | Chicago | 7 | Stopwatch | STV","players":[{"user_id":60,"name":"Huntpk","steam_id":76561198340591674,"connected_time":567000000000,"state":"active","ping":41},{"user_id":68,"name":"4 life","steam_id":76561198175961598,"connected_time":287000000000,"state":"active","ping":113},{"user_id":12,"name":"hello","steam_id":76561198799726010,"connected_time":2660000000000,"state":"active","ping":58},{"user_id":63,"name":"Big Kev","steam_id":76561198058262994,"connected_time":536000000000,"state":"active","ping":47},{"user_id":67,"name":"meme_lad21","steam_id":76561199229567068,"connected_time":387000000000,"state":"active","ping":86},{"user_id":39,"name":"the boi","steam_id":76561198813451249,"connected_time":1119000000000,"state":"active","ping":68},{"user_id":21,"name":"Plunge (orange)","steam_id":76561198454673850,"connected_time":1828000000000,"state":"active","ping":84},{"user_id":17,"name":"raspy","steam_id":76561198027298961,"connected_time":1958000000000,"state":"active","ping":56},{"user_id":64,"name":"Chechens Spotted","steam_id":76561199028910893,"connected_time":476000000000,"state":"active","ping":76},{"user_id":26,"name":"Asterios_Prime","steam_id":76561198816361038,"connected_time":1526000000000,"state":"active","ping":125},{"user_id":53,"name":"Franticraven177","steam_id":76561198334105579,"connected_time":741000000000,"state":"active","ping":86},{"user_id":47,"name":"ume_ybbuhc","steam_id":76561199482149729,"connected_time":826000000000,"state":"active","ping":57},{"user_id":28,"name":"Imanub","steam_id":76561199004541513,"connected_time":1519000000000,"state":"active","ping":86},{"user_id":29,"name":"Tryst","steam_id":76561198141990370,"connected_time":1409000000000,"state":"active","ping":88},{"user_id":69,"name":"Meatyard","steam_id":76561198049896089,"connected_time":195000000000,"state":"active","ping":71},{"user_id":65,"name":"male_07","steam_id":76561198272675825,"connected_time":470000000000,"state":"active","ping":70},{"user_id":55,"name":"Guccini","steam_id":76561198094391395,"connected_time":732000000000,"state":"active","ping":63},{"user_id":56,"name":"Buff Mimic","steam_id":76561198076396749,"connected_time":728000000000,"state":"active","ping":84},{"user_id":57,"name":"PhaserLazer","steam_id":76561198407341298,"connected_time":657000000000,"state":"active","ping":75},{"user_id":66,"name":"exotic fishes","steam_id":76561199046490785,"connected_time":418000000000,"state":"active","ping":62},{"user_id":70,"name":"blargo","steam_id":76561198073304260,"connected_time":5000000000,"state":"spawning","ping":88},{"user_id":41,"name":"Slapass Shitman","steam_id":76561199219852129,"connected_time":1043000000000,"state":"active","ping":175},{"user_id":42,"name":"blaine_ ^dnkrsO_o","steam_id":76561198042444734,"connected_time":1039000000000,"state":"active","ping":73}]},{"server_id":39,"name":"Uncletopia | Chicago | 8 | Community","name_short":"chi-8","host":"chi-2.us.uncletopia.com","port":27045,"enabled":true,"region":"us-central","cc":"us","latitude":41.881832,"longitude":-87.62318,"reserved":0,"last_update":"0001-01-01T00:00:00Z","name_a2s":"Uncletopia | Chicago | 8 | Community","protocol":17,"map":"workshop/koth_trenchfoot_b1a.ugc731436616","folder":"tf","game":"Team Fortress","app_id":440,"player_count":0,"max_players":24,"Bots":0,"server_type":"Dedicated","server_os":"Linux","password":true,"vac":true,"version":"7961495","steam_id":85568392924866365,"keywords":["cp","nocrits","nodmgspread","uncletopia"],"game_id":440,"stv_port":27046,"stv_name":"Uncletopia | Chicago | 8 | Community | STV","players":null},{"server_id":8,"name":"Uncletopia | Dallas | 1 | All Maps","name_short":"dal-1","host":"dal-1.us.uncletopia.com","port":27015,"enabled":true,"region":"us-central","cc":"us","latitude":32.779167,"longitude":-96.80889,"reserved":0,"last_update":"0001-01-01T00:00:00Z","name_a2s":"Uncletopia | Dallas | 1 | All Maps","protocol":17,"map":"pl_upward","folder":"tf","game":"Team Fortress","app_id":440,"player_count":24,"max_players":24,"Bots":0,"server_type":"Dedicated","server_os":"Linux","password":true,"vac":true,"version":"7961495","steam_id":85568392924469986,"keywords":["nocrits","nodmgspread","payload","uncletopia"],"game_id":440,"stv_port":27016,"stv_name":"Uncletopia | Dallas | 1 | All Maps | STV","players":[{"user_id":161,"name":"Karma","steam_id":76561198320530905,"connected_time":174000000000,"state":"active","ping":49},{"user_id":151,"name":"k3ramb1t","steam_id":76561198097880352,"connected_time":1252000000000,"state":"active","ping":100},{"user_id":145,"name":"JohnnyGitGud","steam_id":76561198401455467,"connected_time":1567000000000,"state":"active","ping":98},{"user_id":150,"name":"Trolley","steam_id":76561198106695948,"connected_time":1285000000000,"state":"active","ping":68},{"user_id":118,"name":"A new Player(F2p)","steam_id":76561199388826335,"connected_time":2804000000000,"state":"active","ping":96},{"user_id":167,"name":"Shame","steam_id":76561198100490994,"connected_time":10000000000,"state":"active","ping":105},{"user_id":162,"name":"SilverLife25","steam_id":76561198392015722,"connected_time":173000000000,"state":"active","ping":61},{"user_id":165,"name":"J√§ttelik","steam_id":76561199217014360,"connected_time":49000000000,"state":"spawning","ping":225},{"user_id":163,"name":"Toast","steam_id":76561199243331140,"connected_time":121000000000,"state":"active","ping":93},{"user_id":153,"name":"ScoutBox","steam_id":76561198111539895,"connected_time":1223000000000,"state":"active","ping":76},{"user_id":164,"name":"Japes","steam_id":76561198079625724,"connected_time":103000000000,"state":"active","ping":101},{"user_id":114,"name":"WeegeePJ","steam_id":76561199383362382,"connected_time":2951000000000,"state":"active","ping":91},{"user_id":166,"name":"deathbringer22","steam_id":76561198318466600,"connected_time":43000000000,"state":"spawning","ping":77},{"user_id":131,"name":"JtsRes","steam_id":76561197994809241,"connected_time":2132000000000,"state":"active","ping":60},{"user_id":140,"name":"a Salty Individual","steam_id":76561197979951077,"connected_time":1848000000000,"state":"active","ping":128},{"user_id":148,"name":"AttackCommander","steam_id":76561198111522679,"connected_time":1468000000000,"state":"active","ping":57},{"user_id":133,"name":"Lovedaddy","steam_id":76561198006569710,"connected_time":2084000000000,"state":"active","ping":103},{"user_id":134,"name":"Plato the Battle Philosopher","steam_id":76561198000299187,"connected_time":2082000000000,"state":"active","ping":82},{"user_id":157,"name":"DatReaperBoi","steam_id":76561198374197440,"connected_time":1053000000000,"state":"active","ping":89},{"user_id":136,"name":"Sup m8","steam_id":76561198081659121,"connected_time":2046000000000,"state":"active","ping":43},{"user_id":137,"name":"Shemk","steam_id":76561198201593238,"connected_time":2043000000000,"state":"active","ping":83},{"user_id":64,"name":"MeMyBongusAndTheGreatOutdoors","steam_id":76561198097708978,"connected_time":6378000000000,"state":"active","ping":52},{"user_id":155,"name":"Mayo_","steam_id":76561198289375121,"connected_time":1218000000000,"state":"active","ping":65},{"user_id":160,"name":"Mehman","steam_id":76561199020244051,"connected_time":360000000000,"state":"active","ping":101}]},{"server_id":108,"name":"Uncletopia | Dallas | 2 | All Maps","name_short":"dal-2","host":"dal-1.us.uncletopia.com","port":27025,"enabled":true,"region":"us-central","cc":"us","latitude":32.779167,"longitude":-96.80889,"reserved":0,"last_update":"0001-01-01T00:00:00Z","name_a2s":"Uncletopia | Dallas | 2 | All Maps","protocol":17,"map":"pl_upward","folder":"tf","game":"Team Fortress","app_id":440,"player_count":24,"max_players":24,"Bots":0,"server_type":"Dedicated","server_os":"Linux","password":true,"vac":true,"version":"7961495","steam_id":85568392924469988,"keywords":["nocrits","nodmgspread","payload","uncletopia"],"game_id":440,"stv_port":27026,"stv_name":"Uncletopia | Dallas | 2 | All Maps | STV","players":[{"user_id":411,"name":"Warriorbuilds3","steam_id":76561199214713674,"connected_time":1539000000000,"state":"active","ping":93},{"user_id":403,"name":"Tommy Provolone","steam_id":76561198170062377,"connected_time":2339000000000,"state":"active","ping":67},{"user_id":390,"name":"The Lightweb Assassin","steam_id":76561198130825457,"connected_time":3142000000000,"state":"active","ping":107},{"user_id":383,"name":"|Wyman|","steam_id":76561199013124535,"connected_time":4086000000000,"state":"active","ping":71},{"user_id":410,"name":"B.","steam_id":76561198040445907,"connected_time":1767000000000,"state":"active","ping":74},{"user_id":354,"name":"Mr. Beast","steam_id":76561198449789858,"connected_time":6094000000000,"state":"active","ping":103},{"user_id":392,"name":"Nicktime","steam_id":76561198212315465,"connected_time":3134000000000,"state":"active","ping":92},{"user_id":416,"name":"FERAL JESUS","steam_id":76561197982917950,"connected_time":1054000000000,"state":"active","ping":102},{"user_id":425,"name":"Your Dad‚Ñ¢","steam_id":76561198254739340,"connected_time":402000000000,"state":"active","ping":96},{"user_id":418,"name":"GVL Rockhead","steam_id":76561197995196535,"connected_time":996000000000,"state":"active","ping":96},{"user_id":393,"name":"Redja","steam_id":76561198075009586,"connected_time":3096000000000,"state":"active","ping":76},{"user_id":412,"name":"StormyBoyo","steam_id":76561198273482774,"connected_time":1514000000000,"state":"active","ping":104},{"user_id":427,"name":"Tribute","steam_id":76561198081594043,"connected_time":327000000000,"state":"active","ping":55},{"user_id":420,"name":"Alf Creepypasta","steam_id":76561198841844093,"connected_time":991000000000,"state":"active","ping":79},{"user_id":421,"name":"K2f","steam_id":76561198049600563,"connected_time":983000000000,"state":"active","ping":75},{"user_id":430,"name":"Kondha","steam_id":76561198084588336,"connected_time":135000000000,"state":"active","ping":43},{"user_id":429,"name":"Lunaul","steam_id":76561198169208358,"connected_time":203000000000,"state":"active","ping":79},{"user_id":413,"name":"Blue‚õßMelon","steam_id":76561197970926435,"connected_time":1510000000000,"state":"active","ping":96},{"user_id":395,"name":"Lost","steam_id":76561198025933206,"connected_time":3045000000000,"state":"active","ping":59},{"user_id":369,"name":"Humwrecker","steam_id":76561199003607331,"connected_time":5451000000000,"state":"active","ping":90},{"user_id":366,"name":"muck","steam_id":76561198120437909,"connected_time":5867000000000,"state":"active","ping":43},{"user_id":422,"name":"‚ôú‚ô•Serious Pisces‚ô•‚ôú","steam_id":76561198096129873,"connected_time":971000000000,"state":"active","ping":98},{"user_id":414,"name":"Fightin Cow","steam_id":76561198080941486,"connected_time":1497000000000,"state":"active","ping":65},{"user_id":424,"name":"a singular cactus","steam_id":76561198162041422,"connected_time":417000000000,"state":"active","ping":75}]},{"server_id":404,"name":"Uncletopia | Dallas | 3 | All Maps","name_short":"dal-3","host":"dal-1.us.uncletopia.com","port":27035,"enabled":true,"region":"us-central","cc":"us","latitude":32.779167,"longitude":-96.80889,"reserved":0,"last_update":"0001-01-01T00:00:00Z","name_a2s":"Uncletopia | Dallas | 3 | All Maps","protocol":17,"map":"cp_process_final","folder":"tf","game":"Team Fortress","app_id":440,"player_count":0,"max_players":24,"Bots":0,"server_type":"Dedicated","server_os":"Linux","password":true,"vac":true,"version":"7961495","steam_id":85568392924515219,"keywords":["cp","nocrits","nodmgspread","uncletopia"],"game_id":440,"stv_port":27036,"stv_name":"Uncletopia | Dallas | 3 | All Maps | STV","players":null},{"server_id":405,"name":"Uncletopia | Dallas | 4 | Community","name_short":"dal-4","host":"dal-1.us.uncletopia.com","port":27045,"enabled":true,"region":"us-central","cc":"us","latitude":32.779167,"longitude":-96.80889,"reserved":0,"last_update":"0001-01-01T00:00:00Z","name_a2s":"Uncletopia | Dallas | 4 | Community","protocol":17,"map":"pl_pier","folder":"tf","game":"Team Fortress","app_id":440,"player_count":0,"max_players":24,"Bots":0,"server_type":"Dedicated","server_os":"Linux","password":true,"vac":true,"version":"7961495","steam_id":85568392924515220,"keywords":["nocrits","nodmgspread","payload","uncletopia"],"game_id":440,"stv_port":27046,"stv_name":"Uncletopia | Dallas | 4 | Community | STV","players":null},{"server_id":5,"name":"Uncletopia | Frankfurt | 1 | All Maps","name_short":"frk-1","host":"frk-1.de.uncletopia.com","port":27015,"enabled":true,"region":"eu","cc":"de","latitude":50.110924,"longitude":8.682127,"reserved":0,"last_update":"0001-01-01T00:00:00Z","name_a2s":"Uncletopia | Frankfurt | 1 | All Maps","protocol":17,"map":"koth_highpass","folder":"tf","game":"Team Fortress","app_id":440,"player_count":0,"max_players":24,"Bots":0,"server_type":"Dedicated","server_os":"Linux","password":true,"vac":true,"version":"7961495","steam_id":85568392924469989,"keywords":["cp","nocrits","nodmgspread","uncletopia"],"game_id":440,"stv_port":27016,"stv_name":"Uncletopia | Frankfurt | 1 | All Maps | STV","players":null},{"server_id":110,"name":"Uncletopia | Frankfurt | 2 | All Maps","name_short":"frk-2","host":"frk-1.de.uncletopia.com","port":27025,"enabled":true,"region":"eu","cc":"de","latitude":50.110924,"longitude":8.682127,"reserved":0,"last_update":"0001-01-01T00:00:00Z","name_a2s":"Uncletopia | Frankfurt | 2 | All Maps","protocol":17,"map":"cp_dustbowl","folder":"tf","game":"Team Fortress","app_id":440,"player_count":6,"max_players":24,"Bots":0,"server_type":"Dedicated","server_os":"Linux","password":true,"vac":true,"version":"7961495","steam_id":85568392924469990,"keywords":["cp","nocrits","nodmgspread","uncletopia"],"game_id":440,"stv_port":27026,"stv_name":"Uncletopia | Frankfurt | 2 | All Maps | STV","players":[{"user_id":617,"name":"PapaMaxy","steam_id":76561198256362726,"connected_time":352000000000,"state":"active","ping":74},{"user_id":612,"name":"john stick","steam_id":76561198165998678,"connected_time":1017000000000,"state":"active","ping":60},{"user_id":613,"name":"berraquin.yt","steam_id":76561199293207226,"connected_time":936000000000,"state":"active","ping":76},{"user_id":615,"name":"F2","steam_id":76561198203043307,"connected_time":762000000000,"state":"active","ping":101},{"user_id":618,"name":"Roxy_Joestar","steam_id":76561199122275646,"connected_time":292000000000,"state":"active","ping":101},{"user_id":620,"name":"maiden gaming","steam_id":76561198197890458,"connected_time":249000000000,"state":"active","ping":142}]},{"server_id":308,"name":"Uncletopia | Frankfurt | 3 | All Maps","name_short":"frk-3","host":"frk-1.de.uncletopia.com","port":27035,"enabled":true,"region":"eu","cc":"de","latitude":50.110924,"longitude":8.682127,"reserved":0,"last_update":"0001-01-01T00:00:00Z","name_a2s":"Uncletopia | Frankfurt | 3 | All Maps","protocol":17,"map":"pl_pier","folder":"tf","game":"Team Fortress","app_id":440,"player_count":24,"max_players":24,"Bots":0,"server_type":"Dedicated","server_os":"Linux","password":true,"vac":true,"version":"7961495","steam_id":85568392924504274,"keywords":["nocrits","nodmgspread","payload","uncletopia"],"game_id":440,"stv_port":27036,"stv_name":"Uncletopia | Frankfurt | 3 | All Maps | STV","players":[{"user_id":298,"name":"Alice_Neko","steam_id":76561198411388911,"connected_time":11601000000000,"state":"active","ping":116},{"user_id":395,"name":"Gioni","steam_id":76561198395912581,"connected_time":5509000000000,"state":"active","ping":109},{"user_id":457,"name":"Benzo Fury","steam_id":76561198025259336,"connected_time":364000000000,"state":"active","ping":60},{"user_id":444,"name":"Abbplutt","steam_id":76561198121678429,"connected_time":1697000000000,"state":"active","ping":76},{"user_id":450,"name":"Chara","steam_id":76561198301573369,"connected_time":701000000000,"state":"active","ping":73},{"user_id":363,"name":"Fox","steam_id":76561198052541711,"connected_time":7119000000000,"state":"active","ping":60},{"user_id":448,"name":"xXxBubuKiki69xXx","steam_id":76561198046187065,"connected_time":1106000000000,"state":"active","ping":68},{"user_id":446,"name":"Vectillion","steam_id":76561198074292454,"connected_time":1436000000000,"state":"active","ping":72},{"user_id":451,"name":"Bigpapa69","steam_id":76561198962400711,"connected_time":697000000000,"state":"active","ping":75},{"user_id":445,"name":"my mom","steam_id":76561199225201569,"connected_time":1641000000000,"state":"active","ping":145},{"user_id":436,"name":"Federal Republic Of Yugoslavia","steam_id":76561198883033062,"connected_time":2396000000000,"state":"active","ping":85},{"user_id":458,"name":"Flashback","steam_id":76561197973978552,"connected_time":167000000000,"state":"active","ping":63},{"user_id":452,"name":"BigDaddy420","steam_id":76561198902509474,"connected_time":694000000000,"state":"active","ping":44},{"user_id":418,"name":"twpsyn","steam_id":76561198057121917,"connected_time":3248000000000,"state":"active","ping":74},{"user_id":453,"name":"Solima","steam_id":76561198045349099,"connected_time":684000000000,"state":"active","ping":46},{"user_id":422,"name":"alcoholic 7blak","steam_id":76561198078928120,"connected_time":3110000000000,"state":"active","ping":87},{"user_id":431,"name":"_420_StopItDudeCmon","steam_id":76561197997146481,"connected_time":2666000000000,"state":"active","ping":65},{"user_id":454,"name":"ScaryTree","steam_id":76561199384362833,"connected_time":679000000000,"state":"active","ping":68},{"user_id":460,"name":"Zero (Orbital Gear Mastermind)","steam_id":76561198017416816,"connected_time":2000000000,"state":"spawning","ping":56},{"user_id":435,"name":"Archive","steam_id":76561198071255385,"connected_time":2485000000000,"state":"active","ping":88},{"user_id":384,"name":"Scottish Fox","steam_id":76561198052990270,"connected_time":6555000000000,"state":"active","ping":60},{"user_id":455,"name":"Avarus","steam_id":76561198040324008,"connected_time":663000000000,"state":"active","ping":61},{"user_id":459,"name":"Lukas","steam_id":76561198009118452,"connected_time":132000000000,"state":"active","ping":66},{"user_id":440,"name":"Dyld","steam_id":76561197979603871,"connected_time":2049000000000,"state":"active","ping":60}]},{"server_id":309,"name":"Uncletopia | Frankfurt | 4 | All Maps","name_short":"frk-4","host":"frk-1.de.uncletopia.com","port":27045,"enabled":true,"region":"eu","cc":"de","latitude":50.110924,"longitude":8.682127,"reserved":0,"last_update":"0001-01-01T00:00:00Z","name_a2s":"Uncletopia | Frankfurt | 4 | All Maps","protocol":17,"map":"pl_thundermountain","folder":"tf","game":"Team Fortress","app_id":440,"player_count":19,"max_players":24,"Bots":0,"server_type":"Dedicated","server_os":"Linux","password":true,"vac":true,"version":"7961495","steam_id":85568392924504275,"keywords":["nocrits","nodmgspread","payload","uncletopia"],"game_id":440,"stv_port":27046,"stv_name":"Uncletopia | Frankfurt | 4 | All Maps | STV","players":[{"user_id":531,"name":"‚Ä† Miakolla ‚Ä†","steam_id":76561198819585997,"connected_time":1659000000000,"state":"active","ping":108},{"user_id":539,"name":"Sommelier_","steam_id":76561198354180808,"connected_time":1171000000000,"state":"active","ping":75},{"user_id":536,"name":"Burpman","steam_id":76561198022897937,"connected_time":1379000000000,"state":"active","ping":52},{"user_id":527,"name":"Baklava Enjoyer","steam_id":76561198990679631,"connected_time":1756000000000,"state":"active","ping":74},{"user_id":463,"name":"draingangfan0465069500","steam_id":76561198219945364,"connected_time":5181000000000,"state":"active","ping":78},{"user_id":544,"name":"R@DIO","steam_id":76561197995533046,"connected_time":584000000000,"state":"active","ping":77},{"user_id":503,"name":"Itai","steam_id":76561198804555329,"connected_time":3277000000000,"state":"active","ping":101},{"user_id":493,"name":"r06u3","steam_id":76561198254099253,"connected_time":3588000000000,"state":"active","ping":163},{"user_id":549,"name":"Mason Troy Adams (Real)","steam_id":76561198310010748,"connected_time":49000000000,"state":"active","ping":64},{"user_id":537,"name":"Femboy Gaming","steam_id":76561198174108515,"connected_time":1350000000000,"state":"active","ping":45},{"user_id":523,"name":"Sir Sandvich","steam_id":76561198213908089,"connected_time":1880000000000,"state":"active","ping":76},{"user_id":546,"name":"‚àí‚Ä¢‚àí‚Ä¢ ‚Ä¢‚àí ‚àí","steam_id":76561198139398425,"connected_time":523000000000,"state":"active","ping":86},{"user_id":548,"name":"Ye","steam_id":76561198354719262,"connected_time":144000000000,"state":"active","ping":72},{"user_id":497,"name":"Kollegvla","steam_id":76561198058268742,"connected_time":3403000000000,"state":"active","ping":57},{"user_id":517,"name":"Û†Å≥‚Åß‚Åß Kruthal","steam_id":76561198245726582,"connected_time":2444000000000,"state":"active","ping":75},{"user_id":541,"name":"Max","steam_id":76561198138959361,"connected_time":835000000000,"state":"active","ping":45},{"user_id":534,"name":"tone","steam_id":76561197975301462,"connected_time":1560000000000,"state":"active","ping":87},{"user_id":500,"name":"LordMarmelade","steam_id":76561198055055118,"connected_time":3387000000000,"state":"active","ping":54},{"user_id":485,"name":"BONK","steam_id":76561199120275042,"connected_time":4421000000000,"state":"active","ping":52}]},{"server_id":310,"name":"Uncletopia | Frankfurt | 5 | All Maps","name_short":"frk-5","host":"frk-1.de.uncletopia.com","port":27055,"enabled":true,"region":"eu","cc":"de","latitude":50.110924,"longitude":8.682127,"reserved":0,"last_update":"0001-01-01T00:00:00Z","name_a2s":"Uncletopia | Frankfurt | 5 | All Maps","protocol":17,"map":"pl_upward","folder":"tf","game":"Team Fortress","app_id":440,"player_count":24,"max_players":24,"Bots":0,"server_type":"Dedicated","server_os":"Linux","password":true,"vac":true,"version":"7961495","steam_id":85568392924504277,"keywords":["nocrits","nodmgspread","payload","uncletopia"],"game_id":440,"stv_port":27056,"stv_name":"Uncletopia | Frankfurt | 5 | All Maps | STV","players":[{"user_id":634,"name":"hawkblob","steam_id":76561198803720565,"connected_time":821000000000,"state":"active","ping":75},{"user_id":586,"name":"Nag","steam_id":76561197970488206,"connected_time":4251000000000,"state":"active","ping":75},{"user_id":636,"name":"thorstianer","steam_id":76561199090304505,"connected_time":740000000000,"state":"active","ping":60},{"user_id":623,"name":"üòà COCKDESTROYER üòà","steam_id":76561198042846999,"connected_time":1533000000000,"state":"active","ping":63},{"user_id":605,"name":"Mach","steam_id":76561198952487564,"connected_time":2399000000000,"state":"active","ping":139},{"user_id":595,"name":"Kn√∂sta","steam_id":76561198143422139,"connected_time":3078000000000,"state":"active","ping":97},{"user_id":616,"name":"bean","steam_id":76561198161013815,"connected_time":1899000000000,"state":"active","ping":60},{"user_id":614,"name":"Zzziiighghmuund","steam_id":76561198798167787,"connected_time":1951000000000,"state":"active","ping":68},{"user_id":594,"name":"Astral1ty","steam_id":76561198035287995,"connected_time":3094000000000,"state":"active","ping":79},{"user_id":635,"name":"[\u003e\u003c] OTP Uncle Sam","steam_id":76561198186666399,"connected_time":762000000000,"state":"active","ping":75},{"user_id":607,"name":"Dr Condom","steam_id":76561198378657692,"connected_time":2378000000000,"state":"active","ping":60},{"user_id":597,"name":"sloppy transgirl toppy","steam_id":76561198057092208,"connected_time":3040000000000,"state":"active","ping":60},{"user_id":637,"name":"DarthPaul8181","steam_id":76561198373050455,"connected_time":739000000000,"state":"active","ping":66},{"user_id":612,"name":"Laki","steam_id":76561198126078953,"connected_time":1973000000000,"state":"active","ping":111},{"user_id":631,"name":"rez777ka","steam_id":76561198107605938,"connected_time":879000000000,"state":"active","ping":79},{"user_id":642,"name":"A Sandvich","steam_id":76561198210140053,"connected_time":622000000000,"state":"active","ping":160},{"user_id":628,"name":"bowchika wowa #SlavaUkraine","steam_id":76561198159564550,"connected_time":898000000000,"state":"active","ping":70},{"user_id":638,"name":"Fnutek","steam_id":76561198082168552,"connected_time":738000000000,"state":"active","ping":59},{"user_id":639,"name":"OTP ¬∞Roticher","steam_id":76561198194559879,"connected_time":724000000000,"state":"active","ping":46},{"user_id":624,"name":"hichem","steam_id":76561198056197307,"connected_time":1361000000000,"state":"active","ping":57},{"user_id":640,"name":"thekoolest88","steam_id":76561199022415672,"connected_time":714000000000,"state":"active","ping":143},{"user_id":641,"name":"Star in a pond","steam_id":76561198205501279,"connected_time":711000000000,"state":"active","ping":90},{"user_id":609,"name":"Curlew","steam_id":76561198075884540,"connected_time":2347000000000,"state":"active","ping":87},{"user_id":630,"name":"Bobo","steam_id":76561198052308399,"connected_time":885000000000,"state":"active","ping":62}]},{"server_id":311,"name":"Uncletopia | Frankfurt | 6 | All Maps","name_short":"frk-6","host":"frk-1.de.uncletopia.com","port":27065,"enabled":true,"region":"eu","cc":"de","latitude":50.110924,"longitude":8.682127,"reserved":0,"last_update":"0001-01-01T00:00:00Z","name_a2s":"Uncletopia | Frankfurt | 6 | All Maps","protocol":17,"map":"koth_viaduct","folder":"tf","game":"Team Fortress","app_id":440,"player_count":2,"max_players":24,"Bots":0,"server_type":"Dedicated","server_os":"Linux","password":true,"vac":true,"version":"7961495","steam_id":85568392924504278,"keywords":["cp","nocrits","nodmgspread","uncletopia"],"game_id":440,"stv_port":27066,"stv_name":"Uncletopia | Frankfurt | 6 | All Maps | STV","players":[{"user_id":427,"name":"SnipeX_PC","steam_id":76561199149331583,"connected_time":2773000000000,"state":"active","ping":107},{"user_id":428,"name":"PopxCpe","steam_id":76561198365405733,"connected_time":2743000000000,"state":"active","ping":121}]},{"server_id":23,"name":"Uncletopia | Frankfurt | 7 | Stopwatch","name_short":"frk-7","host":"frk-1.de.uncletopia.com","port":27075,"enabled":true,"region":"eu","cc":"de","latitude":50.110924,"longitude":8.682127,"reserved":0,"last_update":"0001-01-01T00:00:00Z","name_a2s":"Uncletopia | Frankfurt | 7 | Stopwatch","protocol":17,"map":"workshop/koth_ashville_final.ugc2130459942","folder":"tf","game":"Team Fortress","app_id":440,"player_count":0,"max_players":24,"Bots":0,"server_type":"Dedicated","server_os":"Linux","password":true,"vac":true,"version":"7961495","steam_id":85568392924742827,"keywords":["cp","nocrits","nodmgspread","uncletopia"],"game_id":440,"stv_port":27076,"stv_name":"Uncletopia | Frankfurt | 7 | Stopwatch | STV","players":null},{"server_id":24,"name":"Uncletopia | Frankfurt | 8 | Community","name_short":"frk-8","host":"frk-1.de.uncletopia.com","port":27085,"enabled":true,"region":"eu","cc":"de","latitude":50.110924,"longitude":8.682127,"reserved":0,"last_update":"0001-01-01T00:00:00Z","name_a2s":"Uncletopia | Frankfurt | 8 | Community","protocol":17,"map":"workshop/koth_bagel_rc6.ugc2514036946","folder":"tf","game":"Team Fortress","app_id":440,"player_count":24,"max_players":24,"Bots":0,"server_type":"Dedicated","server_os":"Linux","password":true,"vac":true,"version":"7961495","steam_id":85568392924742828,"keywords":["cp","nocrits","nodmgspread","uncletopia"],"game_id":440,"stv_port":27086,"stv_name":"Uncletopia | Frankfurt | 8 | Community | STV","players":[{"user_id":242,"name":"KODE","steam_id":76561198053212394,"connected_time":1808000000000,"state":"active","ping":63},{"user_id":231,"name":"mercenarypit","steam_id":76561198161935108,"connected_time":2649000000000,"state":"active","ping":46},{"user_id":240,"name":"CiVillain","steam_id":76561198059617732,"connected_time":1854000000000,"state":"active","ping":58},{"user_id":221,"name":"7 7","steam_id":76561198190663138,"connected_time":2866000000000,"state":"active","ping":104},{"user_id":252,"name":"poot poot","steam_id":76561198339407686,"connected_time":1355000000000,"state":"active","ping":46},{"user_id":232,"name":"MrTheend","steam_id":76561198440455753,"connected_time":2575000000000,"state":"active","ping":78},{"user_id":236,"name":"Piteras","steam_id":76561198858532207,"connected_time":2481000000000,"state":"active","ping":73},{"user_id":247,"name":"Mak≈Çowicz","steam_id":76561198281831506,"connected_time":1618000000000,"state":"active","ping":76},{"user_id":241,"name":"SPONGE","steam_id":76561198040933472,"connected_time":1827000000000,"state":"active","ping":60},{"user_id":219,"name":"MastahDizzy","steam_id":76561198123024093,"connected_time":3167000000000,"state":"active","ping":49},{"user_id":223,"name":"yoni 1234","steam_id":76561199055361690,"connected_time":2830000000000,"state":"active","ping":114},{"user_id":256,"name":"Jetstream Samuel Beckett","steam_id":76561198072017971,"connected_time":1153000000000,"state":"active","ping":60},{"user_id":206,"name":"mud","steam_id":76561198141497461,"connected_time":4532000000000,"state":"active","ping":65},{"user_id":257,"name":"mush","steam_id":76561198310089797,"connected_time":1103000000000,"state":"active","ping":175},{"user_id":224,"name":"Mc Cheezy","steam_id":76561198834780242,"connected_time":2820000000000,"state":"active","ping":102},{"user_id":244,"name":"HaylingZar","steam_id":76561198053559897,"connected_time":1799000000000,"state":"active","ping":72},{"user_id":253,"name":"Ragnakai","steam_id":76561198232730536,"connected_time":1349000000000,"state":"active","ping":108},{"user_id":254,"name":"Trench","steam_id":76561198948351242,"connected_time":1334000000000,"state":"active","ping":63},{"user_id":258,"name":"Rectal Nectar","steam_id":76561198077975012,"connected_time":1072000000000,"state":"active","ping":59},{"user_id":250,"name":"We are in a world of magic","steam_id":76561198104745492,"connected_time":1492000000000,"state":"active","ping":74},{"user_id":208,"name":"dum","steam_id":76561198053386482,"connected_time":4522000000000,"state":"active","ping":158},{"user_id":259,"name":"Profesorius Kalƒódauskas","steam_id":76561198078263504,"connected_time":1032000000000,"state":"active","ping":58},{"user_id":266,"name":"joachym","steam_id":76561198428579761,"connected_time":399000000000,"state":"active","ping":56},{"user_id":265,"name":"the meta","steam_id":76561199071495058,"connected_time":751000000000,"state":"active","ping":134}]},{"server_id":202,"name":"Uncletopia | Hong Kong | 1 | All Maps","name_short":"hgk-1","host":"hgk-1.hk.uncletopia.com","port":27015,"enabled":true,"region":"asia","cc":"hk","latitude":22.302711,"longitude":114.177216,"reserved":0,"last_update":"0001-01-01T00:00:00Z","name_a2s":"Uncletopia | Hong Kong | 1 | All Maps","protocol":17,"map":"cp_mountainlab","folder":"tf","game":"Team Fortress","app_id":440,"player_count":0,"max_players":24,"Bots":0,"server_type":"Dedicated","server_os":"Linux","password":true,"vac":true,"version":"7961495","steam_id":85568392924494504,"keywords":["cp","nocrits","nodmgspread","uncletopia"],"game_id":440,"stv_port":27016,"stv_name":"Uncletopia | Hong Kong | 1 | All Maps | STV","players":null},{"server_id":1,"name":"Uncletopia | Los Angeles | 1 | All Maps","name_short":"lax-1","host":"lax-1.us.uncletopia.com","port":27015,"enabled":true,"region":"us-west","cc":"us","latitude":33.94279,"longitude":-118.41004,"reserved":0,"last_update":"0001-01-01T00:00:00Z","name_a2s":"Uncletopia | Los Angeles | 1 | All Maps","protocol":17,"map":"pl_badwater","folder":"tf","game":"Team Fortress","app_id":440,"player_count":3,"max_players":24,"Bots":0,"server_type":"Dedicated","server_os":"Linux","password":true,"vac":true,"version":"7961495","steam_id":85568392924469991,"keywords":["nocrits","nodmgspread","payload","uncletopia"],"game_id":440,"stv_port":27016,"stv_name":"Uncletopia | Los Angeles | 1 | All Maps | STV","players":[{"user_id":8,"name":"StrayGuitarist","steam_id":76561198091315714,"connected_time":992000000000,"state":"active","ping":41},{"user_id":9,"name":"SunsetFelid","steam_id":76561198102136531,"connected_time":969000000000,"state":"active","ping":77},{"user_id":10,"name":"We really can't get much higher","steam_id":76561198160552593,"connected_time":13000000000,"state":"spawning","ping":40}]},{"server_id":112,"name":"Uncletopia | Los Angeles | 2 | All Maps","name_short":"lax-2","host":"lax-1.us.uncletopia.com","port":27025,"enabled":true,"region":"us-west","cc":"us","latitude":33.94279,"longitude":-118.41004,"reserved":0,"last_update":"0001-01-01T00:00:00Z","name_a2s":"Uncletopia | Los Angeles | 2 | All Maps","protocol":17,"map":"cp_powerhouse","folder":"tf","game":"Team Fortress","app_id":440,"player_count":24,"max_players":24,"Bots":0,"server_type":"Dedicated","server_os":"Linux","password":true,"vac":true,"version":"7961495","steam_id":85568392924469992,"keywords":["cp","nocrits","nodmgspread","uncletopia"],"game_id":440,"stv_port":27026,"stv_name":"Uncletopia | Los Angeles | 2 | All Maps | STV","players":[{"user_id":187,"name":"creativ??","steam_id":76561199132356874,"connected_time":1519000000000,"state":"active","ping":87},{"user_id":193,"name":"ThePirateKenway","steam_id":76561198115156181,"connected_time":462000000000,"state":"active","ping":75},{"user_id":195,"name":"Borgor Boi","steam_id":76561199061388107,"connected_time":126000000000,"state":"active","ping":72},{"user_id":170,"name":"„Ç≠„Éü„É≥","steam_id":76561198263393063,"connected_time":2702000000000,"state":"active","ping":98},{"user_id":178,"name":"Lock'd","steam_id":76561198170108230,"connected_time":2108000000000,"state":"active","ping":43},{"user_id":188,"name":"SadChicken Œª","steam_id":76561198082458968,"connected_time":1489000000000,"state":"active","ping":62},{"user_id":174,"name":"the fool","steam_id":76561198133933158,"connected_time":2317000000000,"state":"active","ping":43},{"user_id":154,"name":"Nodaymasscare","steam_id":76561199051064272,"connected_time":4654000000000,"state":"active","ping":86},{"user_id":161,"name":"fortzei","steam_id":76561198210920541,"connected_time":3804000000000,"state":"active","ping":66},{"user_id":172,"name":"Always Here for You","steam_id":76561198219252313,"connected_time":2455000000000,"state":"active","ping":105},{"user_id":184,"name":"Jubtice","steam_id":76561198995538396,"connected_time":1909000000000,"state":"active","ping":190},{"user_id":166,"name":"Reem0h","steam_id":76561198169848690,"connected_time":3061000000000,"state":"active","ping":113},{"user_id":136,"name":"ohmycoffin","steam_id":76561198265200950,"connected_time":5581000000000,"state":"active","ping":85},{"user_id":137,"name":"EpicAlex36o","steam_id":76561198855438458,"connected_time":5573000000000,"state":"active","ping":76},{"user_id":186,"name":"epicWinBoy12","steam_id":76561198133489194,"connected_time":1556000000000,"state":"active","ping":74},{"user_id":185,"name":"luna","steam_id":76561198989318205,"connected_time":1828000000000,"state":"active","ping":57},{"user_id":175,"name":"the beast of utah valley","steam_id":76561198156501004,"connected_time":2235000000000,"state":"active","ping":62},{"user_id":196,"name":"Arrythmia","steam_id":76561198093748123,"connected_time":89000000000,"state":"active","ping":68},{"user_id":176,"name":"kn0n2999","steam_id":76561198249172818,"connected_time":2234000000000,"state":"active","ping":80},{"user_id":192,"name":"mAKO","steam_id":76561198166022879,"connected_time":540000000000,"state":"active","ping":47},{"user_id":191,"name":"millerbv14","steam_id":76561198453908595,"connected_time":886000000000,"state":"active","ping":44},{"user_id":156,"name":"Immortal8Reaper","steam_id":76561198297661559,"connected_time":4442000000000,"state":"active","ping":137},{"user_id":194,"name":"H.","steam_id":76561198074951179,"connected_time":413000000000,"state":"active","ping":80},{"user_id":162,"name":"The_Skull","steam_id":76561198121244647,"connected_time":3803000000000,"state":"active","ping":101}]},{"server_id":324,"name":"Uncletopia | Los Angeles | 3 | All Maps","name_short":"lax-3","host":"lax-1.us.uncletopia.com","port":27035,"enabled":true,"region":"us-west","cc":"us","latitude":33.94279,"longitude":-118.41004,"reserved":0,"last_update":"0001-01-01T00:00:00Z","name_a2s":"Uncletopia | Los Angeles | 3 | All Maps","protocol":17,"map":"koth_viaduct","folder":"tf","game":"Team Fortress","app_id":440,"player_count":0,"max_players":24,"Bots":0,"server_type":"Dedicated","server_os":"Linux","password":true,"vac":true,"version":"7961495","steam_id":85568392924510198,"keywords":["cp","nocrits","nodmgspread","uncletopia"],"game_id":440,"stv_port":27036,"stv_name":"Uncletopia | Los Angeles | 3 | All Maps | STV","players":null},{"server_id":25,"name":"Uncletopia | Los Angeles | 4 | Stopwatch","name_short":"lax-4","host":"lax-1.us.uncletopia.com","port":27045,"enabled":true,"region":"us-west","cc":"us","latitude":33.94279,"longitude":-118.41004,"reserved":0,"last_update":"0001-01-01T00:00:00Z","name_a2s":"Uncletopia | Los Angeles | 4 | Stopwatch","protocol":17,"map":"cp_gullywash_final1","folder":"tf","game":"Team Fortress","app_id":440,"player_count":0,"max_players":24,"Bots":0,"server_type":"Dedicated","server_os":"Linux","password":true,"vac":true,"version":"7961495","steam_id":85568392924510199,"keywords":["cp","nocrits","nodmgspread","uncletopia"],"game_id":440,"stv_port":27046,"stv_name":"Uncletopia | Los Angeles | 4 | Stopwatch | STV","players":null},{"server_id":11,"name":"Uncletopia | London | 1 | All Maps","name_short":"lon-1","host":"lon-1.uk.uncletopia.com","port":27015,"enabled":true,"region":"eu","cc":"gb","latitude":51.509865,"longitude":-0.118092,"reserved":0,"last_update":"0001-01-01T00:00:00Z","name_a2s":"Uncletopia | London | 1 | All Maps","protocol":17,"map":"pl_swiftwater_final1","folder":"tf","game":"Team Fortress","app_id":440,"player_count":24,"max_players":24,"Bots":0,"server_type":"Dedicated","server_os":"Linux","password":true,"vac":true,"version":"7961495","steam_id":85568392924367362,"keywords":["nocrits","nodmgspread","payload","uncletopia"],"game_id":440,"stv_port":27016,"stv_name":"Uncletopia | London | 1 | All Maps | STV","players":[{"user_id":520,"name":"Jon (ebic gamer)","steam_id":76561199380849468,"connected_time":3827000000000,"state":"active","ping":63},{"user_id":532,"name":"AftiksPL","steam_id":76561198875182686,"connected_time":2187000000000,"state":"active","ping":97},{"user_id":510,"name":"Kahvi","steam_id":76561198723244199,"connected_time":5219000000000,"state":"active","ping":89},{"user_id":536,"name":"sora","steam_id":76561198096547662,"connected_time":1780000000000,"state":"active","ping":60},{"user_id":550,"name":"coella","steam_id":76561198442803577,"connected_time":658000000000,"state":"active","ping":73},{"user_id":541,"name":"Daruun","steam_id":76561198019068781,"connected_time":959000000000,"state":"active","ping":80},{"user_id":514,"name":"elwen","steam_id":76561198025282054,"connected_time":3891000000000,"state":"active","ping":73},{"user_id":552,"name":"Redkiller","steam_id":76561199453655288,"connected_time":546000000000,"state":"active","ping":124},{"user_id":469,"name":"After8","steam_id":76561198090750865,"connected_time":7832000000000,"state":"active","ping":67},{"user_id":549,"name":"Prome","steam_id":76561199050383942,"connected_time":857000000000,"state":"active","ping":57},{"user_id":463,"name":"Without warning","steam_id":76561199383437138,"connected_time":8115000000000,"state":"active","ping":162},{"user_id":551,"name":"beebo borfday gorl","steam_id":76561199120277007,"connected_time":567000000000,"state":"active","ping":45},{"user_id":473,"name":"Kphi(i)","steam_id":76561198970587061,"connected_time":7011000000000,"state":"active","ping":59},{"user_id":547,"name":"bAdmon","steam_id":76561197961785793,"connected_time":928000000000,"state":"active","ping":50},{"user_id":538,"name":"‚ôÇ Twink Hunter ‚ôÇ","steam_id":76561198397024973,"connected_time":1143000000000,"state":"active","ping":44},{"user_id":543,"name":"Der_Milchmann","steam_id":76561198001417748,"connected_time":947000000000,"state":"active","ping":72},{"user_id":537,"name":"„ÄéJOE BIDEN„Äè","steam_id":76561198061580505,"connected_time":1403000000000,"state":"active","ping":56},{"user_id":509,"name":"AWildTamim","steam_id":76561198048060652,"connected_time":5249000000000,"state":"active","ping":45},{"user_id":380,"name":"Pantroglodytestherapy","steam_id":76561198236015392,"connected_time":14706000000000,"state":"active","ping":120},{"user_id":515,"name":"KnugenIV","steam_id":76561198127091993,"connected_time":3891000000000,"state":"active","ping":64},{"user_id":488,"name":"Nugget","steam_id":76561198338916407,"connected_time":6010000000000,"state":"active","ping":74},{"user_id":553,"name":"DistantJragon","steam_id":76561198117563641,"connected_time":424000000000,"state":"active","ping":141},{"user_id":554,"name":"Kodama#SaveTF2","steam_id":76561199260499934,"connected_time":352000000000,"state":"active","ping":41},{"user_id":548,"name":"SynthBox3","steam_id":76561199094075745,"connected_time":907000000000,"state":"active","ping":92}]},{"server_id":114,"name":"Uncletopia | London | 2 | All Maps","name_short":"lon-2","host":"lon-1.uk.uncletopia.com","port":27025,"enabled":true,"region":"eu","cc":"gb","latitude":51.509865,"longitude":-0.118092,"reserved":0,"last_update":"0001-01-01T00:00:00Z","name_a2s":"Uncletopia | London | 2 | All Maps","protocol":17,"map":"pl_pier","folder":"tf","game":"Team Fortress","app_id":440,"player_count":24,"max_players":24,"Bots":0,"server_type":"Dedicated","server_os":"Linux","password":true,"vac":true,"version":"7961495","steam_id":85568392924470941,"keywords":["nocrits","nodmgspread","payload","uncletopia"],"game_id":440,"stv_port":27026,"stv_name":"Uncletopia | London | 2 | All Maps | STV","players":[{"user_id":211,"name":"saltdue","steam_id":76561198879405711,"connected_time":1121000000000,"state":"active","ping":73},{"user_id":167,"name":"Skittles","steam_id":76561198024077569,"connected_time":3852000000000,"state":"active","ping":63},{"user_id":175,"name":"Whimsyy","steam_id":76561198065557010,"connected_time":2905000000000,"state":"active","ping":61},{"user_id":185,"name":"Robotomatique","steam_id":76561198354793952,"connected_time":2081000000000,"state":"active","ping":51},{"user_id":209,"name":"Ducks","steam_id":76561198096092510,"connected_time":1416000000000,"state":"active","ping":75},{"user_id":189,"name":"Senator Palpaprotein","steam_id":76561198081980254,"connected_time":1827000000000,"state":"active","ping":45},{"user_id":216,"name":"The Power","steam_id":76561198060566884,"connected_time":617000000000,"state":"active","ping":31},{"user_id":172,"name":"Xyeed","steam_id":76561198055596799,"connected_time":3195000000000,"state":"active","ping":77},{"user_id":193,"name":"Gnarville","steam_id":76561198006373329,"connected_time":1781000000000,"state":"active","ping":54},{"user_id":220,"name":"Kuno","steam_id":76561198120560218,"connected_time":517000000000,"state":"active","ping":72},{"user_id":213,"name":"Popop","steam_id":76561198004793795,"connected_time":1023000000000,"state":"active","ping":47},{"user_id":210,"name":"*Eurobeat Intensifies*","steam_id":76561199019412162,"connected_time":1359000000000,"state":"active","ping":52},{"user_id":191,"name":"TunaaFsh","steam_id":76561198127194010,"connected_time":1823000000000,"state":"active","ping":61},{"user_id":218,"name":"Scipionemiliano","steam_id":76561198027646559,"connected_time":606000000000,"state":"active","ping":126},{"user_id":219,"name":"Duke Nukem Facts!","steam_id":76561199013457963,"connected_time":604000000000,"state":"active","ping":53},{"user_id":192,"name":"absolutely bonkers","steam_id":76561198187073759,"connected_time":1816000000000,"state":"active","ping":55},{"user_id":215,"name":"Rolloden","steam_id":76561198069414404,"connected_time":697000000000,"state":"active","ping":72},{"user_id":202,"name":"The Man Who Couldn't Cook","steam_id":76561198329640236,"connected_time":1600000000000,"state":"active","ping":45},{"user_id":214,"name":"Ptahotep","steam_id":76561198008708645,"connected_time":842000000000,"state":"active","ping":59},{"user_id":204,"name":"[ Louinskii ]","steam_id":76561198060509154,"connected_time":1593000000000,"state":"active","ping":60},{"user_id":174,"name":"√áodar","steam_id":76561198235518444,"connected_time":3038000000000,"state":"active","ping":42},{"user_id":205,"name":"Majsco","steam_id":76561197988710485,"connected_time":1581000000000,"state":"active","ping":47},{"user_id":183,"name":"Schloompa","steam_id":76561198286725629,"connected_time":2252000000000,"state":"active","ping":59},{"user_id":207,"name":"ATOMICBOTTOM","steam_id":76561198114529940,"connected_time":1530000000000,"state":"active","ping":53}]},{"server_id":320,"name":"Uncletopia | London | 3 | All Maps","name_short":"lon-3","host":"lon-1.uk.uncletopia.com","port":27035,"enabled":true,"region":"eu","cc":"gb","latitude":51.509865,"longitude":-0.118092,"reserved":0,"last_update":"0001-01-01T00:00:00Z","name_a2s":"Uncletopia | London | 3 | All Maps","protocol":17,"map":"pl_pier","folder":"tf","game":"Team Fortress","app_id":440,"player_count":24,"max_players":24,"Bots":0,"server_type":"Dedicated","server_os":"Linux","password":true,"vac":true,"version":"7961495","steam_id":85568392924510192,"keywords":["nocrits","nodmgspread","payload","uncletopia"],"game_id":440,"stv_port":27036,"stv_name":"Uncletopia | London | 3 | All Maps | STV","players":[{"user_id":407,"name":"caramelldancin'","steam_id":76561198193357946,"connected_time":2700000000000,"state":"active","ping":100},{"user_id":520,"name":"ROX","steam_id":76561198272289320,"connected_time":109000000000,"state":"active","ping":56},{"user_id":521,"name":"‚ô•ImWithMilk","steam_id":76561198269577569,"connected_time":96000000000,"state":"active","ping":50},{"user_id":489,"name":"Coca162","steam_id":76561198230656540,"connected_time":920000000000,"state":"active","ping":44},{"user_id":522,"name":"Akkie.","steam_id":76561198017619091,"connected_time":89000000000,"state":"active","ping":57},{"user_id":439,"name":"baba wanga","steam_id":76561199083087558,"connected_time":1990000000000,"state":"active","ping":98},{"user_id":492,"name":"NeiroüëΩ·ó©YY ·í™·ó∞·ó©O","steam_id":76561198046743985,"connected_time":889000000000,"state":"active","ping":73},{"user_id":509,"name":"AlfonsoM","steam_id":76561198138832894,"connected_time":509000000000,"state":"active","ping":101},{"user_id":412,"name":"Jeffacakes","steam_id":76561198280101970,"connected_time":2572000000000,"state":"active","ping":62},{"user_id":411,"name":"Toa LightMakuta","steam_id":76561198212178104,"connected_time":2628000000000,"state":"active","ping":75},{"user_id":490,"name":"H2n9","steam_id":76561198055811259,"connected_time":916000000000,"state":"active","ping":56},{"user_id":417,"name":"xoxoxeno","steam_id":76561198019142095,"connected_time":2305000000000,"state":"active","ping":65},{"user_id":491,"name":"Carrotcracker","steam_id":76561198034862396,"connected_time":909000000000,"state":"active","ping":85},{"user_id":385,"name":"Smeople Thrower","steam_id":76561198112128564,"connected_time":3886000000000,"state":"active","ping":79},{"user_id":364,"name":"AnanasGerste","steam_id":76561198133825211,"connected_time":4538000000000,"state":"active","ping":46},{"user_id":523,"name":"Qwerty","steam_id":76561198023525894,"connected_time":48000000000,"state":"active","ping":89},{"user_id":524,"name":"hud_saytext_time 0","steam_id":76561198010327228,"connected_time":6000000000,"state":"spawning","ping":74},{"user_id":498,"name":"Mega Man Legends 3","steam_id":76561198014110199,"connected_time":821000000000,"state":"active","ping":44},{"user_id":511,"name":"NOM","steam_id":76561199059006203,"connected_time":412000000000,"state":"active","ping":161},{"user_id":426,"name":"cz≈Çowiek kolimator","steam_id":76561198128797110,"connected_time":2165000000000,"state":"active","ping":61},{"user_id":435,"name":"Arex","steam_id":76561198289408505,"connected_time":2056000000000,"state":"active","ping":102},{"user_id":513,"name":"Tywhip","steam_id":76561199207545191,"connected_time":376000000000,"state":"active","ping":56},{"user_id":502,"name":"Generic","steam_id":76561198171073018,"connected_time":724000000000,"state":"active","ping":50},{"user_id":518,"name":"Sy","steam_id":76561199495419822,"connected_time":262000000000,"state":"active","ping":69}]},{"server_id":321,"name":"Uncletopia | London | 4 | All Maps","name_short":"lon-4","host":"lon-1.uk.uncletopia.com","port":27045,"enabled":true,"region":"eu","cc":"gb","latitude":51.509865,"longitude":-0.118092,"reserved":0,"last_update":"0001-01-01T00:00:00Z","name_a2s":"Uncletopia | London | 4 | All Maps","protocol":17,"map":"pl_borneo","folder":"tf","game":"Team Fortress","app_id":440,"player_count":23,"max_players":24,"Bots":0,"server_type":"Dedicated","server_os":"Linux","password":true,"vac":true,"version":"7961495","steam_id":85568392924510193,"keywords":["nocrits","nodmgspread","payload","uncletopia"],"game_id":440,"stv_port":27046,"stv_name":"Uncletopia | London | 4 | All Maps | STV","players":[{"user_id":598,"name":"Sholunan","steam_id":76561198062435739,"connected_time":459000000000,"state":"active","ping":59},{"user_id":565,"name":"Koli","steam_id":76561197992428783,"connected_time":2486000000000,"state":"active","ping":59},{"user_id":566,"name":"Kestrel","steam_id":76561198144033005,"connected_time":2462000000000,"state":"active","ping":45},{"user_id":586,"name":"fshfkr","steam_id":76561198095979282,"connected_time":1368000000000,"state":"active","ping":31},{"user_id":604,"name":"Voxiit","steam_id":76561198060319116,"connected_time":321000000000,"state":"active","ping":54},{"user_id":603,"name":"sgt Bytheway","steam_id":76561198094169965,"connected_time":366000000000,"state":"active","ping":72},{"user_id":574,"name":":3","steam_id":76561198169471853,"connected_time":2239000000000,"state":"active","ping":41},{"user_id":549,"name":"Cool Uncle Bean","steam_id":76561199053506366,"connected_time":4539000000000,"state":"active","ping":68},{"user_id":587,"name":"8 Ball","steam_id":76561197960988736,"connected_time":1245000000000,"state":"active","ping":45},{"user_id":570,"name":"RedWater","steam_id":76561198016406576,"connected_time":2298000000000,"state":"active","ping":90},{"user_id":571,"name":"Ash","steam_id":76561198148738525,"connected_time":2275000000000,"state":"active","ping":110},{"user_id":564,"name":"shadow39344","steam_id":76561198090639618,"connected_time":2965000000000,"state":"active","ping":57},{"user_id":584,"name":"Puss in Boots","steam_id":76561198211599767,"connected_time":1702000000000,"state":"active","ping":52},{"user_id":601,"name":"Buns is Sinning","steam_id":76561198342337036,"connected_time":374000000000,"state":"active","ping":70},{"user_id":611,"name":"Thermal Carpet","steam_id":76561198437317694,"connected_time":23000000000,"state":"spawning","ping":46},{"user_id":606,"name":"armadillo","steam_id":76561198324656652,"connected_time":253000000000,"state":"active","ping":53},{"user_id":607,"name":"aww yeah","steam_id":76561197992978878,"connected_time":241000000000,"state":"active","ping":63},{"user_id":593,"name":"reko","steam_id":76561198278020887,"connected_time":582000000000,"state":"active","ping":184},{"user_id":602,"name":"Warped","steam_id":76561197989916494,"connected_time":374000000000,"state":"active","ping":44},{"user_id":608,"name":"ham","steam_id":76561198121434692,"connected_time":240000000000,"state":"active","ping":123},{"user_id":609,"name":"AVOID EVERYONE","steam_id":76561198051852765,"connected_time":224000000000,"state":"active","ping":76},{"user_id":610,"name":"Dave The Sloth","steam_id":76561199135831355,"connected_time":189000000000,"state":"active","ping":62},{"user_id":592,"name":"GoblinGaming","steam_id":76561198360395476,"connected_time":684000000000,"state":"active","ping":52}]},{"server_id":21,"name":"Uncletopia | London | 5 | All Maps","name_short":"lon-5","host":"lon-1.uk.uncletopia.com","port":27055,"enabled":true,"region":"eu","cc":"gb","latitude":51.509865,"longitude":-0.118092,"reserved":0,"last_update":"0001-01-01T00:00:00Z","name_a2s":"Uncletopia | London | 5 | All Maps","protocol":17,"map":"koth_harvest_final","folder":"tf","game":"Team Fortress","app_id":440,"player_count":23,"max_players":24,"Bots":0,"server_type":"Dedicated","server_os":"Linux","password":true,"vac":true,"version":"7961495","steam_id":85568392924742829,"keywords":["cp","nocrits","nodmgspread","uncletopia"],"game_id":440,"stv_port":27056,"stv_name":"Uncletopia | London | 5 | All Maps | STV","players":[{"user_id":487,"name":"Explode¬≥","steam_id":76561198060606780,"connected_time":2274000000000,"state":"active","ping":74},{"user_id":433,"name":"Bajas","steam_id":76561198179339326,"connected_time":5325000000000,"state":"active","ping":75},{"user_id":470,"name":"Rarky","steam_id":76561198054398642,"connected_time":3461000000000,"state":"active","ping":71},{"user_id":482,"name":"Ozzie","steam_id":76561197992915315,"connected_time":2322000000000,"state":"active","ping":74},{"user_id":499,"name":"koham macieja stuhra","steam_id":76561198228941832,"connected_time":823000000000,"state":"active","ping":110},{"user_id":436,"name":"xavier","steam_id":76561198076494034,"connected_time":5198000000000,"state":"active","ping":49},{"user_id":496,"name":"pilot tupolewa","steam_id":76561198354558052,"connected_time":1225000000000,"state":"active","ping":62},{"user_id":498,"name":"il ipe","steam_id":76561198261787284,"connected_time":830000000000,"state":"active","ping":66},{"user_id":466,"name":"Jonno","steam_id":76561198023443744,"connected_time":3696000000000,"state":"active","ping":50},{"user_id":435,"name":"Vershal Smershal","steam_id":76561198116223995,"connected_time":5204000000000,"state":"active","ping":55},{"user_id":497,"name":"fence_","steam_id":76561198150386379,"connected_time":1136000000000,"state":"active","ping":45},{"user_id":441,"name":"sarii ‚òÜ","steam_id":76561199155102111,"connected_time":5062000000000,"state":"active","ping":81},{"user_id":484,"name":"pizzaslayer2000","steam_id":76561199019278412,"connected_time":2285000000000,"state":"active","ping":123},{"user_id":438,"name":"Finn","steam_id":76561198179960193,"connected_time":5178000000000,"state":"active","ping":44},{"user_id":468,"name":"_Starlight_","steam_id":76561197993885738,"connected_time":3508000000000,"state":"active","ping":89},{"user_id":488,"name":"Ch4bby","steam_id":76561198058792875,"connected_time":2259000000000,"state":"active","ping":59},{"user_id":503,"name":"Unch√°rted! „ÉÑ","steam_id":76561198099232257,"connected_time":577000000000,"state":"active","ping":58},{"user_id":500,"name":"Kelesch","steam_id":76561198043938997,"connected_time":818000000000,"state":"active","ping":77},{"user_id":501,"name":"LaserDisc_","steam_id":76561198048461220,"connected_time":793000000000,"state":"active","ping":87},{"user_id":504,"name":"Bineapple","steam_id":76561198983650763,"connected_time":510000000000,"state":"active","ping":52},{"user_id":493,"name":"Nady","steam_id":76561197987691269,"connected_time":1851000000000,"state":"active","ping":89},{"user_id":506,"name":"Maddox","steam_id":76561198026419869,"connected_time":228000000000,"state":"active","ping":74},{"user_id":505,"name":"sareena","steam_id":76561198810194062,"connected_time":321000000000,"state":"active","ping":72}]},{"server_id":22,"name":"Uncletopia | London | 6 | All Maps","name_short":"lon-6","host":"lon-1.uk.uncletopia.com","port":27065,"enabled":true,"region":"eu","cc":"gb","latitude":51.509865,"longitude":-0.118092,"reserved":0,"last_update":"0001-01-01T00:00:00Z","name_a2s":"Uncletopia | London | 6 | All Maps","protocol":17,"map":"cp_altitude","folder":"tf","game":"Team Fortress","app_id":440,"player_count":0,"max_players":24,"Bots":0,"server_type":"Dedicated","server_os":"Linux","password":true,"vac":true,"version":"7961495","steam_id":85568392924742830,"keywords":["cp","nocrits","nodmgspread","uncletopia"],"game_id":440,"stv_port":27066,"stv_name":"Uncletopia | London | 6 | All Maps | STV","players":null},{"server_id":40,"name":"Uncletopia | London | 7 | Stopwatch","name_short":"lon-7","host":"lon-1.uk.uncletopia.com","port":27075,"enabled":true,"region":"eu","cc":"gb","latitude":51.509865,"longitude":-0.118092,"reserved":0,"last_update":"0001-01-01T00:00:00Z","name_a2s":"Uncletopia | London | 7 | Stopwatch","protocol":17,"map":"workshop/koth_ramjam_rc1.ugc459778887","folder":"tf","game":"Team Fortress","app_id":440,"player_count":0,"max_players":24,"Bots":0,"server_type":"Dedicated","server_os":"Linux","password":true,"vac":true,"version":"7961495","steam_id":85568392924964314,"keywords":["cp","nocrits","nodmgspread","uncletopia"],"game_id":440,"stv_port":27076,"stv_name":"Uncletopia | London | 7 | Stopwatch | STV","players":null},{"server_id":41,"name":"Uncletopia | London | 8 | Community","name_short":"lon-8","host":"lon-1.uk.uncletopia.com","port":27085,"enabled":true,"region":"eu","cc":"gb","latitude":51.509865,"longitude":-0.118092,"reserved":0,"last_update":"0001-01-01T00:00:00Z","name_a2s":"Uncletopia | London | 8 | Community","protocol":17,"map":"workshop/koth_bagel_rc6.ugc2514036946","folder":"tf","game":"Team Fortress","app_id":440,"player_count":10,"max_players":24,"Bots":0,"server_type":"Dedicated","server_os":"Linux","password":true,"vac":true,"version":"7961495","steam_id":85568392924964315,"keywords":["cp","nocrits","nodmgspread","uncletopia"],"game_id":440,"stv_port":27086,"stv_name":"Uncletopia | London | 8 | Community | STV","players":[{"user_id":80,"name":"lipaul777","steam_id":76561199090751367,"connected_time":1658000000000,"state":"active","ping":70},{"user_id":94,"name":"mrk_","steam_id":76561198120166752,"connected_time":270000000000,"state":"active","ping":83},{"user_id":86,"name":"Mobster Tortoise","steam_id":76561199036837091,"connected_time":412000000000,"state":"active","ping":79},{"user_id":87,"name":"Moon","steam_id":76561198808108594,"connected_time":402000000000,"state":"active","ping":84},{"user_id":43,"name":"...","steam_id":76561199024512720,"connected_time":4938000000000,"state":"active","ping":51},{"user_id":88,"name":"vojsnacks","steam_id":76561198041180865,"connected_time":386000000000,"state":"active","ping":63},{"user_id":89,"name":"dolly_m1x","steam_id":76561198964975161,"connected_time":356000000000,"state":"active","ping":56},{"user_id":95,"name":"balls","steam_id":76561198865130048,"connected_time":237000000000,"state":"active","ping":56},{"user_id":92,"name":"avalon","steam_id":76561198003212528,"connected_time":304000000000,"state":"active","ping":67},{"user_id":93,"name":"Toon","steam_id":76561198227601072,"connected_time":286000000000,"state":"active","ping":137}]},{"server_id":300,"name":"Uncletopia | Montr√©al | 1 | All Maps","name_short":"mtl-1","host":"mtl-1.ca.uncletopia.com","port":27015,"enabled":true,"region":"us-east","cc":"ca","latitude":45.50889,"longitude":-73.56167,"reserved":0,"last_update":"0001-01-01T00:00:00Z","name_a2s":"","protocol":0,"map":"","folder":"","game":"","app_id":0,"player_count":0,"max_players":0,"Bots":0,"server_type":"","server_os":"","password":false,"vac":false,"version":"","steam_id":0,"keywords":null,"game_id":0,"stv_port":0,"stv_name":"","players":null},{"server_id":301,"name":"Uncletopia | Montr√©al | 2 | All Maps","name_short":"mtl-2","host":"mtl-1.ca.uncletopia.com","port":27025,"enabled":true,"region":"us-east","cc":"ca","latitude":45.50889,"longitude":-73.56167,"reserved":0,"last_update":"0001-01-01T00:00:00Z","name_a2s":"","protocol":0,"map":"","folder":"","game":"","app_id":0,"player_count":0,"max_players":0,"Bots":0,"server_type":"","server_os":"","password":false,"vac":false,"version":"","steam_id":0,"keywords":null,"game_id":0,"stv_port":0,"stv_name":"","players":null},{"server_id":302,"name":"Uncletopia | Montr√©al | 3 | All Maps","name_short":"mtl-3","host":"mtl-1.ca.uncletopia.com","port":27035,"enabled":true,"region":"us-east","cc":"ca","latitude":45.50889,"longitude":-73.56167,"reserved":0,"last_update":"0001-01-01T00:00:00Z","name_a2s":"","protocol":0,"map":"","folder":"","game":"","app_id":0,"player_count":0,"max_players":0,"Bots":0,"server_type":"","server_os":"","password":false,"vac":false,"version":"","steam_id":0,"keywords":null,"game_id":0,"stv_port":0,"stv_name":"","players":null},{"server_id":303,"name":"Uncletopia | Montr√©al | 4 | No Payload","name_short":"mtl-4","host":"mtl-1.ca.uncletopia.com","port":27045,"enabled":true,"region":"us-east","cc":"ca","latitude":45.50889,"longitude":-73.56167,"reserved":0,"last_update":"0001-01-01T00:00:00Z","name_a2s":"","protocol":0,"map":"","folder":"","game":"","app_id":0,"player_count":0,"max_players":0,"Bots":0,"server_type":"","server_os":"","password":false,"vac":false,"version":"","steam_id":0,"keywords":null,"game_id":0,"stv_port":0,"stv_name":"","players":null},{"server_id":13,"name":"Uncletopia | New York City | 1 | All Maps","name_short":"nyc-1","host":"nyc-1.us.uncletopia.com","port":27015,"enabled":true,"region":"us-east","cc":"us","latitude":40.73061,"longitude":-73.93524,"reserved":0,"last_update":"0001-01-01T00:00:00Z","name_a2s":"Uncletopia | New York City | 1 | All Maps","protocol":17,"map":"koth_harvest_final","folder":"tf","game":"Team Fortress","app_id":440,"player_count":20,"max_players":24,"Bots":0,"server_type":"Dedicated","server_os":"Linux","password":true,"vac":true,"version":"7961495","steam_id":85568392924469993,"keywords":["cp","nocrits","nodmgspread","uncletopia"],"game_id":440,"stv_port":27016,"stv_name":"Uncletopia | New York City | 1 | All Maps | STV","players":[{"user_id":206,"name":"Slob and Sup","steam_id":76561198123441203,"connected_time":1597000000000,"state":"spawning","ping":185},{"user_id":227,"name":"XC130","steam_id":76561199489865416,"connected_time":702000000000,"state":"spawning","ping":130},{"user_id":230,"name":"Aztea","steam_id":76561198982089893,"connected_time":352000000000,"state":"spawning","ping":245},{"user_id":207,"name":"ShortNeckGiraffe","steam_id":76561198129467214,"connected_time":1582000000000,"state":"connecting","ping":386},{"user_id":182,"name":"johnny","steam_id":76561198855841242,"connected_time":3302000000000,"state":"spawning","ping":198},{"user_id":232,"name":"Jaysomers85","steam_id":76561199050558536,"connected_time":284000000000,"state":"spawning","ping":79},{"user_id":219,"name":"LeBron James","steam_id":76561198167974713,"connected_time":1047000000000,"state":"spawning","ping":148},{"user_id":171,"name":"Got Hat?","steam_id":76561197998486431,"connected_time":3866000000000,"state":"spawning","ping":137},{"user_id":237,"name":"-Greasy Goblin-","steam_id":76561198956977812,"connected_time":52000000000,"state":"spawning","ping":120},{"user_id":238,"name":"Bingleton","steam_id":76561198020364188,"connected_time":30000000000,"state":"spawning","ping":114},{"user_id":190,"name":"Satan's Salad","steam_id":76561198043965827,"connected_time":2371000000000,"state":"spawning","ping":94},{"user_id":234,"name":"Connection","steam_id":76561199230740231,"connected_time":214000000000,"state":"spawning","ping":73},{"user_id":220,"name":"sharkbyt3","steam_id":76561197985793803,"connected_time":1036000000000,"state":"spawning","ping":140},{"user_id":235,"name":"Cigtar","steam_id":76561198079842818,"connected_time":162000000000,"state":"spawning","ping":108},{"user_id":236,"name":"Local Skeleton Pirate Captain","steam_id":76561199387783793,"connected_time":135000000000,"state":"spawning","ping":139},{"user_id":225,"name":"Lazy Bones","steam_id":76561198198928941,"connected_time":737000000000,"state":"spawning","ping":203},{"user_id":211,"name":"salaam alaikum whut da heeell","steam_id":76561198326620513,"connected_time":1431000000000,"state":"spawning","ping":65},{"user_id":231,"name":"Wut dat dog doin","steam_id":76561198848535267,"connected_time":318000000000,"state":"spawning","ping":77},{"user_id":222,"name":"Philo","steam_id":76561198061873341,"connected_time":1023000000000,"state":"spawning","ping":124},{"user_id":226,"name":"PinyaVI","steam_id":76561198813760694,"connected_time":735000000000,"state":"spawning","ping":68}]},{"server_id":14,"name":"Uncletopia | New York City | 2 | All Maps","name_short":"nyc-2","host":"nyc-1.us.uncletopia.com","port":27025,"enabled":true,"region":"us-east","cc":"us","latitude":40.73061,"longitude":-73.93524,"reserved":0,"last_update":"0001-01-01T00:00:00Z","name_a2s":"Uncletopia | New York City | 2 | All Maps","protocol":17,"map":"pl_upward","folder":"tf","game":"Team Fortress","app_id":440,"player_count":24,"max_players":24,"Bots":0,"server_type":"Dedicated","server_os":"Linux","password":true,"vac":true,"version":"7961495","steam_id":85568392924469994,"keywords":["nocrits","nodmgspread","payload","uncletopia"],"game_id":440,"stv_port":27026,"stv_name":"Uncletopia | New York City | 2 | All Maps | STV","players":[{"user_id":307,"name":"Cyberpunk McDonald's Play Place","steam_id":76561198063512035,"connected_time":2555000000000,"state":"active","ping":68},{"user_id":325,"name":"trapsis","steam_id":76561198069474149,"connected_time":393000000000,"state":"active","ping":45},{"user_id":257,"name":"unusualnuma","steam_id":76561198856016840,"connected_time":6613000000000,"state":"active","ping":53},{"user_id":321,"name":"kit","steam_id":76561198047403448,"connected_time":450000000000,"state":"active","ping":45},{"user_id":12,"name":"uhooter","steam_id":76561198007829078,"connected_time":26005000000000,"state":"active","ping":62},{"user_id":320,"name":"Fishbotinator","steam_id":76561198085347196,"connected_time":861000000000,"state":"active","ping":87},{"user_id":215,"name":"Snoopy","steam_id":76561198273735974,"connected_time":10193000000000,"state":"active","ping":116},{"user_id":277,"name":"suns","steam_id":76561198079583278,"connected_time":4134000000000,"state":"active","ping":71},{"user_id":323,"name":"\u003eXxVor3xX\u003c","steam_id":76561198806494323,"connected_time":437000000000,"state":"active","ping":69},{"user_id":287,"name":"Mr. Sauce","steam_id":76561198055512324,"connected_time":3928000000000,"state":"active","ping":61},{"user_id":308,"name":"Spy Among Us","steam_id":76561198027487285,"connected_time":2022000000000,"state":"active","ping":102},{"user_id":249,"name":"remanedur","steam_id":76561198059459507,"connected_time":7239000000000,"state":"active","ping":66},{"user_id":328,"name":"MetalNavigator","steam_id":76561198974231439,"connected_time":115000000000,"state":"active","ping":100},{"user_id":314,"name":"Super Splint","steam_id":76561199465781208,"connected_time":1336000000000,"state":"active","ping":85},{"user_id":324,"name":"Try Gardening","steam_id":76561198120311340,"connected_time":402000000000,"state":"active","ping":65},{"user_id":322,"name":"boombox","steam_id":76561198237013798,"connected_time":447000000000,"state":"active","ping":78},{"user_id":290,"name":"Rated_C","steam_id":76561199226478414,"connected_time":3860000000000,"state":"active","ping":81},{"user_id":326,"name":"xfinitycablebox","steam_id":76561198317433700,"connected_time":363000000000,"state":"active","ping":71},{"user_id":318,"name":"Dougie","steam_id":76561198079567499,"connected_time":977000000000,"state":"active","ping":134},{"user_id":329,"name":"exlpt","steam_id":76561198357261939,"connected_time":85000000000,"state":"active","ping":64},{"user_id":315,"name":"Rodrick Knee","steam_id":76561198283021062,"connected_time":1331000000000,"state":"active","ping":75},{"user_id":296,"name":"Lcfrost","steam_id":76561198410128734,"connected_time":3548000000000,"state":"active","ping":90},{"user_id":293,"name":"Respirator Reaper","steam_id":76561198252399414,"connected_time":3808000000000,"state":"active","ping":81},{"user_id":316,"name":"videogames","steam_id":76561198856066110,"connected_time":1329000000000,"state":"active","ping":68}]},{"server_id":15,"name":"Uncletopia | New York City | 3 | Stopwatch","name_short":"nyc-3","host":"nyc-1.us.uncletopia.com","port":27035,"enabled":true,"region":"us-east","cc":"us","latitude":40.73061,"longitude":-73.93524,"reserved":0,"last_update":"0001-01-01T00:00:00Z","name_a2s":"Uncletopia | New York City | 3 | Stopwatch","protocol":17,"map":"pl_snowycoast","folder":"tf","game":"Team Fortress","app_id":440,"player_count":0,"max_players":24,"Bots":0,"server_type":"Dedicated","server_os":"Linux","password":true,"vac":true,"version":"7961495","steam_id":85568392924742820,"keywords":["nocrits","nodmgspread","payload","uncletopia"],"game_id":440,"stv_port":27036,"stv_name":"Uncletopia | New York City | 3 | Stopwatch | STV","players":null},{"server_id":16,"name":"Uncletopia | New York City | 4 | Community","name_short":"nyc-4","host":"nyc-1.us.uncletopia.com","port":27045,"enabled":true,"region":"us-east","cc":"us","latitude":40.73061,"longitude":-73.93524,"reserved":0,"last_update":"0001-01-01T00:00:00Z","name_a2s":"Uncletopia | New York City | 4 | Community","protocol":17,"map":"workshop/cp_mannbase_rc2a.ugc1900737467","folder":"tf","game":"Team Fortress","app_id":440,"player_count":0,"max_players":24,"Bots":0,"server_type":"Dedicated","server_os":"Linux","password":true,"vac":true,"version":"7961495","steam_id":85568392924742821,"keywords":["cp","nocrits","nodmgspread","uncletopia"],"game_id":440,"stv_port":27046,"stv_name":"Uncletopia | New York City | 4 | Community | STV","players":null},{"server_id":142,"name":"Uncletopia | S√£o Paulo | 1 | All Maps","name_short":"sao-1","host":"sao-1.br.uncletopia.com","port":27015,"enabled":true,"region":"sa","cc":"br","latitude":-23.533773,"longitude":-46.62529,"reserved":0,"last_update":"0001-01-01T00:00:00Z","name_a2s":"Uncletopia | S√£o Paulo | 1 | All Maps","protocol":17,"map":"cp_dustbowl","folder":"tf","game":"Team Fortress","app_id":440,"player_count":2,"max_players":24,"Bots":0,"server_type":"Dedicated","server_os":"Linux","password":true,"vac":true,"version":"7961495","steam_id":85568392924469996,"keywords":["cp","nocrits","nodmgspread","uncletopia"],"game_id":440,"stv_port":27016,"stv_name":"Uncletopia | S√£o Paulo | 1 | All Maps | STV","players":[{"user_id":5,"name":"MarceloSan","steam_id":76561199417649502,"connected_time":1714000000000,"state":"active","ping":59},{"user_id":7,"name":"t1m3*","steam_id":76561198323414954,"connected_time":1213000000000,"state":"active","ping":36}]},{"server_id":143,"name":"Uncletopia | S√£o Paulo | 2 | Community","name_short":"sao-2","host":"sao-2.br.uncletopia.com","port":27015,"enabled":true,"region":"sa","cc":"br","latitude":-23.533773,"longitude":-46.62529,"reserved":0,"last_update":"0001-01-01T00:00:00Z","name_a2s":"Uncletopia | S√£o Paulo | 2 | Community","protocol":17,"map":"workshop/cp_croissant_final.ugc458840209","folder":"tf","game":"Team Fortress","app_id":440,"player_count":0,"max_players":24,"Bots":0,"server_type":"Dedicated","server_os":"Linux","password":true,"vac":true,"version":"7961495","steam_id":85568392924485349,"keywords":["cp","nocrits","nodmgspread","uncletopia"],"game_id":440,"stv_port":27016,"stv_name":"Uncletopia | S√£o Paulo | 2 | Community | STV","players":null},{"server_id":7,"name":"Uncletopia | Seattle | 1 | All Maps","name_short":"sea-1","host":"sea-1.us.uncletopia.com","port":27015,"enabled":true,"region":"us-west","cc":"us","latitude":47.608013,"longitude":-122.33517,"reserved":0,"last_update":"0001-01-01T00:00:00Z","name_a2s":"Uncletopia | Seattle | 1 | All Maps","protocol":17,"map":"cp_altitude","folder":"tf","game":"Team Fortress","app_id":440,"player_count":22,"max_players":24,"Bots":0,"server_type":"Dedicated","server_os":"Linux","password":true,"vac":true,"version":"7961495","steam_id":85568392924469997,"keywords":["cp","nocrits","nodmgspread","uncletopia"],"game_id":440,"stv_port":27016,"stv_name":"Uncletopia | Seattle | 1 | All Maps | STV","players":[{"user_id":275,"name":"Greskrendtregk","steam_id":76561197969553142,"connected_time":1673000000000,"state":"active","ping":53},{"user_id":295,"name":"Mer","steam_id":76561198192171041,"connected_time":192000000000,"state":"active","ping":311},{"user_id":296,"name":"Pybro's Day Off","steam_id":76561197996353534,"connected_time":176000000000,"state":"active","ping":74},{"user_id":239,"name":"Fh","steam_id":76561198000903511,"connected_time":5868000000000,"state":"active","ping":66},{"user_id":297,"name":"tqman","steam_id":76561199031963925,"connected_time":173000000000,"state":"active","ping":48},{"user_id":266,"name":"oo","steam_id":76561198119626492,"connected_time":2449000000000,"state":"active","ping":95},{"user_id":281,"name":"Vincent Van Bro","steam_id":76561197966919802,"connected_time":979000000000,"state":"active","ping":55},{"user_id":282,"name":"Natsuki the Scunt","steam_id":76561199175922684,"connected_time":977000000000,"state":"active","ping":117},{"user_id":283,"name":"Saint Pablo","steam_id":76561198083300159,"connected_time":957000000000,"state":"active","ping":64},{"user_id":267,"name":"Spruce","steam_id":76561198081684676,"connected_time":2361000000000,"state":"active","ping":68},{"user_id":278,"name":"-=Bits=-Dinkleberg","steam_id":76561198080367616,"connected_time":1426000000000,"state":"active","ping":95},{"user_id":292,"name":"Meso","steam_id":76561199088153190,"connected_time":289000000000,"state":"active","ping":53},{"user_id":268,"name":"Zhukov","steam_id":76561199006602717,"connected_time":2359000000000,"state":"active","ping":121},{"user_id":229,"name":"Sailor","steam_id":76561199081983517,"connected_time":7263000000000,"state":"active","ping":98},{"user_id":260,"name":"ƒ†1 ‚ô¶ Synth","steam_id":76561198058660228,"connected_time":3389000000000,"state":"active","ping":116},{"user_id":280,"name":"arsenic","steam_id":76561198176391550,"connected_time":1099000000000,"state":"active","ping":94},{"user_id":225,"name":"Pneumo.","steam_id":76561197987911883,"connected_time":7473000000000,"state":"active","ping":72},{"user_id":290,"name":"._.","steam_id":76561198300316801,"connected_time":449000000000,"state":"active","ping":105},{"user_id":287,"name":"El G√ºey","steam_id":76561197970450546,"connected_time":779000000000,"state":"active","ping":66},{"user_id":277,"name":"Cinabun","steam_id":76561198169144061,"connected_time":1643000000000,"state":"active","ping":84},{"user_id":291,"name":"captain red","steam_id":76561198191587983,"connected_time":423000000000,"state":"active","ping":75},{"user_id":289,"name":"Duke nukem","steam_id":76561199058944087,"connected_time":540000000000,"state":"active","ping":46}]},{"server_id":119,"name":"Uncletopia | Seattle | 2 | All Maps","name_short":"sea-2","host":"sea-1.us.uncletopia.com","port":27025,"enabled":true,"region":"us-west","cc":"us","latitude":47.608013,"longitude":-122.33517,"reserved":0,"last_update":"0001-01-01T00:00:00Z","name_a2s":"Uncletopia | Seattle | 2 | All Maps","protocol":17,"map":"pl_barnblitz","folder":"tf","game":"Team Fortress","app_id":440,"player_count":22,"max_players":24,"Bots":0,"server_type":"Dedicated","server_os":"Linux","password":true,"vac":true,"version":"7961495","steam_id":85568392924469998,"keywords":["nocrits","nodmgspread","payload","uncletopia"],"game_id":440,"stv_port":27026,"stv_name":"Uncletopia | Seattle | 2 | All Maps | STV","players":[{"user_id":48,"name":"Furr Noodle","steam_id":76561198316981554,"connected_time":1888000000000,"state":"active","ping":79},{"user_id":76,"name":"aBigPoo","steam_id":76561198425027856,"connected_time":14000000000,"state":"active","ping":97},{"user_id":56,"name":"brando_not_lando","steam_id":76561198163197384,"connected_time":1291000000000,"state":"active","ping":68},{"user_id":55,"name":"Lili W.","steam_id":76561199391478575,"connected_time":1344000000000,"state":"active","ping":65},{"user_id":39,"name":"Grammaring","steam_id":76561198867366139,"connected_time":2592000000000,"state":"active","ping":69},{"user_id":69,"name":"Seriously Bruh","steam_id":76561198070408485,"connected_time":545000000000,"state":"active","ping":49},{"user_id":68,"name":"La()VaJ()86","steam_id":76561198247547042,"connected_time":623000000000,"state":"active","ping":78},{"user_id":44,"name":"RysN Yeen ‚ô•","steam_id":76561198105359319,"connected_time":2145000000000,"state":"active","ping":73},{"user_id":73,"name":"ToddStool","steam_id":76561198338144919,"connected_time":230000000000,"state":"active","ping":77},{"user_id":70,"name":"10HourNaps","steam_id":76561199082304859,"connected_time":356000000000,"state":"active","ping":54},{"user_id":46,"name":"amberenix","steam_id":76561198805110908,"connected_time":2097000000000,"state":"active","ping":116},{"user_id":50,"name":"CamWtheDestroyer","steam_id":76561198950777742,"connected_time":1667000000000,"state":"active","ping":98},{"user_id":23,"name":"Esteban Delsin","steam_id":76561198433519639,"connected_time":3676000000000,"state":"active","ping":136},{"user_id":42,"name":"oz","steam_id":76561198176547317,"connected_time":2357000000000,"state":"active","ping":53},{"user_id":54,"name":"chrissweep","steam_id":76561198072826791,"connected_time":1472000000000,"state":"active","ping":115},{"user_id":43,"name":"feeple murphy","steam_id":76561199069482101,"connected_time":2273000000000,"state":"active","ping":76},{"user_id":36,"name":"ZEKKER","steam_id":76561197967968980,"connected_time":3126000000000,"state":"active","ping":42},{"user_id":72,"name":"judesro","steam_id":76561198352244888,"connected_time":284000000000,"state":"active","ping":124},{"user_id":47,"name":"Kintsugi","steam_id":76561198301867054,"connected_time":1938000000000,"state":"active","ping":63},{"user_id":34,"name":"mn","steam_id":76561198042357436,"connected_time":3200000000000,"state":"active","ping":35},{"user_id":38,"name":"Wheaty","steam_id":76561198003553412,"connected_time":2924000000000,"state":"active","ping":46},{"user_id":75,"name":"Ockulus","steam_id":76561199069638460,"connected_time":55000000000,"state":"active","ping":78}]},{"server_id":406,"name":"Uncletopia | Seattle | 3 | Stopwatch","name_short":"sea-3","host":"sea-1.us.uncletopia.com","port":27035,"enabled":true,"region":"us-west","cc":"us","latitude":47.608013,"longitude":-122.33517,"reserved":0,"last_update":"0001-01-01T00:00:00Z","name_a2s":"Uncletopia | Seattle | 3 | Stopwatch","protocol":17,"map":"koth_lakeside_final","folder":"tf","game":"Team Fortress","app_id":440,"player_count":1,"max_players":24,"Bots":0,"server_type":"Dedicated","server_os":"Linux","password":true,"vac":true,"version":"7961495","steam_id":85568392924515217,"keywords":["cp","nocrits","nodmgspread","uncletopia"],"game_id":440,"stv_port":27036,"stv_name":"Uncletopia | Seattle | 3 | Stopwatch | STV","players":[{"user_id":4,"name":"doctorstarlord","steam_id":76561199179556085,"connected_time":3000000000,"state":"spawning","ping":39}]},{"server_id":17,"name":"Uncletopia | San Francisco | 1 | All Maps","name_short":"sfo-1","host":"sfo-1.us.uncletopia.com","port":27015,"enabled":true,"region":"us-west","cc":"us","latitude":37.77397,"longitude":-122.4313,"reserved":0,"last_update":"0001-01-01T00:00:00Z","name_a2s":"Uncletopia | San Francisco | 1 | All Maps","protocol":17,"map":"koth_harvest_final","folder":"tf","game":"Team Fortress","app_id":440,"player_count":5,"max_players":24,"Bots":0,"server_type":"Dedicated","server_os":"Linux","password":true,"vac":true,"version":"7961495","steam_id":85568392924469999,"keywords":["cp","nocrits","nodmgspread","uncletopia"],"game_id":440,"stv_port":27016,"stv_name":"Uncletopia | San Francisco | 1 | All Maps | STV","players":[{"user_id":11,"name":"spiderland","steam_id":76561198335992132,"connected_time":2193000000000,"state":"active","ping":59},{"user_id":12,"name":"Tmiracle","steam_id":76561198052375275,"connected_time":1716000000000,"state":"active","ping":48},{"user_id":14,"name":"Jax","steam_id":76561198251160282,"connected_time":1402000000000,"state":"active","ping":59},{"user_id":15,"name":"CCPodz","steam_id":76561199143506502,"connected_time":846000000000,"state":"active","ping":103},{"user_id":19,"name":"TinyGrunt16","steam_id":76561199064951235,"connected_time":237000000000,"state":"active","ping":121}]},{"server_id":18,"name":"Uncletopia | San Francisco | 2 | All Maps","name_short":"sfo-2","host":"sfo-1.us.uncletopia.com","port":27025,"enabled":true,"region":"us-west","cc":"us","latitude":37.77397,"longitude":-122.4313,"reserved":0,"last_update":"0001-01-01T00:00:00Z","name_a2s":"Uncletopia | San Francisco | 2 | All Maps","protocol":17,"map":"pl_borneo","folder":"tf","game":"Team Fortress","app_id":440,"player_count":24,"max_players":24,"Bots":0,"server_type":"Dedicated","server_os":"Linux","password":true,"vac":true,"version":"7961495","steam_id":85568392924470000,"keywords":["nocrits","nodmgspread","payload","uncletopia"],"game_id":440,"stv_port":27026,"stv_name":"Uncletopia | San Francisco | 2 | All Maps | STV","players":[{"user_id":223,"name":"Imagine being trash at Medic","steam_id":76561197986530028,"connected_time":5834000000000,"state":"active","ping":88},{"user_id":244,"name":"poverty gaming","steam_id":76561199177831971,"connected_time":2287000000000,"state":"active","ping":97},{"user_id":239,"name":"VoodooPapa","steam_id":76561199160439066,"connected_time":3104000000000,"state":"active","ping":69},{"user_id":269,"name":"John 'Press F' Kennedy","steam_id":76561198038973417,"connected_time":412000000000,"state":"active","ping":126},{"user_id":148,"name":"I GOT LAID AT SHEN YUN 2023","steam_id":76561198844003641,"connected_time":10263000000000,"state":"active","ping":67},{"user_id":270,"name":"Lambohanbo","steam_id":76561199241530879,"connected_time":383000000000,"state":"active","ping":71},{"user_id":260,"name":"Prsm","steam_id":76561198053344995,"connected_time":1068000000000,"state":"active","ping":93},{"user_id":247,"name":"exx","steam_id":76561198041421969,"connected_time":2149000000000,"state":"active","ping":46},{"user_id":267,"name":"NOT A FLYING TOY","steam_id":76561198069735882,"connected_time":552000000000,"state":"active","ping":119},{"user_id":248,"name":"sojka (real)","steam_id":76561198420252964,"connected_time":2144000000000,"state":"active","ping":82},{"user_id":276,"name":"waffle_","steam_id":76561198324156573,"connected_time":59000000000,"state":"active","ping":94},{"user_id":240,"name":"grxmz ‚òÆ","steam_id":76561199048627063,"connected_time":3056000000000,"state":"active","ping":70},{"user_id":268,"name":"secret agent","steam_id":76561198105666663,"connected_time":544000000000,"state":"active","ping":59},{"user_id":236,"name":"BlancaLamb","steam_id":76561198025646073,"connected_time":3613000000000,"state":"active","ping":91},{"user_id":251,"name":"Esunalatte","steam_id":76561197993787686,"connected_time":1901000000000,"state":"active","ping":50},{"user_id":255,"name":"spacetoven","steam_id":76561198115821131,"connected_time":1809000000000,"state":"active","ping":49},{"user_id":264,"name":"Dat Franklin Pierce Do","steam_id":76561198027749453,"connected_time":820000000000,"state":"active","ping":119},{"user_id":277,"name":"||BassMan||","steam_id":76561198279865229,"connected_time":0,"state":"spawning","ping":40},{"user_id":273,"name":"SuperbSunnyD","steam_id":76561198057531269,"connected_time":233000000000,"state":"active","ping":57},{"user_id":274,"name":"waffle","steam_id":76561198077799844,"connected_time":233000000000,"state":"active","ping":69},{"user_id":266,"name":"s1mon","steam_id":76561198198137847,"connected_time":721000000000,"state":"active","ping":79},{"user_id":275,"name":"slowdance","steam_id":76561198097427947,"connected_time":198000000000,"state":"active","ping":103},{"user_id":257,"name":"moe","steam_id":76561198929586245,"connected_time":1781000000000,"state":"active","ping":57},{"user_id":242,"name":"dewey","steam_id":76561198132791511,"connected_time":2960000000000,"state":"active","ping":67}]},{"server_id":19,"name":"Uncletopia | San Francisco | 3 | Stopwatch","name_short":"sfo-3","host":"sfo-1.us.uncletopia.com","port":27035,"enabled":true,"region":"us-west","cc":"us","latitude":37.77397,"longitude":-122.4313,"reserved":0,"last_update":"0001-01-01T00:00:00Z","name_a2s":"Uncletopia | San Francisco | 3 | Stopwatch","protocol":17,"map":"workshop/cp_reckoner_rc6.ugc674719999","folder":"tf","game":"Team Fortress","app_id":440,"player_count":0,"max_players":24,"Bots":0,"server_type":"Dedicated","server_os":"Linux","password":true,"vac":true,"version":"7961495","steam_id":85568392924742824,"keywords":["cp","nocrits","nodmgspread","uncletopia"],"game_id":440,"stv_port":27036,"stv_name":"Uncletopia | San Francisco | 3 | Stopwatch | STV","players":null},{"server_id":20,"name":"Uncletopia | San Francisco | 4 | Community","name_short":"sfo-4","host":"sfo-1.us.uncletopia.com","port":27045,"enabled":true,"region":"us-west","cc":"us","latitude":37.77397,"longitude":-122.4313,"reserved":0,"last_update":"0001-01-01T00:00:00Z","name_a2s":"Uncletopia | San Francisco | 4 | Community","protocol":17,"map":"pl_pier","folder":"tf","game":"Team Fortress","app_id":440,"player_count":0,"max_players":24,"Bots":0,"server_type":"Dedicated","server_os":"Linux","password":true,"vac":true,"version":"7961495","steam_id":85568392924742826,"keywords":["nocrits","nodmgspread","payload","uncletopia"],"game_id":440,"stv_port":27046,"stv_name":"Uncletopia | San Francisco | 4 | Community | STV","players":null},{"server_id":141,"name":"Uncletopia | Sydney | 1 | All Maps","name_short":"syd-1","host":"syd-1.au.uncletopia.com","port":27015,"enabled":true,"region":"au","cc":"au","latitude":-33.865143,"longitude":151.2099,"reserved":0,"last_update":"0001-01-01T00:00:00Z","name_a2s":"Uncletopia | Sydney | 1 | All Maps","protocol":17,"map":"koth_viaduct","folder":"tf","game":"Team Fortress","app_id":440,"player_count":0,"max_players":24,"Bots":0,"server_type":"Dedicated","server_os":"Linux","password":true,"vac":true,"version":"7961495","steam_id":85568392924470001,"keywords":["cp","nocrits","nodmgspread","uncletopia"],"game_id":440,"stv_port":27016,"stv_name":"Uncletopia | Sydney | 1 | All Maps | STV","players":null},{"server_id":123,"name":"Uncletopia | Sydney | 2 | All Maps","name_short":"syd-2","host":"syd-1.au.uncletopia.com","port":27025,"enabled":true,"region":"au","cc":"au","latitude":-33.865143,"longitude":151.2099,"reserved":0,"last_update":"0001-01-01T00:00:00Z","name_a2s":"Uncletopia | Sydney | 2 | All Maps","protocol":17,"map":"koth_lakeside_final","folder":"tf","game":"Team Fortress","app_id":440,"player_count":0,"max_players":24,"Bots":0,"server_type":"Dedicated","server_os":"Linux","password":true,"vac":true,"version":"7961495","steam_id":85568392924470002,"keywords":["cp","nocrits","nodmgspread","uncletopia"],"game_id":440,"stv_port":27026,"stv_name":"Uncletopia | Sydney | 2 | All Maps | STV","players":null},{"server_id":395,"name":"Uncletopia | Sydney | 3 | All Maps","name_short":"syd-3","host":"syd-1.au.uncletopia.com","port":27035,"enabled":true,"region":"au","cc":"au","latitude":-33.865143,"longitude":151.2099,"reserved":0,"last_update":"0001-01-01T00:00:00Z","name_a2s":"Uncletopia | Sydney | 3 | All Maps","protocol":17,"map":"pl_frontier_final","folder":"tf","game":"Team Fortress","app_id":440,"player_count":0,"max_players":24,"Bots":0,"server_type":"Dedicated","server_os":"Linux","password":true,"vac":true,"version":"7961495","steam_id":85568392925194467,"keywords":["nocrits","nodmgspread","payload","uncletopia"],"game_id":440,"stv_port":27036,"stv_name":"Uncletopia | Sydney | 3 | All Maps | STV","players":null},{"server_id":396,"name":"Uncletopia | Sydney | 4 | All Maps","name_short":"syd-4","host":"syd-1.au.uncletopia.com","port":27045,"enabled":true,"region":"au","cc":"au","latitude":-33.865143,"longitude":151.2099,"reserved":0,"last_update":"0001-01-01T00:00:00Z","name_a2s":"Uncletopia | Sydney | 4 | All Maps","protocol":17,"map":"cp_process_final","folder":"tf","game":"Team Fortress","app_id":440,"player_count":0,"max_players":24,"Bots":0,"server_type":"Dedicated","server_os":"Linux","password":true,"vac":true,"version":"7961495","steam_id":85568392925397958,"keywords":["cp","nocrits","nodmgspread","uncletopia"],"game_id":440,"stv_port":27046,"stv_name":"Uncletopia | Sydney | 4 | All Maps | STV","players":null},{"server_id":58,"name":"Uncletopia | Sydney | 5 | Stopwatch","name_short":"syd-5","host":"syd-1.au.uncletopia.com","port":27055,"enabled":true,"region":"au","cc":"au","latitude":-33.865143,"longitude":151.2099,"reserved":0,"last_update":"0001-01-01T00:00:00Z","name_a2s":"Uncletopia | Sydney | 5 | Stopwatch","protocol":17,"map":"pl_frontier_final","folder":"tf","game":"Team Fortress","app_id":440,"player_count":0,"max_players":24,"Bots":0,"server_type":"Dedicated","server_os":"Linux","password":true,"vac":true,"version":"7961495","steam_id":85568392925397959,"keywords":["nocrits","nodmgspread","payload","uncletopia"],"game_id":440,"stv_port":27056,"stv_name":"Uncletopia | Sydney | 5 | Stopwatch | STV","players":null},{"server_id":59,"name":"Uncletopia | Sydney | 6 | Community","name_short":"syd-6","host":"syd-1.au.uncletopia.com","port":27065,"enabled":true,"region":"au","cc":"au","latitude":-33.865143,"longitude":151.2099,"reserved":0,"last_update":"0001-01-01T00:00:00Z","name_a2s":"Uncletopia | Sydney | 6 | Community","protocol":17,"map":"cp_sunshine","folder":"tf","game":"Team Fortress","app_id":440,"player_count":0,"max_players":24,"Bots":0,"server_type":"Dedicated","server_os":"Linux","password":true,"vac":true,"version":"7961495","steam_id":85568392925397960,"keywords":["cp","nocrits","nodmgspread","uncletopia"],"game_id":440,"stv_port":27066,"stv_name":"Uncletopia | Sydney | 6 | Community | STV","players":null},{"server_id":49,"name":"Uncletopia | Warsaw | 1 | All Maps","name_short":"waw-1","host":"waw-1.pl.uncletopia.com","port":27015,"enabled":true,"region":"eu","cc":"pl","latitude":52.2297,"longitude":21.017532,"reserved":0,"last_update":"0001-01-01T00:00:00Z","name_a2s":"Uncletopia | Warsaw | 1 | All Maps","protocol":17,"map":"koth_highpass","folder":"tf","game":"Team Fortress","app_id":440,"player_count":0,"max_players":24,"Bots":0,"server_type":"Dedicated","server_os":"Linux","password":true,"vac":true,"version":"7961495","steam_id":85568392925397850,"keywords":["cp","nocrits","nodmgspread","uncletopia"],"game_id":440,"stv_port":27016,"stv_name":"Uncletopia | Warsaw | 1 | All Maps | STV","players":null},{"server_id":50,"name":"Uncletopia | Warsaw | 2 | All Maps","name_short":"waw-2","host":"waw-1.pl.uncletopia.com","port":27025,"enabled":true,"region":"eu","cc":"pl","latitude":52.2297,"longitude":21.017532,"reserved":0,"last_update":"0001-01-01T00:00:00Z","name_a2s":"Uncletopia | Warsaw | 2 | All Maps","protocol":17,"map":"koth_highpass","folder":"tf","game":"Team Fortress","app_id":440,"player_count":0,"max_players":24,"Bots":0,"server_type":"Dedicated","server_os":"Linux","password":true,"vac":true,"version":"7961495","steam_id":85568392925397851,"keywords":["cp","nocrits","nodmgspread","uncletopia"],"game_id":440,"stv_port":27026,"stv_name":"Uncletopia | Warsaw | 2 | All Maps | STV","players":null},{"server_id":51,"name":"Uncletopia | Warsaw | 3 | All Maps","name_short":"waw-3","host":"waw-1.pl.uncletopia.com","port":27035,"enabled":true,"region":"eu","cc":"pl","latitude":52.2297,"longitude":21.017532,"reserved":0,"last_update":"0001-01-01T00:00:00Z","name_a2s":"Uncletopia | Warsaw | 3 | All Maps","protocol":17,"map":"koth_viaduct","folder":"tf","game":"Team Fortress","app_id":440,"player_count":0,"max_players":24,"Bots":0,"server_type":"Dedicated","server_os":"Linux","password":true,"vac":true,"version":"7961495","steam_id":85568392925397852,"keywords":["cp","nocrits","nodmgspread","uncletopia"],"game_id":440,"stv_port":27036,"stv_name":"Uncletopia | Warsaw | 3 | All Maps | STV","players":null},{"server_id":52,"name":"Uncletopia | Warsaw | 4 | All Maps","name_short":"waw-4","host":"waw-1.pl.uncletopia.com","port":27045,"enabled":true,"region":"eu","cc":"pl","latitude":52.2297,"longitude":21.017532,"reserved":0,"last_update":"0001-01-01T00:00:00Z","name_a2s":"Uncletopia | Warsaw | 4 | All Maps","protocol":17,"map":"cp_altitude","folder":"tf","game":"Team Fortress","app_id":440,"player_count":0,"max_players":24,"Bots":0,"server_type":"Dedicated","server_os":"Linux","password":true,"vac":true,"version":"7961495","steam_id":85568392925397853,"keywords":["cp","nocrits","nodmgspread","uncletopia"],"game_id":440,"stv_port":27046,"stv_name":"Uncletopia | Warsaw | 4 | All Maps | STV","players":null},{"server_id":53,"name":"Uncletopia | Warsaw | 5 | Stopwatch","name_short":"waw-5","host":"waw-1.pl.uncletopia.com","port":27055,"enabled":true,"region":"eu","cc":"pl","latitude":52.2297,"longitude":21.017532,"reserved":0,"last_update":"0001-01-01T00:00:00Z","name_a2s":"Uncletopia | Warsaw | 5 | Stopwatch","protocol":17,"map":"cp_granary","folder":"tf","game":"Team Fortress","app_id":440,"player_count":0,"max_players":24,"Bots":0,"server_type":"Dedicated","server_os":"Linux","password":true,"vac":true,"version":"7961495","steam_id":85568392925397854,"keywords":["cp","nocrits","nodmgspread","uncletopia"],"game_id":440,"stv_port":27056,"stv_name":"Uncletopia | Warsaw | 5 | Stopwatch | STV","players":null},{"server_id":54,"name":"Uncletopia | Warsaw | 6 | Community","name_short":"waw-6","host":"waw-1.pl.uncletopia.com","port":27065,"enabled":true,"region":"eu","cc":"pl","latitude":52.2297,"longitude":21.017532,"reserved":0,"last_update":"0001-01-01T00:00:00Z","name_a2s":"Uncletopia | Warsaw | 6 | Community","protocol":17,"map":"workshop/cp_hazyfort_rc6.ugc1365963729","folder":"tf","game":"Team Fortress","app_id":440,"player_count":0,"max_players":24,"Bots":0,"server_type":"Dedicated","server_os":"Linux","password":true,"vac":true,"version":"7961495","steam_id":85568392925397856,"keywords":["cp","nocrits","nodmgspread","uncletopia"],"game_id":440,"stv_port":27066,"stv_name":"Uncletopia | Warsaw | 6 | Community | STV","players":null}]}