{"status":true,"message":"","result":[{"server_id":9,"name":"Uncletopia | Atlanta | 1 | All Maps","name_short":"atl-1","host":"atl-1.us.uncletopia.com","port":27015,"enabled":true,"region":"us-east","cc":"us","latitude":33.753746,"longitude":-84.38633,"reserved":0,"last_update":"0001-01-01T00:00:00Z","name_a2s":"Uncletopia | Atlanta | 1 | All Maps","protocol":17,"map":"koth_highpass","folder":"tf","game":"Team Fortress","app_id":440,"player_count":0,"max_players":24,"Bots":0,"server_type":"Dedicated","server_os":"Linux","password":true,"vac":true,"version":"7961495","steam_id":85568392924469982,"keywords":["cp","nocrits","nodmgspread","uncletopia"],"game_id":440,"stv_port":27016,"stv_name":"Uncletopia | Atlanta | 1 | All Maps | STV","players":null},{"server_id":104,"name":"Uncletopia | Atlanta | 2 | All Maps","name_short":"atl-2","host":"atl-1.us.uncletopia.com","port":27025,"enabled":true,"region":"us-east","cc":"us","latitude":33.753746,"longitude":-84.38633,"reserved":0,"last_update":"0001-01-01T00:00:00Z","name_a2s":"Uncletopia | Atlanta | 2 | All Maps","protocol":17,"map":"pl_borneo","folder":"tf","game":"Team Fortress","app_id":440,"player_count":21,"max_players":24,"Bots":0,"server_type":"Dedicated","server_os":"Linux","password":true,"vac":true,"version":"7961495","steam_id":85568392924469983,"keywords":["nocrits","nodmgspread","payload","uncletopia"],"game_id":440,"stv_port":27026,"stv_name":"Uncletopia | Atlanta | 2 | All Maps | STV","players":[{"user_id":752,"name":"ਹੁੱਡ ਕਾਉਬੌਏ","steam_id":76561198021308963,"connected_time":32000000000,"state":"active","ping":76},{"user_id":743,"name":"no more fucks to give","steam_id":76561199129974320,"connected_time":616000000000,"state":"active","ping":49},{"user_id":745,"name":"glam","steam_id":76561198059570070,"connected_time":385000000000,"state":"active","ping":76},{"user_id":741,"name":"Blorgh","steam_id":76561197990534924,"connected_time":712000000000,"state":"active","ping":94},{"user_id":583,"name":"ArcticTone","steam_id":76561199163932146,"connected_time":13569000000000,"state":"active","ping":53},{"user_id":728,"name":"DaMultiversalist","steam_id":76561198239552412,"connected_time":1526000000000,"state":"active","ping":71},{"user_id":753,"name":"Snoopist","steam_id":76561198144023761,"connected_time":24000000000,"state":"active","ping":50},{"user_id":734,"name":"Liver stealer","steam_id":76561199029954287,"connected_time":1220000000000,"state":"active","ping":121},{"user_id":747,"name":"kernstjean97","steam_id":76561199216661045,"connected_time":324000000000,"state":"active","ping":70},{"user_id":742,"name":"Engi-man","steam_id":76561199438537880,"connected_time":689000000000,"state":"active","ping":189},{"user_id":664,"name":"Spyce","steam_id":76561199034270259,"connected_time":5959000000000,"state":"active","ping":60},{"user_id":748,"name":"medic tf2","steam_id":76561198004065704,"connected_time":219000000000,"state":"active","ping":68},{"user_id":749,"name":"Lumi The ✧Lesbian✧","steam_id":76561198089978036,"connected_time":203000000000,"state":"active","ping":61},{"user_id":726,"name":"Gay Cake","steam_id":76561198004388831,"connected_time":2392000000000,"state":"active","ping":81},{"user_id":740,"name":"BiggSlorp","steam_id":76561199130776156,"connected_time":974000000000,"state":"active","ping":65},{"user_id":725,"name":"Holiday Fartcruise","steam_id":76561198043851584,"connected_time":2468000000000,"state":"active","ping":127},{"user_id":736,"name":"iCarly Lore Expert","steam_id":76561198111902910,"connected_time":1185000000000,"state":"active","ping":76},{"user_id":720,"name":"El Gato Paranoico","steam_id":76561198116567116,"connected_time":3238000000000,"state":"active","ping":90},{"user_id":750,"name":"sumerian death metal warrior","steam_id":76561198997380708,"connected_time":201000000000,"state":"active","ping":89},{"user_id":751,"name":"Canadian Beb","steam_id":76561198055462395,"connected_time":150000000000,"state":"active","ping":75},{"user_id":739,"name":"Thingy","steam_id":76561198140161202,"connected_time":1163000000000,"state":"active","ping":72}]},{"server_id":400,"name":"Uncletopia | Atlanta | 3 | Stopwatch","name_short":"atl-3","host":"atl-1.us.uncletopia.com","port":27035,"enabled":true,"region":"us-east","cc":"us","latitude":33.753746,"longitude":-84.38633,"reserved":0,"last_update":"0001-01-01T00:00:00Z","name_a2s":"Uncletopia | Atlanta | 3 | Stopwatch","protocol":17,"map":"koth_highpass","folder":"tf","game":"Team Fortress","app_id":440,"player_count":0,"max_players":24,"Bots":0,"server_type":"Dedicated","server_os":"Linux","password":true,"vac":true,"version":"7961495","steam_id":85568392924515187,"keywords":["cp","nocrits","nodmgspread","uncletopia"],"game_id":440,"stv_port":27036,"stv_name":"Uncletopia | Atlanta | 3 | Stopwatch | STV","players":null},{"server_id":401,"name":"Uncletopia | Atlanta | 4 | Community","name_short":"atl-4","host":"atl-1.us.uncletopia.com","port":27045,"enabled":true,"region":"us-east","cc":"us","latitude":33.753746,"longitude":-84.38633,"reserved":0,"last_update":"0001-01-01T00:00:00Z","name_a2s":"Uncletopia | Atlanta | 4 | Community","protocol":17,"map":"workshop/koth_trenchfoot_ab1.ugc731436616","folder":"tf","game":"Team Fortress","app_id":440,"player_count":0,"max_players":24,"Bots":0,"server_type":"Dedicated","server_os":"Linux","password":true,"vac":true,"version":"7961495","steam_id":85568392924515188,"keywords":["cp","nocrits","nodmgspread","uncletopia"],"game_id":440,"stv_port":27046,"stv_name":"Uncletopia | Atlanta | 4 | Community | STV","players":null},{"server_id":2,"name":"Uncletopia | Chicago | 1 | All Maps","name_short":"chi-1","host":"chi-1.us.uncletopia.com","port":27015,"enabled":true,"region":"us-central","cc":"us","latitude":41.881832,"longitude":-87.62318,"reserved":0,"last_update":"0001-01-01T00:00:00Z","name_a2s":"Uncletopia | Chicago | 1 | All Maps","protocol":17,"map":"cp_dustbowl","folder":"tf","game":"Team Fortress","app_id":440,"player_count":4,"max_players":24,"Bots":0,"server_type":"Dedicated","server_os":"Linux","password":true,"vac":true,"version":"7961495","steam_id":85568392924469984,"keywords":["cp","nocrits","nodmgspread","uncletopia"],"game_id":440,"stv_port":27016,"stv_name":"Uncletopia | Chicago | 1 | All Maps | STV","players":[{"user_id":902,"name":"game cube manual","steam_id":76561199128872873,"connected_time":159000000000,"state":"active","ping":62},{"user_id":890,"name":"Micc","steam_id":76561199447744486,"connected_time":1025000000000,"state":"active","ping":89},{"user_id":903,"name":"Castroy","steam_id":76561198108160099,"connected_time":8000000000,"state":"active","ping":83},{"user_id":884,"name":"RhinoBeetle1","steam_id":76561199001783102,"connected_time":1234000000000,"state":"active","ping":104}]},{"server_id":106,"name":"Uncletopia | Chicago | 2 | All Maps","name_short":"chi-2","host":"chi-1.us.uncletopia.com","port":27025,"enabled":true,"region":"us-central","cc":"us","latitude":41.881832,"longitude":-87.62318,"reserved":0,"last_update":"0001-01-01T00:00:00Z","name_a2s":"Uncletopia | Chicago | 2 | All Maps","protocol":17,"map":"pl_upward","folder":"tf","game":"Team Fortress","app_id":440,"player_count":24,"max_players":24,"Bots":0,"server_type":"Dedicated","server_os":"Linux","password":true,"vac":true,"version":"7961495","steam_id":85568392924469985,"keywords":["nocrits","nodmgspread","payload","uncletopia"],"game_id":440,"stv_port":27026,"stv_name":"Uncletopia | Chicago | 2 | All Maps | STV","players":[{"user_id":734,"name":"Meso","steam_id":76561197988971820,"connected_time":298000000000,"state":"active","ping":50},{"user_id":735,"name":"kx2947214","steam_id":76561197962607364,"connected_time":272000000000,"state":"active","ping":67},{"user_id":732,"name":"Cliff Uppercut","steam_id":76561197999439391,"connected_time":469000000000,"state":"active","ping":79},{"user_id":719,"name":"sans undertale","steam_id":76561199128903858,"connected_time":1869000000000,"state":"active","ping":115},{"user_id":741,"name":"Iron Argus","steam_id":76561198181088245,"connected_time":106000000000,"state":"active","ping":73},{"user_id":733,"name":"junebug","steam_id":76561198126662775,"connected_time":337000000000,"state":"active","ping":45},{"user_id":695,"name":"PizzaThot","steam_id":76561198278237289,"connected_time":3259000000000,"state":"active","ping":78},{"user_id":740,"name":"MoonWolf","steam_id":76561198095735033,"connected_time":121000000000,"state":"active","ping":71},{"user_id":673,"name":"Bloodborne","steam_id":76561198072541436,"connected_time":4677000000000,"state":"active","ping":48},{"user_id":736,"name":"Alecto","steam_id":76561198042476864,"connected_time":244000000000,"state":"active","ping":45},{"user_id":737,"name":"Rohi Mig","steam_id":76561198113623627,"connected_time":239000000000,"state":"active","ping":68},{"user_id":689,"name":"nick","steam_id":76561198280418742,"connected_time":3365000000000,"state":"active","ping":68},{"user_id":738,"name":"Goofball","steam_id":76561199367622042,"connected_time":222000000000,"state":"active","ping":94},{"user_id":728,"name":"Gingoguy","steam_id":76561198088931297,"connected_time":1259000000000,"state":"active","ping":55},{"user_id":704,"name":"Jerry Kool-Aid","steam_id":76561198030281560,"connected_time":3079000000000,"state":"active","ping":62},{"user_id":720,"name":"GʀEEɴ cuMuʟOɴ","steam_id":76561198023350890,"connected_time":1851000000000,"state":"active","ping":93},{"user_id":693,"name":"Nefarious Fentsmokaa Rudebwoy","steam_id":76561198160572249,"connected_time":3292000000000,"state":"active","ping":85},{"user_id":739,"name":"Neo","steam_id":76561198112618713,"connected_time":205000000000,"state":"active","ping":78},{"user_id":729,"name":"Crystal Toa","steam_id":76561198033861221,"connected_time":1203000000000,"state":"active","ping":112},{"user_id":698,"name":"smef","steam_id":76561198321385895,"connected_time":3238000000000,"state":"active","ping":59},{"user_id":742,"name":"Saucy Boy","steam_id":76561198178332031,"connected_time":91000000000,"state":"active","ping":69},{"user_id":730,"name":"Fargo","steam_id":76561198044703931,"connected_time":1193000000000,"state":"active","ping":119},{"user_id":743,"name":"kai","steam_id":76561198258789116,"connected_time":32000000000,"state":"active","ping":42},{"user_id":702,"name":"Persona404","steam_id":76561198109635077,"connected_time":3205000000000,"state":"active","ping":91}]},{"server_id":402,"name":"Uncletopia | Chicago | 3 | All Maps","name_short":"chi-3","host":"chi-1.us.uncletopia.com","port":27035,"enabled":true,"region":"us-central","cc":"us","latitude":41.881832,"longitude":-87.62318,"reserved":0,"last_update":"0001-01-01T00:00:00Z","name_a2s":"Uncletopia | Chicago | 3 | All Maps","protocol":17,"map":"pl_barnblitz","folder":"tf","game":"Team Fortress","app_id":440,"player_count":24,"max_players":24,"Bots":0,"server_type":"Dedicated","server_os":"Linux","password":true,"vac":true,"version":"7961495","steam_id":85568392924515191,"keywords":["nocrits","nodmgspread","payload","uncletopia"],"game_id":440,"stv_port":27036,"stv_name":"Uncletopia | Chicago | 3 | All Maps | STV","players":[{"user_id":567,"name":"Rukks","steam_id":76561197993918954,"connected_time":2004000000000,"state":"active","ping":99},{"user_id":562,"name":"TheSnipersHat","steam_id":76561198057684066,"connected_time":2122000000000,"state":"active","ping":51},{"user_id":582,"name":"Passionate Map Researcher","steam_id":76561199490508357,"connected_time":332000000000,"state":"active","ping":74},{"user_id":544,"name":"Sam","steam_id":76561198012364798,"connected_time":4237000000000,"state":"active","ping":51},{"user_id":583,"name":"Dr. P. P. Shidfard","steam_id":76561197974363272,"connected_time":326000000000,"state":"active","ping":88},{"user_id":577,"name":"Michiru","steam_id":76561198878701671,"connected_time":1095000000000,"state":"active","ping":72},{"user_id":557,"name":"Cabbage","steam_id":76561198405573530,"connected_time":2645000000000,"state":"active","ping":62},{"user_id":520,"name":"The Ancient Tome Scryer","steam_id":76561198811958825,"connected_time":6429000000000,"state":"active","ping":64},{"user_id":547,"name":"mak","steam_id":76561198071535971,"connected_time":4035000000000,"state":"active","ping":104},{"user_id":573,"name":"WalrusNyetheBonkGuy","steam_id":76561197995626774,"connected_time":1392000000000,"state":"active","ping":107},{"user_id":574,"name":"krebex","steam_id":76561198004660630,"connected_time":1229000000000,"state":"active","ping":68},{"user_id":545,"name":"mopsyNYAA","steam_id":76561199044347663,"connected_time":4050000000000,"state":"active","ping":45},{"user_id":512,"name":"The Great Bearer of Wealth","steam_id":76561198352687317,"connected_time":6552000000000,"state":"active","ping":84},{"user_id":546,"name":"Large Man","steam_id":76561198880396651,"connected_time":4043000000000,"state":"active","ping":89},{"user_id":493,"name":"shitass | troutsupply.net","steam_id":76561198210572481,"connected_time":8689000000000,"state":"active","ping":82},{"user_id":568,"name":"living in mushroom park","steam_id":76561198097588802,"connected_time":1984000000000,"state":"active","ping":45},{"user_id":581,"name":"Steve Jobs' cousin Hand Jobs","steam_id":76561198282766831,"connected_time":988000000000,"state":"active","ping":50},{"user_id":571,"name":"The High Sorcerer","steam_id":76561198381214177,"connected_time":1532000000000,"state":"active","ping":53},{"user_id":579,"name":"WillieMakit","steam_id":76561197985391684,"connected_time":1083000000000,"state":"active","ping":110},{"user_id":569,"name":"Scruga","steam_id":76561197993476998,"connected_time":1787000000000,"state":"active","ping":140},{"user_id":561,"name":"HIDDEN HIPPO the hippo","steam_id":76561198071628457,"connected_time":2441000000000,"state":"active","ping":53},{"user_id":564,"name":"Duck","steam_id":76561198076077244,"connected_time":2080000000000,"state":"active","ping":63},{"user_id":584,"name":"mommy","steam_id":76561198129195009,"connected_time":317000000000,"state":"active","ping":128},{"user_id":580,"name":"C∅RVUS","steam_id":76561198100640019,"connected_time":1040000000000,"state":"active","ping":122}]},{"server_id":403,"name":"Uncletopia | Chicago | 4 | All Maps","name_short":"chi-4","host":"chi-1.us.uncletopia.com","port":27045,"enabled":true,"region":"us-central","cc":"us","latitude":41.881832,"longitude":-87.62318,"reserved":0,"last_update":"0001-01-01T00:00:00Z","name_a2s":"Uncletopia | Chicago | 4 | All Maps","protocol":17,"map":"pl_borneo","folder":"tf","game":"Team Fortress","app_id":440,"player_count":24,"max_players":24,"Bots":0,"server_type":"Dedicated","server_os":"Linux","password":true,"vac":true,"version":"7961495","steam_id":85568392924515193,"keywords":["nocrits","nodmgspread","payload","uncletopia"],"game_id":440,"stv_port":27046,"stv_name":"Uncletopia | Chicago | 4 | All Maps | STV","players":[{"user_id":794,"name":"Rein","steam_id":76561198300340427,"connected_time":1135000000000,"state":"active","ping":60},{"user_id":799,"name":"Spy Kart 2","steam_id":76561199486212244,"connected_time":304000000000,"state":"active","ping":82},{"user_id":800,"name":"♡Ame♡","steam_id":76561198071217748,"connected_time":285000000000,"state":"active","ping":60},{"user_id":801,"name":"We Make It Look Easy™","steam_id":76561198024442760,"connected_time":263000000000,"state":"active","ping":70},{"user_id":802,"name":"SpycyNoodles","steam_id":76561198309439750,"connected_time":244000000000,"state":"active","ping":62},{"user_id":744,"name":"Jibanyanlnewells69","steam_id":76561198337420431,"connected_time":4726000000000,"state":"active","ping":61},{"user_id":797,"name":"kazoodles","steam_id":76561198044969343,"connected_time":948000000000,"state":"active","ping":72},{"user_id":804,"name":"b","steam_id":76561198156336213,"connected_time":148000000000,"state":"active","ping":76},{"user_id":803,"name":"lil' Wayne","steam_id":76561198050136796,"connected_time":234000000000,"state":"active","ping":90},{"user_id":775,"name":"The Sydney Sleeper Itself","steam_id":76561198180251763,"connected_time":1641000000000,"state":"active","ping":69},{"user_id":809,"name":"wrongthink","steam_id":76561198830293087,"connected_time":114000000000,"state":"active","ping":42},{"user_id":796,"name":"Amish Robot","steam_id":76561198041156065,"connected_time":962000000000,"state":"active","ping":75},{"user_id":776,"name":"canadian boy (derogatory)","steam_id":76561198812820921,"connected_time":1640000000000,"state":"active","ping":82},{"user_id":790,"name":"ms. capgras [troutsupply.net]","steam_id":76561199080209996,"connected_time":1186000000000,"state":"active","ping":53},{"user_id":806,"name":"planelover96","steam_id":76561198208820421,"connected_time":125000000000,"state":"active","ping":47},{"user_id":647,"name":"kaputon","steam_id":76561198146299782,"connected_time":10092000000000,"state":"active","ping":59},{"user_id":745,"name":"Just some clown","steam_id":76561198998953018,"connected_time":4723000000000,"state":"active","ping":112},{"user_id":783,"name":"Training Bot [Easy]","steam_id":76561199119473164,"connected_time":1326000000000,"state":"active","ping":77},{"user_id":784,"name":"Bolbi","steam_id":76561198051811597,"connected_time":1315000000000,"state":"active","ping":104},{"user_id":746,"name":"CheeZeyRat","steam_id":76561199473394284,"connected_time":4716000000000,"state":"active","ping":77},{"user_id":808,"name":"shoota","steam_id":76561198284992433,"connected_time":120000000000,"state":"active","ping":49},{"user_id":791,"name":"Spare(8)Ball","steam_id":76561197982432995,"connected_time":1183000000000,"state":"active","ping":102},{"user_id":792,"name":"Dalvarious","steam_id":76561198052771928,"connected_time":1174000000000,"state":"active","ping":65},{"user_id":632,"name":"Shrebbie","steam_id":76561198875230824,"connected_time":12022000000000,"state":"active","ping":59}]},{"server_id":36,"name":"Uncletopia | Chicago | 5 | All Maps","name_short":"chi-5","host":"chi-2.us.uncletopia.com","port":27015,"enabled":true,"region":"us-central","cc":"us","latitude":41.881832,"longitude":-87.62318,"reserved":0,"last_update":"0001-01-01T00:00:00Z","name_a2s":"Uncletopia | Chicago | 5 | All Maps","protocol":17,"map":"koth_lakeside_final","folder":"tf","game":"Team Fortress","app_id":440,"player_count":5,"max_players":24,"Bots":0,"server_type":"Dedicated","server_os":"Linux","password":true,"vac":true,"version":"7961495","steam_id":85568392924866362,"keywords":["cp","nocrits","nodmgspread","uncletopia"],"game_id":440,"stv_port":27016,"stv_name":"Uncletopia | Chicago | 5 | All Maps | STV","players":[{"user_id":695,"name":"Slime Çiftçisi","steam_id":76561199071317611,"connected_time":2381000000000,"state":"active","ping":195},{"user_id":696,"name":"Mifune","steam_id":76561198838596371,"connected_time":2350000000000,"state":"active","ping":47},{"user_id":707,"name":"doing the sponge","steam_id":76561198058209703,"connected_time":87000000000,"state":"active","ping":42},{"user_id":703,"name":"be nice im new","steam_id":76561199227557263,"connected_time":928000000000,"state":"active","ping":84},{"user_id":700,"name":"Dom","steam_id":76561198156431338,"connected_time":2249000000000,"state":"active","ping":48}]},{"server_id":37,"name":"Uncletopia | Chicago | 6 | All Maps","name_short":"chi-6","host":"chi-2.us.uncletopia.com","port":27025,"enabled":true,"region":"us-central","cc":"us","latitude":41.881832,"longitude":-87.62318,"reserved":0,"last_update":"0001-01-01T00:00:00Z","name_a2s":"Uncletopia | Chicago | 6 | All Maps","protocol":17,"map":"pl_barnblitz","folder":"tf","game":"Team Fortress","app_id":440,"player_count":24,"max_players":24,"Bots":0,"server_type":"Dedicated","server_os":"Linux","password":true,"vac":true,"version":"7961495","steam_id":85568392924866363,"keywords":["nocrits","nodmgspread","payload","uncletopia"],"game_id":440,"stv_port":27026,"stv_name":"Uncletopia | Chicago | 6 | All Maps | STV","players":[{"user_id":376,"name":"BANDIDO","steam_id":76561199509676031,"connected_time":849000000000,"state":"active","ping":57},{"user_id":344,"name":"Kola ✧","steam_id":76561198049995341,"connected_time":3273000000000,"state":"active","ping":48},{"user_id":374,"name":"LVL","steam_id":76561198334403617,"connected_time":864000000000,"state":"active","ping":58},{"user_id":352,"name":"The strongest ⑨ ball","steam_id":76561198126760743,"connected_time":2382000000000,"state":"active","ping":75},{"user_id":372,"name":"-Freelove-","steam_id":76561198448594120,"connected_time":1454000000000,"state":"active","ping":129},{"user_id":342,"name":"iiamiizzyy","steam_id":76561198355030751,"connected_time":3431000000000,"state":"active","ping":88},{"user_id":359,"name":"jim bob","steam_id":76561197992464368,"connected_time":1994000000000,"state":"active","ping":94},{"user_id":367,"name":"Zippy","steam_id":76561198279229422,"connected_time":1682000000000,"state":"active","ping":56},{"user_id":378,"name":"Frontier Psychiatrist","steam_id":76561198038689088,"connected_time":812000000000,"state":"active","ping":84},{"user_id":368,"name":"The Pootis'd Berd","steam_id":76561198141903490,"connected_time":1666000000000,"state":"active","ping":105},{"user_id":327,"name":"frank","steam_id":76561198137777483,"connected_time":4793000000000,"state":"active","ping":65},{"user_id":365,"name":"poopybutt420","steam_id":76561199000805315,"connected_time":1814000000000,"state":"active","ping":93},{"user_id":353,"name":"Uwu Micster","steam_id":76561198843890616,"connected_time":2379000000000,"state":"active","ping":80},{"user_id":379,"name":"I. C. Wiener","steam_id":76561198062777610,"connected_time":758000000000,"state":"active","ping":101},{"user_id":373,"name":"jordan","steam_id":76561198136642793,"connected_time":1197000000000,"state":"active","ping":72},{"user_id":371,"name":"Entar","steam_id":76561197968661166,"connected_time":1481000000000,"state":"active","ping":60},{"user_id":377,"name":"FELON #COMEGETME","steam_id":76561198144766439,"connected_time":836000000000,"state":"active","ping":46},{"user_id":332,"name":"Pollen Buying Skins \u0026 Backpacks","steam_id":76561198061779536,"connected_time":4563000000000,"state":"active","ping":70},{"user_id":333,"name":"ChampionOfSheets","steam_id":76561198297380028,"connected_time":4529000000000,"state":"active","ping":81},{"user_id":356,"name":"slep.py","steam_id":76561197988287144,"connected_time":2218000000000,"state":"active","ping":56},{"user_id":357,"name":"Sweater-Fan","steam_id":76561199389567214,"connected_time":2190000000000,"state":"active","ping":69},{"user_id":358,"name":"dzcreeper","steam_id":76561198072250723,"connected_time":2165000000000,"state":"active","ping":76},{"user_id":354,"name":"Grandad","steam_id":76561198931285831,"connected_time":2346000000000,"state":"active","ping":85},{"user_id":381,"name":"have blue","steam_id":76561198054260599,"connected_time":105000000000,"state":"active","ping":80}]},{"server_id":38,"name":"Uncletopia | Chicago | 7 | Stopwatch","name_short":"chi-7","host":"chi-2.us.uncletopia.com","port":27035,"enabled":true,"region":"us-central","cc":"us","latitude":41.881832,"longitude":-87.62318,"reserved":0,"last_update":"0001-01-01T00:00:00Z","name_a2s":"Uncletopia | Chicago | 7 | Stopwatch","protocol":17,"map":"koth_highpass","folder":"tf","game":"Team Fortress","app_id":440,"player_count":0,"max_players":24,"Bots":0,"server_type":"Dedicated","server_os":"Linux","password":true,"vac":true,"version":"7961495","steam_id":85568392924866364,"keywords":["cp","nocrits","nodmgspread","uncletopia"],"game_id":440,"stv_port":27036,"stv_name":"Uncletopia | Chicago | 7 | Stopwatch | STV","players":null},{"server_id":39,"name":"Uncletopia | Chicago | 8 | Community","name_short":"chi-8","host":"chi-2.us.uncletopia.com","port":27045,"enabled":true,"region":"us-central","cc":"us","latitude":41.881832,"longitude":-87.62318,"reserved":0,"last_update":"0001-01-01T00:00:00Z","name_a2s":"Uncletopia | Chicago | 8 | Community","protocol":17,"map":"workshop/koth_slaughter_rc1.ugc1712845210","folder":"tf","game":"Team Fortress","app_id":440,"player_count":0,"max_players":24,"Bots":0,"server_type":"Dedicated","server_os":"Linux","password":true,"vac":true,"version":"7961495","steam_id":85568392924866365,"keywords":["cp","nocrits","nodmgspread","uncletopia"],"game_id":440,"stv_port":27046,"stv_name":"Uncletopia | Chicago | 8 | Community | STV","players":null},{"server_id":8,"name":"Uncletopia | Dallas | 1 | All Maps","name_short":"dal-1","host":"dal-1.us.uncletopia.com","port":27015,"enabled":true,"region":"us-central","cc":"us","latitude":32.779167,"longitude":-96.80889,"reserved":0,"last_update":"0001-01-01T00:00:00Z","name_a2s":"Uncletopia | Dallas | 1 | All Maps","protocol":17,"map":"pl_snowycoast","folder":"tf","game":"Team Fortress","app_id":440,"player_count":18,"max_players":24,"Bots":0,"server_type":"Dedicated","server_os":"Linux","password":true,"vac":true,"version":"7961495","steam_id":85568392924469986,"keywords":["nocrits","nodmgspread","payload","uncletopia"],"game_id":440,"stv_port":27016,"stv_name":"Uncletopia | Dallas | 1 | All Maps | STV","players":[{"user_id":639,"name":"Pvt. Dimitri Petrenko","steam_id":76561198078040091,"connected_time":5505000000000,"state":"active","ping":36},{"user_id":663,"name":"motherfucker 2.0","steam_id":76561198141189209,"connected_time":1868000000000,"state":"active","ping":37},{"user_id":679,"name":"Wipes-Pee-Hole","steam_id":76561198144420129,"connected_time":30000000000,"state":"active","ping":84},{"user_id":670,"name":"array","steam_id":76561198280409646,"connected_time":1717000000000,"state":"active","ping":75},{"user_id":667,"name":"mama luigi","steam_id":76561199012771039,"connected_time":1764000000000,"state":"active","ping":59},{"user_id":671,"name":"Glint_","steam_id":76561199084430003,"connected_time":1682000000000,"state":"active","ping":78},{"user_id":662,"name":"Muselk, but mexican","steam_id":76561199289676387,"connected_time":2164000000000,"state":"active","ping":57},{"user_id":665,"name":"♥Hakaii♥","steam_id":76561197989633581,"connected_time":1805000000000,"state":"active","ping":59},{"user_id":654,"name":"Tony","steam_id":76561198169799653,"connected_time":2827000000000,"state":"active","ping":59},{"user_id":633,"name":"daemon","steam_id":76561198001541433,"connected_time":6274000000000,"state":"active","ping":69},{"user_id":587,"name":"Andrew's Taint","steam_id":76561198131400543,"connected_time":10709000000000,"state":"active","ping":66},{"user_id":666,"name":"TheHumanTaco119","steam_id":76561198996107520,"connected_time":1786000000000,"state":"active","ping":85},{"user_id":676,"name":"playguy carter","steam_id":76561198080679337,"connected_time":1016000000000,"state":"active","ping":75},{"user_id":652,"name":"Srg-Waffle","steam_id":76561198204555116,"connected_time":2890000000000,"state":"active","ping":93},{"user_id":646,"name":"AzuriousAlex","steam_id":76561198158026405,"connected_time":4582000000000,"state":"active","ping":70},{"user_id":647,"name":"antediluvian death angel","steam_id":76561199001918194,"connected_time":4571000000000,"state":"active","ping":89},{"user_id":674,"name":"bigchungusgaming(real)","steam_id":76561198273392037,"connected_time":1129000000000,"state":"active","ping":82},{"user_id":576,"name":"lover is my jean billie not","steam_id":76561198054070811,"connected_time":11836000000000,"state":"active","ping":73}]},{"server_id":108,"name":"Uncletopia | Dallas | 2 | All Maps","name_short":"dal-2","host":"dal-1.us.uncletopia.com","port":27025,"enabled":true,"region":"us-central","cc":"us","latitude":32.779167,"longitude":-96.80889,"reserved":0,"last_update":"0001-01-01T00:00:00Z","name_a2s":"Uncletopia | Dallas | 2 | All Maps","protocol":17,"map":"cp_sunshine","folder":"tf","game":"Team Fortress","app_id":440,"player_count":14,"max_players":24,"Bots":0,"server_type":"Dedicated","server_os":"Linux","password":true,"vac":true,"version":"7961495","steam_id":85568392924469988,"keywords":["cp","nocrits","nodmgspread","uncletopia"],"game_id":440,"stv_port":27026,"stv_name":"Uncletopia | Dallas | 2 | All Maps | STV","players":[{"user_id":802,"name":"Lezabel","steam_id":76561198970753261,"connected_time":102000000000,"state":"active","ping":68},{"user_id":803,"name":"Rex","steam_id":76561198138365053,"connected_time":101000000000,"state":"active","ping":132},{"user_id":732,"name":"stuffedidiot","steam_id":76561199181513019,"connected_time":5844000000000,"state":"active","ping":111},{"user_id":804,"name":"nori_420","steam_id":76561199117134203,"connected_time":83000000000,"state":"active","ping":85},{"user_id":793,"name":"Yeee","steam_id":76561198362095593,"connected_time":1114000000000,"state":"active","ping":81},{"user_id":800,"name":"Pinkie Pie","steam_id":76561198957996236,"connected_time":342000000000,"state":"active","ping":78},{"user_id":794,"name":"minecraft","steam_id":76561198104345201,"connected_time":1061000000000,"state":"active","ping":81},{"user_id":743,"name":"Bond","steam_id":76561198089262776,"connected_time":5410000000000,"state":"active","ping":47},{"user_id":764,"name":"anonEDM","steam_id":76561197976560316,"connected_time":3790000000000,"state":"active","ping":93},{"user_id":798,"name":"craven","steam_id":76561198088191503,"connected_time":584000000000,"state":"active","ping":63},{"user_id":768,"name":"Rat Smacker","steam_id":76561198043629646,"connected_time":2345000000000,"state":"active","ping":61},{"user_id":788,"name":"LaChancla","steam_id":76561198971528917,"connected_time":1946000000000,"state":"active","ping":46},{"user_id":752,"name":"i got a new old mouse","steam_id":76561198421913648,"connected_time":4779000000000,"state":"active","ping":117},{"user_id":791,"name":"Calisto_789","steam_id":76561198062352573,"connected_time":1737000000000,"state":"active","ping":63}]},{"server_id":404,"name":"Uncletopia | Dallas | 3 | All Maps","name_short":"dal-3","host":"dal-1.us.uncletopia.com","port":27035,"enabled":true,"region":"us-central","cc":"us","latitude":32.779167,"longitude":-96.80889,"reserved":0,"last_update":"0001-01-01T00:00:00Z","name_a2s":"Uncletopia | Dallas | 3 | All Maps","protocol":17,"map":"pl_borneo","folder":"tf","game":"Team Fortress","app_id":440,"player_count":2,"max_players":24,"Bots":0,"server_type":"Dedicated","server_os":"Linux","password":true,"vac":true,"version":"7961495","steam_id":85568392924515219,"keywords":["nocrits","nodmgspread","payload","uncletopia"],"game_id":440,"stv_port":27036,"stv_name":"Uncletopia | Dallas | 3 | All Maps | STV","players":[{"user_id":847,"name":"Crλf227","steam_id":76561198196211121,"connected_time":1304000000000,"state":"active","ping":56},{"user_id":605,"name":"self sufficient kitten ♥","steam_id":76561197960592612,"connected_time":13938000000000,"state":"active","ping":94}]},{"server_id":405,"name":"Uncletopia | Dallas | 4 | Community","name_short":"dal-4","host":"dal-1.us.uncletopia.com","port":27045,"enabled":true,"region":"us-central","cc":"us","latitude":32.779167,"longitude":-96.80889,"reserved":0,"last_update":"0001-01-01T00:00:00Z","name_a2s":"Uncletopia | Dallas | 4 | Community","protocol":17,"map":"workshop/cp_hazyfort_rc6.ugc1365963729","folder":"tf","game":"Team Fortress","app_id":440,"player_count":0,"max_players":24,"Bots":0,"server_type":"Dedicated","server_os":"Linux","password":true,"vac":true,"version":"7961495","steam_id":85568392924515220,"keywords":["cp","nocrits","nodmgspread","uncletopia"],"game_id":440,"stv_port":27046,"stv_name":"Uncletopia | Dallas | 4 | Community | STV","players":null},{"server_id":5,"name":"Uncletopia | Frankfurt | 1 | All Maps","name_short":"frk-1","host":"frk-1.de.uncletopia.com","port":27015,"enabled":true,"region":"eu","cc":"de","latitude":50.110924,"longitude":8.682127,"reserved":0,"last_update":"0001-01-01T00:00:00Z","name_a2s":"Uncletopia | Frankfurt | 1 | All Maps","protocol":17,"map":"koth_highpass","folder":"tf","game":"Team Fortress","app_id":440,"player_count":0,"max_players":24,"Bots":0,"server_type":"Dedicated","server_os":"Linux","password":true,"vac":true,"version":"7961495","steam_id":85568392924469989,"keywords":["cp","nocrits","nodmgspread","uncletopia"],"game_id":440,"stv_port":27016,"stv_name":"Uncletopia | Frankfurt | 1 | All Maps | STV","players":null},{"server_id":110,"name":"Uncletopia | Frankfurt | 2 | All Maps","name_short":"frk-2","host":"frk-1.de.uncletopia.com","port":27025,"enabled":true,"region":"eu","cc":"de","latitude":50.110924,"longitude":8.682127,"reserved":0,"last_update":"0001-01-01T00:00:00Z","name_a2s":"Uncletopia | Frankfurt | 2 | All Maps","protocol":17,"map":"cp_coldfront","folder":"tf","game":"Team Fortress","app_id":440,"player_count":0,"max_players":24,"Bots":0,"server_type":"Dedicated","server_os":"Linux","password":true,"vac":true,"version":"7961495","steam_id":85568392924469990,"keywords":["cp","nocrits","nodmgspread","uncletopia"],"game_id":440,"stv_port":27026,"stv_name":"Uncletopia | Frankfurt | 2 | All Maps | STV","players":null},{"server_id":308,"name":"Uncletopia | Frankfurt | 3 | All Maps","name_short":"frk-3","host":"frk-1.de.uncletopia.com","port":27035,"enabled":true,"region":"eu","cc":"de","latitude":50.110924,"longitude":8.682127,"reserved":0,"last_update":"0001-01-01T00:00:00Z","name_a2s":"Uncletopia | Frankfurt | 3 | All Maps","protocol":17,"map":"plr_pipeline","folder":"tf","game":"Team Fortress","app_id":440,"player_count":0,"max_players":24,"Bots":0,"server_type":"Dedicated","server_os":"Linux","password":true,"vac":true,"version":"7961495","steam_id":85568392924504274,"keywords":["nocrits","nodmgspread","payload","uncletopia"],"game_id":440,"stv_port":27036,"stv_name":"Uncletopia | Frankfurt | 3 | All Maps | STV","players":null},{"server_id":309,"name":"Uncletopia | Frankfurt | 4 | All Maps","name_short":"frk-4","host":"frk-1.de.uncletopia.com","port":27045,"enabled":true,"region":"eu","cc":"de","latitude":50.110924,"longitude":8.682127,"reserved":0,"last_update":"0001-01-01T00:00:00Z","name_a2s":"Uncletopia | Frankfurt | 4 | All Maps","protocol":17,"map":"koth_lakeside_final","folder":"tf","game":"Team Fortress","app_id":440,"player_count":0,"max_players":24,"Bots":0,"server_type":"Dedicated","server_os":"Linux","password":true,"vac":true,"version":"7961495","steam_id":85568392924504275,"keywords":["cp","nocrits","nodmgspread","uncletopia"],"game_id":440,"stv_port":27046,"stv_name":"Uncletopia | Frankfurt | 4 | All Maps | STV","players":null},{"server_id":310,"name":"Uncletopia | Frankfurt | 5 | All Maps","name_short":"frk-5","host":"frk-1.de.uncletopia.com","port":27055,"enabled":true,"region":"eu","cc":"de","latitude":50.110924,"longitude":8.682127,"reserved":0,"last_update":"0001-01-01T00:00:00Z","name_a2s":"Uncletopia | Frankfurt | 5 | All Maps","protocol":17,"map":"cp_gorge","folder":"tf","game":"Team Fortress","app_id":440,"player_count":0,"max_players":24,"Bots":0,"server_type":"Dedicated","server_os":"Linux","password":true,"vac":true,"version":"7961495","steam_id":85568392924504277,"keywords":["cp","nocrits","nodmgspread","uncletopia"],"game_id":440,"stv_port":27056,"stv_name":"Uncletopia | Frankfurt | 5 | All Maps | STV","players":null},{"server_id":311,"name":"Uncletopia | Frankfurt | 6 | All Maps","name_short":"frk-6","host":"frk-1.de.uncletopia.com","port":27065,"enabled":true,"region":"eu","cc":"de","latitude":50.110924,"longitude":8.682127,"reserved":0,"last_update":"0001-01-01T00:00:00Z","name_a2s":"Uncletopia | Frankfurt | 6 | All Maps","protocol":17,"map":"cp_steel","folder":"tf","game":"Team Fortress","app_id":440,"player_count":0,"max_players":24,"Bots":0,"server_type":"Dedicated","server_os":"Linux","password":true,"vac":true,"version":"7961495","steam_id":85568392924504278,"keywords":["cp","nocrits","nodmgspread","uncletopia"],"game_id":440,"stv_port":27066,"stv_name":"Uncletopia | Frankfurt | 6 | All Maps | STV","players":null},{"server_id":23,"name":"Uncletopia | Frankfurt | 7 | Stopwatch","name_short":"frk-7","host":"frk-1.de.uncletopia.com","port":27075,"enabled":true,"region":"eu","cc":"de","latitude":50.110924,"longitude":8.682127,"reserved":0,"last_update":"0001-01-01T00:00:00Z","name_a2s":"Uncletopia | Frankfurt | 7 | Stopwatch","protocol":17,"map":"koth_highpass","folder":"tf","game":"Team Fortress","app_id":440,"player_count":0,"max_players":24,"Bots":0,"server_type":"Dedicated","server_os":"Linux","password":true,"vac":true,"version":"7961495","steam_id":85568392924742827,"keywords":["cp","nocrits","nodmgspread","uncletopia"],"game_id":440,"stv_port":27076,"stv_name":"Uncletopia | Frankfurt | 7 | Stopwatch | STV","players":null},{"server_id":24,"name":"Uncletopia | Frankfurt | 8 | Community","name_short":"frk-8","host":"frk-1.de.uncletopia.com","port":27085,"enabled":true,"region":"eu","cc":"de","latitude":50.110924,"longitude":8.682127,"reserved":0,"last_update":"0001-01-01T00:00:00Z","name_a2s":"Uncletopia | Frankfurt | 8 | Community","protocol":17,"map":"workshop/pl_stallberg_rc3.ugc1849111469","folder":"tf","game":"Team Fortress","app_id":440,"player_count":0,"max_players":24,"Bots":0,"server_type":"Dedicated","server_os":"Linux","password":true,"vac":true,"version":"7961495","steam_id":85568392924742828,"keywords":["nocrits","nodmgspread","payload","uncletopia"],"game_id":440,"stv_port":27086,"stv_name":"Uncletopia | Frankfurt | 8 | Community | STV","players":null},{"server_id":202,"name":"Uncletopia | Hong Kong | 1 | All Maps","name_short":"hgk-1","host":"hgk-1.hk.uncletopia.com","port":27015,"enabled":true,"region":"asia","cc":"hk","latitude":22.302711,"longitude":114.177216,"reserved":0,"last_update":"0001-01-01T00:00:00Z","name_a2s":"Uncletopia | Hong Kong | 1 | All Maps","protocol":17,"map":"koth_nucleus","folder":"tf","game":"Team Fortress","app_id":440,"player_count":24,"max_players":24,"Bots":0,"server_type":"Dedicated","server_os":"Linux","password":true,"vac":true,"version":"7961495","steam_id":85568392924494504,"keywords":["cp","nocrits","nodmgspread","uncletopia"],"game_id":440,"stv_port":27016,"stv_name":"Uncletopia | Hong Kong | 1 | All Maps | STV","players":[{"user_id":19,"name":"Corbezy","steam_id":76561197993398349,"connected_time":14155000000000,"state":"active","ping":92},{"user_id":176,"name":"Dr. Piss Rat","steam_id":76561199074809838,"connected_time":971000000000,"state":"active","ping":69},{"user_id":150,"name":"BURN PYGMALION!!!","steam_id":76561198074339034,"connected_time":3117000000000,"state":"active","ping":72},{"user_id":168,"name":"im_0ff","steam_id":76561198339346695,"connected_time":1530000000000,"state":"active","ping":121},{"user_id":118,"name":"ArcticDolphin","steam_id":76561198203626319,"connected_time":6512000000000,"state":"active","ping":124},{"user_id":178,"name":"saucemann","steam_id":76561199009556495,"connected_time":763000000000,"state":"active","ping":97},{"user_id":59,"name":"14","steam_id":76561198113401862,"connected_time":10394000000000,"state":"active","ping":86},{"user_id":162,"name":"好油喔peko","steam_id":76561198326354576,"connected_time":2508000000000,"state":"active","ping":98},{"user_id":132,"name":"UR MOTHERRR... IS A N**GERRR","steam_id":76561198797699056,"connected_time":5323000000000,"state":"active","ping":91},{"user_id":179,"name":"water tastes good","steam_id":76561199375947670,"connected_time":655000000000,"state":"active","ping":66},{"user_id":142,"name":".-.. .- .. -.","steam_id":76561198337154745,"connected_time":4528000000000,"state":"active","ping":108},{"user_id":169,"name":"Mac09","steam_id":76561198934873063,"connected_time":1432000000000,"state":"active","ping":70},{"user_id":185,"name":"sett.","steam_id":76561199010718657,"connected_time":68000000000,"state":"active","ping":77},{"user_id":106,"name":"yveth","steam_id":76561198320532821,"connected_time":7228000000000,"state":"active","ping":72},{"user_id":177,"name":"ConHoshi","steam_id":76561199387718733,"connected_time":859000000000,"state":"active","ping":84},{"user_id":157,"name":"Bocchi gaming","steam_id":76561199063009828,"connected_time":3036000000000,"state":"active","ping":66},{"user_id":165,"name":"qingque","steam_id":76561198230213828,"connected_time":1797000000000,"state":"active","ping":57},{"user_id":182,"name":"Bearrett_","steam_id":76561198841067509,"connected_time":443000000000,"state":"active","ping":87},{"user_id":166,"name":"v1.","steam_id":76561198037571054,"connected_time":1704000000000,"state":"active","ping":41},{"user_id":158,"name":"Minos Prime Reaction","steam_id":76561199475974790,"connected_time":3015000000000,"state":"active","ping":78},{"user_id":164,"name":"tiden2000","steam_id":76561198092969425,"connected_time":1843000000000,"state":"active","ping":69},{"user_id":181,"name":"Professor 'Iggins","steam_id":76561198064448905,"connected_time":519000000000,"state":"active","ping":49},{"user_id":184,"name":"i just ate a shawarma","steam_id":76561199227541378,"connected_time":314000000000,"state":"active","ping":156},{"user_id":154,"name":"Ivy","steam_id":76561198400698408,"connected_time":3097000000000,"state":"active","ping":104}]},{"server_id":1,"name":"Uncletopia | Los Angeles | 1 | All Maps","name_short":"lax-1","host":"lax-1.us.uncletopia.com","port":27015,"enabled":true,"region":"us-west","cc":"us","latitude":33.94279,"longitude":-118.41004,"reserved":0,"last_update":"0001-01-01T00:00:00Z","name_a2s":"Uncletopia | Los Angeles | 1 | All Maps","protocol":17,"map":"pl_upward","folder":"tf","game":"Team Fortress","app_id":440,"player_count":24,"max_players":24,"Bots":0,"server_type":"Dedicated","server_os":"Linux","password":true,"vac":true,"version":"7961495","steam_id":85568392924469991,"keywords":["nocrits","nodmgspread","payload","uncletopia"],"game_id":440,"stv_port":27016,"stv_name":"Uncletopia | Los Angeles | 1 | All Maps | STV","players":[{"user_id":397,"name":"Chalupa Jones","steam_id":76561198335855588,"connected_time":3518000000000,"state":"active","ping":45},{"user_id":427,"name":"Engineer2650","steam_id":76561198121410799,"connected_time":101000000000,"state":"active","ping":95},{"user_id":391,"name":"HAT-WEARING™ Maggot Gamer Cat","steam_id":76561197973992705,"connected_time":3891000000000,"state":"active","ping":70},{"user_id":420,"name":"Cool Vibrations","steam_id":76561198142493659,"connected_time":1297000000000,"state":"active","ping":63},{"user_id":416,"name":"Khrono691","steam_id":76561198246227600,"connected_time":1562000000000,"state":"active","ping":53},{"user_id":417,"name":"mrthugpug1732","steam_id":76561198881200768,"connected_time":1488000000000,"state":"active","ping":64},{"user_id":415,"name":"a chicken","steam_id":76561198313121580,"connected_time":1592000000000,"state":"active","ping":46},{"user_id":422,"name":"Drapph","steam_id":76561199384213314,"connected_time":1082000000000,"state":"active","ping":115},{"user_id":419,"name":"Leroy Sinclair","steam_id":76561198116082889,"connected_time":1335000000000,"state":"active","ping":55},{"user_id":418,"name":"O bez","steam_id":76561198841579939,"connected_time":1374000000000,"state":"active","ping":62},{"user_id":385,"name":"drank baby","steam_id":76561199483723843,"connected_time":4672000000000,"state":"active","ping":62},{"user_id":405,"name":"Jimbo","steam_id":76561198136560547,"connected_time":2761000000000,"state":"active","ping":67},{"user_id":406,"name":"baunter","steam_id":76561198024311871,"connected_time":2753000000000,"state":"active","ping":41},{"user_id":362,"name":"himbomccree","steam_id":76561198373330850,"connected_time":6768000000000,"state":"active","ping":49},{"user_id":388,"name":"Lambchop","steam_id":76561198043900363,"connected_time":4587000000000,"state":"active","ping":65},{"user_id":318,"name":"FI LO","steam_id":76561198976530881,"connected_time":10126000000000,"state":"active","ping":31},{"user_id":425,"name":"orangePulp","steam_id":76561198038373636,"connected_time":590000000000,"state":"active","ping":62},{"user_id":389,"name":"purple hatsune miku","steam_id":76561198108844158,"connected_time":4579000000000,"state":"active","ping":56},{"user_id":428,"name":"Ssamjang","steam_id":76561197966891870,"connected_time":59000000000,"state":"active","ping":64},{"user_id":370,"name":"CometDrg0n_(he/him)","steam_id":76561198175713051,"connected_time":5776000000000,"state":"active","ping":61},{"user_id":408,"name":"Mortal Man","steam_id":76561198007499380,"connected_time":2730000000000,"state":"active","ping":84},{"user_id":423,"name":"[Industrial] A_HUMBLEBUMBLED","steam_id":76561198064771878,"connected_time":871000000000,"state":"active","ping":76},{"user_id":426,"name":"plsplsplslol","steam_id":76561198868084626,"connected_time":370000000000,"state":"active","ping":51},{"user_id":413,"name":"cringy","steam_id":76561198323000455,"connected_time":2116000000000,"state":"active","ping":64}]},{"server_id":112,"name":"Uncletopia | Los Angeles | 2 | All Maps","name_short":"lax-2","host":"lax-1.us.uncletopia.com","port":27025,"enabled":true,"region":"us-west","cc":"us","latitude":33.94279,"longitude":-118.41004,"reserved":0,"last_update":"0001-01-01T00:00:00Z","name_a2s":"Uncletopia | Los Angeles | 2 | All Maps","protocol":17,"map":"cp_dustbowl","folder":"tf","game":"Team Fortress","app_id":440,"player_count":24,"max_players":24,"Bots":0,"server_type":"Dedicated","server_os":"Linux","password":true,"vac":true,"version":"7961495","steam_id":85568392924469992,"keywords":["cp","nocrits","nodmgspread","uncletopia"],"game_id":440,"stv_port":27026,"stv_name":"Uncletopia | Los Angeles | 2 | All Maps | STV","players":[{"user_id":161,"name":"Pork Belly","steam_id":76561198053003142,"connected_time":4761000000000,"state":"active","ping":59},{"user_id":202,"name":"LeTonzy","steam_id":76561198005806699,"connected_time":1926000000000,"state":"active","ping":59},{"user_id":226,"name":"quackedツ","steam_id":76561198874961623,"connected_time":41000000000,"state":"active","ping":117},{"user_id":195,"name":"MORE BOUNCE TO THE OUNCE","steam_id":76561198243399336,"connected_time":2501000000000,"state":"active","ping":65},{"user_id":211,"name":"waffles con leche","steam_id":76561198246934872,"connected_time":997000000000,"state":"active","ping":69},{"user_id":213,"name":"An00bis","steam_id":76561198044084508,"connected_time":928000000000,"state":"active","ping":57},{"user_id":210,"name":"anonaymous","steam_id":76561198864957276,"connected_time":1201000000000,"state":"active","ping":79},{"user_id":215,"name":"Squiggle","steam_id":76561198257197535,"connected_time":881000000000,"state":"active","ping":54},{"user_id":216,"name":"TinyGayGuitar","steam_id":76561198130737316,"connected_time":844000000000,"state":"active","ping":91},{"user_id":208,"name":"Artistic","steam_id":76561198118159566,"connected_time":1590000000000,"state":"active","ping":65},{"user_id":217,"name":"Banjo Jones","steam_id":76561198006889442,"connected_time":843000000000,"state":"active","ping":89},{"user_id":218,"name":"whiteout","steam_id":76561198049017271,"connected_time":798000000000,"state":"active","ping":46},{"user_id":175,"name":"Reed the Flame Shadow","steam_id":76561198348354629,"connected_time":4066000000000,"state":"active","ping":52},{"user_id":156,"name":"Whisper!","steam_id":76561198119609795,"connected_time":4983000000000,"state":"active","ping":53},{"user_id":197,"name":"juice drainer","steam_id":76561198361999761,"connected_time":2482000000000,"state":"active","ping":50},{"user_id":157,"name":"Eden","steam_id":76561198081284664,"connected_time":4972000000000,"state":"active","ping":47},{"user_id":222,"name":"Person Man","steam_id":76561198293857963,"connected_time":616000000000,"state":"active","ping":53},{"user_id":219,"name":"superx","steam_id":76561198044976613,"connected_time":780000000000,"state":"active","ping":105},{"user_id":177,"name":"chimplicity","steam_id":76561198012097062,"connected_time":4031000000000,"state":"active","ping":63},{"user_id":224,"name":"Mom","steam_id":76561198207936000,"connected_time":116000000000,"state":"active","ping":49},{"user_id":167,"name":"cjetson","steam_id":76561198074482272,"connected_time":4468000000000,"state":"active","ping":60},{"user_id":198,"name":"ZensGoldenNuts","steam_id":76561199086234004,"connected_time":2471000000000,"state":"active","ping":65},{"user_id":223,"name":"MistaRattle","steam_id":76561199144406643,"connected_time":561000000000,"state":"active","ping":74},{"user_id":225,"name":"Noire","steam_id":76561198149370109,"connected_time":101000000000,"state":"active","ping":72}]},{"server_id":324,"name":"Uncletopia | Los Angeles | 3 | All Maps","name_short":"lax-3","host":"lax-1.us.uncletopia.com","port":27035,"enabled":true,"region":"us-west","cc":"us","latitude":33.94279,"longitude":-118.41004,"reserved":0,"last_update":"0001-01-01T00:00:00Z","name_a2s":"Uncletopia | Los Angeles | 3 | All Maps","protocol":17,"map":"koth_lakeside_final","folder":"tf","game":"Team Fortress","app_id":440,"player_count":0,"max_players":24,"Bots":0,"server_type":"Dedicated","server_os":"Linux","password":true,"vac":true,"version":"7961495","steam_id":85568392924510198,"keywords":["cp","nocrits","nodmgspread","uncletopia"],"game_id":440,"stv_port":27036,"stv_name":"Uncletopia | Los Angeles | 3 | All Maps | STV","players":null},{"server_id":25,"name":"Uncletopia | Los Angeles | 4 | Stopwatch","name_short":"lax-4","host":"lax-1.us.uncletopia.com","port":27045,"enabled":true,"region":"us-west","cc":"us","latitude":33.94279,"longitude":-118.41004,"reserved":0,"last_update":"0001-01-01T00:00:00Z","name_a2s":"Uncletopia | Los Angeles | 4 | Stopwatch","protocol":17,"map":"cp_metalworks","folder":"tf","game":"Team Fortress","app_id":440,"player_count":0,"max_players":24,"Bots":0,"server_type":"Dedicated","server_os":"Linux","password":true,"vac":true,"version":"7961495","steam_id":85568392924510199,"keywords":["cp","nocrits","nodmgspread","uncletopia"],"game_id":440,"stv_port":27046,"stv_name":"Uncletopia | Los Angeles | 4 | Stopwatch | STV","players":null},{"server_id":11,"name":"Uncletopia | London | 1 | All Maps","name_short":"lon-1","host":"lon-1.uk.uncletopia.com","port":27015,"enabled":true,"region":"eu","cc":"gb","latitude":51.509865,"longitude":-0.118092,"reserved":0,"last_update":"0001-01-01T00:00:00Z","name_a2s":"Uncletopia | London | 1 | All Maps","protocol":17,"map":"pl_upward","folder":"tf","game":"Team Fortress","app_id":440,"player_count":23,"max_players":24,"Bots":0,"server_type":"Dedicated","server_os":"Linux","password":true,"vac":true,"version":"7961495","steam_id":85568392924367362,"keywords":["nocrits","nodmgspread","payload","uncletopia"],"game_id":440,"stv_port":27016,"stv_name":"Uncletopia | London | 1 | All Maps | STV","players":[{"user_id":3,"name":"AnimeGirl(real)","steam_id":76561199062433944,"connected_time":4556000000000,"state":"active","ping":123},{"user_id":4,"name":"P","steam_id":76561198399390201,"connected_time":4528000000000,"state":"active","ping":93},{"user_id":10,"name":"cirrem","steam_id":76561198265192382,"connected_time":2868000000000,"state":"active","ping":71},{"user_id":6,"name":"Amin","steam_id":76561199212272501,"connected_time":4278000000000,"state":"active","ping":149},{"user_id":7,"name":"im come from my dad's balls","steam_id":76561199065090344,"connected_time":3899000000000,"state":"active","ping":164},{"user_id":9,"name":"pulsar","steam_id":76561198842123868,"connected_time":3325000000000,"state":"active","ping":105},{"user_id":13,"name":"Coac","steam_id":76561198085265740,"connected_time":1845000000000,"state":"active","ping":61},{"user_id":14,"name":"Dov","steam_id":76561198856685379,"connected_time":1484000000000,"state":"active","ping":71},{"user_id":25,"name":"night.s","steam_id":76561198326287823,"connected_time":452000000000,"state":"active","ping":75},{"user_id":16,"name":"dopamine overdose","steam_id":76561199032511302,"connected_time":1331000000000,"state":"active","ping":93},{"user_id":19,"name":"nikolas_SAS","steam_id":76561198853181675,"connected_time":706000000000,"state":"active","ping":164},{"user_id":18,"name":"Playback_time","steam_id":76561198349426598,"connected_time":1262000000000,"state":"active","ping":45},{"user_id":27,"name":"BRAZİL NÜMERUS UNO11","steam_id":76561199214163032,"connected_time":348000000000,"state":"active","ping":109},{"user_id":30,"name":"ez VAC from Bornholm","steam_id":76561198052381812,"connected_time":244000000000,"state":"active","ping":60},{"user_id":23,"name":"Lewylow","steam_id":76561198005425686,"connected_time":529000000000,"state":"active","ping":56},{"user_id":29,"name":"Josiepilled","steam_id":76561199417898973,"connected_time":252000000000,"state":"active","ping":90},{"user_id":26,"name":"Dark ^^","steam_id":76561198036241064,"connected_time":444000000000,"state":"active","ping":65},{"user_id":28,"name":"Fluid","steam_id":76561198348464129,"connected_time":329000000000,"state":"active","ping":76},{"user_id":32,"name":"Qdarks","steam_id":76561198013391340,"connected_time":126000000000,"state":"active","ping":123},{"user_id":33,"name":"LowQualityMan","steam_id":76561199443272346,"connected_time":104000000000,"state":"active","ping":64},{"user_id":34,"name":"Spraxinator","steam_id":76561199083563607,"connected_time":98000000000,"state":"spawning","ping":199},{"user_id":35,"name":"Meerkat","steam_id":76561199245435539,"connected_time":0,"state":"spawning","ping":48},{"user_id":36,"name":"George W Bush","steam_id":76561198846784757,"connected_time":0,"state":"spawning","ping":9}]},{"server_id":114,"name":"Uncletopia | London | 2 | All Maps","name_short":"lon-2","host":"lon-1.uk.uncletopia.com","port":27025,"enabled":true,"region":"eu","cc":"gb","latitude":51.509865,"longitude":-0.118092,"reserved":0,"last_update":"0001-01-01T00:00:00Z","name_a2s":"Uncletopia | London | 2 | All Maps","protocol":17,"map":"cp_mountainlab","folder":"tf","game":"Team Fortress","app_id":440,"player_count":0,"max_players":24,"Bots":0,"server_type":"Dedicated","server_os":"Linux","password":true,"vac":true,"version":"7961495","steam_id":85568392924470941,"keywords":["cp","nocrits","nodmgspread","uncletopia"],"game_id":440,"stv_port":27026,"stv_name":"Uncletopia | London | 2 | All Maps | STV","players":null},{"server_id":320,"name":"Uncletopia | London | 3 | All Maps","name_short":"lon-3","host":"lon-1.uk.uncletopia.com","port":27035,"enabled":true,"region":"eu","cc":"gb","latitude":51.509865,"longitude":-0.118092,"reserved":0,"last_update":"0001-01-01T00:00:00Z","name_a2s":"Uncletopia | London | 3 | All Maps","protocol":17,"map":"cp_mountainlab","folder":"tf","game":"Team Fortress","app_id":440,"player_count":0,"max_players":24,"Bots":0,"server_type":"Dedicated","server_os":"Linux","password":true,"vac":true,"version":"7961495","steam_id":85568392924510192,"keywords":["cp","nocrits","nodmgspread","uncletopia"],"game_id":440,"stv_port":27036,"stv_name":"Uncletopia | London | 3 | All Maps | STV","players":null},{"server_id":321,"name":"Uncletopia | London | 4 | All Maps","name_short":"lon-4","host":"lon-1.uk.uncletopia.com","port":27045,"enabled":true,"region":"eu","cc":"gb","latitude":51.509865,"longitude":-0.118092,"reserved":0,"last_update":"0001-01-01T00:00:00Z","name_a2s":"Uncletopia | London | 4 | All Maps","protocol":17,"map":"pl_badwater","folder":"tf","game":"Team Fortress","app_id":440,"player_count":0,"max_players":24,"Bots":0,"server_type":"Dedicated","server_os":"Linux","password":true,"vac":true,"version":"7961495","steam_id":85568392924510193,"keywords":["nocrits","nodmgspread","payload","uncletopia"],"game_id":440,"stv_port":27046,"stv_name":"Uncletopia | London | 4 | All Maps | STV","players":null},{"server_id":21,"name":"Uncletopia | London | 5 | All Maps","name_short":"lon-5","host":"lon-1.uk.uncletopia.com","port":27055,"enabled":true,"region":"eu","cc":"gb","latitude":51.509865,"longitude":-0.118092,"reserved":0,"last_update":"0001-01-01T00:00:00Z","name_a2s":"Uncletopia | London | 5 | All Maps","protocol":17,"map":"koth_suijin","folder":"tf","game":"Team Fortress","app_id":440,"player_count":0,"max_players":24,"Bots":0,"server_type":"Dedicated","server_os":"Linux","password":true,"vac":true,"version":"7961495","steam_id":85568392924742829,"keywords":["cp","nocrits","nodmgspread","uncletopia"],"game_id":440,"stv_port":27056,"stv_name":"Uncletopia | London | 5 | All Maps | STV","players":null},{"server_id":22,"name":"Uncletopia | London | 6 | All Maps","name_short":"lon-6","host":"lon-1.uk.uncletopia.com","port":27065,"enabled":true,"region":"eu","cc":"gb","latitude":51.509865,"longitude":-0.118092,"reserved":0,"last_update":"0001-01-01T00:00:00Z","name_a2s":"Uncletopia | London | 6 | All Maps","protocol":17,"map":"pl_frontier_final","folder":"tf","game":"Team Fortress","app_id":440,"player_count":0,"max_players":24,"Bots":0,"server_type":"Dedicated","server_os":"Linux","password":true,"vac":true,"version":"7961495","steam_id":85568392924742830,"keywords":["nocrits","nodmgspread","payload","uncletopia"],"game_id":440,"stv_port":27066,"stv_name":"Uncletopia | London | 6 | All Maps | STV","players":null},{"server_id":40,"name":"Uncletopia | London | 7 | Stopwatch","name_short":"lon-7","host":"lon-1.uk.uncletopia.com","port":27075,"enabled":true,"region":"eu","cc":"gb","latitude":51.509865,"longitude":-0.118092,"reserved":0,"last_update":"0001-01-01T00:00:00Z","name_a2s":"Uncletopia | London | 7 | Stopwatch","protocol":17,"map":"pl_swiftwater_final1","folder":"tf","game":"Team Fortress","app_id":440,"player_count":0,"max_players":24,"Bots":0,"server_type":"Dedicated","server_os":"Linux","password":true,"vac":true,"version":"7961495","steam_id":85568392924964314,"keywords":["nocrits","nodmgspread","payload","uncletopia"],"game_id":440,"stv_port":27076,"stv_name":"Uncletopia | London | 7 | Stopwatch | STV","players":null},{"server_id":41,"name":"Uncletopia | London | 8 | Community","name_short":"lon-8","host":"lon-1.uk.uncletopia.com","port":27085,"enabled":true,"region":"eu","cc":"gb","latitude":51.509865,"longitude":-0.118092,"reserved":0,"last_update":"0001-01-01T00:00:00Z","name_a2s":"Uncletopia | London | 8 | Community","protocol":17,"map":"workshop/cp_propaganda_b18.ugc1603743849","folder":"tf","game":"Team Fortress","app_id":440,"player_count":0,"max_players":24,"Bots":0,"server_type":"Dedicated","server_os":"Linux","password":true,"vac":true,"version":"7961495","steam_id":85568392924964315,"keywords":["cp","nocrits","nodmgspread","uncletopia"],"game_id":440,"stv_port":27086,"stv_name":"Uncletopia | London | 8 | Community | STV","players":null},{"server_id":300,"name":"Uncletopia | Montréal | 1 | One Thousand Uncles","name_short":"mtl-1","host":"mtl-1.ca.uncletopia.com","port":27015,"enabled":true,"region":"us-east","cc":"ca","latitude":45.50889,"longitude":-73.56167,"reserved":0,"last_update":"0001-01-01T00:00:00Z","name_a2s":"Uncletopia | Montréal | 1 | One Thousand Uncles","protocol":17,"map":"pl_thundermountain","folder":"tf","game":"Team Fortress","app_id":440,"player_count":29,"max_players":32,"Bots":20,"server_type":"Dedicated","server_os":"Linux","password":true,"vac":true,"version":"7961495","steam_id":85568392924500087,"keywords":["alltalk","bots","danepve","increased_maxplayers","norespawntime","payload","uncletopia"],"game_id":440,"stv_port":0,"stv_name":"","players":[{"user_id":417,"name":"Kiervce","steam_id":76561199175427371,"connected_time":5135000000000,"state":"active","ping":61},{"user_id":450,"name":"Lucas096br","steam_id":76561198350760997,"connected_time":2517000000000,"state":"active","ping":215},{"user_id":454,"name":"Walla","steam_id":76561198103379757,"connected_time":1222000000000,"state":"active","ping":64},{"user_id":453,"name":"Robert Nutbar","steam_id":76561198062334757,"connected_time":1557000000000,"state":"active","ping":73},{"user_id":427,"name":"Why not Zoidberg?","steam_id":76561197982207556,"connected_time":4256000000000,"state":"active","ping":72},{"user_id":381,"name":"Flappus","steam_id":76561198857949632,"connected_time":8195000000000,"state":"active","ping":71},{"user_id":428,"name":"Crebb 2184","steam_id":76561198323163973,"connected_time":3374000000000,"state":"active","ping":118},{"user_id":455,"name":"ryqset","steam_id":76561198349299874,"connected_time":1003000000000,"state":"active","ping":110},{"user_id":456,"name":"Lots0","steam_id":76561198043143145,"connected_time":461000000000,"state":"active","ping":102}]},{"server_id":301,"name":"Uncletopia | Montréal | 2 | One Thousand Uncles","name_short":"mtl-2","host":"mtl-1.ca.uncletopia.com","port":27025,"enabled":true,"region":"us-east","cc":"ca","latitude":45.50889,"longitude":-73.56167,"reserved":0,"last_update":"0001-01-01T00:00:00Z","name_a2s":"Uncletopia | Montréal | 2 | One Thousand Uncles","protocol":17,"map":"cp_dustbowl","folder":"tf","game":"Team Fortress","app_id":440,"player_count":0,"max_players":32,"Bots":0,"server_type":"Dedicated","server_os":"Linux","password":true,"vac":true,"version":"7961495","steam_id":85568392924500088,"keywords":["alltalk","cp","danepve","increased_maxplayers","norespawntime","uncletopia"],"game_id":440,"stv_port":0,"stv_name":"","players":null},{"server_id":302,"name":"Uncletopia | Montréal | 3 | One Thousand Uncles","name_short":"mtl-3","host":"mtl-1.ca.uncletopia.com","port":27035,"enabled":true,"region":"us-east","cc":"ca","latitude":45.50889,"longitude":-73.56167,"reserved":0,"last_update":"0001-01-01T00:00:00Z","name_a2s":"Uncletopia | Montréal | 3 | One Thousand Uncles","protocol":17,"map":"pl_thundermountain","folder":"tf","game":"Team Fortress","app_id":440,"player_count":0,"max_players":32,"Bots":0,"server_type":"Dedicated","server_os":"Linux","password":true,"vac":true,"version":"7961495","steam_id":85568392924500089,"keywords":["alltalk","danepve","increased_maxplayers","norespawntime","payload","uncletopia"],"game_id":440,"stv_port":0,"stv_name":"","players":null},{"server_id":13,"name":"Uncletopia | New York City | 1 | All Maps","name_short":"nyc-1","host":"nyc-1.us.uncletopia.com","port":27015,"enabled":true,"region":"us-east","cc":"us","latitude":40.73061,"longitude":-73.93524,"reserved":0,"last_update":"0001-01-01T00:00:00Z","name_a2s":"Uncletopia | New York City | 1 | All Maps","protocol":17,"map":"pl_pier","folder":"tf","game":"Team Fortress","app_id":440,"player_count":24,"max_players":24,"Bots":0,"server_type":"Dedicated","server_os":"Linux","password":true,"vac":true,"version":"7961495","steam_id":85568392924469993,"keywords":["nocrits","nodmgspread","payload","uncletopia"],"game_id":440,"stv_port":27016,"stv_name":"Uncletopia | New York City | 1 | All Maps | STV","players":[{"user_id":809,"name":"What's he building in there","steam_id":76561198271907916,"connected_time":2828000000000,"state":"active","ping":45},{"user_id":814,"name":"Feathers! 🞧","steam_id":76561198812663884,"connected_time":2672000000000,"state":"active","ping":97},{"user_id":771,"name":"Femboy Dracula","steam_id":76561198090606686,"connected_time":6839000000000,"state":"active","ping":58},{"user_id":806,"name":"The Great Eagle Scourge of 1822","steam_id":76561198325086209,"connected_time":3198000000000,"state":"active","ping":118},{"user_id":847,"name":"Primitive","steam_id":76561198060500671,"connected_time":49000000000,"state":"active","ping":44},{"user_id":839,"name":"WiteBord","steam_id":76561198891799301,"connected_time":560000000000,"state":"active","ping":74},{"user_id":815,"name":"Mexican Batman","steam_id":76561198121641399,"connected_time":2671000000000,"state":"active","ping":57},{"user_id":842,"name":"Delta","steam_id":76561198158985472,"connected_time":322000000000,"state":"active","ping":121},{"user_id":836,"name":"Bewen","steam_id":76561198325334261,"connected_time":1114000000000,"state":"active","ping":41},{"user_id":813,"name":"777","steam_id":76561198277163301,"connected_time":2710000000000,"state":"active","ping":76},{"user_id":841,"name":"Crystall","steam_id":76561198346607700,"connected_time":377000000000,"state":"active","ping":66},{"user_id":837,"name":"Nice Shot","steam_id":76561198267313008,"connected_time":813000000000,"state":"active","ping":170},{"user_id":843,"name":"Aoiuchuu","steam_id":76561198051947219,"connected_time":256000000000,"state":"active","ping":168},{"user_id":826,"name":"John Pickle","steam_id":76561198151211107,"connected_time":1782000000000,"state":"active","ping":96},{"user_id":800,"name":"Alejandro","steam_id":76561197970051493,"connected_time":4199000000000,"state":"active","ping":120},{"user_id":844,"name":"GrinchsUltimatum","steam_id":76561198075366657,"connected_time":244000000000,"state":"active","ping":118},{"user_id":828,"name":"Zero Hiro™","steam_id":76561198075423872,"connected_time":1774000000000,"state":"active","ping":96},{"user_id":816,"name":"Rambly Dambly","steam_id":76561198844496567,"connected_time":2649000000000,"state":"active","ping":33},{"user_id":845,"name":"Cobaltion","steam_id":76561198035701210,"connected_time":216000000000,"state":"active","ping":130},{"user_id":834,"name":"t h i c c  b o i","steam_id":76561198059547538,"connected_time":1489000000000,"state":"active","ping":59},{"user_id":829,"name":"NickySlicky","steam_id":76561199108650500,"connected_time":1765000000000,"state":"active","ping":96},{"user_id":835,"name":"William","steam_id":76561198017970207,"connected_time":1167000000000,"state":"active","ping":89},{"user_id":846,"name":"xstylehardx","steam_id":76561198111203974,"connected_time":86000000000,"state":"active","ping":145},{"user_id":838,"name":"Mentally Ill Woman","steam_id":76561198072030567,"connected_time":743000000000,"state":"active","ping":67}]},{"server_id":14,"name":"Uncletopia | New York City | 2 | All Maps","name_short":"nyc-2","host":"nyc-1.us.uncletopia.com","port":27025,"enabled":true,"region":"us-east","cc":"us","latitude":40.73061,"longitude":-73.93524,"reserved":0,"last_update":"0001-01-01T00:00:00Z","name_a2s":"Uncletopia | New York City | 2 | All Maps","protocol":17,"map":"koth_viaduct","folder":"tf","game":"Team Fortress","app_id":440,"player_count":0,"max_players":24,"Bots":0,"server_type":"Dedicated","server_os":"Linux","password":true,"vac":true,"version":"7961495","steam_id":85568392924469994,"keywords":["cp","nocrits","nodmgspread","uncletopia"],"game_id":440,"stv_port":27026,"stv_name":"Uncletopia | New York City | 2 | All Maps | STV","players":null},{"server_id":15,"name":"Uncletopia | New York City | 3 | Stopwatch","name_short":"nyc-3","host":"nyc-1.us.uncletopia.com","port":27035,"enabled":true,"region":"us-east","cc":"us","latitude":40.73061,"longitude":-73.93524,"reserved":0,"last_update":"0001-01-01T00:00:00Z","name_a2s":"Uncletopia | New York City | 3 | Stopwatch","protocol":17,"map":"workshop/pl_badwater_pro_v12.ugc2142942074","folder":"tf","game":"Team Fortress","app_id":440,"player_count":0,"max_players":24,"Bots":0,"server_type":"Dedicated","server_os":"Linux","password":true,"vac":true,"version":"7961495","steam_id":85568392924742820,"keywords":["nocrits","nodmgspread","payload","uncletopia"],"game_id":440,"stv_port":27036,"stv_name":"Uncletopia | New York City | 3 | Stopwatch | STV","players":null},{"server_id":16,"name":"Uncletopia | New York City | 4 | Community","name_short":"nyc-4","host":"nyc-1.us.uncletopia.com","port":27045,"enabled":true,"region":"us-east","cc":"us","latitude":40.73061,"longitude":-73.93524,"reserved":0,"last_update":"0001-01-01T00:00:00Z","name_a2s":"Uncletopia | New York City | 4 | Community","protocol":17,"map":"workshop/cp_bruhstbowl_b6.ugc2878604990","folder":"tf","game":"Team Fortress","app_id":440,"player_count":0,"max_players":24,"Bots":0,"server_type":"Dedicated","server_os":"Linux","password":true,"vac":true,"version":"7961495","steam_id":85568392924742821,"keywords":["cp","nocrits","nodmgspread","uncletopia"],"game_id":440,"stv_port":27046,"stv_name":"Uncletopia | New York City | 4 | Community | STV","players":null},{"server_id":142,"name":"Uncletopia | São Paulo | 1 | All Maps","name_short":"sao-1","host":"sao-1.br.uncletopia.com","port":27015,"enabled":true,"region":"sa","cc":"br","latitude":-23.533773,"longitude":-46.62529,"reserved":0,"last_update":"0001-01-01T00:00:00Z","name_a2s":"Uncletopia | São Paulo | 1 | All Maps","protocol":17,"map":"cp_gorge","folder":"tf","game":"Team Fortress","app_id":440,"player_count":0,"max_players":24,"Bots":0,"server_type":"Dedicated","server_os":"Linux","password":true,"vac":true,"version":"7961495","steam_id":85568392924469996,"keywords":["cp","nocrits","nodmgspread","uncletopia"],"game_id":440,"stv_port":27016,"stv_name":"Uncletopia | São Paulo | 1 | All Maps | STV","players":null},{"server_id":143,"name":"Uncletopia | São Paulo | 2 | Community","name_short":"sao-2","host":"sao-2.br.uncletopia.com","port":27015,"enabled":true,"region":"sa","cc":"br","latitude":-23.533773,"longitude":-46.62529,"reserved":0,"last_update":"0001-01-01T00:00:00Z","name_a2s":"Uncletopia | São Paulo | 2 | Community","protocol":17,"map":"workshop/koth_product_final.ugc454272353","folder":"tf","game":"Team Fortress","app_id":440,"player_count":0,"max_players":24,"Bots":0,"server_type":"Dedicated","server_os":"Linux","password":true,"vac":true,"version":"7961495","steam_id":85568392924485349,"keywords":["cp","nocrits","nodmgspread","uncletopia"],"game_id":440,"stv_port":27016,"stv_name":"Uncletopia | São Paulo | 2 | Community | STV","players":null},{"server_id":7,"name":"Uncletopia | Seattle | 1 | All Maps","name_short":"sea-1","host":"sea-1.us.uncletopia.com","port":27015,"enabled":true,"region":"us-west","cc":"us","latitude":47.608013,"longitude":-122.33517,"reserved":0,"last_update":"0001-01-01T00:00:00Z","name_a2s":"Uncletopia | Seattle | 1 | All Maps","protocol":17,"map":"pl_pier","folder":"tf","game":"Team Fortress","app_id":440,"player_count":24,"max_players":24,"Bots":0,"server_type":"Dedicated","server_os":"Linux","password":true,"vac":true,"version":"7961495","steam_id":85568392924469997,"keywords":["nocrits","nodmgspread","payload","uncletopia"],"game_id":440,"stv_port":27016,"stv_name":"Uncletopia | Seattle | 1 | All Maps | STV","players":[{"user_id":874,"name":"Mak","steam_id":76561198089197922,"connected_time":706000000000,"state":"active","ping":54},{"user_id":753,"name":"ghor","steam_id":76561197994547132,"connected_time":6247000000000,"state":"active","ping":31},{"user_id":749,"name":"AveragePhil","steam_id":76561199139836802,"connected_time":6474000000000,"state":"active","ping":42},{"user_id":857,"name":"Brathic","steam_id":76561198966232163,"connected_time":1706000000000,"state":"active","ping":98},{"user_id":856,"name":"Captain Underbelly","steam_id":76561198811270935,"connected_time":1718000000000,"state":"active","ping":71},{"user_id":869,"name":"Uncle Dale","steam_id":76561199144302768,"connected_time":1296000000000,"state":"active","ping":112},{"user_id":871,"name":"Chi-Chia","steam_id":76561198067955987,"connected_time":828000000000,"state":"active","ping":53},{"user_id":859,"name":"Thexx [she/they]","steam_id":76561198113823050,"connected_time":1621000000000,"state":"active","ping":46},{"user_id":875,"name":"Glanderson booper","steam_id":76561198021223747,"connected_time":673000000000,"state":"active","ping":64},{"user_id":863,"name":"squash","steam_id":76561198150281353,"connected_time":1516000000000,"state":"active","ping":57},{"user_id":786,"name":"hazel","steam_id":76561198037292232,"connected_time":4235000000000,"state":"active","ping":125},{"user_id":872,"name":"smeasly","steam_id":76561198028718812,"connected_time":785000000000,"state":"active","ping":38},{"user_id":861,"name":"Robogineer","steam_id":76561198026994739,"connected_time":1604000000000,"state":"active","ping":88},{"user_id":862,"name":"Scut","steam_id":76561198973734291,"connected_time":1576000000000,"state":"active","ping":63},{"user_id":873,"name":"Sniff","steam_id":76561198010270922,"connected_time":756000000000,"state":"active","ping":40},{"user_id":864,"name":"4lorist","steam_id":76561198009121060,"connected_time":1515000000000,"state":"active","ping":45},{"user_id":877,"name":"doopsies","steam_id":76561198083000867,"connected_time":171000000000,"state":"active","ping":53},{"user_id":878,"name":"Moffein","steam_id":76561198016739296,"connected_time":129000000000,"state":"active","ping":64},{"user_id":865,"name":"edgebug b-roll","steam_id":76561198043558709,"connected_time":1505000000000,"state":"active","ping":60},{"user_id":866,"name":"fadeaway backshots","steam_id":76561198086878595,"connected_time":1497000000000,"state":"active","ping":76},{"user_id":867,"name":"pablo.gonzales.2010","steam_id":76561198855171713,"connected_time":1459000000000,"state":"active","ping":80},{"user_id":805,"name":"blinkerton city","steam_id":76561198054270410,"connected_time":3177000000000,"state":"active","ping":58},{"user_id":870,"name":"rorywashere /ᐠ - ˕ -マ Ⳋ","steam_id":76561198065825165,"connected_time":1204000000000,"state":"active","ping":119},{"user_id":796,"name":"Cheezbeargur","steam_id":76561198164702899,"connected_time":3460000000000,"state":"active","ping":69}]},{"server_id":119,"name":"Uncletopia | Seattle | 2 | All Maps","name_short":"sea-2","host":"sea-1.us.uncletopia.com","port":27025,"enabled":true,"region":"us-west","cc":"us","latitude":47.608013,"longitude":-122.33517,"reserved":0,"last_update":"0001-01-01T00:00:00Z","name_a2s":"Uncletopia | Seattle | 2 | All Maps","protocol":17,"map":"koth_brazil","folder":"tf","game":"Team Fortress","app_id":440,"player_count":24,"max_players":24,"Bots":0,"server_type":"Dedicated","server_os":"Linux","password":true,"vac":true,"version":"7961495","steam_id":85568392924469998,"keywords":["cp","nocrits","nodmgspread","uncletopia"],"game_id":440,"stv_port":27026,"stv_name":"Uncletopia | Seattle | 2 | All Maps | STV","players":[{"user_id":599,"name":"TTV/ZenmanTTV","steam_id":76561198110651094,"connected_time":1773000000000,"state":"active","ping":130},{"user_id":345,"name":"\u003c blank \u003e","steam_id":76561198097188001,"connected_time":20361000000000,"state":"active","ping":44},{"user_id":570,"name":"Caramel_Chalice","steam_id":76561198307609692,"connected_time":4493000000000,"state":"active","ping":58},{"user_id":604,"name":"Mr. Pine","steam_id":76561198112203861,"connected_time":778000000000,"state":"active","ping":54},{"user_id":605,"name":"smoking spy","steam_id":76561198329096986,"connected_time":731000000000,"state":"active","ping":94},{"user_id":609,"name":"Andy","steam_id":76561198043115724,"connected_time":170000000000,"state":"active","ping":70},{"user_id":577,"name":"Kdash","steam_id":76561198043829155,"connected_time":4106000000000,"state":"active","ping":104},{"user_id":607,"name":"Comradical","steam_id":76561197990808285,"connected_time":326000000000,"state":"active","ping":121},{"user_id":598,"name":"tucker carlson","steam_id":76561198204227685,"connected_time":1837000000000,"state":"active","ping":113},{"user_id":592,"name":"Optimore","steam_id":76561198047662990,"connected_time":3332000000000,"state":"active","ping":76},{"user_id":597,"name":"vibes","steam_id":76561198050561115,"connected_time":2057000000000,"state":"active","ping":90},{"user_id":606,"name":"Folie a Duex","steam_id":76561198993412673,"connected_time":665000000000,"state":"active","ping":47},{"user_id":571,"name":"Violet K.","steam_id":76561198062963842,"connected_time":4473000000000,"state":"active","ping":97},{"user_id":578,"name":"CabezaGrande","steam_id":76561197972555502,"connected_time":4078000000000,"state":"active","ping":98},{"user_id":582,"name":"Kronk","steam_id":76561198267956028,"connected_time":3943000000000,"state":"active","ping":51},{"user_id":608,"name":"Day Man","steam_id":76561198067154807,"connected_time":316000000000,"state":"active","ping":49},{"user_id":579,"name":"Invictus","steam_id":76561198079517075,"connected_time":4075000000000,"state":"active","ping":129},{"user_id":603,"name":"Donny Q","steam_id":76561198020901703,"connected_time":806000000000,"state":"active","ping":49},{"user_id":581,"name":"Antzen","steam_id":76561198041343470,"connected_time":4060000000000,"state":"active","ping":67},{"user_id":590,"name":"American Dad Funny Moments #32","steam_id":76561198254874328,"connected_time":3494000000000,"state":"active","ping":61},{"user_id":530,"name":"Clagger","steam_id":76561198066701092,"connected_time":7276000000000,"state":"active","ping":42},{"user_id":610,"name":"Dongus","steam_id":76561197979056451,"connected_time":96000000000,"state":"active","ping":53},{"user_id":554,"name":"killswitch","steam_id":76561198213385439,"connected_time":5285000000000,"state":"active","ping":70},{"user_id":594,"name":"Dogg wader","steam_id":76561199090314340,"connected_time":2891000000000,"state":"active","ping":92}]},{"server_id":406,"name":"Uncletopia | Seattle | 3 | Stopwatch","name_short":"sea-3","host":"sea-1.us.uncletopia.com","port":27035,"enabled":true,"region":"us-west","cc":"us","latitude":47.608013,"longitude":-122.33517,"reserved":0,"last_update":"0001-01-01T00:00:00Z","name_a2s":"Uncletopia | Seattle | 3 | Stopwatch","protocol":17,"map":"pl_upward","folder":"tf","game":"Team Fortress","app_id":440,"player_count":0,"max_players":24,"Bots":0,"server_type":"Dedicated","server_os":"Linux","password":true,"vac":true,"version":"7961495","steam_id":85568392924515217,"keywords":["nocrits","nodmgspread","payload","uncletopia"],"game_id":440,"stv_port":27036,"stv_name":"Uncletopia | Seattle | 3 | Stopwatch | STV","players":null},{"server_id":17,"name":"Uncletopia | San Francisco | 1 | All Maps","name_short":"sfo-1","host":"sfo-1.us.uncletopia.com","port":27015,"enabled":true,"region":"us-west","cc":"us","latitude":37.77397,"longitude":-122.4313,"reserved":0,"last_update":"0001-01-01T00:00:00Z","name_a2s":"Uncletopia | San Francisco | 1 | All Maps","protocol":17,"map":"pl_borneo","folder":"tf","game":"Team Fortress","app_id":440,"player_count":0,"max_players":24,"Bots":0,"server_type":"Dedicated","server_os":"Linux","password":true,"vac":true,"version":"7961495","steam_id":85568392924469999,"keywords":["nocrits","nodmgspread","payload","uncletopia"],"game_id":440,"stv_port":27016,"stv_name":"Uncletopia | San Francisco | 1 | All Maps | STV","players":null},{"server_id":18,"name":"Uncletopia | San Francisco | 2 | All Maps","name_short":"sfo-2","host":"sfo-1.us.uncletopia.com","port":27025,"enabled":true,"region":"us-west","cc":"us","latitude":37.77397,"longitude":-122.4313,"reserved":0,"last_update":"0001-01-01T00:00:00Z","name_a2s":"Uncletopia | San Francisco | 2 | All Maps","protocol":17,"map":"plr_hightower","folder":"tf","game":"Team Fortress","app_id":440,"player_count":22,"max_players":24,"Bots":0,"server_type":"Dedicated","server_os":"Linux","password":true,"vac":true,"version":"7961495","steam_id":85568392924470000,"keywords":["nocrits","nodmgspread","payload","uncletopia"],"game_id":440,"stv_port":27026,"stv_name":"Uncletopia | San Francisco | 2 | All Maps | STV","players":[{"user_id":87,"name":"Natural Crowe","steam_id":76561198256909706,"connected_time":633000000000,"state":"active","ping":94},{"user_id":88,"name":"Mirce","steam_id":76561198100889621,"connected_time":626000000000,"state":"active","ping":102},{"user_id":33,"name":"Risingtigerking","steam_id":76561199070704000,"connected_time":4999000000000,"state":"active","ping":117},{"user_id":26,"name":"DrippySpiffy","steam_id":76561199233974512,"connected_time":5706000000000,"state":"active","ping":121},{"user_id":67,"name":"poopsock","steam_id":76561198069688480,"connected_time":2830000000000,"state":"active","ping":58},{"user_id":55,"name":"pablo.rodriguez2006","steam_id":76561198059740184,"connected_time":3688000000000,"state":"active","ping":66},{"user_id":93,"name":"ItJesusMan","steam_id":76561198872305011,"connected_time":122000000000,"state":"active","ping":106},{"user_id":89,"name":"milk","steam_id":76561198053410877,"connected_time":459000000000,"state":"active","ping":57},{"user_id":85,"name":"i could do it right now","steam_id":76561198067015101,"connected_time":1287000000000,"state":"active","ping":75},{"user_id":71,"name":"Virus","steam_id":76561198252166472,"connected_time":2687000000000,"state":"active","ping":111},{"user_id":90,"name":"Golden Darkness","steam_id":76561198399018335,"connected_time":436000000000,"state":"active","ping":110},{"user_id":81,"name":"Constipated Barry","steam_id":76561198004482269,"connected_time":2195000000000,"state":"active","ping":46},{"user_id":91,"name":"NaughtNormal","steam_id":76561198037693798,"connected_time":418000000000,"state":"active","ping":47},{"user_id":86,"name":"Soda Popinski","steam_id":76561198045209288,"connected_time":1199000000000,"state":"active","ping":48},{"user_id":92,"name":"Sir, your pants are down.","steam_id":76561198019023270,"connected_time":328000000000,"state":"active","ping":60},{"user_id":58,"name":"spirit","steam_id":76561198102040731,"connected_time":3580000000000,"state":"active","ping":105},{"user_id":50,"name":"Profile Name","steam_id":76561198404517128,"connected_time":3802000000000,"state":"active","ping":112},{"user_id":94,"name":"Lemonade Juice","steam_id":76561198402892608,"connected_time":9000000000,"state":"spawning","ping":54},{"user_id":59,"name":"bladee tf2","steam_id":76561198402943433,"connected_time":3579000000000,"state":"active","ping":55},{"user_id":54,"name":"Viewie","steam_id":76561198280108853,"connected_time":3716000000000,"state":"active","ping":123},{"user_id":60,"name":"AKA-Mae (They/Them)","steam_id":76561198095391311,"connected_time":3550000000000,"state":"active","ping":59},{"user_id":64,"name":"kiwi","steam_id":76561198052177917,"connected_time":3347000000000,"state":"active","ping":67}]},{"server_id":19,"name":"Uncletopia | San Francisco | 3 | Stopwatch","name_short":"sfo-3","host":"sfo-1.us.uncletopia.com","port":27035,"enabled":true,"region":"us-west","cc":"us","latitude":37.77397,"longitude":-122.4313,"reserved":0,"last_update":"0001-01-01T00:00:00Z","name_a2s":"Uncletopia | San Francisco | 3 | Stopwatch","protocol":17,"map":"workshop/pl_barnblitz_pro7.ugc582280235","folder":"tf","game":"Team Fortress","app_id":440,"player_count":0,"max_players":24,"Bots":0,"server_type":"Dedicated","server_os":"Linux","password":true,"vac":true,"version":"7961495","steam_id":85568392924742824,"keywords":["nocrits","nodmgspread","payload","uncletopia"],"game_id":440,"stv_port":27036,"stv_name":"Uncletopia | San Francisco | 3 | Stopwatch | STV","players":null},{"server_id":20,"name":"Uncletopia | San Francisco | 4 | Community","name_short":"sfo-4","host":"sfo-1.us.uncletopia.com","port":27045,"enabled":true,"region":"us-west","cc":"us","latitude":37.77397,"longitude":-122.4313,"reserved":0,"last_update":"0001-01-01T00:00:00Z","name_a2s":"Uncletopia | San Francisco | 4 | Community","protocol":17,"map":"workshop/koth_bagel_rc6.ugc2514036946","folder":"tf","game":"Team Fortress","app_id":440,"player_count":0,"max_players":24,"Bots":0,"server_type":"Dedicated","server_os":"Linux","password":true,"vac":true,"version":"7961495","steam_id":85568392924742826,"keywords":["cp","nocrits","nodmgspread","uncletopia"],"game_id":440,"stv_port":27046,"stv_name":"Uncletopia | San Francisco | 4 | Community | STV","players":null},{"server_id":141,"name":"Uncletopia | Sydney | 1 | All Maps","name_short":"syd-1","host":"syd-1.au.uncletopia.com","port":27015,"enabled":true,"region":"au","cc":"au","latitude":-33.865143,"longitude":151.2099,"reserved":0,"last_update":"0001-01-01T00:00:00Z","name_a2s":"Uncletopia | Sydney | 1 | All Maps","protocol":17,"map":"pl_enclosure_final","folder":"tf","game":"Team Fortress","app_id":440,"player_count":24,"max_players":24,"Bots":0,"server_type":"Dedicated","server_os":"Linux","password":true,"vac":true,"version":"7961495","steam_id":85568392924470001,"keywords":["nocrits","nodmgspread","payload","uncletopia"],"game_id":440,"stv_port":27016,"stv_name":"Uncletopia | Sydney | 1 | All Maps | STV","players":[{"user_id":291,"name":"invert.","steam_id":76561198049619174,"connected_time":278000000000,"state":"active","ping":63},{"user_id":289,"name":"carrot monster","steam_id":76561199056025092,"connected_time":692000000000,"state":"active","ping":38},{"user_id":292,"name":"Editor_Billy","steam_id":76561199165608946,"connected_time":226000000000,"state":"active","ping":59},{"user_id":287,"name":"papa","steam_id":76561198163034070,"connected_time":777000000000,"state":"active","ping":59},{"user_id":245,"name":"MAYHEM","steam_id":76561199323730865,"connected_time":4879000000000,"state":"active","ping":44},{"user_id":236,"name":"sav","steam_id":76561198058760041,"connected_time":5894000000000,"state":"active","ping":76},{"user_id":257,"name":"Dot","steam_id":76561198064534661,"connected_time":3538000000000,"state":"active","ping":53},{"user_id":290,"name":"COLLINSct","steam_id":76561198045395403,"connected_time":523000000000,"state":"active","ping":59},{"user_id":294,"name":"Chooka","steam_id":76561197992307814,"connected_time":2000000000,"state":"spawning","ping":103},{"user_id":201,"name":"Marzell","steam_id":76561198151276153,"connected_time":8419000000000,"state":"active","ping":97},{"user_id":260,"name":"Glockenspe (She/Her)","steam_id":76561199184115241,"connected_time":3227000000000,"state":"active","ping":55},{"user_id":293,"name":"...","steam_id":76561198309750355,"connected_time":143000000000,"state":"active","ping":52},{"user_id":181,"name":"-Ech0-","steam_id":76561199121536801,"connected_time":10680000000000,"state":"active","ping":52},{"user_id":271,"name":"Eddie","steam_id":76561198081031350,"connected_time":1722000000000,"state":"active","ping":63},{"user_id":278,"name":"ChickenHatMan","steam_id":76561198119527347,"connected_time":1419000000000,"state":"active","ping":58},{"user_id":288,"name":"soldiershot","steam_id":76561198106365449,"connected_time":767000000000,"state":"active","ping":60},{"user_id":263,"name":"Matt","steam_id":76561198009757360,"connected_time":3024000000000,"state":"active","ping":64},{"user_id":230,"name":"ravioli","steam_id":76561198001765827,"connected_time":6175000000000,"state":"active","ping":54},{"user_id":282,"name":"calvin","steam_id":76561198121939699,"connected_time":997000000000,"state":"active","ping":98},{"user_id":267,"name":"Toody","steam_id":76561198212656752,"connected_time":2306000000000,"state":"active","ping":48},{"user_id":251,"name":"noXy","steam_id":76561198032671657,"connected_time":4230000000000,"state":"active","ping":56},{"user_id":270,"name":"🔧Wrench✨","steam_id":76561198329689458,"connected_time":1734000000000,"state":"active","ping":78},{"user_id":268,"name":"ANDY64","steam_id":76561198049447026,"connected_time":1967000000000,"state":"active","ping":73},{"user_id":243,"name":"Finios","steam_id":76561198209013071,"connected_time":5461000000000,"state":"active","ping":47}]},{"server_id":123,"name":"Uncletopia | Sydney | 2 | All Maps","name_short":"syd-2","host":"syd-1.au.uncletopia.com","port":27025,"enabled":true,"region":"au","cc":"au","latitude":-33.865143,"longitude":151.2099,"reserved":0,"last_update":"0001-01-01T00:00:00Z","name_a2s":"Uncletopia | Sydney | 2 | All Maps","protocol":17,"map":"cp_snakewater_final1","folder":"tf","game":"Team Fortress","app_id":440,"player_count":7,"max_players":24,"Bots":0,"server_type":"Dedicated","server_os":"Linux","password":true,"vac":true,"version":"7961495","steam_id":85568392924470002,"keywords":["cp","nocrits","nodmgspread","uncletopia"],"game_id":440,"stv_port":27026,"stv_name":"Uncletopia | Sydney | 2 | All Maps | STV","players":[{"user_id":32,"name":"POLSKA","steam_id":76561199090168813,"connected_time":1924000000000,"state":"active","ping":48},{"user_id":48,"name":"Caydens_world","steam_id":76561199217655212,"connected_time":167000000000,"state":"active","ping":149},{"user_id":49,"name":"Phantom Postman","steam_id":76561198075252643,"connected_time":132000000000,"state":"active","ping":66},{"user_id":44,"name":"N0thing_but_pure_lag_and_luck","steam_id":76561199002102933,"connected_time":944000000000,"state":"active","ping":102},{"user_id":30,"name":"Ruby Everred","steam_id":76561199015581680,"connected_time":2432000000000,"state":"active","ping":326},{"user_id":45,"name":"JGuy_850","steam_id":76561199157185906,"connected_time":897000000000,"state":"active","ping":124},{"user_id":50,"name":"M A N I C","steam_id":76561199242541551,"connected_time":60000000000,"state":"active","ping":59}]},{"server_id":395,"name":"Uncletopia | Sydney | 3 | All Maps","name_short":"syd-3","host":"syd-1.au.uncletopia.com","port":27035,"enabled":true,"region":"au","cc":"au","latitude":-33.865143,"longitude":151.2099,"reserved":0,"last_update":"0001-01-01T00:00:00Z","name_a2s":"Uncletopia | Sydney | 3 | All Maps","protocol":17,"map":"koth_brazil","folder":"tf","game":"Team Fortress","app_id":440,"player_count":0,"max_players":24,"Bots":0,"server_type":"Dedicated","server_os":"Linux","password":true,"vac":true,"version":"7961495","steam_id":85568392925194467,"keywords":["cp","nocrits","nodmgspread","uncletopia"],"game_id":440,"stv_port":27036,"stv_name":"Uncletopia | Sydney | 3 | All Maps | STV","players":null},{"server_id":396,"name":"Uncletopia | Sydney | 4 | All Maps","name_short":"syd-4","host":"syd-1.au.uncletopia.com","port":27045,"enabled":true,"region":"au","cc":"au","latitude":-33.865143,"longitude":151.2099,"reserved":0,"last_update":"0001-01-01T00:00:00Z","name_a2s":"Uncletopia | Sydney | 4 | All Maps","protocol":17,"map":"pl_upward","folder":"tf","game":"Team Fortress","app_id":440,"player_count":0,"max_players":24,"Bots":0,"server_type":"Dedicated","server_os":"Linux","password":true,"vac":true,"version":"7961495","steam_id":85568392925397958,"keywords":["nocrits","nodmgspread","payload","uncletopia"],"game_id":440,"stv_port":27046,"stv_name":"Uncletopia | Sydney | 4 | All Maps | STV","players":null},{"server_id":58,"name":"Uncletopia | Sydney | 5 | Stopwatch","name_short":"syd-5","host":"syd-1.au.uncletopia.com","port":27055,"enabled":true,"region":"au","cc":"au","latitude":-33.865143,"longitude":151.2099,"reserved":0,"last_update":"0001-01-01T00:00:00Z","name_a2s":"Uncletopia | Sydney | 5 | Stopwatch","protocol":17,"map":"koth_highpass","folder":"tf","game":"Team Fortress","app_id":440,"player_count":0,"max_players":24,"Bots":0,"server_type":"Dedicated","server_os":"Linux","password":true,"vac":true,"version":"7961495","steam_id":85568392925397959,"keywords":["cp","nocrits","nodmgspread","uncletopia"],"game_id":440,"stv_port":27056,"stv_name":"Uncletopia | Sydney | 5 | Stopwatch | STV","players":null},{"server_id":59,"name":"Uncletopia | Sydney | 6 | Community","name_short":"syd-6","host":"syd-1.au.uncletopia.com","port":27065,"enabled":true,"region":"au","cc":"au","latitude":-33.865143,"longitude":151.2099,"reserved":0,"last_update":"0001-01-01T00:00:00Z","name_a2s":"Uncletopia | Sydney | 6 | Community","protocol":17,"map":"workshop/cp_mannbase_rc2a.ugc1900737467","folder":"tf","game":"Team Fortress","app_id":440,"player_count":0,"max_players":24,"Bots":0,"server_type":"Dedicated","server_os":"Linux","password":true,"vac":true,"version":"7961495","steam_id":85568392925397960,"keywords":["cp","nocrits","nodmgspread","uncletopia"],"game_id":440,"stv_port":27066,"stv_name":"Uncletopia | Sydney | 6 | Community | STV","players":null},{"server_id":49,"name":"Uncletopia | Warsaw | 1 | One Thousand Uncles","name_short":"waw-1","host":"waw-1.pl.uncletopia.com","port":27015,"enabled":true,"region":"eu","cc":"pl","latitude":52.2297,"longitude":21.017532,"reserved":0,"last_update":"0001-01-01T00:00:00Z","name_a2s":"Uncletopia | Warsaw | 1 | One Thousand Uncles","protocol":17,"map":"cp_egypt_final","folder":"tf","game":"Team Fortress","app_id":440,"player_count":0,"max_players":32,"Bots":0,"server_type":"Dedicated","server_os":"Linux","password":true,"vac":true,"version":"7961495","steam_id":85568392925397850,"keywords":["alltalk","cp","danepve","increased_maxplayers","norespawntime","uncletopia"],"game_id":440,"stv_port":0,"stv_name":"","players":null},{"server_id":50,"name":"Uncletopia | Warsaw | 2 | One Thousand Uncles","name_short":"waw-2","host":"waw-1.pl.uncletopia.com","port":27025,"enabled":true,"region":"eu","cc":"pl","latitude":52.2297,"longitude":21.017532,"reserved":0,"last_update":"0001-01-01T00:00:00Z","name_a2s":"Uncletopia | Warsaw | 2 | One Thousand Uncles","protocol":17,"map":"pl_pier","folder":"tf","game":"Team Fortress","app_id":440,"player_count":23,"max_players":32,"Bots":20,"server_type":"Dedicated","server_os":"Linux","password":true,"vac":true,"version":"7961495","steam_id":85568392925397851,"keywords":["alltalk","bots","danepve","increased_maxplayers","norespawntime","payload","uncletopia"],"game_id":440,"stv_port":0,"stv_name":"","players":[{"user_id":23,"name":"Little Spy","steam_id":76561199238736286,"connected_time":1519000000000,"state":"active","ping":64},{"user_id":44,"name":"Tvx","steam_id":76561198983247585,"connected_time":1399000000000,"state":"active","ping":134},{"user_id":46,"name":"Iron Man","steam_id":76561199072364251,"connected_time":588000000000,"state":"active","ping":59}]},{"server_id":51,"name":"Uncletopia | Warsaw | 3 | All Maps","name_short":"waw-3","host":"waw-1.pl.uncletopia.com","port":27035,"enabled":true,"region":"eu","cc":"pl","latitude":52.2297,"longitude":21.017532,"reserved":0,"last_update":"0001-01-01T00:00:00Z","name_a2s":"Uncletopia | Warsaw | 3 | All Maps","protocol":17,"map":"pl_frontier_final","folder":"tf","game":"Team Fortress","app_id":440,"player_count":0,"max_players":24,"Bots":0,"server_type":"Dedicated","server_os":"Linux","password":true,"vac":true,"version":"7961495","steam_id":85568392925397852,"keywords":["nocrits","nodmgspread","payload","uncletopia"],"game_id":440,"stv_port":27036,"stv_name":"Uncletopia | Warsaw | 3 | All Maps | STV","players":null},{"server_id":52,"name":"Uncletopia | Warsaw | 4 | All Maps","name_short":"waw-4","host":"waw-1.pl.uncletopia.com","port":27045,"enabled":true,"region":"eu","cc":"pl","latitude":52.2297,"longitude":21.017532,"reserved":0,"last_update":"0001-01-01T00:00:00Z","name_a2s":"Uncletopia | Warsaw | 4 | All Maps","protocol":17,"map":"ctf_turbine","folder":"tf","game":"Team Fortress","app_id":440,"player_count":0,"max_players":24,"Bots":0,"server_type":"Dedicated","server_os":"Linux","password":true,"vac":true,"version":"7961495","steam_id":85568392925397853,"keywords":["ctf","nocrits","nodmgspread","uncletopia"],"game_id":440,"stv_port":27046,"stv_name":"Uncletopia | Warsaw | 4 | All Maps | STV","players":null},{"server_id":53,"name":"Uncletopia | Warsaw | 5 | Stopwatch","name_short":"waw-5","host":"waw-1.pl.uncletopia.com","port":27055,"enabled":true,"region":"eu","cc":"pl","latitude":52.2297,"longitude":21.017532,"reserved":0,"last_update":"0001-01-01T00:00:00Z","name_a2s":"Uncletopia | Warsaw | 5 | Stopwatch","protocol":17,"map":"workshop/koth_clearcut_b15.ugc2107050255","folder":"tf","game":"Team Fortress","app_id":440,"player_count":0,"max_players":24,"Bots":0,"server_type":"Dedicated","server_os":"Linux","password":true,"vac":true,"version":"7961495","steam_id":85568392925397854,"keywords":["cp","nocrits","nodmgspread","uncletopia"],"game_id":440,"stv_port":27056,"stv_name":"Uncletopia | Warsaw | 5 | Stopwatch | STV","players":null},{"server_id":54,"name":"Uncletopia | Warsaw | 6 | Community","name_short":"waw-6","host":"waw-1.pl.uncletopia.com","port":27065,"enabled":true,"region":"eu","cc":"pl","latitude":52.2297,"longitude":21.017532,"reserved":0,"last_update":"0001-01-01T00:00:00Z","name_a2s":"Uncletopia | Warsaw | 6 | Community","protocol":17,"map":"workshop/pl_highwood_b19.ugc1769496557","folder":"tf","game":"Team Fortress","app_id":440,"player_count":0,"max_players":24,"Bots":0,"server_type":"Dedicated","server_os":"Linux","password":true,"vac":true,"version":"7961495","steam_id":85568392925397856,"keywords":["nocrits","nodmgspread","payload","uncletopia"],"game_id":440,"stv_port":27066,"stv_name":"Uncletopia | Warsaw | 6 | Community | STV","players":null}]}