{"status":true,"message":"","result":[{"server_id":9,"name":"Uncletopia | Atlanta | 1 | All Maps","name_short":"atl-1","host":"atl-1.us.uncletopia.com","port":27015,"enabled":true,"region":"us-east","cc":"us","latitude":33.753746,"longitude":-84.38633,"reserved":0,"last_update":"0001-01-01T00:00:00Z","name_a2s":"Uncletopia | Atlanta | 1 | All Maps","protocol":17,"map":"pl_snowycoast","folder":"tf","game":"Team Fortress","app_id":440,"player_count":0,"max_players":24,"Bots":0,"server_type":"Dedicated","server_os":"Linux","password":true,"vac":true,"version":"7742253","steam_id":85568392924469982,"keywords":["nocrits","nodmgspread","payload","uncletopia"],"game_id":440,"stv_port":27016,"stv_name":"Uncletopia | Atlanta | 1 | All Maps | STV","players":null},{"server_id":400,"name":"Uncletopia | Atlanta | 3 | Stopwatch Beta","name_short":"atl-3","host":"atl-1.us.uncletopia.com","port":27035,"enabled":true,"region":"us-east","cc":"us","latitude":33.753746,"longitude":-84.38633,"reserved":0,"last_update":"0001-01-01T00:00:00Z","name_a2s":"Uncletopia | Atlanta | 3 | Stopwatch Beta","protocol":17,"map":"pl_upward","folder":"tf","game":"Team Fortress","app_id":440,"player_count":0,"max_players":24,"Bots":0,"server_type":"Dedicated","server_os":"Linux","password":true,"vac":true,"version":"7742253","steam_id":85568392924515187,"keywords":["nocrits","nodmgspread","payload","uncletopia"],"game_id":440,"stv_port":27036,"stv_name":"Uncletopia | Atlanta | 3 | Stopwatch Beta | STV","players":null},{"server_id":401,"name":"Uncletopia | Atlanta | 4 | No Payload","name_short":"atl-4","host":"atl-1.us.uncletopia.com","port":27045,"enabled":true,"region":"us-east","cc":"us","latitude":33.753746,"longitude":-84.38633,"reserved":0,"last_update":"0001-01-01T00:00:00Z","name_a2s":"Uncletopia | Atlanta | 4 | No Payload","protocol":17,"map":"pl_pier","folder":"tf","game":"Team Fortress","app_id":440,"player_count":0,"max_players":24,"Bots":0,"server_type":"Dedicated","server_os":"Linux","password":true,"vac":true,"version":"7723704","steam_id":85568392924515188,"keywords":["nocrits","nodmgspread","payload","uncletopia"],"game_id":440,"stv_port":27046,"stv_name":"Uncletopia | Atlanta | 4 | No Payload | STV","players":null},{"server_id":2,"name":"Uncletopia | Chicago | 1 | All Maps","name_short":"chi-1","host":"chi-1.us.uncletopia.com","port":27015,"enabled":true,"region":"us-central","cc":"us","latitude":41.881832,"longitude":-87.62318,"reserved":0,"last_update":"0001-01-01T00:00:00Z","name_a2s":"Uncletopia | Chicago | 1 | All Maps","protocol":17,"map":"koth_viaduct","folder":"tf","game":"Team Fortress","app_id":440,"player_count":0,"max_players":24,"Bots":0,"server_type":"Dedicated","server_os":"Linux","password":true,"vac":true,"version":"7742253","steam_id":85568392924469984,"keywords":["cp","nocrits","nodmgspread","uncletopia"],"game_id":440,"stv_port":27016,"stv_name":"Uncletopia | Chicago | 1 | All Maps | STV","players":null},{"server_id":106,"name":"Uncletopia | Chicago | 2 | All Maps","name_short":"chi-2","host":"chi-1.us.uncletopia.com","port":27025,"enabled":true,"region":"us-central","cc":"us","latitude":41.881832,"longitude":-87.62318,"reserved":0,"last_update":"0001-01-01T00:00:00Z","name_a2s":"Uncletopia | Chicago | 2 | All Maps","protocol":17,"map":"cp_sunshine","folder":"tf","game":"Team Fortress","app_id":440,"player_count":8,"max_players":24,"Bots":0,"server_type":"Dedicated","server_os":"Linux","password":true,"vac":true,"version":"7742253","steam_id":85568392924469985,"keywords":["cp","nocrits","nodmgspread","uncletopia"],"game_id":440,"stv_port":27026,"stv_name":"Uncletopia | Chicago | 2 | All Maps | STV","players":[{"user_id":771,"name":"Biggus Bovinus","steam_id":76561198035092830,"connected_time":2597000000000,"state":"active","ping":86},{"user_id":792,"name":"LAMMY FROM UM JAMMER LAMMY","steam_id":76561199013140117,"connected_time":408000000000,"state":"active","ping":99},{"user_id":777,"name":"Snake Handler","steam_id":76561198027198306,"connected_time":1525000000000,"state":"active","ping":50},{"user_id":774,"name":"morbius enjoyer","steam_id":76561199461997385,"connected_time":2082000000000,"state":"active","ping":278},{"user_id":778,"name":"alexwasherefirst","steam_id":76561198846755124,"connected_time":1433000000000,"state":"active","ping":105},{"user_id":797,"name":"TaRiK","steam_id":76561198839880487,"connected_time":23000000000,"state":"spawning","ping":94},{"user_id":793,"name":"Atlas-Robo","steam_id":76561199236613331,"connected_time":391000000000,"state":"active","ping":105},{"user_id":795,"name":"TurboRaspberry","steam_id":76561199215360629,"connected_time":336000000000,"state":"active","ping":85}]},{"server_id":402,"name":"Uncletopia | Chicago | 3 | All Maps","name_short":"chi-3","host":"chi-1.us.uncletopia.com","port":27035,"enabled":true,"region":"us-central","cc":"us","latitude":41.881832,"longitude":-87.62318,"reserved":0,"last_update":"0001-01-01T00:00:00Z","name_a2s":"Uncletopia | Chicago | 3 | All Maps","protocol":17,"map":"koth_cascade","folder":"tf","game":"Team Fortress","app_id":440,"player_count":0,"max_players":24,"Bots":0,"server_type":"Dedicated","server_os":"Linux","password":true,"vac":true,"version":"7742253","steam_id":85568392924515191,"keywords":["cp","nocrits","nodmgspread","uncletopia"],"game_id":440,"stv_port":27036,"stv_name":"Uncletopia | Chicago | 3 | All Maps | STV","players":null},{"server_id":403,"name":"Uncletopia | Chicago | 4 | All Maps","name_short":"chi-4","host":"chi-1.us.uncletopia.com","port":27045,"enabled":true,"region":"us-central","cc":"us","latitude":41.881832,"longitude":-87.62318,"reserved":0,"last_update":"0001-01-01T00:00:00Z","name_a2s":"Uncletopia | Chicago | 4 | All Maps","protocol":17,"map":"pl_upward","folder":"tf","game":"Team Fortress","app_id":440,"player_count":24,"max_players":24,"Bots":0,"server_type":"Dedicated","server_os":"Linux","password":true,"vac":true,"version":"7742253","steam_id":85568392924515193,"keywords":["nocrits","nodmgspread","payload","uncletopia"],"game_id":440,"stv_port":27046,"stv_name":"Uncletopia | Chicago | 4 | All Maps | STV","players":[{"user_id":654,"name":"DavidB","steam_id":76561198045916255,"connected_time":354000000000,"state":"active","ping":62},{"user_id":643,"name":"froGG exa","steam_id":76561198044511912,"connected_time":1076000000000,"state":"active","ping":92},{"user_id":569,"name":"Pablo Rizzcobar","steam_id":76561198048696348,"connected_time":7355000000000,"state":"active","ping":64},{"user_id":663,"name":"big guapo","steam_id":76561198103228695,"connected_time":48000000000,"state":"active","ping":59},{"user_id":617,"name":"Harold Chaplin","steam_id":76561198036730227,"connected_time":3161000000000,"state":"active","ping":72},{"user_id":609,"name":"GinTheAlcoholicBeverage","steam_id":76561198020478634,"connected_time":4184000000000,"state":"active","ping":74},{"user_id":659,"name":"cheese (?)","steam_id":76561198232500756,"connected_time":302000000000,"state":"active","ping":77},{"user_id":632,"name":"BBQ","steam_id":76561198437297853,"connected_time":1653000000000,"state":"active","ping":62},{"user_id":635,"name":"Yarn","steam_id":76561199227148369,"connected_time":1607000000000,"state":"active","ping":93},{"user_id":631,"name":"Mothership","steam_id":76561198044029501,"connected_time":1658000000000,"state":"active","ping":150},{"user_id":641,"name":"MoonWolf","steam_id":76561198095735033,"connected_time":1304000000000,"state":"active","ping":67},{"user_id":646,"name":"Lusa","steam_id":76561199435564731,"connected_time":880000000000,"state":"active","ping":182},{"user_id":658,"name":"fartypoopyboi99","steam_id":76561199387931621,"connected_time":313000000000,"state":"active","ping":150},{"user_id":653,"name":"Sir Iasis","steam_id":76561198035666760,"connected_time":382000000000,"state":"active","ping":54},{"user_id":652,"name":"loyaldandan0764","steam_id":76561199231020424,"connected_time":408000000000,"state":"active","ping":108},{"user_id":657,"name":"Noobot9k","steam_id":76561198067338651,"connected_time":321000000000,"state":"active","ping":65},{"user_id":638,"name":"L3Elephant612","steam_id":76561198165094607,"connected_time":1460000000000,"state":"active","ping":79},{"user_id":651,"name":"markie","steam_id":76561198170206590,"connected_time":495000000000,"state":"active","ping":102},{"user_id":660,"name":"sly1","steam_id":76561198049014977,"connected_time":294000000000,"state":"active","ping":61},{"user_id":661,"name":"Mythius","steam_id":76561198401392472,"connected_time":247000000000,"state":"active","ping":74},{"user_id":621,"name":"Frank HardWood","steam_id":76561198109364911,"connected_time":3014000000000,"state":"active","ping":80},{"user_id":603,"name":"armed slobbery. enguzzlement.","steam_id":76561198237292756,"connected_time":4996000000000,"state":"active","ping":70},{"user_id":662,"name":"b","steam_id":76561198272354852,"connected_time":244000000000,"state":"active","ping":36},{"user_id":573,"name":"jayy.t","steam_id":76561198059575962,"connected_time":6680000000000,"state":"active","ping":59}]},{"server_id":36,"name":"Uncletopia | Chicago | 5 | All Maps","name_short":"chi-5","host":"chi-2.us.uncletopia.com","port":27015,"enabled":true,"region":"us-central","cc":"us","latitude":41.881832,"longitude":-87.62318,"reserved":0,"last_update":"0001-01-01T00:00:00Z","name_a2s":"Uncletopia | Chicago | 5 | All Maps","protocol":17,"map":"pl_upward","folder":"tf","game":"Team Fortress","app_id":440,"player_count":21,"max_players":24,"Bots":0,"server_type":"Dedicated","server_os":"Linux","password":true,"vac":true,"version":"7742253","steam_id":85568392924866362,"keywords":["nocrits","nodmgspread","payload","uncletopia"],"game_id":440,"stv_port":27016,"stv_name":"Uncletopia | Chicago | 5 | All Maps | STV","players":[{"user_id":359,"name":"squid game","steam_id":76561199248960166,"connected_time":18000000000,"state":"active","ping":83},{"user_id":332,"name":"Aribari","steam_id":76561198117327938,"connected_time":3879000000000,"state":"active","ping":39},{"user_id":345,"name":"Player 1","steam_id":76561198140584050,"connected_time":2060000000000,"state":"active","ping":67},{"user_id":356,"name":"acurlyquote","steam_id":76561198110033420,"connected_time":612000000000,"state":"active","ping":71},{"user_id":351,"name":"Iron","steam_id":76561198247918478,"connected_time":786000000000,"state":"active","ping":49},{"user_id":360,"name":"LIMBS","steam_id":76561198101220604,"connected_time":11000000000,"state":"spawning","ping":89},{"user_id":348,"name":"BILL NYE THE FAMILY GUY","steam_id":76561198380926090,"connected_time":1745000000000,"state":"active","ping":45},{"user_id":247,"name":"Whitefang‚Ñ¢","steam_id":76561198045287631,"connected_time":11624000000000,"state":"active","ping":67},{"user_id":246,"name":"Oneal","steam_id":76561198026564095,"connected_time":11631000000000,"state":"active","ping":48},{"user_id":354,"name":"rainy","steam_id":76561198003219831,"connected_time":716000000000,"state":"active","ping":75},{"user_id":350,"name":"Average Evil Magma Pea Enjoyer","steam_id":76561198201058206,"connected_time":1432000000000,"state":"active","ping":90},{"user_id":315,"name":"Waltuh Gaming","steam_id":76561198173624978,"connected_time":4864000000000,"state":"active","ping":82},{"user_id":328,"name":"wizorb","steam_id":76561198002172674,"connected_time":4318000000000,"state":"active","ping":69},{"user_id":295,"name":"Koolaid","steam_id":76561199200296010,"connected_time":7178000000000,"state":"active","ping":64},{"user_id":248,"name":"Brade","steam_id":76561198041196115,"connected_time":11618000000000,"state":"active","ping":45},{"user_id":361,"name":"happyman","steam_id":76561199430019599,"connected_time":10000000000,"state":"active","ping":83},{"user_id":355,"name":"sweaterfan","steam_id":76561199389567214,"connected_time":659000000000,"state":"active","ping":58},{"user_id":347,"name":"Elizabeth truss","steam_id":76561198058250979,"connected_time":2046000000000,"state":"active","ping":64},{"user_id":357,"name":"jumbo shrimp","steam_id":76561199085931379,"connected_time":583000000000,"state":"active","ping":87},{"user_id":344,"name":"Grip Reaper","steam_id":76561198028572994,"connected_time":2182000000000,"state":"active","ping":47},{"user_id":316,"name":"I AM THE DANGER","steam_id":76561198261903052,"connected_time":4847000000000,"state":"active","ping":66}]},{"server_id":37,"name":"Uncletopia | Chicago | 6 | All Maps","name_short":"chi-6","host":"chi-2.us.uncletopia.com","port":27025,"enabled":true,"region":"us-central","cc":"us","latitude":41.881832,"longitude":-87.62318,"reserved":0,"last_update":"0001-01-01T00:00:00Z","name_a2s":"Uncletopia | Chicago | 6 | All Maps","protocol":17,"map":"cp_sunshine","folder":"tf","game":"Team Fortress","app_id":440,"player_count":24,"max_players":24,"Bots":0,"server_type":"Dedicated","server_os":"Linux","password":true,"vac":true,"version":"7742253","steam_id":85568392924866363,"keywords":["cp","nocrits","nodmgspread","uncletopia"],"game_id":440,"stv_port":27026,"stv_name":"Uncletopia | Chicago | 6 | All Maps | STV","players":[{"user_id":668,"name":"Average Omori Enjoyer","steam_id":76561199163263543,"connected_time":512000000000,"state":"active","ping":97},{"user_id":665,"name":"checkswing","steam_id":76561198999816132,"connected_time":588000000000,"state":"active","ping":55},{"user_id":669,"name":"Dr Frasier Crane","steam_id":76561198071790583,"connected_time":375000000000,"state":"active","ping":71},{"user_id":667,"name":"H1DD3 gaming","steam_id":76561198855897385,"connected_time":574000000000,"state":"active","ping":165},{"user_id":670,"name":"-BRH- Tangled up in Bluegrass","steam_id":76561197987181139,"connected_time":333000000000,"state":"active","ping":67},{"user_id":662,"name":"MisterDanny8","steam_id":76561198048847182,"connected_time":1223000000000,"state":"active","ping":61},{"user_id":671,"name":"fridge","steam_id":76561198842528530,"connected_time":253000000000,"state":"active","ping":60},{"user_id":636,"name":"radicalPolio","steam_id":76561197961561855,"connected_time":3283000000000,"state":"active","ping":63},{"user_id":584,"name":"bicth","steam_id":76561198086314381,"connected_time":6386000000000,"state":"active","ping":86},{"user_id":672,"name":"koth_cum","steam_id":76561198094130706,"connected_time":243000000000,"state":"active","ping":102},{"user_id":633,"name":"Sloppy Joe (Extra Sauce)","steam_id":76561198359703432,"connected_time":3450000000000,"state":"active","ping":99},{"user_id":673,"name":"master_minion","steam_id":76561198170693990,"connected_time":226000000000,"state":"active","ping":103},{"user_id":638,"name":"MewMewKelsey","steam_id":76561198282956980,"connected_time":3029000000000,"state":"active","ping":74},{"user_id":658,"name":"Radium Jaw","steam_id":76561199224760854,"connected_time":2157000000000,"state":"active","ping":119},{"user_id":640,"name":"Dzhoshua","steam_id":76561198071915251,"connected_time":2989000000000,"state":"active","ping":55},{"user_id":641,"name":"snaffleberry","steam_id":76561198056300568,"connected_time":2970000000000,"state":"active","ping":75},{"user_id":659,"name":"later aligater","steam_id":76561198021609442,"connected_time":2098000000000,"state":"active","ping":58},{"user_id":646,"name":"kimin","steam_id":76561198263393063,"connected_time":2814000000000,"state":"active","ping":93},{"user_id":644,"name":"Jarryl97","steam_id":76561198055451373,"connected_time":2924000000000,"state":"active","ping":76},{"user_id":660,"name":"NewerCoke","steam_id":76561198042911847,"connected_time":2053000000000,"state":"active","ping":78},{"user_id":647,"name":"Ham bones","steam_id":76561198259610648,"connected_time":2801000000000,"state":"active","ping":112},{"user_id":614,"name":"‚ùÑBrrr-azorn‚ùÑ","steam_id":76561198096327396,"connected_time":4731000000000,"state":"active","ping":113},{"user_id":648,"name":"Zed","steam_id":76561197961852209,"connected_time":2766000000000,"state":"active","ping":88},{"user_id":674,"name":"Pyro","steam_id":76561199267143939,"connected_time":206000000000,"state":"active","ping":82}]},{"server_id":38,"name":"Uncletopia | Chicago | 7 | Stopwatch Beta","name_short":"chi-7","host":"chi-2.us.uncletopia.com","port":27035,"enabled":true,"region":"us-central","cc":"us","latitude":41.881832,"longitude":-87.62318,"reserved":0,"last_update":"0001-01-01T00:00:00Z","name_a2s":"Uncletopia | Chicago | 7 | Stopwatch Beta","protocol":17,"map":"pl_upward","folder":"tf","game":"Team Fortress","app_id":440,"player_count":0,"max_players":24,"Bots":0,"server_type":"Dedicated","server_os":"Linux","password":true,"vac":true,"version":"7742253","steam_id":85568392924866364,"keywords":["nocrits","nodmgspread","payload","uncletopia"],"game_id":440,"stv_port":27036,"stv_name":"Uncletopia | Chicago | 7 | Stopwatch Beta | STV","players":null},{"server_id":39,"name":"Uncletopia | Chicago | 8 | Community","name_short":"chi-8","host":"chi-2.us.uncletopia.com","port":27045,"enabled":true,"region":"us-central","cc":"us","latitude":41.881832,"longitude":-87.62318,"reserved":0,"last_update":"0001-01-01T00:00:00Z","name_a2s":"Uncletopia | Chicago | 8 | Community","protocol":17,"map":"workshop/koth_product_final.ugc454272353","folder":"tf","game":"Team Fortress","app_id":440,"player_count":0,"max_players":24,"Bots":0,"server_type":"Dedicated","server_os":"Linux","password":true,"vac":true,"version":"7742253","steam_id":85568392924866365,"keywords":["cp","nocrits","nodmgspread","uncletopia"],"game_id":440,"stv_port":27046,"stv_name":"Uncletopia | Chicago | 8 | Community | STV","players":null},{"server_id":8,"name":"Uncletopia | Dallas | 1 | All Maps","name_short":"dal-1","host":"dal-1.us.uncletopia.com","port":27015,"enabled":true,"region":"us-central","cc":"us","latitude":32.779167,"longitude":-96.80889,"reserved":0,"last_update":"0001-01-01T00:00:00Z","name_a2s":"Uncletopia | Dallas | 1 | All Maps","protocol":17,"map":"cp_sunshine","folder":"tf","game":"Team Fortress","app_id":440,"player_count":0,"max_players":24,"Bots":0,"server_type":"Dedicated","server_os":"Linux","password":true,"vac":true,"version":"7742253","steam_id":85568392924469986,"keywords":["cp","nocrits","nodmgspread","uncletopia"],"game_id":440,"stv_port":27016,"stv_name":"Uncletopia | Dallas | 1 | All Maps | STV","players":null},{"server_id":108,"name":"Uncletopia | Dallas | 2 | All Maps","name_short":"dal-2","host":"dal-1.us.uncletopia.com","port":27025,"enabled":true,"region":"us-central","cc":"us","latitude":32.779167,"longitude":-96.80889,"reserved":0,"last_update":"0001-01-01T00:00:00Z","name_a2s":"Uncletopia | Dallas | 2 | All Maps","protocol":17,"map":"cp_mountainlab","folder":"tf","game":"Team Fortress","app_id":440,"player_count":12,"max_players":24,"Bots":0,"server_type":"Dedicated","server_os":"Linux","password":true,"vac":true,"version":"7742253","steam_id":85568392924469988,"keywords":["cp","nocrits","nodmgspread","uncletopia"],"game_id":440,"stv_port":27026,"stv_name":"Uncletopia | Dallas | 2 | All Maps | STV","players":[{"user_id":777,"name":"Fierce Unggoy","steam_id":76561198262565372,"connected_time":538000000000,"state":"active","ping":94},{"user_id":783,"name":"orangk","steam_id":76561198026604607,"connected_time":114000000000,"state":"active","ping":63},{"user_id":784,"name":"Menacing Man","steam_id":76561198024757998,"connected_time":11000000000,"state":"spawning","ping":89},{"user_id":782,"name":"o2","steam_id":76561199262570913,"connected_time":268000000000,"state":"active","ping":197},{"user_id":785,"name":"burial","steam_id":76561198069431694,"connected_time":2000000000,"state":"spawning","ping":83},{"user_id":781,"name":"Scunt_Bot.exe","steam_id":76561198325350546,"connected_time":343000000000,"state":"active","ping":83},{"user_id":776,"name":"Chestnut","steam_id":76561198078198968,"connected_time":578000000000,"state":"active","ping":76},{"user_id":771,"name":"Beeter","steam_id":76561199003332289,"connected_time":1314000000000,"state":"active","ping":75},{"user_id":765,"name":"Roxanne","steam_id":76561198808385147,"connected_time":2036000000000,"state":"active","ping":75},{"user_id":753,"name":"Magitrex","steam_id":76561199088811754,"connected_time":2367000000000,"state":"active","ping":56},{"user_id":766,"name":"goopgrabber","steam_id":76561199029951083,"connected_time":1993000000000,"state":"active","ping":93},{"user_id":702,"name":"Smitty Werbenjagermanjensen","steam_id":76561198065782439,"connected_time":7225000000000,"state":"active","ping":93}]},{"server_id":5,"name":"Uncletopia | Frankfurt | 1 | All Maps","name_short":"frk-1","host":"frk-1.de.uncletopia.com","port":27015,"enabled":true,"region":"eu","cc":"de","latitude":50.110924,"longitude":8.682127,"reserved":0,"last_update":"0001-01-01T00:00:00Z","name_a2s":"Uncletopia | Frankfurt | 1 | All Maps","protocol":17,"map":"koth_cascade","folder":"tf","game":"Team Fortress","app_id":440,"player_count":0,"max_players":24,"Bots":0,"server_type":"Dedicated","server_os":"Linux","password":true,"vac":true,"version":"7742253","steam_id":85568392924469989,"keywords":["cp","nocrits","nodmgspread","uncletopia"],"game_id":440,"stv_port":27016,"stv_name":"Uncletopia | Frankfurt | 1 | All Maps | STV","players":null},{"server_id":110,"name":"Uncletopia | Frankfurt | 2 | All Maps","name_short":"frk-2","host":"frk-1.de.uncletopia.com","port":27025,"enabled":true,"region":"eu","cc":"de","latitude":50.110924,"longitude":8.682127,"reserved":0,"last_update":"0001-01-01T00:00:00Z","name_a2s":"Uncletopia | Frankfurt | 2 | All Maps","protocol":17,"map":"pl_swiftwater_final1","folder":"tf","game":"Team Fortress","app_id":440,"player_count":0,"max_players":24,"Bots":0,"server_type":"Dedicated","server_os":"Linux","password":true,"vac":true,"version":"7742253","steam_id":85568392924469990,"keywords":["nocrits","nodmgspread","payload","uncletopia"],"game_id":440,"stv_port":27026,"stv_name":"Uncletopia | Frankfurt | 2 | All Maps | STV","players":null},{"server_id":308,"name":"Uncletopia | Frankfurt | 3 | All Maps","name_short":"frk-3","host":"frk-1.de.uncletopia.com","port":27035,"enabled":true,"region":"eu","cc":"de","latitude":50.110924,"longitude":8.682127,"reserved":0,"last_update":"0001-01-01T00:00:00Z","name_a2s":"Uncletopia | Frankfurt | 3 | All Maps","protocol":17,"map":"cp_dustbowl","folder":"tf","game":"Team Fortress","app_id":440,"player_count":0,"max_players":24,"Bots":0,"server_type":"Dedicated","server_os":"Linux","password":true,"vac":true,"version":"7742253","steam_id":85568392924504274,"keywords":["cp","nocrits","nodmgspread","uncletopia"],"game_id":440,"stv_port":27036,"stv_name":"Uncletopia | Frankfurt | 3 | All Maps | STV","players":null},{"server_id":309,"name":"Uncletopia | Frankfurt | 4 | All Maps","name_short":"frk-4","host":"frk-1.de.uncletopia.com","port":27045,"enabled":true,"region":"eu","cc":"de","latitude":50.110924,"longitude":8.682127,"reserved":0,"last_update":"0001-01-01T00:00:00Z","name_a2s":"Uncletopia | Frankfurt | 4 | All Maps","protocol":17,"map":"cp_sunshine","folder":"tf","game":"Team Fortress","app_id":440,"player_count":0,"max_players":24,"Bots":0,"server_type":"Dedicated","server_os":"Linux","password":true,"vac":true,"version":"7742253","steam_id":85568392924504275,"keywords":["cp","nocrits","nodmgspread","uncletopia"],"game_id":440,"stv_port":27046,"stv_name":"Uncletopia | Frankfurt | 4 | All Maps | STV","players":null},{"server_id":310,"name":"Uncletopia | Frankfurt | 5 | All Maps","name_short":"frk-5","host":"frk-1.de.uncletopia.com","port":27055,"enabled":true,"region":"eu","cc":"de","latitude":50.110924,"longitude":8.682127,"reserved":0,"last_update":"0001-01-01T00:00:00Z","name_a2s":"Uncletopia | Frankfurt | 5 | All Maps","protocol":17,"map":"cp_sunshine","folder":"tf","game":"Team Fortress","app_id":440,"player_count":0,"max_players":24,"Bots":0,"server_type":"Dedicated","server_os":"Linux","password":true,"vac":true,"version":"7742253","steam_id":85568392924504277,"keywords":["cp","nocrits","nodmgspread","uncletopia"],"game_id":440,"stv_port":27056,"stv_name":"Uncletopia | Frankfurt | 5 | All Maps | STV","players":null},{"server_id":311,"name":"Uncletopia | Frankfurt | 6 | All Maps","name_short":"frk-6","host":"frk-1.de.uncletopia.com","port":27065,"enabled":true,"region":"eu","cc":"de","latitude":50.110924,"longitude":8.682127,"reserved":0,"last_update":"0001-01-01T00:00:00Z","name_a2s":"Uncletopia | Frankfurt | 6 | All Maps","protocol":17,"map":"koth_lakeside_final","folder":"tf","game":"Team Fortress","app_id":440,"player_count":0,"max_players":24,"Bots":0,"server_type":"Dedicated","server_os":"Linux","password":true,"vac":true,"version":"7742253","steam_id":85568392924504278,"keywords":["cp","nocrits","nodmgspread","uncletopia"],"game_id":440,"stv_port":27066,"stv_name":"Uncletopia | Frankfurt | 6 | All Maps | STV","players":null},{"server_id":23,"name":"Uncletopia | Frankfurt | 7 | Stopwatch Beta","name_short":"frk-7","host":"frk-1.de.uncletopia.com","port":27075,"enabled":true,"region":"eu","cc":"de","latitude":50.110924,"longitude":8.682127,"reserved":0,"last_update":"0001-01-01T00:00:00Z","name_a2s":"Uncletopia | Frankfurt | 7 | Stopwatch Beta","protocol":17,"map":"pl_badwater","folder":"tf","game":"Team Fortress","app_id":440,"player_count":0,"max_players":24,"Bots":0,"server_type":"Dedicated","server_os":"Linux","password":true,"vac":true,"version":"7742253","steam_id":85568392924742827,"keywords":["nocrits","nodmgspread","payload","uncletopia"],"game_id":440,"stv_port":27076,"stv_name":"Uncletopia | Frankfurt | 7 | Stopwatch Beta | STV","players":null},{"server_id":24,"name":"Uncletopia | Frankfurt | 8 | Community","name_short":"frk-8","host":"frk-1.de.uncletopia.com","port":27085,"enabled":true,"region":"eu","cc":"de","latitude":50.110924,"longitude":8.682127,"reserved":0,"last_update":"0001-01-01T00:00:00Z","name_a2s":"Uncletopia | Frankfurt | 8 | Community","protocol":17,"map":"koth_cascade","folder":"tf","game":"Team Fortress","app_id":440,"player_count":0,"max_players":24,"Bots":0,"server_type":"Dedicated","server_os":"Linux","password":true,"vac":true,"version":"7742253","steam_id":85568392924742828,"keywords":["cp","nocrits","nodmgspread","uncletopia"],"game_id":440,"stv_port":27086,"stv_name":"Uncletopia | Frankfurt | 8 | Community | STV","players":null},{"server_id":202,"name":"Uncletopia | Hong Kong | 1 | All Maps","name_short":"hgk-1","host":"hgk-1.hk.uncletopia.com","port":27015,"enabled":true,"region":"asia","cc":"hk","latitude":22.302711,"longitude":114.177216,"reserved":0,"last_update":"0001-01-01T00:00:00Z","name_a2s":"Uncletopia | Hong Kong | 1 | All Maps","protocol":17,"map":"cp_sunshine","folder":"tf","game":"Team Fortress","app_id":440,"player_count":24,"max_players":24,"Bots":0,"server_type":"Dedicated","server_os":"Linux","password":true,"vac":true,"version":"7742253","steam_id":85568392924494504,"keywords":["cp","nocrits","nodmgspread","uncletopia"],"game_id":440,"stv_port":27016,"stv_name":"Uncletopia | Hong Kong | 1 | All Maps | STV","players":[{"user_id":253,"name":"spinach hero","steam_id":76561198042539541,"connected_time":2295000000000,"state":"active","ping":82},{"user_id":301,"name":"harshvolans","steam_id":76561199056960214,"connected_time":445000000000,"state":"active","ping":139},{"user_id":281,"name":"uzr","steam_id":76561198799343084,"connected_time":1170000000000,"state":"active","ping":128},{"user_id":309,"name":"Raian","steam_id":76561198316547158,"connected_time":323000000000,"state":"active","ping":120},{"user_id":222,"name":"P","steam_id":76561198304514505,"connected_time":4526000000000,"state":"active","ping":74},{"user_id":314,"name":"UltraFat","steam_id":76561198253918132,"connected_time":64000000000,"state":"active","ping":72},{"user_id":316,"name":"Gotoh Hitori","steam_id":76561199213292792,"connected_time":14000000000,"state":"spawning","ping":222},{"user_id":306,"name":"lillalune","steam_id":76561198230213828,"connected_time":362000000000,"state":"active","ping":71},{"user_id":307,"name":"Mystery cheese üßÄ","steam_id":76561198304002409,"connected_time":354000000000,"state":"active","ping":82},{"user_id":282,"name":"Mars","steam_id":76561198846610729,"connected_time":1116000000000,"state":"active","ping":102},{"user_id":254,"name":"f2p noob","steam_id":76561199136905551,"connected_time":2258000000000,"state":"active","ping":63},{"user_id":283,"name":"Gold","steam_id":76561199008543001,"connected_time":1077000000000,"state":"active","ping":55},{"user_id":289,"name":"MR. BUTTER","steam_id":76561198329902657,"connected_time":856000000000,"state":"active","ping":104},{"user_id":299,"name":"Noyour","steam_id":76561198323259830,"connected_time":554000000000,"state":"active","ping":124},{"user_id":246,"name":"yw","steam_id":76561199382726488,"connected_time":2383000000000,"state":"active","ping":76},{"user_id":285,"name":"liberta","steam_id":76561198340436140,"connected_time":994000000000,"state":"active","ping":43},{"user_id":303,"name":"tick tock by joji","steam_id":76561198360192254,"connected_time":403000000000,"state":"active","ping":70},{"user_id":302,"name":"I love air conditioning","steam_id":76561198811532659,"connected_time":416000000000,"state":"active","ping":85},{"user_id":231,"name":"T.","steam_id":76561198337887896,"connected_time":3669000000000,"state":"active","ping":80},{"user_id":168,"name":"wait of the world","steam_id":76561198819895048,"connected_time":8529000000000,"state":"active","ping":41},{"user_id":265,"name":"Lu","steam_id":76561198320532821,"connected_time":1561000000000,"state":"active","ping":74},{"user_id":250,"name":"Du57Y","steam_id":76561198120973476,"connected_time":2363000000000,"state":"active","ping":83},{"user_id":297,"name":"Turbo.RF4","steam_id":76561199061012484,"connected_time":611000000000,"state":"active","ping":73},{"user_id":298,"name":"East","steam_id":76561198857299051,"connected_time":582000000000,"state":"active","ping":82}]},{"server_id":1,"name":"Uncletopia | Los Angeles | 1 | All Maps","name_short":"lax-1","host":"lax-1.us.uncletopia.com","port":27015,"enabled":true,"region":"us-west","cc":"us","latitude":33.94279,"longitude":-118.41004,"reserved":0,"last_update":"0001-01-01T00:00:00Z","name_a2s":"Uncletopia | Los Angeles | 1 | All Maps","protocol":17,"map":"koth_viaduct","folder":"tf","game":"Team Fortress","app_id":440,"player_count":0,"max_players":24,"Bots":0,"server_type":"Dedicated","server_os":"Linux","password":true,"vac":true,"version":"7742253","steam_id":85568392924469991,"keywords":["cp","nocrits","nodmgspread","uncletopia"],"game_id":440,"stv_port":27016,"stv_name":"Uncletopia | Los Angeles | 1 | All Maps | STV","players":null},{"server_id":112,"name":"Uncletopia | Los Angeles | 2 | All Maps","name_short":"lax-2","host":"lax-1.us.uncletopia.com","port":27025,"enabled":true,"region":"us-west","cc":"us","latitude":33.94279,"longitude":-118.41004,"reserved":0,"last_update":"0001-01-01T00:00:00Z","name_a2s":"Uncletopia | Los Angeles | 2 | All Maps","protocol":17,"map":"koth_cascade","folder":"tf","game":"Team Fortress","app_id":440,"player_count":0,"max_players":24,"Bots":0,"server_type":"Dedicated","server_os":"Linux","password":true,"vac":true,"version":"7742253","steam_id":85568392924469992,"keywords":["cp","nocrits","nodmgspread","uncletopia"],"game_id":440,"stv_port":27026,"stv_name":"Uncletopia | Los Angeles | 2 | All Maps | STV","players":null},{"server_id":324,"name":"Uncletopia | Los Angeles | 3 | All Maps","name_short":"lax-3","host":"lax-1.us.uncletopia.com","port":27035,"enabled":true,"region":"us-west","cc":"us","latitude":33.94279,"longitude":-118.41004,"reserved":0,"last_update":"0001-01-01T00:00:00Z","name_a2s":"Uncletopia | Los Angeles | 3 | All Maps","protocol":17,"map":"cp_altitude","folder":"tf","game":"Team Fortress","app_id":440,"player_count":0,"max_players":24,"Bots":0,"server_type":"Dedicated","server_os":"Linux","password":true,"vac":true,"version":"7742253","steam_id":85568392924510198,"keywords":["cp","nocrits","nodmgspread","uncletopia"],"game_id":440,"stv_port":27036,"stv_name":"Uncletopia | Los Angeles | 3 | All Maps | STV","players":null},{"server_id":25,"name":"Uncletopia | Los Angeles | 4 | Stopwatch Beta","name_short":"lax-4","host":"lax-1.us.uncletopia.com","port":27045,"enabled":true,"region":"us-west","cc":"us","latitude":33.94279,"longitude":-118.41004,"reserved":0,"last_update":"0001-01-01T00:00:00Z","name_a2s":"Uncletopia | Los Angeles | 4 | Stopwatch Beta","protocol":17,"map":"workshop/koth_product_final.ugc454272353","folder":"tf","game":"Team Fortress","app_id":440,"player_count":0,"max_players":24,"Bots":0,"server_type":"Dedicated","server_os":"Linux","password":true,"vac":true,"version":"7742253","steam_id":85568392924510199,"keywords":["cp","nocrits","nodmgspread","uncletopia"],"game_id":440,"stv_port":27046,"stv_name":"Uncletopia | Los Angeles | 4 | Stopwatch Beta | STV","players":null},{"server_id":11,"name":"Uncletopia | London | 1 | All Maps","name_short":"lon-1","host":"lon-1.uk.uncletopia.com","port":27015,"enabled":true,"region":"eu","cc":"gb","latitude":51.509865,"longitude":-0.118092,"reserved":0,"last_update":"0001-01-01T00:00:00Z","name_a2s":"Uncletopia | London | 1 | All Maps","protocol":17,"map":"cp_altitude","folder":"tf","game":"Team Fortress","app_id":440,"player_count":0,"max_players":24,"Bots":0,"server_type":"Dedicated","server_os":"Linux","password":true,"vac":true,"version":"7742253","steam_id":85568392924367362,"keywords":["cp","nocrits","nodmgspread","uncletopia"],"game_id":440,"stv_port":27016,"stv_name":"Uncletopia | London | 1 | All Maps | STV","players":null},{"server_id":114,"name":"Uncletopia | London | 2 | All Maps","name_short":"lon-2","host":"lon-1.uk.uncletopia.com","port":27025,"enabled":true,"region":"eu","cc":"gb","latitude":51.509865,"longitude":-0.118092,"reserved":0,"last_update":"0001-01-01T00:00:00Z","name_a2s":"Uncletopia | London | 2 | All Maps","protocol":17,"map":"pl_swiftwater_final1","folder":"tf","game":"Team Fortress","app_id":440,"player_count":0,"max_players":24,"Bots":0,"server_type":"Dedicated","server_os":"Linux","password":true,"vac":true,"version":"7742253","steam_id":85568392924470941,"keywords":["nocrits","nodmgspread","payload","uncletopia"],"game_id":440,"stv_port":27026,"stv_name":"Uncletopia | London | 2 | All Maps | STV","players":null},{"server_id":320,"name":"Uncletopia | London | 3 | All Maps","name_short":"lon-3","host":"lon-1.uk.uncletopia.com","port":27035,"enabled":true,"region":"eu","cc":"gb","latitude":51.509865,"longitude":-0.118092,"reserved":0,"last_update":"0001-01-01T00:00:00Z","name_a2s":"Uncletopia | London | 3 | All Maps","protocol":17,"map":"pl_snowycoast","folder":"tf","game":"Team Fortress","app_id":440,"player_count":24,"max_players":24,"Bots":0,"server_type":"Dedicated","server_os":"Linux","password":true,"vac":true,"version":"7742253","steam_id":85568392924510192,"keywords":["nocrits","nodmgspread","payload","uncletopia"],"game_id":440,"stv_port":27036,"stv_name":"Uncletopia | London | 3 | All Maps | STV","players":[{"user_id":97,"name":"Lemmy","steam_id":76561199038870751,"connected_time":2389000000000,"state":"active","ping":58},{"user_id":78,"name":"autistic luigi","steam_id":76561199218285040,"connected_time":4333000000000,"state":"active","ping":75},{"user_id":112,"name":"mioma","steam_id":76561198806131232,"connected_time":937000000000,"state":"active","ping":75},{"user_id":116,"name":"choe","steam_id":76561199112671834,"connected_time":850000000000,"state":"active","ping":86},{"user_id":22,"name":"thomas +","steam_id":76561198355097756,"connected_time":8647000000000,"state":"active","ping":61},{"user_id":119,"name":"SantiThePug #ReviveTheCaber","steam_id":76561199049615996,"connected_time":687000000000,"state":"active","ping":70},{"user_id":98,"name":"Sir Skyber","steam_id":76561198064440004,"connected_time":2173000000000,"state":"active","ping":104},{"user_id":113,"name":"Axewo","steam_id":76561198986249074,"connected_time":923000000000,"state":"active","ping":43},{"user_id":100,"name":"Vic maher","steam_id":76561198097523768,"connected_time":1881000000000,"state":"active","ping":61},{"user_id":12,"name":"Echo of Abyss","steam_id":76561198981841782,"connected_time":9555000000000,"state":"active","ping":66},{"user_id":101,"name":"Purplenoogie","steam_id":76561198081872160,"connected_time":1839000000000,"state":"active","ping":41},{"user_id":109,"name":"TirN","steam_id":76561198113262166,"connected_time":1054000000000,"state":"active","ping":88},{"user_id":73,"name":"Loop_Cat","steam_id":76561199045902145,"connected_time":4763000000000,"state":"active","ping":122},{"user_id":137,"name":"Clamor_","steam_id":76561198104368295,"connected_time":347000000000,"state":"active","ping":90},{"user_id":38,"name":"Noodle","steam_id":76561197997208006,"connected_time":7610000000000,"state":"active","ping":62},{"user_id":117,"name":"pekoraali","steam_id":76561198112012468,"connected_time":848000000000,"state":"active","ping":83},{"user_id":20,"name":"Kiyo I #SaveTF2","steam_id":76561198215758605,"connected_time":8762000000000,"state":"active","ping":74},{"user_id":102,"name":"Human Rights","steam_id":76561198102420849,"connected_time":1795000000000,"state":"active","ping":65},{"user_id":107,"name":"Marioalexsan","steam_id":76561198125512367,"connected_time":1189000000000,"state":"active","ping":88},{"user_id":76,"name":"FuneralDJ (semen demon)","steam_id":76561198105320071,"connected_time":4476000000000,"state":"active","ping":43},{"user_id":44,"name":"night.s","steam_id":76561198326287823,"connected_time":7462000000000,"state":"active","ping":71},{"user_id":64,"name":"catboy trickster","steam_id":76561198075665211,"connected_time":5826000000000,"state":"active","ping":44},{"user_id":46,"name":"Warrior","steam_id":76561198187911222,"connected_time":7327000000000,"state":"active","ping":45},{"user_id":104,"name":"r4s0","steam_id":76561198033661665,"connected_time":1707000000000,"state":"active","ping":72}]},{"server_id":321,"name":"Uncletopia | London | 4 | All Maps","name_short":"lon-4","host":"lon-1.uk.uncletopia.com","port":27045,"enabled":true,"region":"eu","cc":"gb","latitude":51.509865,"longitude":-0.118092,"reserved":0,"last_update":"0001-01-01T00:00:00Z","name_a2s":"Uncletopia | London | 4 | All Maps","protocol":17,"map":"koth_highpass","folder":"tf","game":"Team Fortress","app_id":440,"player_count":0,"max_players":24,"Bots":0,"server_type":"Dedicated","server_os":"Linux","password":true,"vac":true,"version":"7742253","steam_id":85568392924510193,"keywords":["cp","nocrits","nodmgspread","uncletopia"],"game_id":440,"stv_port":27046,"stv_name":"Uncletopia | London | 4 | All Maps | STV","players":null},{"server_id":21,"name":"Uncletopia | London | 5 | All Maps","name_short":"lon-5","host":"lon-1.uk.uncletopia.com","port":27055,"enabled":true,"region":"eu","cc":"gb","latitude":51.509865,"longitude":-0.118092,"reserved":0,"last_update":"0001-01-01T00:00:00Z","name_a2s":"Uncletopia | London | 5 | All Maps","protocol":17,"map":"pl_frontier_final","folder":"tf","game":"Team Fortress","app_id":440,"player_count":4,"max_players":24,"Bots":0,"server_type":"Dedicated","server_os":"Linux","password":true,"vac":true,"version":"7742253","steam_id":85568392924742829,"keywords":["nocrits","nodmgspread","payload","uncletopia"],"game_id":440,"stv_port":27056,"stv_name":"Uncletopia | London | 5 | All Maps | STV","players":[{"user_id":3,"name":"AwterSix","steam_id":76561198042561678,"connected_time":428000000000,"state":"active","ping":54},{"user_id":4,"name":"ToxicBlonde","steam_id":76561198136633815,"connected_time":292000000000,"state":"active","ping":54},{"user_id":5,"name":"kentucky fried chicken","steam_id":76561198348853160,"connected_time":105000000000,"state":"active","ping":127},{"user_id":6,"name":"CouchPotato","steam_id":76561198849369915,"connected_time":80000000000,"state":"active","ping":55}]},{"server_id":22,"name":"Uncletopia | London | 6 | All Maps","name_short":"lon-6","host":"lon-1.uk.uncletopia.com","port":27065,"enabled":true,"region":"eu","cc":"gb","latitude":51.509865,"longitude":-0.118092,"reserved":0,"last_update":"0001-01-01T00:00:00Z","name_a2s":"Uncletopia | London | 6 | All Maps","protocol":17,"map":"pl_borneo","folder":"tf","game":"Team Fortress","app_id":440,"player_count":0,"max_players":24,"Bots":0,"server_type":"Dedicated","server_os":"Linux","password":true,"vac":true,"version":"7742253","steam_id":85568392924742830,"keywords":["nocrits","nodmgspread","payload","uncletopia"],"game_id":440,"stv_port":27066,"stv_name":"Uncletopia | London | 6 | All Maps | STV","players":null},{"server_id":40,"name":"Uncletopia | London | 7 | No Payload","name_short":"lon-7","host":"lon-1.uk.uncletopia.com","port":27075,"enabled":true,"region":"eu","cc":"gb","latitude":51.509865,"longitude":-0.118092,"reserved":0,"last_update":"0001-01-01T00:00:00Z","name_a2s":"Uncletopia | London | 7 | No Payload","protocol":17,"map":"koth_viaduct","folder":"tf","game":"Team Fortress","app_id":440,"player_count":0,"max_players":24,"Bots":0,"server_type":"Dedicated","server_os":"Linux","password":true,"vac":true,"version":"7742253","steam_id":85568392924964314,"keywords":["cp","nocrits","nodmgspread","uncletopia"],"game_id":440,"stv_port":27076,"stv_name":"Uncletopia | London | 7 | No Payload | STV","players":null},{"server_id":41,"name":"Uncletopia | London | 8 | Community","name_short":"lon-8","host":"lon-1.uk.uncletopia.com","port":27085,"enabled":true,"region":"eu","cc":"gb","latitude":51.509865,"longitude":-0.118092,"reserved":0,"last_update":"0001-01-01T00:00:00Z","name_a2s":"Uncletopia | London | 8 | Community","protocol":17,"map":"cp_altitude","folder":"tf","game":"Team Fortress","app_id":440,"player_count":0,"max_players":24,"Bots":0,"server_type":"Dedicated","server_os":"Linux","password":true,"vac":true,"version":"7742253","steam_id":85568392924964315,"keywords":["cp","nocrits","nodmgspread","uncletopia"],"game_id":440,"stv_port":27086,"stv_name":"Uncletopia | London | 8 | Community | STV","players":null},{"server_id":300,"name":"Uncletopia | Montr√©al | 1 | All Maps","name_short":"mtl-1","host":"mtl-1.ca.uncletopia.com","port":27015,"enabled":true,"region":"us-east","cc":"ca","latitude":45.50889,"longitude":-73.56167,"reserved":0,"last_update":"0001-01-01T00:00:00Z","name_a2s":"Uncletopia | Montr√©al | 1 | All Maps","protocol":17,"map":"cp_mountainlab","folder":"tf","game":"Team Fortress","app_id":440,"player_count":0,"max_players":24,"Bots":0,"server_type":"Dedicated","server_os":"Linux","password":true,"vac":true,"version":"7742253","steam_id":85568392924500087,"keywords":["cp","nocrits","nodmgspread","uncletopia"],"game_id":440,"stv_port":27016,"stv_name":"Uncletopia | Montr√©al | 1 | All Maps | STV","players":null},{"server_id":301,"name":"Uncletopia | Montr√©al | 2 | All Maps","name_short":"mtl-2","host":"mtl-1.ca.uncletopia.com","port":27025,"enabled":true,"region":"us-east","cc":"ca","latitude":45.50889,"longitude":-73.56167,"reserved":0,"last_update":"0001-01-01T00:00:00Z","name_a2s":"Uncletopia | Montr√©al | 2 | All Maps","protocol":17,"map":"cp_altitude","folder":"tf","game":"Team Fortress","app_id":440,"player_count":0,"max_players":24,"Bots":0,"server_type":"Dedicated","server_os":"Linux","password":true,"vac":true,"version":"7742253","steam_id":85568392924500088,"keywords":["cp","nocrits","nodmgspread","uncletopia"],"game_id":440,"stv_port":27026,"stv_name":"Uncletopia | Montr√©al | 2 | All Maps | STV","players":null},{"server_id":302,"name":"Uncletopia | Montr√©al | 3 | All Maps","name_short":"mtl-3","host":"mtl-1.ca.uncletopia.com","port":27035,"enabled":true,"region":"us-east","cc":"ca","latitude":45.50889,"longitude":-73.56167,"reserved":0,"last_update":"0001-01-01T00:00:00Z","name_a2s":"Uncletopia | Montr√©al | 3 | All Maps","protocol":17,"map":"cp_process_final","folder":"tf","game":"Team Fortress","app_id":440,"player_count":0,"max_players":24,"Bots":0,"server_type":"Dedicated","server_os":"Linux","password":true,"vac":true,"version":"7742253","steam_id":85568392924500089,"keywords":["cp","nocrits","nodmgspread","uncletopia"],"game_id":440,"stv_port":27036,"stv_name":"Uncletopia | Montr√©al | 3 | All Maps | STV","players":null},{"server_id":303,"name":"Uncletopia | Montr√©al | 4 | No Payload","name_short":"mtl-4","host":"mtl-1.ca.uncletopia.com","port":27045,"enabled":true,"region":"us-east","cc":"ca","latitude":45.50889,"longitude":-73.56167,"reserved":0,"last_update":"0001-01-01T00:00:00Z","name_a2s":"Uncletopia | Montr√©al | 4 | No Payload","protocol":17,"map":"plr_pipeline","folder":"tf","game":"Team Fortress","app_id":440,"player_count":0,"max_players":24,"Bots":0,"server_type":"Dedicated","server_os":"Linux","password":true,"vac":true,"version":"7742253","steam_id":85568392924500090,"keywords":["nocrits","nodmgspread","payload","uncletopia"],"game_id":440,"stv_port":27046,"stv_name":"Uncletopia | Montr√©al | 4 | No Payload | STV","players":null},{"server_id":13,"name":"Uncletopia | New York City | 1 | All Maps","name_short":"nyc-1","host":"nyc-1.us.uncletopia.com","port":27015,"enabled":true,"region":"us-east","cc":"us","latitude":40.73061,"longitude":-73.93524,"reserved":0,"last_update":"0001-01-01T00:00:00Z","name_a2s":"Uncletopia | New York City | 1 | All Maps","protocol":17,"map":"cp_mountainlab","folder":"tf","game":"Team Fortress","app_id":440,"player_count":0,"max_players":24,"Bots":0,"server_type":"Dedicated","server_os":"Linux","password":true,"vac":true,"version":"7742253","steam_id":85568392924469993,"keywords":["cp","nocrits","nodmgspread","uncletopia"],"game_id":440,"stv_port":27016,"stv_name":"Uncletopia | New York City | 1 | All Maps | STV","players":null},{"server_id":14,"name":"Uncletopia | New York City | 2 | All Maps","name_short":"nyc-2","host":"nyc-1.us.uncletopia.com","port":27025,"enabled":true,"region":"us-east","cc":"us","latitude":40.73061,"longitude":-73.93524,"reserved":0,"last_update":"0001-01-01T00:00:00Z","name_a2s":"Uncletopia | New York City | 2 | All Maps","protocol":17,"map":"pl_badwater","folder":"tf","game":"Team Fortress","app_id":440,"player_count":0,"max_players":24,"Bots":0,"server_type":"Dedicated","server_os":"Linux","password":true,"vac":true,"version":"7742253","steam_id":85568392924469994,"keywords":["nocrits","nodmgspread","payload","uncletopia"],"game_id":440,"stv_port":27026,"stv_name":"Uncletopia | New York City | 2 | All Maps | STV","players":null},{"server_id":15,"name":"Uncletopia | New York City | 3 | Stopwatch Beta","name_short":"nyc-3","host":"nyc-1.us.uncletopia.com","port":27035,"enabled":true,"region":"us-east","cc":"us","latitude":40.73061,"longitude":-73.93524,"reserved":0,"last_update":"0001-01-01T00:00:00Z","name_a2s":"Uncletopia | New York City | 3 | Stopwatch Beta","protocol":17,"map":"workshop/pl_summercoast_rc8e.ugc1761528829","folder":"tf","game":"Team Fortress","app_id":440,"player_count":0,"max_players":24,"Bots":0,"server_type":"Dedicated","server_os":"Linux","password":true,"vac":true,"version":"7742253","steam_id":85568392924742820,"keywords":["nocrits","nodmgspread","payload","uncletopia"],"game_id":440,"stv_port":27036,"stv_name":"Uncletopia | New York City | 3 | Stopwatch Beta | STV","players":null},{"server_id":16,"name":"Uncletopia | New York City | 4 | Community","name_short":"nyc-4","host":"nyc-1.us.uncletopia.com","port":27045,"enabled":true,"region":"us-east","cc":"us","latitude":40.73061,"longitude":-73.93524,"reserved":0,"last_update":"0001-01-01T00:00:00Z","name_a2s":"Uncletopia | New York City | 4 | Community","protocol":17,"map":"workshop/cp_caldera_rc2.ugc2834196889","folder":"tf","game":"Team Fortress","app_id":440,"player_count":0,"max_players":24,"Bots":0,"server_type":"Dedicated","server_os":"Linux","password":true,"vac":true,"version":"7742253","steam_id":85568392924742821,"keywords":["cp","nocrits","nodmgspread","uncletopia"],"game_id":440,"stv_port":27046,"stv_name":"Uncletopia | New York City | 4 | Community | STV","players":null},{"server_id":142,"name":"Uncletopia | S√£o Paulo | 1 | All Maps","name_short":"sao-1","host":"sao-1.br.uncletopia.com","port":27015,"enabled":true,"region":"sa","cc":"br","latitude":-23.533773,"longitude":-46.62529,"reserved":0,"last_update":"0001-01-01T00:00:00Z","name_a2s":"Uncletopia | S√£o Paulo | 1 | All Maps","protocol":17,"map":"plr_hightower","folder":"tf","game":"Team Fortress","app_id":440,"player_count":0,"max_players":24,"Bots":0,"server_type":"Dedicated","server_os":"Linux","password":true,"vac":true,"version":"7742253","steam_id":85568392924469996,"keywords":["nocrits","nodmgspread","payload","uncletopia"],"game_id":440,"stv_port":27016,"stv_name":"Uncletopia | S√£o Paulo | 1 | All Maps | STV","players":null},{"server_id":143,"name":"Uncletopia | S√£o Paulo | 2 | All Maps","name_short":"sao-2","host":"sao-2.br.uncletopia.com","port":27015,"enabled":true,"region":"sa","cc":"br","latitude":-23.533773,"longitude":-46.62529,"reserved":0,"last_update":"0001-01-01T00:00:00Z","name_a2s":"Uncletopia | S√£o Paulo | 2 | All Maps","protocol":17,"map":"cp_mountainlab","folder":"tf","game":"Team Fortress","app_id":440,"player_count":0,"max_players":24,"Bots":0,"server_type":"Dedicated","server_os":"Linux","password":true,"vac":true,"version":"7742253","steam_id":85568392924485349,"keywords":["cp","nocrits","nodmgspread","uncletopia"],"game_id":440,"stv_port":27016,"stv_name":"Uncletopia | S√£o Paulo | 2 | All Maps | STV","players":null},{"server_id":7,"name":"Uncletopia | Seattle | 1 | All Maps","name_short":"sea-1","host":"sea-1.us.uncletopia.com","port":27015,"enabled":true,"region":"us-west","cc":"us","latitude":47.608013,"longitude":-122.33517,"reserved":0,"last_update":"0001-01-01T00:00:00Z","name_a2s":"Uncletopia | Seattle | 1 | All Maps","protocol":17,"map":"koth_highpass","folder":"tf","game":"Team Fortress","app_id":440,"player_count":24,"max_players":24,"Bots":0,"server_type":"Dedicated","server_os":"Linux","password":true,"vac":true,"version":"7742253","steam_id":85568392924469997,"keywords":["cp","nocrits","nodmgspread","uncletopia"],"game_id":440,"stv_port":27016,"stv_name":"Uncletopia | Seattle | 1 | All Maps | STV","players":[{"user_id":669,"name":"JJP","steam_id":76561198032914094,"connected_time":4812000000000,"state":"active","ping":68},{"user_id":711,"name":"Red Orbama","steam_id":76561198047002366,"connected_time":452000000000,"state":"active","ping":45},{"user_id":684,"name":"Frongus","steam_id":76561197979056451,"connected_time":3248000000000,"state":"active","ping":45},{"user_id":710,"name":"An Old Lady","steam_id":76561198047480318,"connected_time":463000000000,"state":"active","ping":69},{"user_id":633,"name":"Attrition","steam_id":76561197969881916,"connected_time":7599000000000,"state":"active","ping":58},{"user_id":645,"name":"pcplace","steam_id":76561198097987387,"connected_time":6820000000000,"state":"active","ping":46},{"user_id":720,"name":"Syn_Contamino5311","steam_id":76561199454661432,"connected_time":154000000000,"state":"active","ping":66},{"user_id":713,"name":"Bagaboned","steam_id":76561198043761335,"connected_time":394000000000,"state":"active","ping":46},{"user_id":698,"name":"HUIEI","steam_id":76561198073763735,"connected_time":2412000000000,"state":"active","ping":63},{"user_id":706,"name":"Mak","steam_id":76561198089197922,"connected_time":1409000000000,"state":"active","ping":49},{"user_id":686,"name":"teh mummy","steam_id":76561198044123636,"connected_time":3161000000000,"state":"active","ping":73},{"user_id":687,"name":"OG Goosecock","steam_id":76561198060731432,"connected_time":3146000000000,"state":"active","ping":106},{"user_id":712,"name":"Dickgirl Ultra Marine","steam_id":76561198050582139,"connected_time":418000000000,"state":"active","ping":47},{"user_id":697,"name":"roach","steam_id":76561198354811369,"connected_time":2645000000000,"state":"active","ping":65},{"user_id":714,"name":"Western_spy","steam_id":76561198968587046,"connected_time":387000000000,"state":"active","ping":75},{"user_id":715,"name":"Dad Rock Deluxe","steam_id":76561198051224819,"connected_time":385000000000,"state":"active","ping":91},{"user_id":704,"name":"gooseberry fool","steam_id":76561197991533903,"connected_time":1886000000000,"state":"active","ping":61},{"user_id":694,"name":"-TL- swarm","steam_id":76561198019435762,"connected_time":2882000000000,"state":"active","ping":78},{"user_id":718,"name":"s3aM0th","steam_id":76561199051077883,"connected_time":316000000000,"state":"active","ping":76},{"user_id":705,"name":"earthtraveler413","steam_id":76561198865139926,"connected_time":1870000000000,"state":"active","ping":53},{"user_id":696,"name":"Zenire","steam_id":76561199087298510,"connected_time":2729000000000,"state":"active","ping":57},{"user_id":638,"name":"mumbles","steam_id":76561197994528974,"connected_time":7552000000000,"state":"active","ping":77},{"user_id":707,"name":"Sir Galahad","steam_id":76561198195999859,"connected_time":1408000000000,"state":"active","ping":49},{"user_id":693,"name":"Fostrel","steam_id":76561198152160601,"connected_time":3036000000000,"state":"active","ping":103}]},{"server_id":119,"name":"Uncletopia | Seattle | 2 | All Maps","name_short":"sea-2","host":"sea-1.us.uncletopia.com","port":27025,"enabled":true,"region":"us-west","cc":"us","latitude":47.608013,"longitude":-122.33517,"reserved":0,"last_update":"0001-01-01T00:00:00Z","name_a2s":"Uncletopia | Seattle | 2 | All Maps","protocol":17,"map":"pl_upward","folder":"tf","game":"Team Fortress","app_id":440,"player_count":24,"max_players":24,"Bots":0,"server_type":"Dedicated","server_os":"Linux","password":true,"vac":true,"version":"7742253","steam_id":85568392924469998,"keywords":["nocrits","nodmgspread","payload","uncletopia"],"game_id":440,"stv_port":27026,"stv_name":"Uncletopia | Seattle | 2 | All Maps | STV","players":[{"user_id":620,"name":"Agent","steam_id":76561199389584938,"connected_time":1367000000000,"state":"active","ping":44},{"user_id":589,"name":"Seriously Bruh","steam_id":76561198070408485,"connected_time":2952000000000,"state":"active","ping":91},{"user_id":621,"name":"LUUUNCH","steam_id":76561198021796383,"connected_time":1329000000000,"state":"active","ping":75},{"user_id":622,"name":"Cinna Mon","steam_id":76561198005840633,"connected_time":1324000000000,"state":"active","ping":46},{"user_id":633,"name":"_Pai","steam_id":76561198108196753,"connected_time":1170000000000,"state":"active","ping":74},{"user_id":590,"name":"SmallErection","steam_id":76561198071770147,"connected_time":2945000000000,"state":"active","ping":55},{"user_id":643,"name":"ArumiKaze","steam_id":76561198026814729,"connected_time":217000000000,"state":"active","ping":87},{"user_id":614,"name":"R5-D4","steam_id":76561198025196439,"connected_time":1520000000000,"state":"active","ping":52},{"user_id":596,"name":"Saggle","steam_id":76561198056075147,"connected_time":2790000000000,"state":"active","ping":184},{"user_id":641,"name":"AceSea","steam_id":76561198851176490,"connected_time":482000000000,"state":"active","ping":49},{"user_id":640,"name":"Air Fryer - $39.99 (4 Payments)","steam_id":76561198043572048,"connected_time":933000000000,"state":"active","ping":118},{"user_id":642,"name":"NeoN","steam_id":76561198117608366,"connected_time":451000000000,"state":"active","ping":34},{"user_id":618,"name":"Packer5do","steam_id":76561199260849362,"connected_time":1404000000000,"state":"active","ping":83},{"user_id":607,"name":"strong and healthy gamer","steam_id":76561198049489349,"connected_time":2111000000000,"state":"active","ping":57},{"user_id":599,"name":"Amogous Supreme","steam_id":76561198025476774,"connected_time":2666000000000,"state":"active","ping":73},{"user_id":638,"name":"Nivriz","steam_id":76561198011917094,"connected_time":1062000000000,"state":"active","ping":47},{"user_id":629,"name":"Freddie Benson","steam_id":76561198012741266,"connected_time":1195000000000,"state":"active","ping":47},{"user_id":639,"name":"meow","steam_id":76561198298140571,"connected_time":1011000000000,"state":"active","ping":86},{"user_id":563,"name":"PopcornNinja101","steam_id":76561198330680181,"connected_time":5545000000000,"state":"active","ping":46},{"user_id":644,"name":"e doctor","steam_id":76561198081851446,"connected_time":114000000000,"state":"active","ping":97},{"user_id":609,"name":"Engineer","steam_id":76561198429029268,"connected_time":2050000000000,"state":"active","ping":82},{"user_id":630,"name":"I regret nothing","steam_id":76561198399261089,"connected_time":1194000000000,"state":"active","ping":61},{"user_id":631,"name":"biofio","steam_id":76561198019094571,"connected_time":1191000000000,"state":"active","ping":72},{"user_id":632,"name":"WarsawEagle1216","steam_id":76561198852041864,"connected_time":1188000000000,"state":"active","ping":119}]},{"server_id":406,"name":"Uncletopia | Seattle | 3 | Stopwatch Beta","name_short":"sea-3","host":"sea-1.us.uncletopia.com","port":27035,"enabled":true,"region":"us-west","cc":"us","latitude":47.608013,"longitude":-122.33517,"reserved":0,"last_update":"0001-01-01T00:00:00Z","name_a2s":"Uncletopia | Seattle | 3 | Stopwatch Beta","protocol":17,"map":"pl_borneo","folder":"tf","game":"Team Fortress","app_id":440,"player_count":0,"max_players":24,"Bots":0,"server_type":"Dedicated","server_os":"Linux","password":true,"vac":true,"version":"7742253","steam_id":85568392924515217,"keywords":["nocrits","nodmgspread","payload","uncletopia"],"game_id":440,"stv_port":27036,"stv_name":"Uncletopia | Seattle | 3 | Stopwatch Beta | STV","players":null},{"server_id":17,"name":"Uncletopia | San Francisco | 1 | All Maps","name_short":"sfo-1","host":"sfo-1.us.uncletopia.com","port":27015,"enabled":true,"region":"us-west","cc":"us","latitude":37.77397,"longitude":-122.4313,"reserved":0,"last_update":"0001-01-01T00:00:00Z","name_a2s":"Uncletopia | San Francisco | 1 | All Maps","protocol":17,"map":"koth_highpass","folder":"tf","game":"Team Fortress","app_id":440,"player_count":0,"max_players":24,"Bots":0,"server_type":"Dedicated","server_os":"Linux","password":true,"vac":true,"version":"7742253","steam_id":85568392924469999,"keywords":["cp","nocrits","nodmgspread","uncletopia"],"game_id":440,"stv_port":27016,"stv_name":"Uncletopia | San Francisco | 1 | All Maps | STV","players":null},{"server_id":18,"name":"Uncletopia | San Francisco | 2 | All Maps","name_short":"sfo-2","host":"sfo-1.us.uncletopia.com","port":27025,"enabled":true,"region":"us-west","cc":"us","latitude":37.77397,"longitude":-122.4313,"reserved":0,"last_update":"0001-01-01T00:00:00Z","name_a2s":"Uncletopia | San Francisco | 2 | All Maps","protocol":17,"map":"koth_lakeside_final","folder":"tf","game":"Team Fortress","app_id":440,"player_count":1,"max_players":24,"Bots":0,"server_type":"Dedicated","server_os":"Linux","password":true,"vac":true,"version":"7742253","steam_id":85568392924470000,"keywords":["cp","nocrits","nodmgspread","uncletopia"],"game_id":440,"stv_port":27026,"stv_name":"Uncletopia | San Francisco | 2 | All Maps | STV","players":[{"user_id":196,"name":"Umami Socks","steam_id":76561198062688146,"connected_time":12000000000,"state":"active","ping":89}]},{"server_id":19,"name":"Uncletopia | San Francisco | 3 | Stopwatch Beta","name_short":"sfo-3","host":"sfo-1.us.uncletopia.com","port":27035,"enabled":true,"region":"us-west","cc":"us","latitude":37.77397,"longitude":-122.4313,"reserved":0,"last_update":"0001-01-01T00:00:00Z","name_a2s":"Uncletopia | San Francisco | 3 | Stopwatch Beta","protocol":17,"map":"workshop/cp_process_f11.ugc2302948105","folder":"tf","game":"Team Fortress","app_id":440,"player_count":0,"max_players":24,"Bots":0,"server_type":"Dedicated","server_os":"Linux","password":true,"vac":true,"version":"7742253","steam_id":85568392924742824,"keywords":["cp","nocrits","nodmgspread","uncletopia"],"game_id":440,"stv_port":27036,"stv_name":"Uncletopia | San Francisco | 3 | Stopwatch Beta | STV","players":null},{"server_id":20,"name":"Uncletopia | San Francisco | 4 | Community","name_short":"sfo-4","host":"sfo-1.us.uncletopia.com","port":27045,"enabled":true,"region":"us-west","cc":"us","latitude":37.77397,"longitude":-122.4313,"reserved":0,"last_update":"0001-01-01T00:00:00Z","name_a2s":"Uncletopia | San Francisco | 4 | Community","protocol":17,"map":"workshop/koth_slaughter_rc1.ugc1712845210","folder":"tf","game":"Team Fortress","app_id":440,"player_count":0,"max_players":24,"Bots":0,"server_type":"Dedicated","server_os":"Linux","password":true,"vac":true,"version":"7742253","steam_id":85568392924742826,"keywords":["cp","nocrits","nodmgspread","uncletopia"],"game_id":440,"stv_port":27046,"stv_name":"Uncletopia | San Francisco | 4 | Community | STV","players":null},{"server_id":141,"name":"Uncletopia | Sydney | 1 | All Maps","name_short":"syd-1","host":"syd-1.au.uncletopia.com","port":27015,"enabled":true,"region":"au","cc":"au","latitude":-33.865143,"longitude":151.2099,"reserved":0,"last_update":"0001-01-01T00:00:00Z","name_a2s":"Uncletopia | Sydney | 1 | All Maps","protocol":17,"map":"pl_swiftwater_final1","folder":"tf","game":"Team Fortress","app_id":440,"player_count":24,"max_players":24,"Bots":0,"server_type":"Dedicated","server_os":"Linux","password":true,"vac":true,"version":"7742253","steam_id":85568392924470001,"keywords":["nocrits","nodmgspread","payload","uncletopia"],"game_id":440,"stv_port":27016,"stv_name":"Uncletopia | Sydney | 1 | All Maps | STV","players":[{"user_id":612,"name":"CrazyGlobe","steam_id":76561198992451299,"connected_time":1300000000000,"state":"active","ping":56},{"user_id":605,"name":"Extra Exotic","steam_id":76561198045191981,"connected_time":2308000000000,"state":"active","ping":58},{"user_id":581,"name":"Catto","steam_id":76561197999111589,"connected_time":3044000000000,"state":"active","ping":43},{"user_id":626,"name":"ivory591","steam_id":76561198219476441,"connected_time":405000000000,"state":"active","ping":84},{"user_id":590,"name":"hazz_mcpie -BvM-","steam_id":76561198092450084,"connected_time":2718000000000,"state":"active","ping":83},{"user_id":619,"name":"Red!","steam_id":76561198051440927,"connected_time":477000000000,"state":"active","ping":47},{"user_id":628,"name":"Bing Soy","steam_id":76561198057093383,"connected_time":313000000000,"state":"active","ping":44},{"user_id":611,"name":"lavanderpumpernickle","steam_id":76561199093611800,"connected_time":1433000000000,"state":"active","ping":48},{"user_id":631,"name":"Wake'n'Bake'n'Make'n'Bacon","steam_id":76561198061960926,"connected_time":26000000000,"state":"active","ping":91},{"user_id":609,"name":"Deum.","steam_id":76561198119423717,"connected_time":1536000000000,"state":"active","ping":68},{"user_id":622,"name":"Macca","steam_id":76561198010207998,"connected_time":442000000000,"state":"active","ping":45},{"user_id":577,"name":"syl","steam_id":76561198049270541,"connected_time":3584000000000,"state":"active","ping":33},{"user_id":629,"name":"Pug","steam_id":76561198136794372,"connected_time":155000000000,"state":"active","ping":44},{"user_id":595,"name":"clout","steam_id":76561198073310502,"connected_time":2580000000000,"state":"active","ping":75},{"user_id":624,"name":"Phoish","steam_id":76561198442526296,"connected_time":439000000000,"state":"active","ping":67},{"user_id":615,"name":"ItzDecster","steam_id":76561198321908932,"connected_time":625000000000,"state":"active","ping":63},{"user_id":587,"name":"SUSHIMAN","steam_id":76561199089989428,"connected_time":2788000000000,"state":"active","ping":97},{"user_id":610,"name":"LightningBlock","steam_id":76561198289997742,"connected_time":1439000000000,"state":"active","ping":43},{"user_id":599,"name":"Bigrichard","steam_id":76561198032092945,"connected_time":2562000000000,"state":"active","ping":71},{"user_id":616,"name":"PinkFluffyKnuckles","steam_id":76561198877114539,"connected_time":531000000000,"state":"active","ping":55},{"user_id":625,"name":"kaz","steam_id":76561198141532452,"connected_time":423000000000,"state":"active","ping":46},{"user_id":627,"name":"michael","steam_id":76561198052848358,"connected_time":389000000000,"state":"active","ping":61},{"user_id":583,"name":"BNOR SOOP","steam_id":76561198082918640,"connected_time":2934000000000,"state":"active","ping":47},{"user_id":562,"name":"KnowZero","steam_id":76561198095752015,"connected_time":5542000000000,"state":"active","ping":59}]},{"server_id":123,"name":"Uncletopia | Sydney | 2 | All Maps","name_short":"syd-2","host":"syd-1.au.uncletopia.com","port":27025,"enabled":true,"region":"au","cc":"au","latitude":-33.865143,"longitude":151.2099,"reserved":0,"last_update":"0001-01-01T00:00:00Z","name_a2s":"Uncletopia | Sydney | 2 | All Maps","protocol":17,"map":"pl_upward","folder":"tf","game":"Team Fortress","app_id":440,"player_count":23,"max_players":24,"Bots":0,"server_type":"Dedicated","server_os":"Linux","password":true,"vac":true,"version":"7742253","steam_id":85568392924470002,"keywords":["nocrits","nodmgspread","payload","uncletopia"],"game_id":440,"stv_port":27026,"stv_name":"Uncletopia | Sydney | 2 | All Maps | STV","players":[{"user_id":328,"name":"Cafe","steam_id":76561198061587693,"connected_time":5319000000000,"state":"active","ping":97},{"user_id":368,"name":"scuba cat... my beloved","steam_id":76561198203917953,"connected_time":1116000000000,"state":"active","ping":62},{"user_id":386,"name":"mrphy","steam_id":76561198251574728,"connected_time":475000000000,"state":"active","ping":37},{"user_id":351,"name":"SIRROM12 (SIRR)","steam_id":76561198116738329,"connected_time":1998000000000,"state":"active","ping":61},{"user_id":392,"name":"Bin","steam_id":76561199117653318,"connected_time":5000000000,"state":"spawning","ping":106},{"user_id":389,"name":"RA RA","steam_id":76561198361139900,"connected_time":377000000000,"state":"active","ping":57},{"user_id":382,"name":"Ôº£ÔΩïÔΩíÔΩâÔΩèÔΩìÔΩâÔΩîÔΩô","steam_id":76561198963878133,"connected_time":596000000000,"state":"active","ping":137},{"user_id":391,"name":"the Gingerbreadman","steam_id":76561199446282674,"connected_time":10000000000,"state":"active","ping":163},{"user_id":363,"name":"internetkittenz13","steam_id":76561198881042979,"connected_time":1386000000000,"state":"active","ping":579},{"user_id":357,"name":"confused hunter","steam_id":76561198799447743,"connected_time":1686000000000,"state":"active","ping":63},{"user_id":358,"name":"Easel (any/all)","steam_id":76561198049213583,"connected_time":1620000000000,"state":"active","ping":60},{"user_id":383,"name":"mixyad3","steam_id":76561198046461767,"connected_time":594000000000,"state":"active","ping":53},{"user_id":390,"name":"krandlez` (Any/All)","steam_id":76561198044839726,"connected_time":292000000000,"state":"active","ping":43},{"user_id":362,"name":"squrrel","steam_id":76561198083429611,"connected_time":1413000000000,"state":"active","ping":579},{"user_id":387,"name":"NewChris","steam_id":76561198254754182,"connected_time":453000000000,"state":"active","ping":71},{"user_id":374,"name":"Milk","steam_id":76561198166660997,"connected_time":831000000000,"state":"active","ping":71},{"user_id":385,"name":"J_dub","steam_id":76561198079513685,"connected_time":564000000000,"state":"active","ping":65},{"user_id":375,"name":"Smae ‚éä ‚éä","steam_id":76561198161497327,"connected_time":823000000000,"state":"active","ping":66},{"user_id":376,"name":"flying pengy fan2007","steam_id":76561198306965792,"connected_time":793000000000,"state":"active","ping":91},{"user_id":377,"name":"Flying Pengy 2015 World Champio","steam_id":76561198189663681,"connected_time":791000000000,"state":"active","ping":46},{"user_id":378,"name":"Anisawrus","steam_id":76561198026339834,"connected_time":781000000000,"state":"active","ping":45},{"user_id":379,"name":"TheGameFanaticWasTaken","steam_id":76561199367518486,"connected_time":697000000000,"state":"active","ping":74},{"user_id":388,"name":"amps","steam_id":76561198060894632,"connected_time":420000000000,"state":"active","ping":73}]},{"server_id":395,"name":"Uncletopia | Sydney | 3 | All Maps","name_short":"syd-3","host":"syd-1.au.uncletopia.com","port":27035,"enabled":true,"region":"au","cc":"au","latitude":-33.865143,"longitude":151.2099,"reserved":0,"last_update":"0001-01-01T00:00:00Z","name_a2s":"Uncletopia | Sydney | 3 | All Maps","protocol":17,"map":"koth_viaduct","folder":"tf","game":"Team Fortress","app_id":440,"player_count":0,"max_players":24,"Bots":0,"server_type":"Dedicated","server_os":"Linux","password":true,"vac":true,"version":"7742253","steam_id":85568392925194467,"keywords":["cp","nocrits","nodmgspread","uncletopia"],"game_id":440,"stv_port":27036,"stv_name":"Uncletopia | Sydney | 3 | All Maps | STV","players":null},{"server_id":396,"name":"Uncletopia | Sydney | 4 | All Maps","name_short":"syd-4","host":"syd-1.au.uncletopia.com","port":27045,"enabled":true,"region":"au","cc":"au","latitude":-33.865143,"longitude":151.2099,"reserved":0,"last_update":"0001-01-01T00:00:00Z","name_a2s":"Uncletopia | Sydney | 4 | All Maps","protocol":17,"map":"cp_mountainlab","folder":"tf","game":"Team Fortress","app_id":440,"player_count":0,"max_players":24,"Bots":0,"server_type":"Dedicated","server_os":"Linux","password":true,"vac":true,"version":"7742253","steam_id":85568392925397958,"keywords":["cp","nocrits","nodmgspread","uncletopia"],"game_id":440,"stv_port":27046,"stv_name":"Uncletopia | Sydney | 4 | All Maps | STV","players":null},{"server_id":58,"name":"Uncletopia | Sydney | 5 | Stopwatch Beta","name_short":"syd-5","host":"syd-1.au.uncletopia.com","port":27055,"enabled":true,"region":"au","cc":"au","latitude":-33.865143,"longitude":151.2099,"reserved":0,"last_update":"0001-01-01T00:00:00Z","name_a2s":"Uncletopia | Sydney | 5 | Stopwatch Beta","protocol":17,"map":"workshop/pl_badwater_pro_v12.ugc2142942074","folder":"tf","game":"Team Fortress","app_id":440,"player_count":3,"max_players":24,"Bots":0,"server_type":"Dedicated","server_os":"Linux","password":true,"vac":true,"version":"7742253","steam_id":85568392925397959,"keywords":["nocrits","nodmgspread","payload","uncletopia"],"game_id":440,"stv_port":27056,"stv_name":"Uncletopia | Sydney | 5 | Stopwatch Beta | STV","players":[{"user_id":7,"name":"bill","steam_id":76561198066726621,"connected_time":186000000000,"state":"active","ping":45},{"user_id":8,"name":"taunter","steam_id":76561199166098585,"connected_time":98000000000,"state":"active","ping":164},{"user_id":9,"name":"Joshua Graham","steam_id":76561198136604959,"connected_time":14000000000,"state":"spawning","ping":132}]},{"server_id":59,"name":"Uncletopia | Sydney | 6 | Community","name_short":"syd-6","host":"syd-1.au.uncletopia.com","port":27065,"enabled":true,"region":"au","cc":"au","latitude":-33.865143,"longitude":151.2099,"reserved":0,"last_update":"0001-01-01T00:00:00Z","name_a2s":"Uncletopia | Sydney | 6 | Community","protocol":17,"map":"workshop/koth_ramjam_rc1.ugc459778887","folder":"tf","game":"Team Fortress","app_id":440,"player_count":0,"max_players":24,"Bots":0,"server_type":"Dedicated","server_os":"Linux","password":true,"vac":true,"version":"7742253","steam_id":85568392925397960,"keywords":["cp","nocrits","nodmgspread","uncletopia"],"game_id":440,"stv_port":27066,"stv_name":"Uncletopia | Sydney | 6 | Community | STV","players":null},{"server_id":49,"name":"Uncletopia | Warsaw | 1 | All Maps","name_short":"waw-1","host":"waw-1.pl.uncletopia.com","port":27015,"enabled":true,"region":"eu","cc":"pl","latitude":52.2297,"longitude":21.017532,"reserved":0,"last_update":"0001-01-01T00:00:00Z","name_a2s":"","protocol":0,"map":"","folder":"","game":"","app_id":0,"player_count":0,"max_players":0,"Bots":0,"server_type":"","server_os":"","password":false,"vac":false,"version":"","steam_id":0,"keywords":null,"game_id":0,"stv_port":0,"stv_name":"","players":null},{"server_id":50,"name":"Uncletopia | Warsaw | 2 | All Maps","name_short":"waw-2","host":"waw-1.pl.uncletopia.com","port":27025,"enabled":true,"region":"eu","cc":"pl","latitude":52.2297,"longitude":21.017532,"reserved":0,"last_update":"0001-01-01T00:00:00Z","name_a2s":"Uncletopia | Warsaw | 2 | All Maps","protocol":17,"map":"cp_snakewater_final1","folder":"tf","game":"Team Fortress","app_id":440,"player_count":0,"max_players":24,"Bots":0,"server_type":"Dedicated","server_os":"Linux","password":true,"vac":true,"version":"7742253","steam_id":85568392925397851,"keywords":["cp","nocrits","nodmgspread","uncletopia"],"game_id":440,"stv_port":27026,"stv_name":"Uncletopia | Warsaw | 2 | All Maps | STV","players":null},{"server_id":51,"name":"Uncletopia | Warsaw | 3 | All Maps","name_short":"waw-3","host":"waw-1.pl.uncletopia.com","port":27035,"enabled":true,"region":"eu","cc":"pl","latitude":52.2297,"longitude":21.017532,"reserved":0,"last_update":"0001-01-01T00:00:00Z","name_a2s":"Uncletopia | Warsaw | 3 | All Maps","protocol":17,"map":"koth_lakeside_final","folder":"tf","game":"Team Fortress","app_id":440,"player_count":0,"max_players":24,"Bots":0,"server_type":"Dedicated","server_os":"Linux","password":true,"vac":true,"version":"7742253","steam_id":85568392925397852,"keywords":["cp","nocrits","nodmgspread","uncletopia"],"game_id":440,"stv_port":27036,"stv_name":"Uncletopia | Warsaw | 3 | All Maps | STV","players":null},{"server_id":52,"name":"Uncletopia | Warsaw | 4 | All Maps","name_short":"waw-4","host":"waw-1.pl.uncletopia.com","port":27045,"enabled":true,"region":"eu","cc":"pl","latitude":52.2297,"longitude":21.017532,"reserved":0,"last_update":"0001-01-01T00:00:00Z","name_a2s":"Uncletopia | Warsaw | 4 | All Maps","protocol":17,"map":"pl_upward","folder":"tf","game":"Team Fortress","app_id":440,"player_count":0,"max_players":24,"Bots":0,"server_type":"Dedicated","server_os":"Linux","password":true,"vac":true,"version":"7742253","steam_id":85568392925397853,"keywords":["nocrits","nodmgspread","payload","uncletopia"],"game_id":440,"stv_port":27046,"stv_name":"Uncletopia | Warsaw | 4 | All Maps | STV","players":null},{"server_id":53,"name":"Uncletopia | Warsaw | 5 | Stopwatch Beta","name_short":"waw-5","host":"waw-1.pl.uncletopia.com","port":27055,"enabled":true,"region":"eu","cc":"pl","latitude":52.2297,"longitude":21.017532,"reserved":0,"last_update":"0001-01-01T00:00:00Z","name_a2s":"Uncletopia | Warsaw | 5 | Stopwatch Beta","protocol":17,"map":"pl_swiftwater_final1","folder":"tf","game":"Team Fortress","app_id":440,"player_count":0,"max_players":24,"Bots":0,"server_type":"Dedicated","server_os":"Linux","password":true,"vac":true,"version":"7742253","steam_id":85568392925397854,"keywords":["nocrits","nodmgspread","payload","uncletopia"],"game_id":440,"stv_port":27056,"stv_name":"Uncletopia | Warsaw | 5 | Stopwatch Beta | STV","players":null},{"server_id":54,"name":"Uncletopia | Warsaw | 6 | Community","name_short":"waw-6","host":"waw-1.pl.uncletopia.com","port":27065,"enabled":true,"region":"eu","cc":"pl","latitude":52.2297,"longitude":21.017532,"reserved":0,"last_update":"0001-01-01T00:00:00Z","name_a2s":"Uncletopia | Warsaw | 6 | Community","protocol":17,"map":"koth_highpass","folder":"tf","game":"Team Fortress","app_id":440,"player_count":0,"max_players":24,"Bots":0,"server_type":"Dedicated","server_os":"Linux","password":true,"vac":true,"version":"7742253","steam_id":85568392925397856,"keywords":["cp","nocrits","nodmgspread","uncletopia"],"game_id":440,"stv_port":27066,"stv_name":"Uncletopia | Warsaw | 6 | Community | STV","players":null}]}