{"status":true,"message":"","result":[{"server_id":9,"name":"Uncletopia | Atlanta | 1 | All Maps","name_short":"atl-1","host":"atl-1.us.uncletopia.com","port":27015,"enabled":true,"region":"us-east","cc":"us","latitude":33.753746,"longitude":-84.38633,"reserved":0,"last_update":"0001-01-01T00:00:00Z","name_a2s":"Uncletopia | Atlanta | 1 | All Maps","protocol":17,"map":"pl_borneo","folder":"tf","game":"Team Fortress","app_id":440,"player_count":24,"max_players":24,"Bots":0,"server_type":"Dedicated","server_os":"Linux","password":true,"vac":true,"version":"7961495","steam_id":85568392924469982,"keywords":["nocrits","nodmgspread","payload","uncletopia"],"game_id":440,"stv_port":27016,"stv_name":"Uncletopia | Atlanta | 1 | All Maps | STV","players":[{"user_id":206,"name":"ATL1 | to4st","steam_id":76561198981009008,"connected_time":3449000000000,"state":"active","ping":71},{"user_id":226,"name":"BIG HOG","steam_id":76561198079923652,"connected_time":1144000000000,"state":"active","ping":63},{"user_id":241,"name":"TF2C | fac","steam_id":76561198009818412,"connected_time":247000000000,"state":"active","ping":72},{"user_id":232,"name":"MCBrasas","steam_id":76561199389650640,"connected_time":799000000000,"state":"active","ping":145},{"user_id":213,"name":"Jared","steam_id":76561198027210228,"connected_time":2324000000000,"state":"active","ping":86},{"user_id":235,"name":"Duck","steam_id":76561198303483056,"connected_time":528000000000,"state":"active","ping":96},{"user_id":175,"name":"Thotimus Begonimus","steam_id":76561197970275938,"connected_time":5984000000000,"state":"active","ping":61},{"user_id":228,"name":"Flawless","steam_id":76561198418622751,"connected_time":1113000000000,"state":"active","ping":74},{"user_id":207,"name":"lil hog","steam_id":76561199230929836,"connected_time":3448000000000,"state":"active","ping":84},{"user_id":243,"name":"Dark Lord","steam_id":76561198044199150,"connected_time":181000000000,"state":"active","ping":93},{"user_id":148,"name":"marguerite","steam_id":76561198170873495,"connected_time":10255000000000,"state":"active","ping":57},{"user_id":188,"name":"Obelisk","steam_id":76561198049416866,"connected_time":5213000000000,"state":"active","ping":55},{"user_id":242,"name":"PinkLemonade","steam_id":76561198799286228,"connected_time":239000000000,"state":"active","ping":65},{"user_id":214,"name":"Flora\u003c3","steam_id":76561198299175965,"connected_time":2319000000000,"state":"active","ping":61},{"user_id":186,"name":"Healthcliff","steam_id":76561198044288534,"connected_time":5400000000000,"state":"active","ping":76},{"user_id":212,"name":"squaggles!","steam_id":76561197994995011,"connected_time":2332000000000,"state":"active","ping":32},{"user_id":229,"name":"Lena","steam_id":76561198973084169,"connected_time":1013000000000,"state":"active","ping":170},{"user_id":244,"name":"The Kansas Crack Addict","steam_id":76561199022178492,"connected_time":23000000000,"state":"spawning","ping":55},{"user_id":199,"name":"ark","steam_id":76561198041066271,"connected_time":4056000000000,"state":"active","ping":88},{"user_id":143,"name":"Ashes!","steam_id":76561197998475441,"connected_time":10624000000000,"state":"active","ping":80},{"user_id":234,"name":"eeeeeeeenE","steam_id":76561198857793523,"connected_time":563000000000,"state":"active","ping":155},{"user_id":220,"name":"Lilith","steam_id":76561198125102885,"connected_time":1879000000000,"state":"active","ping":65},{"user_id":183,"name":"Intro Bonito","steam_id":76561198119478838,"connected_time":5907000000000,"state":"active","ping":54},{"user_id":237,"name":"BaconLol","steam_id":76561199125317999,"connected_time":514000000000,"state":"active","ping":176}]},{"server_id":104,"name":"Uncletopia | Atlanta | 2 | All Maps","name_short":"atl-2","host":"atl-1.us.uncletopia.com","port":27025,"enabled":true,"region":"us-east","cc":"us","latitude":33.753746,"longitude":-84.38633,"reserved":0,"last_update":"0001-01-01T00:00:00Z","name_a2s":"Uncletopia | Atlanta | 2 | All Maps","protocol":17,"map":"koth_king","folder":"tf","game":"Team Fortress","app_id":440,"player_count":23,"max_players":24,"Bots":0,"server_type":"Dedicated","server_os":"Linux","password":true,"vac":true,"version":"7961495","steam_id":85568392924469983,"keywords":["cp","nocrits","nodmgspread","uncletopia"],"game_id":440,"stv_port":27026,"stv_name":"Uncletopia | Atlanta | 2 | All Maps | STV","players":[{"user_id":148,"name":"Silly_Woman-Eagles_2013_Remaste","steam_id":76561199112906293,"connected_time":1533000000000,"state":"active","ping":80},{"user_id":111,"name":"hayes","steam_id":76561198057101042,"connected_time":2422000000000,"state":"active","ping":71},{"user_id":186,"name":"ZombieSlayer77","steam_id":76561199023974356,"connected_time":151000000000,"state":"active","ping":70},{"user_id":190,"name":"Guava","steam_id":76561199187764012,"connected_time":48000000000,"state":"active","ping":74},{"user_id":170,"name":"b etween d","steam_id":76561198802099686,"connected_time":916000000000,"state":"active","ping":149},{"user_id":191,"name":"The Engineering Puro","steam_id":76561199186496740,"connected_time":18000000000,"state":"spawning","ping":108},{"user_id":96,"name":"CatMagic","steam_id":76561199454230243,"connected_time":3352000000000,"state":"active","ping":73},{"user_id":173,"name":"Dooge","steam_id":76561198127715621,"connected_time":727000000000,"state":"active","ping":75},{"user_id":174,"name":"Melaza Madera","steam_id":76561199031977210,"connected_time":723000000000,"state":"active","ping":57},{"user_id":179,"name":"The_Stomach_Stone_Surgeon","steam_id":76561198044643725,"connected_time":473000000000,"state":"active","ping":34},{"user_id":183,"name":"spider","steam_id":76561198130032444,"connected_time":300000000000,"state":"active","ping":105},{"user_id":187,"name":"Himatri1up","steam_id":76561199504481288,"connected_time":102000000000,"state":"active","ping":257},{"user_id":189,"name":"Ecliptica","steam_id":76561198171951333,"connected_time":88000000000,"state":"active","ping":116},{"user_id":188,"name":"old sloth cheese","steam_id":76561198248696144,"connected_time":96000000000,"state":"active","ping":87},{"user_id":141,"name":"Indigo","steam_id":76561198430362969,"connected_time":1619000000000,"state":"active","ping":60},{"user_id":177,"name":"Kdash","steam_id":76561198043829155,"connected_time":557000000000,"state":"active","ping":76},{"user_id":57,"name":"confield","steam_id":76561198004322265,"connected_time":5247000000000,"state":"active","ping":47},{"user_id":178,"name":"meboyperson","steam_id":76561199217938111,"connected_time":540000000000,"state":"active","ping":89},{"user_id":182,"name":"zoinks","steam_id":76561198127238003,"connected_time":418000000000,"state":"active","ping":79},{"user_id":150,"name":"TheGamingLime0","steam_id":76561198306090796,"connected_time":1476000000000,"state":"active","ping":108},{"user_id":84,"name":"Defect Slay the Spire","steam_id":76561198055855534,"connected_time":3722000000000,"state":"active","ping":75},{"user_id":63,"name":"Cat_Soldier","steam_id":76561198799974610,"connected_time":5141000000000,"state":"active","ping":56},{"user_id":124,"name":"TofuCat","steam_id":76561198416746118,"connected_time":2124000000000,"state":"active","ping":60}]},{"server_id":400,"name":"Uncletopia | Atlanta | 3 | Stopwatch","name_short":"atl-3","host":"atl-1.us.uncletopia.com","port":27035,"enabled":true,"region":"us-east","cc":"us","latitude":33.753746,"longitude":-84.38633,"reserved":0,"last_update":"0001-01-01T00:00:00Z","name_a2s":"Uncletopia | Atlanta | 3 | Stopwatch","protocol":17,"map":"workshop/koth_bagel_rc6.ugc2514036946","folder":"tf","game":"Team Fortress","app_id":440,"player_count":0,"max_players":24,"Bots":0,"server_type":"Dedicated","server_os":"Linux","password":true,"vac":true,"version":"7961495","steam_id":85568392924515187,"keywords":["cp","nocrits","nodmgspread","uncletopia"],"game_id":440,"stv_port":27036,"stv_name":"Uncletopia | Atlanta | 3 | Stopwatch | STV","players":null},{"server_id":401,"name":"Uncletopia | Atlanta | 4 | Community","name_short":"atl-4","host":"atl-1.us.uncletopia.com","port":27045,"enabled":true,"region":"us-east","cc":"us","latitude":33.753746,"longitude":-84.38633,"reserved":0,"last_update":"0001-01-01T00:00:00Z","name_a2s":"Uncletopia | Atlanta | 4 | Community","protocol":17,"map":"workshop/koth_kemptown_rc1.ugc767410655","folder":"tf","game":"Team Fortress","app_id":440,"player_count":0,"max_players":24,"Bots":0,"server_type":"Dedicated","server_os":"Linux","password":true,"vac":true,"version":"7961495","steam_id":85568392924515188,"keywords":["cp","nocrits","nodmgspread","uncletopia"],"game_id":440,"stv_port":27046,"stv_name":"Uncletopia | Atlanta | 4 | Community | STV","players":null},{"server_id":2,"name":"Uncletopia | Chicago | 1 | All Maps","name_short":"chi-1","host":"chi-1.us.uncletopia.com","port":27015,"enabled":true,"region":"us-central","cc":"us","latitude":41.881832,"longitude":-87.62318,"reserved":0,"last_update":"0001-01-01T00:00:00Z","name_a2s":"Uncletopia | Chicago | 1 | All Maps","protocol":17,"map":"cp_dustbowl","folder":"tf","game":"Team Fortress","app_id":440,"player_count":23,"max_players":24,"Bots":0,"server_type":"Dedicated","server_os":"Linux","password":true,"vac":true,"version":"7961495","steam_id":85568392924469984,"keywords":["cp","nocrits","nodmgspread","uncletopia"],"game_id":440,"stv_port":27016,"stv_name":"Uncletopia | Chicago | 1 | All Maps | STV","players":[{"user_id":350,"name":"Heccu","steam_id":76561198248361348,"connected_time":1093000000000,"state":"active","ping":97},{"user_id":368,"name":"Waesel","steam_id":76561198069188177,"connected_time":299000000000,"state":"active","ping":68},{"user_id":360,"name":"Roxy Lalonde from Homestuck","steam_id":76561198255575892,"connected_time":490000000000,"state":"active","ping":103},{"user_id":353,"name":"Spy Gaming","steam_id":76561198453295613,"connected_time":889000000000,"state":"active","ping":111},{"user_id":369,"name":"WiDam","steam_id":76561198005976631,"connected_time":287000000000,"state":"active","ping":60},{"user_id":361,"name":"ChimpChampion","steam_id":76561198046520712,"connected_time":480000000000,"state":"active","ping":167},{"user_id":358,"name":"kirby7","steam_id":76561199167006749,"connected_time":730000000000,"state":"active","ping":38},{"user_id":348,"name":"IamDORKeegan","steam_id":76561198263695730,"connected_time":1267000000000,"state":"active","ping":85},{"user_id":378,"name":"OliverOyl","steam_id":76561198273781861,"connected_time":90000000000,"state":"active","ping":61},{"user_id":362,"name":"Big Bill Haywood","steam_id":76561198142290733,"connected_time":427000000000,"state":"active","ping":70},{"user_id":375,"name":"Tydal_Wavee","steam_id":76561199489865416,"connected_time":150000000000,"state":"active","ping":98},{"user_id":310,"name":"Filthy Acts at Reasonable Price","steam_id":76561198354615890,"connected_time":4206000000000,"state":"active","ping":116},{"user_id":377,"name":"Hiest","steam_id":76561198122221230,"connected_time":144000000000,"state":"active","ping":62},{"user_id":365,"name":"Dax","steam_id":76561198035787288,"connected_time":396000000000,"state":"active","ping":99},{"user_id":366,"name":"HUMBY","steam_id":76561198065045867,"connected_time":393000000000,"state":"active","ping":78},{"user_id":321,"name":"TrashDargon","steam_id":76561198423900560,"connected_time":3544000000000,"state":"active","ping":52},{"user_id":367,"name":"sprot","steam_id":76561198140474431,"connected_time":377000000000,"state":"active","ping":106},{"user_id":370,"name":"player","steam_id":76561199138699358,"connected_time":223000000000,"state":"active","ping":58},{"user_id":371,"name":"Kung fu MUNGUS","steam_id":76561198069281556,"connected_time":192000000000,"state":"active","ping":66},{"user_id":373,"name":"J O S H³²","steam_id":76561198122603779,"connected_time":181000000000,"state":"active","ping":101},{"user_id":340,"name":"King Cotton","steam_id":76561198292444376,"connected_time":2643000000000,"state":"active","ping":94},{"user_id":374,"name":"ham salmontizer","steam_id":76561198168840293,"connected_time":176000000000,"state":"active","ping":83},{"user_id":376,"name":"GizmozHD","steam_id":76561198130617958,"connected_time":149000000000,"state":"active","ping":66}]},{"server_id":106,"name":"Uncletopia | Chicago | 2 | All Maps","name_short":"chi-2","host":"chi-1.us.uncletopia.com","port":27025,"enabled":true,"region":"us-central","cc":"us","latitude":41.881832,"longitude":-87.62318,"reserved":0,"last_update":"0001-01-01T00:00:00Z","name_a2s":"Uncletopia | Chicago | 2 | All Maps","protocol":17,"map":"cp_dustbowl","folder":"tf","game":"Team Fortress","app_id":440,"player_count":25,"max_players":24,"Bots":0,"server_type":"Dedicated","server_os":"Linux","password":true,"vac":true,"version":"7961495","steam_id":85568392924469985,"keywords":["cp","nocrits","nodmgspread","uncletopia"],"game_id":440,"stv_port":27026,"stv_name":"Uncletopia | Chicago | 2 | All Maps | STV","players":[{"user_id":431,"name":"JakeTheSnake2007","steam_id":76561199101642283,"connected_time":1504000000000,"state":"active","ping":69},{"user_id":432,"name":"MedRed™ #IATAH","steam_id":76561198002962970,"connected_time":1477000000000,"state":"active","ping":93},{"user_id":428,"name":"skill issue service hotline","steam_id":76561198120569764,"connected_time":1536000000000,"state":"active","ping":87},{"user_id":265,"name":"a goofy little fellow","steam_id":76561199075832935,"connected_time":3949000000000,"state":"active","ping":84},{"user_id":346,"name":"Big Yoshi","steam_id":76561199160576376,"connected_time":2932000000000,"state":"active","ping":113},{"user_id":458,"name":"Dustin Bones","steam_id":76561198019314474,"connected_time":693000000000,"state":"active","ping":73},{"user_id":433,"name":"Typh","steam_id":76561198315344079,"connected_time":1470000000000,"state":"active","ping":76},{"user_id":465,"name":"b4b4b003y","steam_id":76561198028981154,"connected_time":207000000000,"state":"active","ping":105},{"user_id":441,"name":"hej","steam_id":76561197996366940,"connected_time":1192000000000,"state":"active","ping":62},{"user_id":268,"name":"Nerf Clean Hit","steam_id":76561198257691881,"connected_time":3851000000000,"state":"active","ping":94},{"user_id":443,"name":"SandHanitizer","steam_id":76561198234676500,"connected_time":1156000000000,"state":"active","ping":69},{"user_id":369,"name":"3ggsalad3","steam_id":76561199386969191,"connected_time":2642000000000,"state":"active","ping":52},{"user_id":423,"name":"heck","steam_id":76561198308547958,"connected_time":1612000000000,"state":"active","ping":59},{"user_id":163,"name":"Kraftlos","steam_id":76561198074350350,"connected_time":5430000000000,"state":"active","ping":75},{"user_id":144,"name":"Brandino!","steam_id":76561198000446932,"connected_time":6058000000000,"state":"active","ping":80},{"user_id":404,"name":"The All-Seeing Tim","steam_id":76561198075510786,"connected_time":2049000000000,"state":"active","ping":83},{"user_id":397,"name":"vv","steam_id":76561198134813102,"connected_time":2282000000000,"state":"active","ping":59},{"user_id":457,"name":"Oviraptor Supreme","steam_id":76561198044262534,"connected_time":762000000000,"state":"active","ping":70},{"user_id":473,"name":"Mista Boombastic","steam_id":76561197973121212,"connected_time":36000000000,"state":"spawning","ping":44},{"user_id":429,"name":"Charlie","steam_id":76561198798127908,"connected_time":1535000000000,"state":"active","ping":73},{"user_id":387,"name":"Goat","steam_id":76561198068447650,"connected_time":2407000000000,"state":"active","ping":67},{"user_id":426,"name":"TheWorstSpeedRunner","steam_id":76561199075273861,"connected_time":1581000000000,"state":"active","ping":73},{"user_id":459,"name":"Lyathan","steam_id":76561198062773218,"connected_time":528000000000,"state":"active","ping":64},{"user_id":430,"name":"Slepii","steam_id":76561198881786224,"connected_time":1535000000000,"state":"active","ping":72},{"user_id":437,"name":"Finn the Dafter","steam_id":76561198004267413,"connected_time":1351000000000,"state":"active","ping":77}]},{"server_id":402,"name":"Uncletopia | Chicago | 3 | All Maps","name_short":"chi-3","host":"chi-1.us.uncletopia.com","port":27035,"enabled":true,"region":"us-central","cc":"us","latitude":41.881832,"longitude":-87.62318,"reserved":0,"last_update":"0001-01-01T00:00:00Z","name_a2s":"Uncletopia | Chicago | 3 | All Maps","protocol":17,"map":"pl_borneo","folder":"tf","game":"Team Fortress","app_id":440,"player_count":23,"max_players":24,"Bots":0,"server_type":"Dedicated","server_os":"Linux","password":true,"vac":true,"version":"7961495","steam_id":85568392924515191,"keywords":["nocrits","nodmgspread","payload","uncletopia"],"game_id":440,"stv_port":27036,"stv_name":"Uncletopia | Chicago | 3 | All Maps | STV","players":[{"user_id":70,"name":"DiamondEpsilon","steam_id":76561198203883311,"connected_time":4391000000000,"state":"active","ping":75},{"user_id":118,"name":"Pat","steam_id":76561198045375779,"connected_time":1169000000000,"state":"active","ping":72},{"user_id":99,"name":"Laventhey","steam_id":76561198977523626,"connected_time":2394000000000,"state":"active","ping":65},{"user_id":86,"name":"RooHanChan","steam_id":76561198118579966,"connected_time":3216000000000,"state":"active","ping":97},{"user_id":123,"name":"Novaya","steam_id":76561198263560946,"connected_time":545000000000,"state":"active","ping":59},{"user_id":108,"name":"the sludge","steam_id":76561198268816354,"connected_time":1639000000000,"state":"active","ping":73},{"user_id":112,"name":"Virgineer","steam_id":76561199140814522,"connected_time":1425000000000,"state":"active","ping":167},{"user_id":84,"name":"FireQuiz","steam_id":76561198107357249,"connected_time":3414000000000,"state":"active","ping":101},{"user_id":94,"name":"elephantofdoom","steam_id":76561198062436835,"connected_time":2752000000000,"state":"active","ping":59},{"user_id":129,"name":"clavin","steam_id":76561198069380992,"connected_time":47000000000,"state":"active","ping":92},{"user_id":101,"name":"☑Juanaco is dead","steam_id":76561198029895630,"connected_time":2134000000000,"state":"active","ping":87},{"user_id":85,"name":"a bellhop","steam_id":76561198046797995,"connected_time":3363000000000,"state":"active","ping":62},{"user_id":119,"name":"janitor","steam_id":76561198166433332,"connected_time":1140000000000,"state":"active","ping":104},{"user_id":122,"name":"StretchySnail59","steam_id":76561198073535005,"connected_time":632000000000,"state":"active","ping":49},{"user_id":125,"name":"onion","steam_id":76561198242311084,"connected_time":275000000000,"state":"active","ping":62},{"user_id":127,"name":"bro pyro chill with the taunts","steam_id":76561199169445769,"connected_time":167000000000,"state":"active","ping":78},{"user_id":124,"name":"robe","steam_id":76561198238166694,"connected_time":414000000000,"state":"active","ping":76},{"user_id":126,"name":"Shrim","steam_id":76561198068455981,"connected_time":258000000000,"state":"active","ping":76},{"user_id":117,"name":"autisthicc","steam_id":76561198003918928,"connected_time":1253000000000,"state":"active","ping":141},{"user_id":113,"name":"ya ya breathe","steam_id":76561198075858067,"connected_time":1423000000000,"state":"active","ping":64},{"user_id":67,"name":"poopybutt420","steam_id":76561199000805315,"connected_time":4871000000000,"state":"active","ping":85},{"user_id":109,"name":"4TheColiny","steam_id":76561198062184455,"connected_time":1516000000000,"state":"active","ping":69},{"user_id":116,"name":"vinny6","steam_id":76561198386735728,"connected_time":1398000000000,"state":"active","ping":66}]},{"server_id":403,"name":"Uncletopia | Chicago | 4 | All Maps","name_short":"chi-4","host":"chi-1.us.uncletopia.com","port":27045,"enabled":true,"region":"us-central","cc":"us","latitude":41.881832,"longitude":-87.62318,"reserved":0,"last_update":"0001-01-01T00:00:00Z","name_a2s":"Uncletopia | Chicago | 4 | All Maps","protocol":17,"map":"koth_highpass","folder":"tf","game":"Team Fortress","app_id":440,"player_count":24,"max_players":24,"Bots":0,"server_type":"Dedicated","server_os":"Linux","password":true,"vac":true,"version":"7961495","steam_id":85568392924515193,"keywords":["cp","nocrits","nodmgspread","uncletopia"],"game_id":440,"stv_port":27046,"stv_name":"Uncletopia | Chicago | 4 | All Maps | STV","players":[{"user_id":40,"name":"tlar","steam_id":76561198060117460,"connected_time":2060000000000,"state":"active","ping":67},{"user_id":44,"name":"feleven","steam_id":76561198853721046,"connected_time":1980000000000,"state":"active","ping":70},{"user_id":46,"name":"I'mWalkerHere","steam_id":76561199310055450,"connected_time":1956000000000,"state":"active","ping":97},{"user_id":59,"name":"Norriss","steam_id":76561198920296293,"connected_time":1271000000000,"state":"active","ping":86},{"user_id":76,"name":"Sultan","steam_id":76561198447852406,"connected_time":650000000000,"state":"active","ping":62},{"user_id":69,"name":"SHUSH nikoOS","steam_id":76561198180020521,"connected_time":999000000000,"state":"active","ping":136},{"user_id":60,"name":"UNREFORMED","steam_id":76561198091772641,"connected_time":1251000000000,"state":"active","ping":66},{"user_id":54,"name":"chaffy","steam_id":76561198021754567,"connected_time":1487000000000,"state":"active","ping":53},{"user_id":79,"name":"epic_charles","steam_id":76561198048485283,"connected_time":441000000000,"state":"active","ping":75},{"user_id":49,"name":"Sunflower","steam_id":76561198081223793,"connected_time":1889000000000,"state":"active","ping":52},{"user_id":72,"name":"Solan iler","steam_id":76561198809720926,"connected_time":948000000000,"state":"active","ping":98},{"user_id":21,"name":"neet","steam_id":76561197968115168,"connected_time":2903000000000,"state":"active","ping":52},{"user_id":77,"name":"bird who can't aim","steam_id":76561198062360755,"connected_time":615000000000,"state":"active","ping":49},{"user_id":73,"name":"HeHedron","steam_id":76561199199667164,"connected_time":929000000000,"state":"active","ping":103},{"user_id":80,"name":"Cyclops_672","steam_id":76561198080169497,"connected_time":435000000000,"state":"active","ping":46},{"user_id":68,"name":"MayKay","steam_id":76561199016092265,"connected_time":1059000000000,"state":"active","ping":103},{"user_id":52,"name":"breezewax","steam_id":76561198121702006,"connected_time":1688000000000,"state":"active","ping":70},{"user_id":63,"name":"Amtyk","steam_id":76561197979130554,"connected_time":1197000000000,"state":"active","ping":63},{"user_id":64,"name":"Pumpkin_Patchess","steam_id":76561199403870208,"connected_time":1191000000000,"state":"active","ping":70},{"user_id":82,"name":"kelvindavid121","steam_id":76561199010489413,"connected_time":376000000000,"state":"active","ping":128},{"user_id":84,"name":"KittySlayer","steam_id":76561199230811439,"connected_time":259000000000,"state":"active","ping":80},{"user_id":66,"name":"Useless","steam_id":76561198116079299,"connected_time":1158000000000,"state":"active","ping":90},{"user_id":81,"name":"doishe","steam_id":76561198068190834,"connected_time":433000000000,"state":"active","ping":102},{"user_id":83,"name":"Satchamo","steam_id":76561198012968239,"connected_time":331000000000,"state":"active","ping":78}]},{"server_id":36,"name":"Uncletopia | Chicago | 5 | All Maps","name_short":"chi-5","host":"chi-2.us.uncletopia.com","port":27015,"enabled":true,"region":"us-central","cc":"us","latitude":41.881832,"longitude":-87.62318,"reserved":0,"last_update":"0001-01-01T00:00:00Z","name_a2s":"Uncletopia | Chicago | 5 | All Maps","protocol":17,"map":"pl_badwater","folder":"tf","game":"Team Fortress","app_id":440,"player_count":23,"max_players":24,"Bots":0,"server_type":"Dedicated","server_os":"Linux","password":true,"vac":true,"version":"7961495","steam_id":85568392924866362,"keywords":["nocrits","nodmgspread","payload","uncletopia"],"game_id":440,"stv_port":27016,"stv_name":"Uncletopia | Chicago | 5 | All Maps | STV","players":[{"user_id":107,"name":"Gamer Princess","steam_id":76561198048205270,"connected_time":127000000000,"state":"active","ping":79},{"user_id":104,"name":"batheman63","steam_id":76561198881818552,"connected_time":188000000000,"state":"active","ping":90},{"user_id":105,"name":"Beebo, Son of Beebo","steam_id":76561198055948497,"connected_time":134000000000,"state":"active","ping":52},{"user_id":106,"name":"Peri","steam_id":76561198255311543,"connected_time":130000000000,"state":"active","ping":95},{"user_id":108,"name":"Delsym Sipper","steam_id":76561198206177593,"connected_time":125000000000,"state":"active","ping":105},{"user_id":109,"name":"shield","steam_id":76561198976876859,"connected_time":103000000000,"state":"active","ping":90},{"user_id":69,"name":"TheBrocklobster","steam_id":76561198039682984,"connected_time":2567000000000,"state":"active","ping":110},{"user_id":97,"name":"hobojoemama","steam_id":76561198108345568,"connected_time":1019000000000,"state":"active","ping":84},{"user_id":79,"name":"Satan's Salad","steam_id":76561198043965827,"connected_time":2304000000000,"state":"active","ping":65},{"user_id":19,"name":"schnedwob","steam_id":76561197999146588,"connected_time":4307000000000,"state":"active","ping":82},{"user_id":101,"name":"[㏈] Bumpercars","steam_id":76561198061591743,"connected_time":340000000000,"state":"active","ping":75},{"user_id":84,"name":"✨11Rufix","steam_id":76561198394962127,"connected_time":2126000000000,"state":"active","ping":129},{"user_id":72,"name":"SodaKid_7","steam_id":76561198079419485,"connected_time":2526000000000,"state":"active","ping":98},{"user_id":64,"name":"Taskrabbits","steam_id":76561198366682546,"connected_time":2800000000000,"state":"active","ping":89},{"user_id":110,"name":"mdos","steam_id":76561198332133944,"connected_time":93000000000,"state":"active","ping":69},{"user_id":111,"name":"gorf?","steam_id":76561198142286417,"connected_time":90000000000,"state":"active","ping":60},{"user_id":91,"name":"Ganondorf","steam_id":76561198010421059,"connected_time":1402000000000,"state":"active","ping":54},{"user_id":99,"name":"carrot cake","steam_id":76561198055174915,"connected_time":767000000000,"state":"active","ping":64},{"user_id":94,"name":"DiamondPug","steam_id":76561199197034266,"connected_time":1264000000000,"state":"active","ping":101},{"user_id":86,"name":"Kng","steam_id":76561198993248203,"connected_time":2104000000000,"state":"active","ping":88},{"user_id":112,"name":"bunsy","steam_id":76561198097292857,"connected_time":88000000000,"state":"active","ping":66},{"user_id":100,"name":"ROLF","steam_id":76561198011363677,"connected_time":692000000000,"state":"active","ping":49},{"user_id":90,"name":"Crazy Cane","steam_id":76561198993941174,"connected_time":1770000000000,"state":"active","ping":69}]},{"server_id":37,"name":"Uncletopia | Chicago | 6 | All Maps","name_short":"chi-6","host":"chi-2.us.uncletopia.com","port":27025,"enabled":true,"region":"us-central","cc":"us","latitude":41.881832,"longitude":-87.62318,"reserved":0,"last_update":"0001-01-01T00:00:00Z","name_a2s":"Uncletopia | Chicago | 6 | All Maps","protocol":17,"map":"koth_viaduct","folder":"tf","game":"Team Fortress","app_id":440,"player_count":0,"max_players":24,"Bots":0,"server_type":"Dedicated","server_os":"Linux","password":true,"vac":true,"version":"7961495","steam_id":85568392924866363,"keywords":["cp","nocrits","nodmgspread","uncletopia"],"game_id":440,"stv_port":27026,"stv_name":"Uncletopia | Chicago | 6 | All Maps | STV","players":null},{"server_id":38,"name":"Uncletopia | Chicago | 7 | Stopwatch","name_short":"chi-7","host":"chi-2.us.uncletopia.com","port":27035,"enabled":true,"region":"us-central","cc":"us","latitude":41.881832,"longitude":-87.62318,"reserved":0,"last_update":"0001-01-01T00:00:00Z","name_a2s":"Uncletopia | Chicago | 7 | Stopwatch","protocol":17,"map":"pl_upward","folder":"tf","game":"Team Fortress","app_id":440,"player_count":4,"max_players":24,"Bots":0,"server_type":"Dedicated","server_os":"Linux","password":true,"vac":true,"version":"7961495","steam_id":85568392924866364,"keywords":["nocrits","nodmgspread","payload","uncletopia"],"game_id":440,"stv_port":27036,"stv_name":"Uncletopia | Chicago | 7 | Stopwatch | STV","players":[{"user_id":21,"name":"Celestial_Hat","steam_id":76561198390436653,"connected_time":43000000000,"state":"active","ping":99},{"user_id":9,"name":"video gamer","steam_id":76561199046667189,"connected_time":3426000000000,"state":"active","ping":42},{"user_id":12,"name":"silverstarmann","steam_id":76561199486377235,"connected_time":3387000000000,"state":"active","ping":47},{"user_id":20,"name":"Cybertruck","steam_id":76561197993623674,"connected_time":220000000000,"state":"active","ping":72}]},{"server_id":39,"name":"Uncletopia | Chicago | 8 | Community","name_short":"chi-8","host":"chi-2.us.uncletopia.com","port":27045,"enabled":true,"region":"us-central","cc":"us","latitude":41.881832,"longitude":-87.62318,"reserved":0,"last_update":"0001-01-01T00:00:00Z","name_a2s":"Uncletopia | Chicago | 8 | Community","protocol":17,"map":"pl_pier","folder":"tf","game":"Team Fortress","app_id":440,"player_count":0,"max_players":24,"Bots":0,"server_type":"Dedicated","server_os":"Linux","password":true,"vac":true,"version":"7961495","steam_id":85568392924866365,"keywords":["nocrits","nodmgspread","payload","uncletopia"],"game_id":440,"stv_port":27046,"stv_name":"Uncletopia | Chicago | 8 | Community | STV","players":null},{"server_id":8,"name":"Uncletopia | Dallas | 1 | All Maps","name_short":"dal-1","host":"dal-1.us.uncletopia.com","port":27015,"enabled":true,"region":"us-central","cc":"us","latitude":32.779167,"longitude":-96.80889,"reserved":0,"last_update":"0001-01-01T00:00:00Z","name_a2s":"Uncletopia | Dallas | 1 | All Maps","protocol":17,"map":"koth_lakeside_final","folder":"tf","game":"Team Fortress","app_id":440,"player_count":23,"max_players":24,"Bots":0,"server_type":"Dedicated","server_os":"Linux","password":true,"vac":true,"version":"7961495","steam_id":85568392924469986,"keywords":["cp","nocrits","nodmgspread","uncletopia"],"game_id":440,"stv_port":27016,"stv_name":"Uncletopia | Dallas | 1 | All Maps | STV","players":[{"user_id":325,"name":"Golumpus","steam_id":76561198053549635,"connected_time":828000000000,"state":"active","ping":103},{"user_id":317,"name":"Dongus","steam_id":76561197979056451,"connected_time":1116000000000,"state":"active","ping":91},{"user_id":337,"name":"asscastle 2","steam_id":76561198097330521,"connected_time":284000000000,"state":"active","ping":140},{"user_id":339,"name":"radicalPolio","steam_id":76561197961561855,"connected_time":66000000000,"state":"active","ping":41},{"user_id":280,"name":"tom","steam_id":76561198119748223,"connected_time":4116000000000,"state":"active","ping":79},{"user_id":309,"name":"trackball gaming","steam_id":76561198057371485,"connected_time":1998000000000,"state":"active","ping":86},{"user_id":327,"name":"THE man is EPIC","steam_id":76561198085410777,"connected_time":680000000000,"state":"active","ping":106},{"user_id":306,"name":"doro","steam_id":76561198099041747,"connected_time":2101000000000,"state":"active","ping":83},{"user_id":340,"name":"Klip","steam_id":76561198316254429,"connected_time":19000000000,"state":"spawning","ping":56},{"user_id":269,"name":"Lunarthrope","steam_id":76561198292132147,"connected_time":4834000000000,"state":"active","ping":90},{"user_id":330,"name":"king sir glorious","steam_id":76561198115676070,"connected_time":536000000000,"state":"active","ping":107},{"user_id":314,"name":"Asanez3","steam_id":76561198037381436,"connected_time":1174000000000,"state":"active","ping":93},{"user_id":319,"name":"lanoc","steam_id":76561198055415367,"connected_time":1072000000000,"state":"active","ping":60},{"user_id":320,"name":"♥ Sashisusesasako","steam_id":76561198040522288,"connected_time":1071000000000,"state":"active","ping":60},{"user_id":322,"name":"1zzy","steam_id":76561199384568014,"connected_time":967000000000,"state":"active","ping":55},{"user_id":329,"name":"Beanz :)","steam_id":76561199434233117,"connected_time":621000000000,"state":"active","ping":51},{"user_id":332,"name":"Bogey","steam_id":76561198096227944,"connected_time":493000000000,"state":"active","ping":45},{"user_id":284,"name":"ryanzandorLX","steam_id":76561199068623664,"connected_time":3794000000000,"state":"active","ping":91},{"user_id":333,"name":"Tuvok Shakur","steam_id":76561198018875334,"connected_time":475000000000,"state":"active","ping":62},{"user_id":334,"name":"RambiCat","steam_id":76561197994078258,"connected_time":449000000000,"state":"active","ping":97},{"user_id":312,"name":"Sweet Tooth","steam_id":76561198830158092,"connected_time":1451000000000,"state":"active","ping":84},{"user_id":335,"name":"Therapy Goth","steam_id":76561198048448497,"connected_time":448000000000,"state":"active","ping":86},{"user_id":336,"name":"SmokeyGalaxy","steam_id":76561198118780516,"connected_time":443000000000,"state":"active","ping":58}]},{"server_id":108,"name":"Uncletopia | Dallas | 2 | All Maps","name_short":"dal-2","host":"dal-1.us.uncletopia.com","port":27025,"enabled":true,"region":"us-central","cc":"us","latitude":32.779167,"longitude":-96.80889,"reserved":0,"last_update":"0001-01-01T00:00:00Z","name_a2s":"Uncletopia | Dallas | 2 | All Maps","protocol":17,"map":"pl_enclosure_final","folder":"tf","game":"Team Fortress","app_id":440,"player_count":8,"max_players":24,"Bots":0,"server_type":"Dedicated","server_os":"Linux","password":true,"vac":true,"version":"7961495","steam_id":85568392924469988,"keywords":["nocrits","nodmgspread","payload","uncletopia"],"game_id":440,"stv_port":27026,"stv_name":"Uncletopia | Dallas | 2 | All Maps | STV","players":[{"user_id":204,"name":"RMTRE212","steam_id":76561199145573038,"connected_time":427000000000,"state":"active","ping":79},{"user_id":205,"name":"Junfez","steam_id":76561198340001889,"connected_time":383000000000,"state":"active","ping":82},{"user_id":202,"name":"Firedust19","steam_id":76561198153238631,"connected_time":553000000000,"state":"active","ping":90},{"user_id":210,"name":"Rin \"Hindwing\" Redtail","steam_id":76561199074865638,"connected_time":64000000000,"state":"active","ping":51},{"user_id":209,"name":"pafijohn","steam_id":76561198002535190,"connected_time":80000000000,"state":"active","ping":62},{"user_id":203,"name":"Killua","steam_id":76561198405299137,"connected_time":542000000000,"state":"active","ping":33},{"user_id":197,"name":"MrManlet","steam_id":76561198148597989,"connected_time":1207000000000,"state":"active","ping":117},{"user_id":147,"name":"ihave80hp","steam_id":76561199251621911,"connected_time":4885000000000,"state":"active","ping":67}]},{"server_id":404,"name":"Uncletopia | Dallas | 3 | All Maps","name_short":"dal-3","host":"dal-1.us.uncletopia.com","port":27035,"enabled":true,"region":"us-central","cc":"us","latitude":32.779167,"longitude":-96.80889,"reserved":0,"last_update":"0001-01-01T00:00:00Z","name_a2s":"Uncletopia | Dallas | 3 | All Maps","protocol":17,"map":"pl_borneo","folder":"tf","game":"Team Fortress","app_id":440,"player_count":0,"max_players":24,"Bots":0,"server_type":"Dedicated","server_os":"Linux","password":true,"vac":true,"version":"7961495","steam_id":85568392924515219,"keywords":["nocrits","nodmgspread","payload","uncletopia"],"game_id":440,"stv_port":27036,"stv_name":"Uncletopia | Dallas | 3 | All Maps | STV","players":null},{"server_id":405,"name":"Uncletopia | Dallas | 4 | Community","name_short":"dal-4","host":"dal-1.us.uncletopia.com","port":27045,"enabled":true,"region":"us-central","cc":"us","latitude":32.779167,"longitude":-96.80889,"reserved":0,"last_update":"0001-01-01T00:00:00Z","name_a2s":"Uncletopia | Dallas | 4 | Community","protocol":17,"map":"pl_pier","folder":"tf","game":"Team Fortress","app_id":440,"player_count":0,"max_players":24,"Bots":0,"server_type":"Dedicated","server_os":"Linux","password":true,"vac":true,"version":"7961495","steam_id":85568392924515220,"keywords":["nocrits","nodmgspread","payload","uncletopia"],"game_id":440,"stv_port":27046,"stv_name":"Uncletopia | Dallas | 4 | Community | STV","players":null},{"server_id":5,"name":"Uncletopia | Frankfurt | 1 | All Maps","name_short":"frk-1","host":"frk-1.de.uncletopia.com","port":27015,"enabled":true,"region":"eu","cc":"de","latitude":50.110924,"longitude":8.682127,"reserved":0,"last_update":"0001-01-01T00:00:00Z","name_a2s":"Uncletopia | Frankfurt | 1 | All Maps","protocol":17,"map":"pl_rumford_event","folder":"tf","game":"Team Fortress","app_id":440,"player_count":24,"max_players":24,"Bots":0,"server_type":"Dedicated","server_os":"Linux","password":true,"vac":true,"version":"7961495","steam_id":85568392924469989,"keywords":["nocrits","nodmgspread","payload","uncletopia"],"game_id":440,"stv_port":27016,"stv_name":"Uncletopia | Frankfurt | 1 | All Maps | STV","players":[{"user_id":743,"name":"Fisher","steam_id":76561198352854004,"connected_time":1116000000000,"state":"active","ping":60},{"user_id":738,"name":"Kaishakunin","steam_id":76561198028123874,"connected_time":1469000000000,"state":"active","ping":93},{"user_id":732,"name":"Paste","steam_id":76561198139275322,"connected_time":1685000000000,"state":"active","ping":76},{"user_id":773,"name":"Pinte tiède de chouffe dachouf","steam_id":76561198203256418,"connected_time":368000000000,"state":"active","ping":65},{"user_id":766,"name":"Yelowchy","steam_id":76561198199416121,"connected_time":538000000000,"state":"active","ping":62},{"user_id":461,"name":"wtabs","steam_id":76561198831766743,"connected_time":8231000000000,"state":"active","ping":77},{"user_id":453,"name":"Finnish Farmer","steam_id":76561198205366043,"connected_time":8639000000000,"state":"active","ping":84},{"user_id":759,"name":"smizy!","steam_id":76561198179301367,"connected_time":681000000000,"state":"active","ping":77},{"user_id":779,"name":"L + Bomzis","steam_id":76561198118747192,"connected_time":50000000000,"state":"active","ping":77},{"user_id":341,"name":"Wardruna96","steam_id":76561199057083828,"connected_time":12887000000000,"state":"active","ping":79},{"user_id":538,"name":"woople","steam_id":76561198076625889,"connected_time":6503000000000,"state":"active","ping":90},{"user_id":778,"name":"Lemon","steam_id":76561198188535947,"connected_time":117000000000,"state":"active","ping":78},{"user_id":756,"name":"KFD","steam_id":76561198157183003,"connected_time":714000000000,"state":"active","ping":82},{"user_id":687,"name":"BERF","steam_id":76561198857396812,"connected_time":2966000000000,"state":"active","ping":47},{"user_id":668,"name":"DrExplosive","steam_id":76561198063678579,"connected_time":3316000000000,"state":"active","ping":61},{"user_id":757,"name":"laskobr","steam_id":76561198858912567,"connected_time":703000000000,"state":"active","ping":183},{"user_id":644,"name":"Super medyk","steam_id":76561198170125887,"connected_time":3924000000000,"state":"active","ping":60},{"user_id":526,"name":"Will","steam_id":76561198173329977,"connected_time":6863000000000,"state":"active","ping":70},{"user_id":518,"name":"Wire  Bash","steam_id":76561198033268371,"connected_time":7085000000000,"state":"active","ping":59},{"user_id":747,"name":"[SQ UA] MartianDill","steam_id":76561198405382822,"connected_time":937000000000,"state":"active","ping":79},{"user_id":663,"name":"ghost of scrampe yet to come","steam_id":76561198851157897,"connected_time":3397000000000,"state":"active","ping":77},{"user_id":735,"name":"lore","steam_id":76561198120984188,"connected_time":1534000000000,"state":"active","ping":56},{"user_id":742,"name":"Otzeo","steam_id":76561198835657637,"connected_time":1125000000000,"state":"active","ping":64},{"user_id":352,"name":"Spajro","steam_id":76561198257383813,"connected_time":11602000000000,"state":"active","ping":49}]},{"server_id":110,"name":"Uncletopia | Frankfurt | 2 | All Maps","name_short":"frk-2","host":"frk-1.de.uncletopia.com","port":27025,"enabled":true,"region":"eu","cc":"de","latitude":50.110924,"longitude":8.682127,"reserved":0,"last_update":"0001-01-01T00:00:00Z","name_a2s":"Uncletopia | Frankfurt | 2 | All Maps","protocol":17,"map":"pl_borneo","folder":"tf","game":"Team Fortress","app_id":440,"player_count":24,"max_players":24,"Bots":0,"server_type":"Dedicated","server_os":"Linux","password":true,"vac":true,"version":"7961495","steam_id":85568392924469990,"keywords":["nocrits","nodmgspread","payload","uncletopia"],"game_id":440,"stv_port":27026,"stv_name":"Uncletopia | Frankfurt | 2 | All Maps | STV","players":[{"user_id":365,"name":"Chicken pot pie","steam_id":76561198084997090,"connected_time":119000000000,"state":"active","ping":47},{"user_id":362,"name":"GMsU | Smiley","steam_id":76561198121494414,"connected_time":644000000000,"state":"active","ping":131},{"user_id":315,"name":"GMsU | Acoul","steam_id":76561198229222992,"connected_time":5285000000000,"state":"active","ping":45},{"user_id":292,"name":"finbar","steam_id":76561198056812396,"connected_time":6644000000000,"state":"active","ping":72},{"user_id":313,"name":"GMsU | Rebikas","steam_id":76561198077053764,"connected_time":5320000000000,"state":"active","ping":39},{"user_id":344,"name":"Bing Bop Boop","steam_id":76561198344190563,"connected_time":2242000000000,"state":"active","ping":62},{"user_id":356,"name":"catface","steam_id":76561198963378933,"connected_time":1165000000000,"state":"active","ping":53},{"user_id":355,"name":"༼ ຈل͜ຈ༽","steam_id":76561198027166144,"connected_time":1291000000000,"state":"active","ping":80},{"user_id":307,"name":"Urtaras","steam_id":76561198085604412,"connected_time":6015000000000,"state":"active","ping":67},{"user_id":360,"name":"jukööku","steam_id":76561199110007927,"connected_time":695000000000,"state":"active","ping":94},{"user_id":335,"name":"Smoking problem","steam_id":76561198361351449,"connected_time":3684000000000,"state":"active","ping":54},{"user_id":321,"name":"Fiishi","steam_id":76561198098706390,"connected_time":4577000000000,"state":"active","ping":159},{"user_id":340,"name":"I919I","steam_id":76561198141049923,"connected_time":2405000000000,"state":"active","ping":73},{"user_id":328,"name":"GMsU | AuxiliusM","steam_id":76561198071903356,"connected_time":3967000000000,"state":"active","ping":39},{"user_id":363,"name":"FilipeLuk","steam_id":76561198150675438,"connected_time":529000000000,"state":"active","ping":68},{"user_id":359,"name":"..","steam_id":76561198380752444,"connected_time":867000000000,"state":"active","ping":71},{"user_id":364,"name":"Penis Contortionist","steam_id":76561198073663784,"connected_time":484000000000,"state":"active","ping":52},{"user_id":341,"name":"ztrs6","steam_id":76561198314853803,"connected_time":2394000000000,"state":"active","ping":89},{"user_id":326,"name":"DaLuigi","steam_id":76561198054486188,"connected_time":4232000000000,"state":"active","ping":46},{"user_id":358,"name":"aaa","steam_id":76561198322459156,"connected_time":877000000000,"state":"active","ping":57},{"user_id":361,"name":"robouki","steam_id":76561198168265569,"connected_time":679000000000,"state":"active","ping":57},{"user_id":319,"name":"Javier dorsaless","steam_id":76561198179324075,"connected_time":4946000000000,"state":"active","ping":70},{"user_id":325,"name":"Soerlssoelssöen","steam_id":76561197993060585,"connected_time":4267000000000,"state":"active","ping":68},{"user_id":343,"name":"orphan smeller","steam_id":76561198107876224,"connected_time":2345000000000,"state":"active","ping":48}]},{"server_id":308,"name":"Uncletopia | Frankfurt | 3 | All Maps","name_short":"frk-3","host":"frk-1.de.uncletopia.com","port":27035,"enabled":true,"region":"eu","cc":"de","latitude":50.110924,"longitude":8.682127,"reserved":0,"last_update":"0001-01-01T00:00:00Z","name_a2s":"Uncletopia | Frankfurt | 3 | All Maps","protocol":17,"map":"pl_pier","folder":"tf","game":"Team Fortress","app_id":440,"player_count":24,"max_players":24,"Bots":0,"server_type":"Dedicated","server_os":"Linux","password":true,"vac":true,"version":"7961495","steam_id":85568392924504274,"keywords":["nocrits","nodmgspread","payload","uncletopia"],"game_id":440,"stv_port":27036,"stv_name":"Uncletopia | Frankfurt | 3 | All Maps | STV","players":[{"user_id":624,"name":"monocle chicken","steam_id":76561199020106029,"connected_time":2291000000000,"state":"active","ping":93},{"user_id":612,"name":"zek","steam_id":76561198862763731,"connected_time":3318000000000,"state":"active","ping":51},{"user_id":646,"name":"mhib","steam_id":76561198048037379,"connected_time":944000000000,"state":"active","ping":70},{"user_id":631,"name":"Hogs Sidekick","steam_id":76561198136433205,"connected_time":2000000000000,"state":"active","ping":55},{"user_id":658,"name":"TJ1212","steam_id":76561199013575313,"connected_time":12000000000,"state":"spawning","ping":59},{"user_id":641,"name":"Leviticus Cornwall","steam_id":76561197993702685,"connected_time":1102000000000,"state":"active","ping":80},{"user_id":656,"name":"Conan the Librarian","steam_id":76561198007224654,"connected_time":396000000000,"state":"active","ping":64},{"user_id":655,"name":"N3lly","steam_id":76561198815271970,"connected_time":481000000000,"state":"active","ping":56},{"user_id":637,"name":"tallen","steam_id":76561198061708595,"connected_time":1455000000000,"state":"active","ping":83},{"user_id":647,"name":"GrzMik","steam_id":76561198061951968,"connected_time":941000000000,"state":"active","ping":84},{"user_id":657,"name":"åke","steam_id":76561198214848887,"connected_time":321000000000,"state":"active","ping":66},{"user_id":462,"name":"Snowy","steam_id":76561198169992461,"connected_time":14651000000000,"state":"active","ping":50},{"user_id":609,"name":"蓮 Lotus","steam_id":76561198083141117,"connected_time":3374000000000,"state":"active","ping":59},{"user_id":518,"name":"bigwish | bmod.tf","steam_id":76561197997859723,"connected_time":9142000000000,"state":"active","ping":74},{"user_id":611,"name":"rhm","steam_id":76561199438126261,"connected_time":3358000000000,"state":"active","ping":99},{"user_id":650,"name":"TF2","steam_id":76561199275743248,"connected_time":934000000000,"state":"active","ping":59},{"user_id":644,"name":"HOLY FROG","steam_id":76561198988930878,"connected_time":1004000000000,"state":"active","ping":81},{"user_id":653,"name":"magnificent darkness","steam_id":76561199059524050,"connected_time":620000000000,"state":"active","ping":74},{"user_id":633,"name":"Sugardaddy_pep","steam_id":76561198807512589,"connected_time":1771000000000,"state":"active","ping":73},{"user_id":652,"name":"Hey, I´m Andy!","steam_id":76561198060337777,"connected_time":735000000000,"state":"active","ping":68},{"user_id":597,"name":"MR BUBBLES","steam_id":76561198019005259,"connected_time":3889000000000,"state":"active","ping":108},{"user_id":628,"name":"Kappa","steam_id":76561198089341471,"connected_time":2148000000000,"state":"active","ping":74},{"user_id":645,"name":"Himsagi Yoichi","steam_id":76561197967683724,"connected_time":999000000000,"state":"active","ping":57},{"user_id":651,"name":"XuMuK","steam_id":76561198102102340,"connected_time":914000000000,"state":"active","ping":72}]},{"server_id":309,"name":"Uncletopia | Frankfurt | 4 | All Maps","name_short":"frk-4","host":"frk-1.de.uncletopia.com","port":27045,"enabled":true,"region":"eu","cc":"de","latitude":50.110924,"longitude":8.682127,"reserved":0,"last_update":"0001-01-01T00:00:00Z","name_a2s":"Uncletopia | Frankfurt | 4 | All Maps","protocol":17,"map":"cp_altitude","folder":"tf","game":"Team Fortress","app_id":440,"player_count":25,"max_players":24,"Bots":0,"server_type":"Dedicated","server_os":"Linux","password":true,"vac":true,"version":"7961495","steam_id":85568392924504275,"keywords":["cp","nocrits","nodmgspread","uncletopia"],"game_id":440,"stv_port":27046,"stv_name":"Uncletopia | Frankfurt | 4 | All Maps | STV","players":[{"user_id":352,"name":"DaisyTheCat","steam_id":76561198241732704,"connected_time":82000000000,"state":"active","ping":80},{"user_id":305,"name":"Lammet","steam_id":76561198149409729,"connected_time":3242000000000,"state":"active","ping":67},{"user_id":347,"name":"not a nihilist","steam_id":76561198004340466,"connected_time":439000000000,"state":"active","ping":46},{"user_id":229,"name":"Sn1Ch","steam_id":76561198073076943,"connected_time":6797000000000,"state":"active","ping":84},{"user_id":331,"name":"ゲラ","steam_id":76561198860980923,"connected_time":1558000000000,"state":"active","ping":69},{"user_id":344,"name":"magnos62564","steam_id":76561198356968225,"connected_time":797000000000,"state":"active","ping":63},{"user_id":349,"name":"Amos_FR","steam_id":76561198292231257,"connected_time":229000000000,"state":"active","ping":70},{"user_id":353,"name":"kinimon","steam_id":76561198178453270,"connected_time":30000000000,"state":"active","ping":58},{"user_id":339,"name":"Conan","steam_id":76561198158321202,"connected_time":1380000000000,"state":"active","ping":68},{"user_id":327,"name":"kana","steam_id":76561198002343512,"connected_time":1640000000000,"state":"active","ping":78},{"user_id":231,"name":"Ralistix","steam_id":76561198051654135,"connected_time":6743000000000,"state":"active","ping":88},{"user_id":343,"name":":)","steam_id":76561198181072689,"connected_time":893000000000,"state":"active","ping":69},{"user_id":322,"name":"papa","steam_id":76561198044349618,"connected_time":1908000000000,"state":"active","ping":60},{"user_id":351,"name":"ItsRozhy0_0","steam_id":76561198938412162,"connected_time":135000000000,"state":"active","ping":156},{"user_id":329,"name":"Obama","steam_id":76561198253677951,"connected_time":1605000000000,"state":"active","ping":58},{"user_id":323,"name":"Xiqui","steam_id":76561198818386611,"connected_time":1842000000000,"state":"active","ping":72},{"user_id":324,"name":"Keke","steam_id":76561199052783561,"connected_time":1829000000000,"state":"active","ping":88},{"user_id":346,"name":"DOMAIN","steam_id":76561199095640319,"connected_time":541000000000,"state":"active","ping":77},{"user_id":354,"name":"apple","steam_id":76561198350676879,"connected_time":29000000000,"state":"active","ping":100},{"user_id":330,"name":"Delting","steam_id":76561198221808192,"connected_time":1600000000000,"state":"active","ping":82},{"user_id":335,"name":"Agon","steam_id":76561198982948437,"connected_time":1495000000000,"state":"active","ping":92},{"user_id":340,"name":"Herald of Rivia","steam_id":76561198857119999,"connected_time":1315000000000,"state":"active","ping":70},{"user_id":355,"name":"Sulejman______________________\ufffd","steam_id":76561198276847676,"connected_time":12000000000,"state":"spawning","ping":99},{"user_id":297,"name":"Armand","steam_id":76561198236126774,"connected_time":3921000000000,"state":"active","ping":62},{"user_id":298,"name":"Mingo","steam_id":76561199191245650,"connected_time":3917000000000,"state":"active","ping":95}]},{"server_id":310,"name":"Uncletopia | Frankfurt | 5 | All Maps","name_short":"frk-5","host":"frk-1.de.uncletopia.com","port":27055,"enabled":true,"region":"eu","cc":"de","latitude":50.110924,"longitude":8.682127,"reserved":0,"last_update":"0001-01-01T00:00:00Z","name_a2s":"Uncletopia | Frankfurt | 5 | All Maps","protocol":17,"map":"pl_swiftwater_final1","folder":"tf","game":"Team Fortress","app_id":440,"player_count":24,"max_players":24,"Bots":0,"server_type":"Dedicated","server_os":"Linux","password":true,"vac":true,"version":"7961495","steam_id":85568392924504277,"keywords":["nocrits","nodmgspread","payload","uncletopia"],"game_id":440,"stv_port":27056,"stv_name":"Uncletopia | Frankfurt | 5 | All Maps | STV","players":[{"user_id":575,"name":"Ardello","steam_id":76561198864484125,"connected_time":4893000000000,"state":"active","ping":79},{"user_id":580,"name":"bl0x","steam_id":76561199061345151,"connected_time":4353000000000,"state":"active","ping":77},{"user_id":615,"name":"didelphis","steam_id":76561198048862440,"connected_time":755000000000,"state":"active","ping":63},{"user_id":604,"name":"g4yl0rd","steam_id":76561198195935759,"connected_time":1312000000000,"state":"active","ping":103},{"user_id":611,"name":"beetrootstrawberry2011","steam_id":76561198097239850,"connected_time":1199000000000,"state":"active","ping":61},{"user_id":620,"name":"Irme","steam_id":76561198161590299,"connected_time":14000000000,"state":"active","ping":66},{"user_id":558,"name":"Fran","steam_id":76561199070516960,"connected_time":5782000000000,"state":"active","ping":64},{"user_id":543,"name":"NikyuuVl","steam_id":76561198159506454,"connected_time":6728000000000,"state":"active","ping":56},{"user_id":616,"name":"pc \u003c shoe","steam_id":76561198071440081,"connected_time":712000000000,"state":"active","ping":90},{"user_id":582,"name":"LOBZIK","steam_id":76561198114830120,"connected_time":4332000000000,"state":"active","ping":75},{"user_id":605,"name":"Yassine","steam_id":76561198140565712,"connected_time":1289000000000,"state":"active","ping":59},{"user_id":594,"name":"Pyrolander","steam_id":76561198050785450,"connected_time":2501000000000,"state":"active","ping":49},{"user_id":603,"name":"Pet_Wussy","steam_id":76561198000287762,"connected_time":1407000000000,"state":"active","ping":97},{"user_id":606,"name":"Hexagon","steam_id":76561198151205758,"connected_time":1282000000000,"state":"active","ping":50},{"user_id":607,"name":"highest noon","steam_id":76561199103959197,"connected_time":1280000000000,"state":"active","ping":85},{"user_id":610,"name":"waj","steam_id":76561198053628243,"connected_time":1213000000000,"state":"active","ping":60},{"user_id":619,"name":"Omni","steam_id":76561197964320557,"connected_time":572000000000,"state":"active","ping":64},{"user_id":598,"name":"Alekk","steam_id":76561198093533143,"connected_time":2450000000000,"state":"active","ping":73},{"user_id":613,"name":"tully","steam_id":76561198058012525,"connected_time":1002000000000,"state":"active","ping":53},{"user_id":618,"name":"Ando","steam_id":76561197994056083,"connected_time":650000000000,"state":"active","ping":52},{"user_id":532,"name":"Toasty5050","steam_id":76561198073540881,"connected_time":7714000000000,"state":"active","ping":44},{"user_id":614,"name":"Monkey","steam_id":76561199008411791,"connected_time":825000000000,"state":"active","ping":62},{"user_id":547,"name":"Rimx","steam_id":76561198053034840,"connected_time":6531000000000,"state":"active","ping":89},{"user_id":567,"name":"Lux","steam_id":76561198060417740,"connected_time":5607000000000,"state":"active","ping":47}]},{"server_id":311,"name":"Uncletopia | Frankfurt | 6 | All Maps","name_short":"frk-6","host":"frk-1.de.uncletopia.com","port":27065,"enabled":true,"region":"eu","cc":"de","latitude":50.110924,"longitude":8.682127,"reserved":0,"last_update":"0001-01-01T00:00:00Z","name_a2s":"Uncletopia | Frankfurt | 6 | All Maps","protocol":17,"map":"cp_snakewater_final1","folder":"tf","game":"Team Fortress","app_id":440,"player_count":24,"max_players":24,"Bots":0,"server_type":"Dedicated","server_os":"Linux","password":true,"vac":true,"version":"7961495","steam_id":85568392924504278,"keywords":["cp","nocrits","nodmgspread","uncletopia"],"game_id":440,"stv_port":27066,"stv_name":"Uncletopia | Frankfurt | 6 | All Maps | STV","players":[{"user_id":675,"name":"Prawo Jazdy","steam_id":76561198121589024,"connected_time":2514000000000,"state":"active","ping":69},{"user_id":670,"name":"REN","steam_id":76561198000596385,"connected_time":2635000000000,"state":"active","ping":81},{"user_id":676,"name":"uwu uwu uwu uwu uwu uwu uwu uwu","steam_id":76561198186954897,"connected_time":2460000000000,"state":"active","ping":83},{"user_id":655,"name":"MK-Ultra Violence","steam_id":76561198081328238,"connected_time":3755000000000,"state":"active","ping":77},{"user_id":707,"name":"Udinese Dion","steam_id":76561198067931573,"connected_time":391000000000,"state":"active","ping":50},{"user_id":704,"name":"{TPF}Badaabing","steam_id":76561197996161449,"connected_time":892000000000,"state":"active","ping":54},{"user_id":687,"name":"Kinjiko","steam_id":76561199124619827,"connected_time":1580000000000,"state":"active","ping":72},{"user_id":688,"name":"Sippie","steam_id":76561198130393388,"connected_time":1536000000000,"state":"active","ping":72},{"user_id":701,"name":"yes","steam_id":76561198276086010,"connected_time":1020000000000,"state":"active","ping":99},{"user_id":678,"name":"fafarafa","steam_id":76561198201947004,"connected_time":2426000000000,"state":"active","ping":80},{"user_id":598,"name":"Xeno","steam_id":76561198975556646,"connected_time":7550000000000,"state":"active","ping":45},{"user_id":645,"name":"Average meme enjoyer","steam_id":76561199087566663,"connected_time":4470000000000,"state":"active","ping":83},{"user_id":693,"name":"antony_gu","steam_id":76561198254415575,"connected_time":1402000000000,"state":"active","ping":76},{"user_id":696,"name":"JujuBalu","steam_id":76561198207253071,"connected_time":1097000000000,"state":"active","ping":47},{"user_id":709,"name":"DJpocalypse","steam_id":76561199230125964,"connected_time":73000000000,"state":"active","ping":175},{"user_id":689,"name":"mp1mp2mp3","steam_id":76561198088967665,"connected_time":1531000000000,"state":"active","ping":89},{"user_id":705,"name":"Dirk.van.den.broek.2008","steam_id":76561198124226614,"connected_time":874000000000,"state":"active","ping":48},{"user_id":697,"name":"Skaza","steam_id":76561198010292540,"connected_time":1093000000000,"state":"active","ping":82},{"user_id":635,"name":"antlionguard","steam_id":76561198072747143,"connected_time":5241000000000,"state":"active","ping":118},{"user_id":700,"name":"???.MD","steam_id":76561198052261111,"connected_time":1042000000000,"state":"active","ping":46},{"user_id":698,"name":"mumbler","steam_id":76561197970641239,"connected_time":1071000000000,"state":"active","ping":48},{"user_id":706,"name":"Lyell","steam_id":76561198350329389,"connected_time":711000000000,"state":"active","ping":84},{"user_id":637,"name":"Tekky☻","steam_id":76561197990987315,"connected_time":5190000000000,"state":"active","ping":55},{"user_id":702,"name":"Odin","steam_id":76561198087800030,"connected_time":985000000000,"state":"active","ping":45}]},{"server_id":23,"name":"Uncletopia | Frankfurt | 7 | Stopwatch","name_short":"frk-7","host":"frk-1.de.uncletopia.com","port":27075,"enabled":true,"region":"eu","cc":"de","latitude":50.110924,"longitude":8.682127,"reserved":0,"last_update":"0001-01-01T00:00:00Z","name_a2s":"Uncletopia | Frankfurt | 7 | Stopwatch","protocol":17,"map":"workshop/pl_badwater_pro_v12.ugc2142942074","folder":"tf","game":"Team Fortress","app_id":440,"player_count":22,"max_players":24,"Bots":0,"server_type":"Dedicated","server_os":"Linux","password":true,"vac":true,"version":"7961495","steam_id":85568392924742827,"keywords":["nocrits","nodmgspread","payload","uncletopia"],"game_id":440,"stv_port":27076,"stv_name":"Uncletopia | Frankfurt | 7 | Stopwatch | STV","players":[{"user_id":217,"name":"Nonok","steam_id":76561199480685498,"connected_time":2003000000000,"state":"active","ping":75},{"user_id":252,"name":"Bajas","steam_id":76561198179339326,"connected_time":296000000000,"state":"active","ping":89},{"user_id":249,"name":"[ITA]Stioppen","steam_id":76561198177658715,"connected_time":460000000000,"state":"active","ping":83},{"user_id":222,"name":"Koss","steam_id":76561198033316239,"connected_time":1763000000000,"state":"active","ping":92},{"user_id":203,"name":"Ozzie","steam_id":76561197992915315,"connected_time":2670000000000,"state":"active","ping":75},{"user_id":169,"name":"manne_man123","steam_id":76561198120550825,"connected_time":4026000000000,"state":"active","ping":81},{"user_id":170,"name":"xXx_Reaganomics_xXx","steam_id":76561198175057071,"connected_time":3949000000000,"state":"active","ping":74},{"user_id":253,"name":"Markty07","steam_id":76561199188691029,"connected_time":288000000000,"state":"active","ping":58},{"user_id":147,"name":"JohnTraveltime","steam_id":76561199244281754,"connected_time":4979000000000,"state":"active","ping":60},{"user_id":243,"name":"Quartzy","steam_id":76561198313301520,"connected_time":932000000000,"state":"active","ping":52},{"user_id":239,"name":"niandits","steam_id":76561198419798900,"connected_time":1021000000000,"state":"active","ping":585},{"user_id":192,"name":"hbanfie","steam_id":76561198075598926,"connected_time":3031000000000,"state":"active","ping":47},{"user_id":234,"name":"dezz.","steam_id":76561198408965840,"connected_time":1317000000000,"state":"active","ping":52},{"user_id":257,"name":"cam","steam_id":76561198879200465,"connected_time":82000000000,"state":"active","ping":59},{"user_id":201,"name":"CerealKiller154","steam_id":76561198831177630,"connected_time":2726000000000,"state":"active","ping":77},{"user_id":254,"name":"durask","steam_id":76561198219205655,"connected_time":283000000000,"state":"active","ping":58},{"user_id":255,"name":"𝐓𝐇","steam_id":76561199145939780,"connected_time":282000000000,"state":"active","ping":109},{"user_id":248,"name":"Kenny","steam_id":76561198994898206,"connected_time":602000000000,"state":"active","ping":73},{"user_id":227,"name":"Я Сожгу тВою ХаТу","steam_id":76561197988798573,"connected_time":1594000000000,"state":"active","ping":88},{"user_id":231,"name":"jovi_","steam_id":76561198449280552,"connected_time":1449000000000,"state":"active","ping":60},{"user_id":244,"name":"Monsy","steam_id":76561198025735006,"connected_time":722000000000,"state":"active","ping":56},{"user_id":256,"name":"flumperdumpkin","steam_id":76561198212576457,"connected_time":279000000000,"state":"active","ping":62}]},{"server_id":24,"name":"Uncletopia | Frankfurt | 8 | Community","name_short":"frk-8","host":"frk-1.de.uncletopia.com","port":27085,"enabled":true,"region":"eu","cc":"de","latitude":50.110924,"longitude":8.682127,"reserved":0,"last_update":"0001-01-01T00:00:00Z","name_a2s":"Uncletopia | Frankfurt | 8 | Community","protocol":17,"map":"workshop/koth_trenchfoot_ab1.ugc731436616","folder":"tf","game":"Team Fortress","app_id":440,"player_count":1,"max_players":24,"Bots":0,"server_type":"Dedicated","server_os":"Linux","password":true,"vac":true,"version":"7961495","steam_id":85568392924742828,"keywords":["cp","nocrits","nodmgspread","uncletopia"],"game_id":440,"stv_port":27086,"stv_name":"Uncletopia | Frankfurt | 8 | Community | STV","players":[{"user_id":13,"name":"Mr.Azti","steam_id":76561199030377481,"connected_time":0,"state":"spawning","ping":88}]},{"server_id":202,"name":"Uncletopia | Hong Kong | 1 | All Maps","name_short":"hgk-1","host":"hgk-1.hk.uncletopia.com","port":27015,"enabled":true,"region":"asia","cc":"hk","latitude":22.302711,"longitude":114.177216,"reserved":0,"last_update":"0001-01-01T00:00:00Z","name_a2s":"Uncletopia | Hong Kong | 1 | All Maps","protocol":17,"map":"cp_process_final","folder":"tf","game":"Team Fortress","app_id":440,"player_count":0,"max_players":24,"Bots":0,"server_type":"Dedicated","server_os":"Linux","password":true,"vac":true,"version":"7961495","steam_id":85568392924494504,"keywords":["cp","nocrits","nodmgspread","uncletopia"],"game_id":440,"stv_port":27016,"stv_name":"Uncletopia | Hong Kong | 1 | All Maps | STV","players":null},{"server_id":1,"name":"Uncletopia | Los Angeles | 1 | All Maps","name_short":"lax-1","host":"lax-1.us.uncletopia.com","port":27015,"enabled":true,"region":"us-west","cc":"us","latitude":33.94279,"longitude":-118.41004,"reserved":0,"last_update":"0001-01-01T00:00:00Z","name_a2s":"Uncletopia | Los Angeles | 1 | All Maps","protocol":17,"map":"pl_barnblitz","folder":"tf","game":"Team Fortress","app_id":440,"player_count":24,"max_players":24,"Bots":0,"server_type":"Dedicated","server_os":"Linux","password":true,"vac":true,"version":"7961495","steam_id":85568392924469991,"keywords":["nocrits","nodmgspread","payload","uncletopia"],"game_id":440,"stv_port":27016,"stv_name":"Uncletopia | Los Angeles | 1 | All Maps | STV","players":[{"user_id":81,"name":"An00bis","steam_id":76561198044084508,"connected_time":855000000000,"state":"active","ping":60},{"user_id":10,"name":"jdm","steam_id":76561199497603020,"connected_time":5096000000000,"state":"active","ping":46},{"user_id":62,"name":"Pengo","steam_id":76561198980031255,"connected_time":1795000000000,"state":"active","ping":60},{"user_id":82,"name":"Dob16","steam_id":76561198176738623,"connected_time":842000000000,"state":"active","ping":78},{"user_id":88,"name":"a chicken","steam_id":76561198313121580,"connected_time":596000000000,"state":"active","ping":58},{"user_id":17,"name":"Whisper!","steam_id":76561198119609795,"connected_time":4471000000000,"state":"active","ping":50},{"user_id":78,"name":"puffer","steam_id":76561199049164456,"connected_time":918000000000,"state":"active","ping":73},{"user_id":23,"name":"Supersonic","steam_id":76561198042167127,"connected_time":4050000000000,"state":"active","ping":88},{"user_id":72,"name":"Batso","steam_id":76561198106589452,"connected_time":1505000000000,"state":"active","ping":54},{"user_id":87,"name":"Lard","steam_id":76561198290315229,"connected_time":627000000000,"state":"active","ping":60},{"user_id":71,"name":"flipflop.exe","steam_id":76561198989303443,"connected_time":1550000000000,"state":"active","ping":56},{"user_id":54,"name":"The Grungler","steam_id":76561198126561438,"connected_time":2254000000000,"state":"active","ping":45},{"user_id":90,"name":"spherewithahat","steam_id":76561199122192660,"connected_time":6000000000,"state":"spawning","ping":149},{"user_id":79,"name":"noceof","steam_id":76561198043656816,"connected_time":886000000000,"state":"active","ping":171},{"user_id":49,"name":"laughs bigman","steam_id":76561198067714032,"connected_time":2522000000000,"state":"active","ping":55},{"user_id":83,"name":"vozz","steam_id":76561198242065410,"connected_time":834000000000,"state":"active","ping":52},{"user_id":56,"name":"freeuzi$","steam_id":76561199261157737,"connected_time":2228000000000,"state":"active","ping":45},{"user_id":66,"name":"Sillie Nelson","steam_id":76561198985089068,"connected_time":1749000000000,"state":"active","ping":71},{"user_id":36,"name":"CadenLCheese","steam_id":76561199105517435,"connected_time":3370000000000,"state":"active","ping":75},{"user_id":37,"name":"a familiar cat","steam_id":76561198080046542,"connected_time":3353000000000,"state":"active","ping":66},{"user_id":70,"name":"AST Sir Pantoja","steam_id":76561198118858300,"connected_time":1587000000000,"state":"active","ping":70},{"user_id":89,"name":"johnny","steam_id":76561198050225055,"connected_time":494000000000,"state":"active","ping":45},{"user_id":84,"name":"rat 🥲😶🌫","steam_id":76561198130412963,"connected_time":828000000000,"state":"active","ping":80},{"user_id":76,"name":"mr.meaner","steam_id":76561199468236392,"connected_time":1178000000000,"state":"active","ping":55}]},{"server_id":112,"name":"Uncletopia | Los Angeles | 2 | All Maps","name_short":"lax-2","host":"lax-1.us.uncletopia.com","port":27025,"enabled":true,"region":"us-west","cc":"us","latitude":33.94279,"longitude":-118.41004,"reserved":0,"last_update":"0001-01-01T00:00:00Z","name_a2s":"Uncletopia | Los Angeles | 2 | All Maps","protocol":17,"map":"cp_mountainlab","folder":"tf","game":"Team Fortress","app_id":440,"player_count":0,"max_players":24,"Bots":0,"server_type":"Dedicated","server_os":"Linux","password":true,"vac":true,"version":"7961495","steam_id":85568392924469992,"keywords":["cp","nocrits","nodmgspread","uncletopia"],"game_id":440,"stv_port":27026,"stv_name":"Uncletopia | Los Angeles | 2 | All Maps | STV","players":null},{"server_id":324,"name":"Uncletopia | Los Angeles | 3 | All Maps","name_short":"lax-3","host":"lax-1.us.uncletopia.com","port":27035,"enabled":true,"region":"us-west","cc":"us","latitude":33.94279,"longitude":-118.41004,"reserved":0,"last_update":"0001-01-01T00:00:00Z","name_a2s":"Uncletopia | Los Angeles | 3 | All Maps","protocol":17,"map":"koth_viaduct","folder":"tf","game":"Team Fortress","app_id":440,"player_count":0,"max_players":24,"Bots":0,"server_type":"Dedicated","server_os":"Linux","password":true,"vac":true,"version":"7961495","steam_id":85568392924510198,"keywords":["cp","nocrits","nodmgspread","uncletopia"],"game_id":440,"stv_port":27036,"stv_name":"Uncletopia | Los Angeles | 3 | All Maps | STV","players":null},{"server_id":25,"name":"Uncletopia | Los Angeles | 4 | Stopwatch","name_short":"lax-4","host":"lax-1.us.uncletopia.com","port":27045,"enabled":true,"region":"us-west","cc":"us","latitude":33.94279,"longitude":-118.41004,"reserved":0,"last_update":"0001-01-01T00:00:00Z","name_a2s":"Uncletopia | Los Angeles | 4 | Stopwatch","protocol":17,"map":"cp_snakewater_final1","folder":"tf","game":"Team Fortress","app_id":440,"player_count":0,"max_players":24,"Bots":0,"server_type":"Dedicated","server_os":"Linux","password":true,"vac":true,"version":"7961495","steam_id":85568392924510199,"keywords":["cp","nocrits","nodmgspread","uncletopia"],"game_id":440,"stv_port":27046,"stv_name":"Uncletopia | Los Angeles | 4 | Stopwatch | STV","players":null},{"server_id":11,"name":"Uncletopia | London | 1 | All Maps","name_short":"lon-1","host":"lon-1.uk.uncletopia.com","port":27015,"enabled":true,"region":"eu","cc":"gb","latitude":51.509865,"longitude":-0.118092,"reserved":0,"last_update":"0001-01-01T00:00:00Z","name_a2s":"Uncletopia | London | 1 | All Maps","protocol":17,"map":"pl_snowycoast","folder":"tf","game":"Team Fortress","app_id":440,"player_count":24,"max_players":24,"Bots":0,"server_type":"Dedicated","server_os":"Linux","password":true,"vac":true,"version":"7961495","steam_id":85568392924367362,"keywords":["nocrits","nodmgspread","payload","uncletopia"],"game_id":440,"stv_port":27016,"stv_name":"Uncletopia | London | 1 | All Maps | STV","players":[{"user_id":587,"name":"dec","steam_id":76561198009660168,"connected_time":3526000000000,"state":"active","ping":57},{"user_id":595,"name":"Zel","steam_id":76561198284520120,"connected_time":2340000000000,"state":"active","ping":52},{"user_id":616,"name":"albert","steam_id":76561198353496134,"connected_time":640000000000,"state":"active","ping":53},{"user_id":625,"name":"FJADL","steam_id":76561198237008214,"connected_time":282000000000,"state":"active","ping":75},{"user_id":617,"name":"ScottishBrah","steam_id":76561198061923736,"connected_time":588000000000,"state":"active","ping":53},{"user_id":599,"name":"HarmlessCanine2","steam_id":76561198389475312,"connected_time":1714000000000,"state":"active","ping":43},{"user_id":588,"name":"sora","steam_id":76561198096547662,"connected_time":3331000000000,"state":"active","ping":51},{"user_id":565,"name":"♡ Birdy ♡","steam_id":76561198139632682,"connected_time":6812000000000,"state":"active","ping":88},{"user_id":612,"name":"deadkep","steam_id":76561198097463968,"connected_time":904000000000,"state":"active","ping":61},{"user_id":596,"name":"Rx07","steam_id":76561199013720618,"connected_time":2337000000000,"state":"active","ping":90},{"user_id":539,"name":"rigel_","steam_id":76561198148640847,"connected_time":9781000000000,"state":"active","ping":89},{"user_id":584,"name":"Kahvi","steam_id":76561198723244199,"connected_time":3593000000000,"state":"active","ping":85},{"user_id":605,"name":"Jimmy Poppadopolos","steam_id":76561198044825612,"connected_time":1632000000000,"state":"active","ping":60},{"user_id":456,"name":"Clown :o)","steam_id":76561198074657015,"connected_time":15865000000000,"state":"active","ping":61},{"user_id":622,"name":"mertefe","steam_id":76561199237126613,"connected_time":505000000000,"state":"active","ping":114},{"user_id":618,"name":"FROYO Rad","steam_id":76561199001560866,"connected_time":553000000000,"state":"active","ping":74},{"user_id":594,"name":"skills and issues","steam_id":76561198048453764,"connected_time":2732000000000,"state":"active","ping":50},{"user_id":624,"name":"stroyo","steam_id":76561198409592046,"connected_time":357000000000,"state":"active","ping":62},{"user_id":623,"name":"astaiya","steam_id":76561198044738986,"connected_time":442000000000,"state":"active","ping":137},{"user_id":627,"name":"KnugenIV","steam_id":76561198127091993,"connected_time":231000000000,"state":"active","ping":61},{"user_id":620,"name":"I like apple","steam_id":76561198108115790,"connected_time":540000000000,"state":"active","ping":46},{"user_id":603,"name":"Chivler","steam_id":76561198097655395,"connected_time":1659000000000,"state":"active","ping":56},{"user_id":604,"name":"milo","steam_id":76561198119016918,"connected_time":1653000000000,"state":"active","ping":61},{"user_id":614,"name":"Bonca","steam_id":76561198137503531,"connected_time":770000000000,"state":"active","ping":71}]},{"server_id":114,"name":"Uncletopia | London | 2 | All Maps","name_short":"lon-2","host":"lon-1.uk.uncletopia.com","port":27025,"enabled":true,"region":"eu","cc":"gb","latitude":51.509865,"longitude":-0.118092,"reserved":0,"last_update":"0001-01-01T00:00:00Z","name_a2s":"Uncletopia | London | 2 | All Maps","protocol":17,"map":"cp_sunshine","folder":"tf","game":"Team Fortress","app_id":440,"player_count":0,"max_players":24,"Bots":0,"server_type":"Dedicated","server_os":"Linux","password":true,"vac":true,"version":"7961495","steam_id":85568392924470941,"keywords":["cp","nocrits","nodmgspread","uncletopia"],"game_id":440,"stv_port":27026,"stv_name":"Uncletopia | London | 2 | All Maps | STV","players":null},{"server_id":320,"name":"Uncletopia | London | 3 | All Maps","name_short":"lon-3","host":"lon-1.uk.uncletopia.com","port":27035,"enabled":true,"region":"eu","cc":"gb","latitude":51.509865,"longitude":-0.118092,"reserved":0,"last_update":"0001-01-01T00:00:00Z","name_a2s":"Uncletopia | London | 3 | All Maps","protocol":17,"map":"koth_cascade","folder":"tf","game":"Team Fortress","app_id":440,"player_count":0,"max_players":24,"Bots":0,"server_type":"Dedicated","server_os":"Linux","password":true,"vac":true,"version":"7961495","steam_id":85568392924510192,"keywords":["cp","nocrits","nodmgspread","uncletopia"],"game_id":440,"stv_port":27036,"stv_name":"Uncletopia | London | 3 | All Maps | STV","players":null},{"server_id":321,"name":"Uncletopia | London | 4 | All Maps","name_short":"lon-4","host":"lon-1.uk.uncletopia.com","port":27045,"enabled":true,"region":"eu","cc":"gb","latitude":51.509865,"longitude":-0.118092,"reserved":0,"last_update":"0001-01-01T00:00:00Z","name_a2s":"Uncletopia | London | 4 | All Maps","protocol":17,"map":"ctf_turbine","folder":"tf","game":"Team Fortress","app_id":440,"player_count":24,"max_players":24,"Bots":0,"server_type":"Dedicated","server_os":"Linux","password":true,"vac":true,"version":"7961495","steam_id":85568392924510193,"keywords":["ctf","nocrits","nodmgspread","uncletopia"],"game_id":440,"stv_port":27046,"stv_name":"Uncletopia | London | 4 | All Maps | STV","players":[{"user_id":732,"name":"Apollo","steam_id":76561198866054007,"connected_time":362000000000,"state":"active","ping":91},{"user_id":719,"name":"Amiriki","steam_id":76561198005050734,"connected_time":732000000000,"state":"active","ping":46},{"user_id":722,"name":"MaxKon","steam_id":76561198962598376,"connected_time":578000000000,"state":"active","ping":100},{"user_id":687,"name":"Vorgor","steam_id":76561198157692022,"connected_time":2473000000000,"state":"active","ping":51},{"user_id":734,"name":"Jemes","steam_id":76561198055620906,"connected_time":326000000000,"state":"active","ping":71},{"user_id":694,"name":"Yuzu","steam_id":76561198121694613,"connected_time":2189000000000,"state":"active","ping":51},{"user_id":737,"name":"no more fucks to give","steam_id":76561199129974320,"connected_time":254000000000,"state":"active","ping":148},{"user_id":726,"name":"kolonists","steam_id":76561199468626219,"connected_time":539000000000,"state":"active","ping":87},{"user_id":735,"name":"ran is running","steam_id":76561199443185667,"connected_time":304000000000,"state":"active","ping":144},{"user_id":692,"name":"Laru","steam_id":76561197998838438,"connected_time":2267000000000,"state":"active","ping":76},{"user_id":740,"name":"MaxTgaX","steam_id":76561198046287539,"connected_time":72000000000,"state":"active","ping":126},{"user_id":725,"name":"luigibros644 #savetf2","steam_id":76561199087537182,"connected_time":574000000000,"state":"active","ping":84},{"user_id":709,"name":"Aureolin","steam_id":76561198210274835,"connected_time":1258000000000,"state":"active","ping":131},{"user_id":720,"name":"Kritzburgh","steam_id":76561198149466938,"connected_time":730000000000,"state":"active","ping":119},{"user_id":581,"name":":3","steam_id":76561198169471853,"connected_time":8969000000000,"state":"active","ping":39},{"user_id":729,"name":"Tarakan usatuy","steam_id":76561199088697437,"connected_time":486000000000,"state":"active","ping":86},{"user_id":739,"name":"PP_master69420","steam_id":76561199019913910,"connected_time":137000000000,"state":"active","ping":84},{"user_id":728,"name":"TF2 Ham","steam_id":76561199024930552,"connected_time":492000000000,"state":"active","ping":132},{"user_id":706,"name":"Totally Clueless","steam_id":76561198085966488,"connected_time":1438000000000,"state":"active","ping":97},{"user_id":741,"name":"Iris","steam_id":76561198430295815,"connected_time":67000000000,"state":"active","ping":65},{"user_id":712,"name":"BepisR47","steam_id":76561198084515716,"connected_time":1149000000000,"state":"active","ping":33},{"user_id":742,"name":"Slayersbane","steam_id":76561198126726141,"connected_time":51000000000,"state":"active","ping":152},{"user_id":718,"name":"-⁧⁧Banholas","steam_id":76561198424093811,"connected_time":769000000000,"state":"active","ping":85},{"user_id":642,"name":"DocTwoEight","steam_id":76561198153488940,"connected_time":4793000000000,"state":"active","ping":74}]},{"server_id":21,"name":"Uncletopia | London | 5 | All Maps","name_short":"lon-5","host":"lon-1.uk.uncletopia.com","port":27055,"enabled":true,"region":"eu","cc":"gb","latitude":51.509865,"longitude":-0.118092,"reserved":0,"last_update":"0001-01-01T00:00:00Z","name_a2s":"Uncletopia | London | 5 | All Maps","protocol":17,"map":"pl_enclosure_final","folder":"tf","game":"Team Fortress","app_id":440,"player_count":24,"max_players":24,"Bots":0,"server_type":"Dedicated","server_os":"Linux","password":true,"vac":true,"version":"7961495","steam_id":85568392924742829,"keywords":["nocrits","nodmgspread","payload","uncletopia"],"game_id":440,"stv_port":27056,"stv_name":"Uncletopia | London | 5 | All Maps | STV","players":[{"user_id":470,"name":"akakez","steam_id":76561198095432821,"connected_time":646000000000,"state":"active","ping":112},{"user_id":459,"name":"The Dumbass","steam_id":76561198833392443,"connected_time":1022000000000,"state":"active","ping":75},{"user_id":484,"name":"Demicore","steam_id":76561197976922136,"connected_time":155000000000,"state":"active","ping":64},{"user_id":442,"name":"George7231","steam_id":76561198136490042,"connected_time":2670000000000,"state":"active","ping":53},{"user_id":455,"name":"randompixel","steam_id":76561198003941207,"connected_time":1198000000000,"state":"active","ping":49},{"user_id":485,"name":"Dixon Cider","steam_id":76561198062934599,"connected_time":53000000000,"state":"active","ping":54},{"user_id":486,"name":"Cock Enjoyer [ASS]","steam_id":76561198145150950,"connected_time":23000000000,"state":"spawning","ping":52},{"user_id":460,"name":"Hotdogs","steam_id":76561199112737347,"connected_time":974000000000,"state":"active","ping":64},{"user_id":461,"name":"Arturias","steam_id":76561198188720263,"connected_time":909000000000,"state":"active","ping":48},{"user_id":482,"name":"Jørn","steam_id":76561199073257952,"connected_time":283000000000,"state":"active","ping":60},{"user_id":475,"name":"Web Surfer","steam_id":76561198060307235,"connected_time":436000000000,"state":"active","ping":64},{"user_id":464,"name":"Nickbro101","steam_id":76561198044271692,"connected_time":834000000000,"state":"active","ping":50},{"user_id":452,"name":"Joetron","steam_id":76561198267907985,"connected_time":2341000000000,"state":"active","ping":47},{"user_id":483,"name":"(MAC) [BN] Crazyking","steam_id":76561198001668616,"connected_time":194000000000,"state":"active","ping":61},{"user_id":479,"name":"Unpronounceable","steam_id":76561198033002636,"connected_time":359000000000,"state":"active","ping":79},{"user_id":471,"name":"guru{Hari}","steam_id":76561197997001681,"connected_time":604000000000,"state":"active","ping":75},{"user_id":472,"name":"bongo","steam_id":76561198015489880,"connected_time":585000000000,"state":"active","ping":36},{"user_id":487,"name":"Reimu","steam_id":76561198101532240,"connected_time":22000000000,"state":"active","ping":53},{"user_id":477,"name":"Redrim","steam_id":76561197998374658,"connected_time":386000000000,"state":"active","ping":67},{"user_id":478,"name":"Femboy Enjoyer","steam_id":76561198389548524,"connected_time":372000000000,"state":"active","ping":60},{"user_id":488,"name":"TOP G","steam_id":76561198138928548,"connected_time":7000000000,"state":"spawning","ping":241},{"user_id":480,"name":"K3YRING","steam_id":76561198408597576,"connected_time":343000000000,"state":"active","ping":93},{"user_id":439,"name":"handsome as usual","steam_id":76561199126716354,"connected_time":2718000000000,"state":"active","ping":105},{"user_id":481,"name":"NitPig","steam_id":76561198212991935,"connected_time":322000000000,"state":"active","ping":94}]},{"server_id":22,"name":"Uncletopia | London | 6 | All Maps","name_short":"lon-6","host":"lon-1.uk.uncletopia.com","port":27065,"enabled":true,"region":"eu","cc":"gb","latitude":51.509865,"longitude":-0.118092,"reserved":0,"last_update":"0001-01-01T00:00:00Z","name_a2s":"Uncletopia | London | 6 | All Maps","protocol":17,"map":"pl_borneo","folder":"tf","game":"Team Fortress","app_id":440,"player_count":24,"max_players":24,"Bots":0,"server_type":"Dedicated","server_os":"Linux","password":true,"vac":true,"version":"7961495","steam_id":85568392924742830,"keywords":["nocrits","nodmgspread","payload","uncletopia"],"game_id":440,"stv_port":27066,"stv_name":"Uncletopia | London | 6 | All Maps | STV","players":[{"user_id":239,"name":"Quartzshard","steam_id":76561198041527954,"connected_time":4806000000000,"state":"active","ping":42},{"user_id":273,"name":"tapeworms!","steam_id":76561198069649097,"connected_time":2588000000000,"state":"active","ping":48},{"user_id":244,"name":"Warkzt","steam_id":76561198098166869,"connected_time":4597000000000,"state":"active","ping":76},{"user_id":297,"name":"Supercoxylac","steam_id":76561198376300138,"connected_time":746000000000,"state":"active","ping":65},{"user_id":301,"name":"After8","steam_id":76561198090750865,"connected_time":225000000000,"state":"active","ping":76},{"user_id":294,"name":"Dolcelatte","steam_id":76561198038501770,"connected_time":923000000000,"state":"active","ping":63},{"user_id":192,"name":"kluri","steam_id":76561198084518962,"connected_time":7369000000000,"state":"active","ping":75},{"user_id":193,"name":"dg","steam_id":76561199074553825,"connected_time":7362000000000,"state":"active","ping":58},{"user_id":274,"name":"Alegz","steam_id":76561198287810139,"connected_time":2334000000000,"state":"active","ping":60},{"user_id":302,"name":"Shadow the Hedgehog","steam_id":76561198032936750,"connected_time":106000000000,"state":"active","ping":91},{"user_id":199,"name":"Worm","steam_id":76561198296497176,"connected_time":7056000000000,"state":"active","ping":51},{"user_id":300,"name":"Someone","steam_id":76561199030195879,"connected_time":320000000000,"state":"active","ping":47},{"user_id":289,"name":"Ninjeg","steam_id":76561197995307947,"connected_time":1287000000000,"state":"active","ping":63},{"user_id":256,"name":"Miku.Hatsune.2007","steam_id":76561198199687607,"connected_time":3682000000000,"state":"active","ping":63},{"user_id":255,"name":"Shlongulator","steam_id":76561198149779201,"connected_time":3704000000000,"state":"active","ping":54},{"user_id":290,"name":"MustangCricket","steam_id":76561197963408317,"connected_time":1279000000000,"state":"active","ping":67},{"user_id":258,"name":"Eric Catman","steam_id":76561198802117294,"connected_time":3381000000000,"state":"active","ping":70},{"user_id":291,"name":"krill issue","steam_id":76561198088201976,"connected_time":1276000000000,"state":"active","ping":40},{"user_id":298,"name":"nordstream bomber","steam_id":76561199401283123,"connected_time":686000000000,"state":"active","ping":51},{"user_id":295,"name":"Tavish","steam_id":76561197971486686,"connected_time":887000000000,"state":"active","ping":49},{"user_id":277,"name":"Butters McKnife","steam_id":76561198007653168,"connected_time":2026000000000,"state":"active","ping":52},{"user_id":299,"name":"Burrito","steam_id":76561198023919089,"connected_time":358000000000,"state":"active","ping":82},{"user_id":292,"name":"juku06","steam_id":76561198953966982,"connected_time":1263000000000,"state":"active","ping":118},{"user_id":272,"name":"steck","steam_id":76561197973948113,"connected_time":2773000000000,"state":"active","ping":66}]},{"server_id":40,"name":"Uncletopia | London | 7 | Stopwatch","name_short":"lon-7","host":"lon-1.uk.uncletopia.com","port":27075,"enabled":true,"region":"eu","cc":"gb","latitude":51.509865,"longitude":-0.118092,"reserved":0,"last_update":"0001-01-01T00:00:00Z","name_a2s":"Uncletopia | London | 7 | Stopwatch","protocol":17,"map":"koth_highpass","folder":"tf","game":"Team Fortress","app_id":440,"player_count":0,"max_players":24,"Bots":0,"server_type":"Dedicated","server_os":"Linux","password":true,"vac":true,"version":"7961495","steam_id":85568392924964314,"keywords":["cp","nocrits","nodmgspread","uncletopia"],"game_id":440,"stv_port":27076,"stv_name":"Uncletopia | London | 7 | Stopwatch | STV","players":null},{"server_id":41,"name":"Uncletopia | London | 8 | Community","name_short":"lon-8","host":"lon-1.uk.uncletopia.com","port":27085,"enabled":true,"region":"eu","cc":"gb","latitude":51.509865,"longitude":-0.118092,"reserved":0,"last_update":"0001-01-01T00:00:00Z","name_a2s":"Uncletopia | London | 8 | Community","protocol":17,"map":"workshop/pl_cactuscanyon_redux_final2.ugc2579644293","folder":"tf","game":"Team Fortress","app_id":440,"player_count":0,"max_players":24,"Bots":0,"server_type":"Dedicated","server_os":"Linux","password":true,"vac":true,"version":"7961495","steam_id":85568392924964315,"keywords":["nocrits","nodmgspread","payload","uncletopia"],"game_id":440,"stv_port":27086,"stv_name":"Uncletopia | London | 8 | Community | STV","players":null},{"server_id":300,"name":"Uncletopia | Montréal | 1 | One Thousand Uncles","name_short":"mtl-1","host":"mtl-1.ca.uncletopia.com","port":27015,"enabled":true,"region":"us-east","cc":"ca","latitude":45.50889,"longitude":-73.56167,"reserved":0,"last_update":"0001-01-01T00:00:00Z","name_a2s":"","protocol":0,"map":"","folder":"","game":"","app_id":0,"player_count":7,"max_players":0,"Bots":0,"server_type":"","server_os":"","password":false,"vac":false,"version":"","steam_id":0,"keywords":null,"game_id":0,"stv_port":0,"stv_name":"","players":[{"user_id":169,"name":"Linguard","steam_id":76561198406757557,"connected_time":2521000000000,"state":"active","ping":33},{"user_id":171,"name":"penis atomizer 9000 🏳️?","steam_id":76561198864841966,"connected_time":1706000000000,"state":"active","ping":108},{"user_id":175,"name":"mrthugpug1732","steam_id":76561198881200768,"connected_time":948000000000,"state":"active","ping":105},{"user_id":173,"name":"Tom Dude","steam_id":76561198093913484,"connected_time":1125000000000,"state":"active","ping":77},{"user_id":174,"name":"BIGMOOD","steam_id":76561199086966716,"connected_time":1041000000000,"state":"active","ping":109},{"user_id":140,"name":"DeepDive","steam_id":76561198140542184,"connected_time":3922000000000,"state":"active","ping":51},{"user_id":146,"name":"Zacharyphoenix","steam_id":76561198105371292,"connected_time":3370000000000,"state":"active","ping":84}]},{"server_id":301,"name":"Uncletopia | Montréal | 2 | One Thousand Uncles","name_short":"mtl-2","host":"mtl-1.ca.uncletopia.com","port":27025,"enabled":true,"region":"us-east","cc":"ca","latitude":45.50889,"longitude":-73.56167,"reserved":0,"last_update":"0001-01-01T00:00:00Z","name_a2s":"","protocol":0,"map":"","folder":"","game":"","app_id":0,"player_count":0,"max_players":0,"Bots":0,"server_type":"","server_os":"","password":false,"vac":false,"version":"","steam_id":0,"keywords":null,"game_id":0,"stv_port":0,"stv_name":"","players":null},{"server_id":302,"name":"Uncletopia | Montréal | 3 | One Thousand Uncles","name_short":"mtl-3","host":"mtl-1.ca.uncletopia.com","port":27035,"enabled":true,"region":"us-east","cc":"ca","latitude":45.50889,"longitude":-73.56167,"reserved":0,"last_update":"0001-01-01T00:00:00Z","name_a2s":"","protocol":0,"map":"","folder":"","game":"","app_id":0,"player_count":0,"max_players":0,"Bots":0,"server_type":"","server_os":"","password":false,"vac":false,"version":"","steam_id":0,"keywords":null,"game_id":0,"stv_port":0,"stv_name":"","players":null},{"server_id":13,"name":"Uncletopia | New York City | 1 | All Maps","name_short":"nyc-1","host":"nyc-1.us.uncletopia.com","port":27015,"enabled":true,"region":"us-east","cc":"us","latitude":40.73061,"longitude":-73.93524,"reserved":0,"last_update":"0001-01-01T00:00:00Z","name_a2s":"Uncletopia | New York City | 1 | All Maps","protocol":17,"map":"pl_badwater","folder":"tf","game":"Team Fortress","app_id":440,"player_count":21,"max_players":24,"Bots":0,"server_type":"Dedicated","server_os":"Linux","password":true,"vac":true,"version":"7961495","steam_id":85568392924469993,"keywords":["nocrits","nodmgspread","payload","uncletopia"],"game_id":440,"stv_port":27016,"stv_name":"Uncletopia | New York City | 1 | All Maps | STV","players":[{"user_id":406,"name":"BigBubble42","steam_id":76561198136286123,"connected_time":201000000000,"state":"spawning","ping":219},{"user_id":404,"name":"Gabeyboy321","steam_id":76561199379213615,"connected_time":419000000000,"state":"active","ping":80},{"user_id":387,"name":"bear","steam_id":76561198909415646,"connected_time":1090000000000,"state":"active","ping":97},{"user_id":392,"name":"Griffin","steam_id":76561198159339442,"connected_time":879000000000,"state":"active","ping":65},{"user_id":407,"name":"milk","steam_id":76561198813251405,"connected_time":105000000000,"state":"active","ping":50},{"user_id":340,"name":"fLock","steam_id":76561198091578187,"connected_time":3969000000000,"state":"active","ping":44},{"user_id":388,"name":"LavenderSys","steam_id":76561198289106015,"connected_time":1062000000000,"state":"active","ping":105},{"user_id":361,"name":"jliu","steam_id":76561198052172341,"connected_time":2713000000000,"state":"active","ping":75},{"user_id":397,"name":"Ursus Ludius","steam_id":76561198025470722,"connected_time":747000000000,"state":"active","ping":82},{"user_id":400,"name":"haji","steam_id":76561198119240972,"connected_time":672000000000,"state":"active","ping":62},{"user_id":389,"name":"Captain Bug","steam_id":76561198137763878,"connected_time":1022000000000,"state":"active","ping":70},{"user_id":386,"name":"Bee","steam_id":76561198074681324,"connected_time":1145000000000,"state":"active","ping":33},{"user_id":385,"name":"raccocooon","steam_id":76561199138602425,"connected_time":1160000000000,"state":"active","ping":78},{"user_id":405,"name":"Gas Doge","steam_id":76561198074869243,"connected_time":352000000000,"state":"active","ping":154},{"user_id":390,"name":"Top Frog","steam_id":76561198072793446,"connected_time":1014000000000,"state":"active","ping":72},{"user_id":381,"name":"Long Chicken From Burger King","steam_id":76561198011603359,"connected_time":1484000000000,"state":"active","ping":59},{"user_id":399,"name":"Buck","steam_id":76561198064244796,"connected_time":696000000000,"state":"active","ping":45},{"user_id":374,"name":"C4$H","steam_id":76561198001163353,"connected_time":1990000000000,"state":"active","ping":75},{"user_id":401,"name":"shadow6","steam_id":76561197979807910,"connected_time":610000000000,"state":"active","ping":110},{"user_id":402,"name":"Akker","steam_id":76561199000630792,"connected_time":597000000000,"state":"active","ping":120},{"user_id":333,"name":"gerf.","steam_id":76561198811706201,"connected_time":4194000000000,"state":"active","ping":60}]},{"server_id":14,"name":"Uncletopia | New York City | 2 | All Maps","name_short":"nyc-2","host":"nyc-1.us.uncletopia.com","port":27025,"enabled":true,"region":"us-east","cc":"us","latitude":40.73061,"longitude":-73.93524,"reserved":0,"last_update":"0001-01-01T00:00:00Z","name_a2s":"Uncletopia | New York City | 2 | All Maps","protocol":17,"map":"pl_frontier_final","folder":"tf","game":"Team Fortress","app_id":440,"player_count":24,"max_players":24,"Bots":0,"server_type":"Dedicated","server_os":"Linux","password":true,"vac":true,"version":"7961495","steam_id":85568392924469994,"keywords":["nocrits","nodmgspread","payload","uncletopia"],"game_id":440,"stv_port":27026,"stv_name":"Uncletopia | New York City | 2 | All Maps | STV","players":[{"user_id":303,"name":"Kartyac","steam_id":76561197991069005,"connected_time":485000000000,"state":"active","ping":61},{"user_id":287,"name":"Tokyo_Timeshift_","steam_id":76561198048677523,"connected_time":1541000000000,"state":"active","ping":65},{"user_id":308,"name":"gungybungy","steam_id":76561199165338893,"connected_time":161000000000,"state":"active","ping":86},{"user_id":284,"name":"Blade Racer","steam_id":76561198155896703,"connected_time":1886000000000,"state":"active","ping":64},{"user_id":290,"name":"Chord","steam_id":76561198110874021,"connected_time":1151000000000,"state":"active","ping":78},{"user_id":304,"name":"✪Type_Alpha","steam_id":76561198122780598,"connected_time":437000000000,"state":"active","ping":56},{"user_id":257,"name":"KarmaKid","steam_id":76561198079580094,"connected_time":3655000000000,"state":"active","ping":36},{"user_id":270,"name":"BiggSlorp","steam_id":76561199130776156,"connected_time":2804000000000,"state":"active","ping":61},{"user_id":288,"name":"Grandfather_Nurgle","steam_id":76561198245457746,"connected_time":1230000000000,"state":"active","ping":73},{"user_id":289,"name":"peace dog","steam_id":76561198267988522,"connected_time":1218000000000,"state":"active","ping":76},{"user_id":291,"name":"♥Neko Girlfriend♥","steam_id":76561198143422702,"connected_time":1137000000000,"state":"active","ping":54},{"user_id":286,"name":"hammythegreat #SaveTF2","steam_id":76561198079526946,"connected_time":1764000000000,"state":"active","ping":85},{"user_id":306,"name":"BoxOfStaples","steam_id":76561198834773017,"connected_time":380000000000,"state":"active","ping":94},{"user_id":214,"name":"Zeora","steam_id":76561198799145251,"connected_time":7206000000000,"state":"active","ping":71},{"user_id":279,"name":"G_raff","steam_id":76561199048512726,"connected_time":2285000000000,"state":"active","ping":150},{"user_id":292,"name":"get scrongled, idiot","steam_id":76561198115874625,"connected_time":1124000000000,"state":"active","ping":74},{"user_id":264,"name":"Tablaro","steam_id":76561198076915673,"connected_time":3367000000000,"state":"active","ping":65},{"user_id":302,"name":"Chicken Burger","steam_id":76561198358529311,"connected_time":512000000000,"state":"active","ping":71},{"user_id":307,"name":"Jojo","steam_id":76561198332887086,"connected_time":228000000000,"state":"active","ping":38},{"user_id":301,"name":"glam","steam_id":76561198059570070,"connected_time":682000000000,"state":"active","ping":59},{"user_id":296,"name":"DrXaiver","steam_id":76561198114237654,"connected_time":1065000000000,"state":"active","ping":57},{"user_id":269,"name":"Piss God","steam_id":76561198090504334,"connected_time":3120000000000,"state":"active","ping":66},{"user_id":297,"name":"harold of rock salt kingdom","steam_id":76561199016285746,"connected_time":1061000000000,"state":"active","ping":93},{"user_id":263,"name":"Ceru","steam_id":76561197990223216,"connected_time":3453000000000,"state":"active","ping":83}]},{"server_id":15,"name":"Uncletopia | New York City | 3 | Stopwatch","name_short":"nyc-3","host":"nyc-1.us.uncletopia.com","port":27035,"enabled":true,"region":"us-east","cc":"us","latitude":40.73061,"longitude":-73.93524,"reserved":0,"last_update":"0001-01-01T00:00:00Z","name_a2s":"Uncletopia | New York City | 3 | Stopwatch","protocol":17,"map":"pl_snowycoast","folder":"tf","game":"Team Fortress","app_id":440,"player_count":0,"max_players":24,"Bots":0,"server_type":"Dedicated","server_os":"Linux","password":true,"vac":true,"version":"7961495","steam_id":85568392924742820,"keywords":["nocrits","nodmgspread","payload","uncletopia"],"game_id":440,"stv_port":27036,"stv_name":"Uncletopia | New York City | 3 | Stopwatch | STV","players":null},{"server_id":16,"name":"Uncletopia | New York City | 4 | Community","name_short":"nyc-4","host":"nyc-1.us.uncletopia.com","port":27045,"enabled":true,"region":"us-east","cc":"us","latitude":40.73061,"longitude":-73.93524,"reserved":0,"last_update":"0001-01-01T00:00:00Z","name_a2s":"Uncletopia | New York City | 4 | Community","protocol":17,"map":"workshop/koth_product_final.ugc454272353","folder":"tf","game":"Team Fortress","app_id":440,"player_count":0,"max_players":24,"Bots":0,"server_type":"Dedicated","server_os":"Linux","password":true,"vac":true,"version":"7961495","steam_id":85568392924742821,"keywords":["cp","nocrits","nodmgspread","uncletopia"],"game_id":440,"stv_port":27046,"stv_name":"Uncletopia | New York City | 4 | Community | STV","players":null},{"server_id":142,"name":"Uncletopia | São Paulo | 1 | All Maps","name_short":"sao-1","host":"sao-1.br.uncletopia.com","port":27015,"enabled":true,"region":"sa","cc":"br","latitude":-23.533773,"longitude":-46.62529,"reserved":0,"last_update":"0001-01-01T00:00:00Z","name_a2s":"Uncletopia | São Paulo | 1 | All Maps","protocol":17,"map":"koth_viaduct","folder":"tf","game":"Team Fortress","app_id":440,"player_count":0,"max_players":24,"Bots":0,"server_type":"Dedicated","server_os":"Linux","password":true,"vac":true,"version":"7961495","steam_id":85568392924469996,"keywords":["cp","nocrits","nodmgspread","uncletopia"],"game_id":440,"stv_port":27016,"stv_name":"Uncletopia | São Paulo | 1 | All Maps | STV","players":null},{"server_id":143,"name":"Uncletopia | São Paulo | 2 | Community","name_short":"sao-2","host":"sao-2.br.uncletopia.com","port":27015,"enabled":true,"region":"sa","cc":"br","latitude":-23.533773,"longitude":-46.62529,"reserved":0,"last_update":"0001-01-01T00:00:00Z","name_a2s":"Uncletopia | São Paulo | 2 | Community","protocol":17,"map":"workshop/pl_highwood_b13.ugc1769496557","folder":"tf","game":"Team Fortress","app_id":440,"player_count":0,"max_players":24,"Bots":0,"server_type":"Dedicated","server_os":"Linux","password":true,"vac":true,"version":"7961495","steam_id":85568392924485349,"keywords":["nocrits","nodmgspread","payload","uncletopia"],"game_id":440,"stv_port":27016,"stv_name":"Uncletopia | São Paulo | 2 | Community | STV","players":null},{"server_id":7,"name":"Uncletopia | Seattle | 1 | All Maps","name_short":"sea-1","host":"sea-1.us.uncletopia.com","port":27015,"enabled":true,"region":"us-west","cc":"us","latitude":47.608013,"longitude":-122.33517,"reserved":0,"last_update":"0001-01-01T00:00:00Z","name_a2s":"Uncletopia | Seattle | 1 | All Maps","protocol":17,"map":"cp_process_final","folder":"tf","game":"Team Fortress","app_id":440,"player_count":5,"max_players":24,"Bots":0,"server_type":"Dedicated","server_os":"Linux","password":true,"vac":true,"version":"7961495","steam_id":85568392924469997,"keywords":["cp","nocrits","nodmgspread","uncletopia"],"game_id":440,"stv_port":27016,"stv_name":"Uncletopia | Seattle | 1 | All Maps | STV","players":[{"user_id":19,"name":"rat who can kickflip","steam_id":76561198073620027,"connected_time":398000000000,"state":"active","ping":31},{"user_id":20,"name":"$limek✔ngEM0.an1me.B0Y_33309","steam_id":76561198283687382,"connected_time":331000000000,"state":"active","ping":109},{"user_id":21,"name":"cielael","steam_id":76561198043971956,"connected_time":143000000000,"state":"active","ping":66},{"user_id":22,"name":"Femboy Friday (they/them)\u0026","steam_id":76561198027321950,"connected_time":126000000000,"state":"active","ping":40},{"user_id":23,"name":"OxOoxen841","steam_id":76561198297981993,"connected_time":64000000000,"state":"active","ping":73}]},{"server_id":119,"name":"Uncletopia | Seattle | 2 | All Maps","name_short":"sea-2","host":"sea-1.us.uncletopia.com","port":27025,"enabled":true,"region":"us-west","cc":"us","latitude":47.608013,"longitude":-122.33517,"reserved":0,"last_update":"0001-01-01T00:00:00Z","name_a2s":"Uncletopia | Seattle | 2 | All Maps","protocol":17,"map":"pl_pier","folder":"tf","game":"Team Fortress","app_id":440,"player_count":24,"max_players":24,"Bots":0,"server_type":"Dedicated","server_os":"Linux","password":true,"vac":true,"version":"7961495","steam_id":85568392924469998,"keywords":["nocrits","nodmgspread","payload","uncletopia"],"game_id":440,"stv_port":27026,"stv_name":"Uncletopia | Seattle | 2 | All Maps | STV","players":[{"user_id":276,"name":"Chad the Sex Haver","steam_id":76561198058236528,"connected_time":5775000000000,"state":"active","ping":75},{"user_id":408,"name":"Scrummie","steam_id":76561198094935715,"connected_time":1663000000000,"state":"active","ping":55},{"user_id":400,"name":"Daz","steam_id":76561198041431938,"connected_time":2171000000000,"state":"active","ping":50},{"user_id":396,"name":"Dimple","steam_id":76561198980324190,"connected_time":2406000000000,"state":"active","ping":60},{"user_id":394,"name":"es","steam_id":76561198006892337,"connected_time":2886000000000,"state":"active","ping":70},{"user_id":416,"name":"Convenient Strip Mall","steam_id":76561198164678062,"connected_time":390000000000,"state":"active","ping":62},{"user_id":403,"name":"Dog","steam_id":76561198041841128,"connected_time":2043000000000,"state":"active","ping":101},{"user_id":389,"name":"hyazz","steam_id":76561199100342013,"connected_time":3199000000000,"state":"active","ping":75},{"user_id":410,"name":"MrYadaization","steam_id":76561198050770818,"connected_time":1111000000000,"state":"active","ping":53},{"user_id":411,"name":"Chimp Peen's Revunge","steam_id":76561198165778514,"connected_time":1088000000000,"state":"active","ping":81},{"user_id":415,"name":"Yuki Aim Yino","steam_id":76561198011428084,"connected_time":444000000000,"state":"active","ping":62},{"user_id":390,"name":"Cristanc99","steam_id":76561198114715810,"connected_time":3193000000000,"state":"active","ping":75},{"user_id":288,"name":"1995 Cooler ranch Doritos","steam_id":76561199006526991,"connected_time":5619000000000,"state":"active","ping":79},{"user_id":414,"name":"marty","steam_id":76561198032782746,"connected_time":959000000000,"state":"active","ping":43},{"user_id":301,"name":"Just washed","steam_id":76561199030160932,"connected_time":5366000000000,"state":"active","ping":134},{"user_id":417,"name":"The Population of Sweden","steam_id":76561198202201644,"connected_time":208000000000,"state":"active","ping":41},{"user_id":402,"name":"Spectre⁹⁹⁹","steam_id":76561198037535169,"connected_time":2084000000000,"state":"active","ping":71},{"user_id":418,"name":"Quigi","steam_id":76561198144645874,"connected_time":202000000000,"state":"active","ping":76},{"user_id":395,"name":"sudoku_fiend","steam_id":76561198152029104,"connected_time":2622000000000,"state":"active","ping":78},{"user_id":382,"name":"Wheaty","steam_id":76561198003553412,"connected_time":3495000000000,"state":"active","ping":55},{"user_id":407,"name":"greens beans","steam_id":76561198153611491,"connected_time":1795000000000,"state":"active","ping":45},{"user_id":405,"name":"hydropation","steam_id":76561199124237885,"connected_time":2024000000000,"state":"active","ping":53},{"user_id":399,"name":"poundcake","steam_id":76561198796548083,"connected_time":2261000000000,"state":"active","ping":46},{"user_id":406,"name":"Fh","steam_id":76561198000903511,"connected_time":1978000000000,"state":"active","ping":67}]},{"server_id":406,"name":"Uncletopia | Seattle | 3 | Stopwatch","name_short":"sea-3","host":"sea-1.us.uncletopia.com","port":27035,"enabled":true,"region":"us-west","cc":"us","latitude":47.608013,"longitude":-122.33517,"reserved":0,"last_update":"0001-01-01T00:00:00Z","name_a2s":"Uncletopia | Seattle | 3 | Stopwatch","protocol":17,"map":"pl_pier","folder":"tf","game":"Team Fortress","app_id":440,"player_count":0,"max_players":24,"Bots":0,"server_type":"Dedicated","server_os":"Linux","password":true,"vac":true,"version":"7961495","steam_id":85568392924515217,"keywords":["nocrits","nodmgspread","payload","uncletopia"],"game_id":440,"stv_port":27036,"stv_name":"Uncletopia | Seattle | 3 | Stopwatch | STV","players":null},{"server_id":17,"name":"Uncletopia | San Francisco | 1 | All Maps","name_short":"sfo-1","host":"sfo-1.us.uncletopia.com","port":27015,"enabled":true,"region":"us-west","cc":"us","latitude":37.77397,"longitude":-122.4313,"reserved":0,"last_update":"0001-01-01T00:00:00Z","name_a2s":"Uncletopia | San Francisco | 1 | All Maps","protocol":17,"map":"koth_cascade","folder":"tf","game":"Team Fortress","app_id":440,"player_count":0,"max_players":24,"Bots":0,"server_type":"Dedicated","server_os":"Linux","password":true,"vac":true,"version":"7961495","steam_id":85568392924469999,"keywords":["cp","nocrits","nodmgspread","uncletopia"],"game_id":440,"stv_port":27016,"stv_name":"Uncletopia | San Francisco | 1 | All Maps | STV","players":null},{"server_id":18,"name":"Uncletopia | San Francisco | 2 | All Maps","name_short":"sfo-2","host":"sfo-1.us.uncletopia.com","port":27025,"enabled":true,"region":"us-west","cc":"us","latitude":37.77397,"longitude":-122.4313,"reserved":0,"last_update":"0001-01-01T00:00:00Z","name_a2s":"Uncletopia | San Francisco | 2 | All Maps","protocol":17,"map":"pl_frontier_final","folder":"tf","game":"Team Fortress","app_id":440,"player_count":0,"max_players":24,"Bots":0,"server_type":"Dedicated","server_os":"Linux","password":true,"vac":true,"version":"7961495","steam_id":85568392924470000,"keywords":["nocrits","nodmgspread","payload","uncletopia"],"game_id":440,"stv_port":27026,"stv_name":"Uncletopia | San Francisco | 2 | All Maps | STV","players":null},{"server_id":19,"name":"Uncletopia | San Francisco | 3 | Stopwatch","name_short":"sfo-3","host":"sfo-1.us.uncletopia.com","port":27035,"enabled":true,"region":"us-west","cc":"us","latitude":37.77397,"longitude":-122.4313,"reserved":0,"last_update":"0001-01-01T00:00:00Z","name_a2s":"Uncletopia | San Francisco | 3 | Stopwatch","protocol":17,"map":"pl_pier","folder":"tf","game":"Team Fortress","app_id":440,"player_count":0,"max_players":24,"Bots":0,"server_type":"Dedicated","server_os":"Linux","password":true,"vac":true,"version":"7961495","steam_id":85568392924742824,"keywords":["nocrits","nodmgspread","payload","uncletopia"],"game_id":440,"stv_port":27036,"stv_name":"Uncletopia | San Francisco | 3 | Stopwatch | STV","players":null},{"server_id":20,"name":"Uncletopia | San Francisco | 4 | Community","name_short":"sfo-4","host":"sfo-1.us.uncletopia.com","port":27045,"enabled":true,"region":"us-west","cc":"us","latitude":37.77397,"longitude":-122.4313,"reserved":0,"last_update":"0001-01-01T00:00:00Z","name_a2s":"Uncletopia | San Francisco | 4 | Community","protocol":17,"map":"workshop/koth_ashville_final.ugc2130459942","folder":"tf","game":"Team Fortress","app_id":440,"player_count":0,"max_players":24,"Bots":0,"server_type":"Dedicated","server_os":"Linux","password":true,"vac":true,"version":"7961495","steam_id":85568392924742826,"keywords":["cp","nocrits","nodmgspread","uncletopia"],"game_id":440,"stv_port":27046,"stv_name":"Uncletopia | San Francisco | 4 | Community | STV","players":null},{"server_id":141,"name":"Uncletopia | Sydney | 1 | All Maps","name_short":"syd-1","host":"syd-1.au.uncletopia.com","port":27015,"enabled":true,"region":"au","cc":"au","latitude":-33.865143,"longitude":151.2099,"reserved":0,"last_update":"0001-01-01T00:00:00Z","name_a2s":"Uncletopia | Sydney | 1 | All Maps","protocol":17,"map":"koth_lakeside_final","folder":"tf","game":"Team Fortress","app_id":440,"player_count":0,"max_players":24,"Bots":0,"server_type":"Dedicated","server_os":"Linux","password":true,"vac":true,"version":"7961495","steam_id":85568392924470001,"keywords":["cp","nocrits","nodmgspread","uncletopia"],"game_id":440,"stv_port":27016,"stv_name":"Uncletopia | Sydney | 1 | All Maps | STV","players":null},{"server_id":123,"name":"Uncletopia | Sydney | 2 | All Maps","name_short":"syd-2","host":"syd-1.au.uncletopia.com","port":27025,"enabled":true,"region":"au","cc":"au","latitude":-33.865143,"longitude":151.2099,"reserved":0,"last_update":"0001-01-01T00:00:00Z","name_a2s":"Uncletopia | Sydney | 2 | All Maps","protocol":17,"map":"koth_cascade","folder":"tf","game":"Team Fortress","app_id":440,"player_count":0,"max_players":24,"Bots":0,"server_type":"Dedicated","server_os":"Linux","password":true,"vac":true,"version":"7961495","steam_id":85568392924470002,"keywords":["cp","nocrits","nodmgspread","uncletopia"],"game_id":440,"stv_port":27026,"stv_name":"Uncletopia | Sydney | 2 | All Maps | STV","players":null},{"server_id":395,"name":"Uncletopia | Sydney | 3 | All Maps","name_short":"syd-3","host":"syd-1.au.uncletopia.com","port":27035,"enabled":true,"region":"au","cc":"au","latitude":-33.865143,"longitude":151.2099,"reserved":0,"last_update":"0001-01-01T00:00:00Z","name_a2s":"Uncletopia | Sydney | 3 | All Maps","protocol":17,"map":"cp_dustbowl","folder":"tf","game":"Team Fortress","app_id":440,"player_count":0,"max_players":24,"Bots":0,"server_type":"Dedicated","server_os":"Linux","password":true,"vac":true,"version":"7961495","steam_id":85568392925194467,"keywords":["cp","nocrits","nodmgspread","uncletopia"],"game_id":440,"stv_port":27036,"stv_name":"Uncletopia | Sydney | 3 | All Maps | STV","players":null},{"server_id":396,"name":"Uncletopia | Sydney | 4 | All Maps","name_short":"syd-4","host":"syd-1.au.uncletopia.com","port":27045,"enabled":true,"region":"au","cc":"au","latitude":-33.865143,"longitude":151.2099,"reserved":0,"last_update":"0001-01-01T00:00:00Z","name_a2s":"Uncletopia | Sydney | 4 | All Maps","protocol":17,"map":"pl_snowycoast","folder":"tf","game":"Team Fortress","app_id":440,"player_count":0,"max_players":24,"Bots":0,"server_type":"Dedicated","server_os":"Linux","password":true,"vac":true,"version":"7961495","steam_id":85568392925397958,"keywords":["nocrits","nodmgspread","payload","uncletopia"],"game_id":440,"stv_port":27046,"stv_name":"Uncletopia | Sydney | 4 | All Maps | STV","players":null},{"server_id":58,"name":"Uncletopia | Sydney | 5 | Stopwatch","name_short":"syd-5","host":"syd-1.au.uncletopia.com","port":27055,"enabled":true,"region":"au","cc":"au","latitude":-33.865143,"longitude":151.2099,"reserved":0,"last_update":"0001-01-01T00:00:00Z","name_a2s":"Uncletopia | Sydney | 5 | Stopwatch","protocol":17,"map":"cp_gullywash_final1","folder":"tf","game":"Team Fortress","app_id":440,"player_count":0,"max_players":24,"Bots":0,"server_type":"Dedicated","server_os":"Linux","password":true,"vac":true,"version":"7961495","steam_id":85568392925397959,"keywords":["cp","nocrits","nodmgspread","uncletopia"],"game_id":440,"stv_port":27056,"stv_name":"Uncletopia | Sydney | 5 | Stopwatch | STV","players":null},{"server_id":59,"name":"Uncletopia | Sydney | 6 | Community","name_short":"syd-6","host":"syd-1.au.uncletopia.com","port":27065,"enabled":true,"region":"au","cc":"au","latitude":-33.865143,"longitude":151.2099,"reserved":0,"last_update":"0001-01-01T00:00:00Z","name_a2s":"Uncletopia | Sydney | 6 | Community","protocol":17,"map":"workshop/cp_glassworks_rc7a.ugc454118349","folder":"tf","game":"Team Fortress","app_id":440,"player_count":0,"max_players":24,"Bots":0,"server_type":"Dedicated","server_os":"Linux","password":true,"vac":true,"version":"7961495","steam_id":85568392925397960,"keywords":["cp","nocrits","nodmgspread","uncletopia"],"game_id":440,"stv_port":27066,"stv_name":"Uncletopia | Sydney | 6 | Community | STV","players":null},{"server_id":49,"name":"Uncletopia | Warsaw | 1 | One Thousand Uncles","name_short":"waw-1","host":"waw-1.pl.uncletopia.com","port":27015,"enabled":true,"region":"eu","cc":"pl","latitude":52.2297,"longitude":21.017532,"reserved":0,"last_update":"0001-01-01T00:00:00Z","name_a2s":"Uncletopia | Warsaw | 1 | One Thousand Uncles","protocol":17,"map":"pl_badwater","folder":"tf","game":"Team Fortress","app_id":440,"player_count":28,"max_players":32,"Bots":16,"server_type":"Dedicated","server_os":"Linux","password":true,"vac":true,"version":"7961495","steam_id":85568392925397850,"keywords":["alltalk","bots","danepve","increased_maxplayers","nocrits","norespawntime","payload","uncletopia"],"game_id":440,"stv_port":0,"stv_name":"","players":[{"user_id":636,"name":"🌸O L I V I A🌸","steam_id":76561198321854032,"connected_time":350000000000,"state":"active","ping":161},{"user_id":607,"name":"Tispy","steam_id":76561199207410049,"connected_time":1511000000000,"state":"active","ping":105},{"user_id":606,"name":"LÆMppu","steam_id":76561199014627141,"connected_time":1714000000000,"state":"active","ping":105},{"user_id":603,"name":"[HK]我係香港人","steam_id":76561198165376815,"connected_time":2000000000000,"state":"active","ping":85},{"user_id":541,"name":"Lucas096br","steam_id":76561198350760997,"connected_time":5961000000000,"state":"active","ping":314},{"user_id":596,"name":"The f2p enjoyer","steam_id":76561199100077788,"connected_time":2560000000000,"state":"active","ping":77},{"user_id":441,"name":"?TheEnd","steam_id":76561198055280327,"connected_time":11000000000000,"state":"active","ping":49},{"user_id":634,"name":"Theseus","steam_id":76561198003920363,"connected_time":509000000000,"state":"active","ping":54},{"user_id":594,"name":"Womanticore","steam_id":76561199235582031,"connected_time":2628000000000,"state":"active","ping":253},{"user_id":611,"name":"T_Crow","steam_id":76561198052999669,"connected_time":1015000000000,"state":"active","ping":47},{"user_id":633,"name":"DaBlueBoi","steam_id":76561199349101045,"connected_time":704000000000,"state":"active","ping":284},{"user_id":609,"name":"Papa Cheese","steam_id":76561198276351496,"connected_time":1366000000000,"state":"active","ping":65}]},{"server_id":50,"name":"Uncletopia | Warsaw | 2 | One Thousand Uncles","name_short":"waw-2","host":"waw-1.pl.uncletopia.com","port":27025,"enabled":true,"region":"eu","cc":"pl","latitude":52.2297,"longitude":21.017532,"reserved":0,"last_update":"0001-01-01T00:00:00Z","name_a2s":"Uncletopia | Warsaw | 2 | One Thousand Uncles","protocol":17,"map":"cp_dustbowl","folder":"tf","game":"Team Fortress","app_id":440,"player_count":25,"max_players":32,"Bots":16,"server_type":"Dedicated","server_os":"Linux","password":true,"vac":true,"version":"7961495","steam_id":85568392925397851,"keywords":["alltalk","bots","cp","danepve","increased_maxplayers","nocrits","norespawntime","uncletopia"],"game_id":440,"stv_port":0,"stv_name":"","players":[{"user_id":110,"name":"=MIC= John Wayne","steam_id":76561197988111974,"connected_time":413000000000,"state":"active","ping":136},{"user_id":65,"name":"Megaxela","steam_id":76561198436875167,"connected_time":4457000000000,"state":"active","ping":91},{"user_id":62,"name":"CH1NASKEE","steam_id":76561198021531683,"connected_time":4483000000000,"state":"active","ping":101},{"user_id":63,"name":"farfarspace","steam_id":76561198161253565,"connected_time":4466000000000,"state":"active","ping":103},{"user_id":64,"name":"DAPATAMUCHTA","steam_id":76561197996803146,"connected_time":4464000000000,"state":"active","ping":92},{"user_id":89,"name":"DigyB","steam_id":76561198014442345,"connected_time":2058000000000,"state":"active","ping":77},{"user_id":68,"name":"Kotlet schabowy","steam_id":76561198048983509,"connected_time":4192000000000,"state":"active","ping":43},{"user_id":69,"name":"popez","steam_id":76561198051880474,"connected_time":4102000000000,"state":"active","ping":85},{"user_id":88,"name":"rodney mullen","steam_id":76561198030155915,"connected_time":2132000000000,"state":"active","ping":94}]},{"server_id":51,"name":"Uncletopia | Warsaw | 3 | All Maps","name_short":"waw-3","host":"waw-1.pl.uncletopia.com","port":27035,"enabled":true,"region":"eu","cc":"pl","latitude":52.2297,"longitude":21.017532,"reserved":0,"last_update":"0001-01-01T00:00:00Z","name_a2s":"Uncletopia | Warsaw | 3 | All Maps","protocol":17,"map":"plr_pipeline","folder":"tf","game":"Team Fortress","app_id":440,"player_count":0,"max_players":24,"Bots":0,"server_type":"Dedicated","server_os":"Linux","password":true,"vac":true,"version":"7961495","steam_id":85568392925397852,"keywords":["nocrits","nodmgspread","payload","uncletopia"],"game_id":440,"stv_port":27036,"stv_name":"Uncletopia | Warsaw | 3 | All Maps | STV","players":null},{"server_id":52,"name":"Uncletopia | Warsaw | 4 | All Maps","name_short":"waw-4","host":"waw-1.pl.uncletopia.com","port":27045,"enabled":true,"region":"eu","cc":"pl","latitude":52.2297,"longitude":21.017532,"reserved":0,"last_update":"0001-01-01T00:00:00Z","name_a2s":"Uncletopia | Warsaw | 4 | All Maps","protocol":17,"map":"cp_mountainlab","folder":"tf","game":"Team Fortress","app_id":440,"player_count":0,"max_players":24,"Bots":0,"server_type":"Dedicated","server_os":"Linux","password":true,"vac":true,"version":"7961495","steam_id":85568392925397853,"keywords":["cp","nocrits","nodmgspread","uncletopia"],"game_id":440,"stv_port":27046,"stv_name":"Uncletopia | Warsaw | 4 | All Maps | STV","players":null},{"server_id":53,"name":"Uncletopia | Warsaw | 5 | Stopwatch","name_short":"waw-5","host":"waw-1.pl.uncletopia.com","port":27055,"enabled":true,"region":"eu","cc":"pl","latitude":52.2297,"longitude":21.017532,"reserved":0,"last_update":"0001-01-01T00:00:00Z","name_a2s":"Uncletopia | Warsaw | 5 | Stopwatch","protocol":17,"map":"koth_lakeside_final","folder":"tf","game":"Team Fortress","app_id":440,"player_count":0,"max_players":24,"Bots":0,"server_type":"Dedicated","server_os":"Linux","password":true,"vac":true,"version":"7961495","steam_id":85568392925397854,"keywords":["cp","nocrits","nodmgspread","uncletopia"],"game_id":440,"stv_port":27056,"stv_name":"Uncletopia | Warsaw | 5 | Stopwatch | STV","players":null},{"server_id":54,"name":"Uncletopia | Warsaw | 6 | Community","name_short":"waw-6","host":"waw-1.pl.uncletopia.com","port":27065,"enabled":true,"region":"eu","cc":"pl","latitude":52.2297,"longitude":21.017532,"reserved":0,"last_update":"0001-01-01T00:00:00Z","name_a2s":"Uncletopia | Warsaw | 6 | Community","protocol":17,"map":"workshop/koth_ashville_final.ugc2130459942","folder":"tf","game":"Team Fortress","app_id":440,"player_count":0,"max_players":24,"Bots":0,"server_type":"Dedicated","server_os":"Linux","password":true,"vac":true,"version":"7961495","steam_id":85568392925397856,"keywords":["cp","nocrits","nodmgspread","uncletopia"],"game_id":440,"stv_port":27066,"stv_name":"Uncletopia | Warsaw | 6 | Community | STV","players":null}]}