{"status":true,"message":"","result":[{"server_id":9,"name":"Uncletopia | Atlanta | 1 | All Maps","name_short":"atl-1","host":"atl-1.us.uncletopia.com","port":27015,"enabled":true,"region":"us-east","cc":"us","latitude":33.753746,"longitude":-84.38633,"reserved":0,"last_update":"0001-01-01T00:00:00Z","name_a2s":"Uncletopia | Atlanta | 1 | All Maps","protocol":17,"map":"ctf_turbine","folder":"tf","game":"Team Fortress","app_id":440,"player_count":24,"max_players":24,"Bots":0,"server_type":"Dedicated","server_os":"Linux","password":true,"vac":true,"version":"7757534","steam_id":85568392924469982,"keywords":["ctf","nocrits","nodmgspread","uncletopia"],"game_id":440,"stv_port":27016,"stv_name":"Uncletopia | Atlanta | 1 | All Maps | STV","players":[{"user_id":329,"name":"Skinny Pete","steam_id":76561198801608576,"connected_time":795000000000,"state":"active","ping":65},{"user_id":330,"name":"bird","steam_id":76561198154724316,"connected_time":747000000000,"state":"active","ping":80},{"user_id":314,"name":"sam","steam_id":76561198217362968,"connected_time":2700000000000,"state":"active","ping":79},{"user_id":161,"name":"FheeseWurger Insouptitty","steam_id":76561198130772096,"connected_time":14034000000000,"state":"active","ping":51},{"user_id":253,"name":"basil","steam_id":76561198075758026,"connected_time":7514000000000,"state":"active","ping":65},{"user_id":309,"name":"Dr. drippenstein","steam_id":76561198209380493,"connected_time":2872000000000,"state":"active","ping":64},{"user_id":333,"name":"PinkLemonade","steam_id":76561198799286228,"connected_time":313000000000,"state":"active","ping":65},{"user_id":302,"name":"floofy","steam_id":76561198389769098,"connected_time":2942000000000,"state":"active","ping":80},{"user_id":293,"name":"chubbbo","steam_id":76561198943598378,"connected_time":4880000000000,"state":"active","ping":37},{"user_id":299,"name":"the spy behind the healing (F2P","steam_id":76561198854070384,"connected_time":4230000000000,"state":"active","ping":118},{"user_id":334,"name":"RarestGuide","steam_id":76561198050338923,"connected_time":160000000000,"state":"active","ping":73},{"user_id":325,"name":"Quiggles","steam_id":76561199177247655,"connected_time":2097000000000,"state":"active","ping":52},{"user_id":303,"name":"GKEmperor","steam_id":76561197995187011,"connected_time":2936000000000,"state":"active","ping":79},{"user_id":246,"name":"lukiepills","steam_id":76561199020587077,"connected_time":7796000000000,"state":"active","ping":67},{"user_id":308,"name":"hoot.","steam_id":76561198066876703,"connected_time":2897000000000,"state":"active","ping":79},{"user_id":300,"name":"Frost ‚ô•","steam_id":76561198168870617,"connected_time":3751000000000,"state":"active","ping":68},{"user_id":335,"name":"MoKo","steam_id":76561198025808618,"connected_time":108000000000,"state":"active","ping":63},{"user_id":328,"name":"ATL1 | Lancer Fan Club","steam_id":76561198355495948,"connected_time":970000000000,"state":"active","ping":69},{"user_id":321,"name":"ATL1 | Crystron","steam_id":76561198880437428,"connected_time":2275000000000,"state":"active","ping":77},{"user_id":297,"name":"I think I'm addicted to setting","steam_id":76561198133082665,"connected_time":4549000000000,"state":"active","ping":70},{"user_id":319,"name":"CreeperPiggy","steam_id":76561198203184918,"connected_time":2342000000000,"state":"active","ping":79},{"user_id":332,"name":"Mage","steam_id":76561198285026879,"connected_time":494000000000,"state":"active","ping":81},{"user_id":324,"name":"e0e0","steam_id":76561198293839750,"connected_time":2260000000000,"state":"active","ping":56},{"user_id":326,"name":"DJ Reni","steam_id":76561198065005979,"connected_time":1593000000000,"state":"active","ping":91}]},{"server_id":104,"name":"Uncletopia | Atlanta | 2 | All Maps","name_short":"atl-2","host":"atl-1.us.uncletopia.com","port":27025,"enabled":true,"region":"us-east","cc":"us","latitude":33.753746,"longitude":-84.38633,"reserved":0,"last_update":"0001-01-01T00:00:00Z","name_a2s":"Uncletopia | Atlanta | 2 | All Maps","protocol":17,"map":"pl_swiftwater_final1","folder":"tf","game":"Team Fortress","app_id":440,"player_count":24,"max_players":24,"Bots":0,"server_type":"Dedicated","server_os":"Linux","password":true,"vac":true,"version":"7757534","steam_id":85568392924469983,"keywords":["nocrits","nodmgspread","payload","uncletopia"],"game_id":440,"stv_port":27026,"stv_name":"Uncletopia | Atlanta | 2 | All Maps | STV","players":[{"user_id":433,"name":"Larry from Pokemon SV","steam_id":76561198095245223,"connected_time":1646000000000,"state":"active","ping":69},{"user_id":434,"name":"Ishy the Lagger","steam_id":76561198835943890,"connected_time":1617000000000,"state":"active","ping":95},{"user_id":404,"name":"edilainepereirasilva01","steam_id":76561199467972167,"connected_time":2964000000000,"state":"active","ping":197},{"user_id":441,"name":"giant_dork","steam_id":76561199105606956,"connected_time":743000000000,"state":"active","ping":72},{"user_id":411,"name":"Kaluka","steam_id":76561198036861445,"connected_time":2718000000000,"state":"active","ping":63},{"user_id":442,"name":"elwen","steam_id":76561198025282054,"connected_time":544000000000,"state":"active","ping":156},{"user_id":407,"name":"amazing","steam_id":76561198386233160,"connected_time":2836000000000,"state":"active","ping":89},{"user_id":443,"name":"gunk","steam_id":76561198120387104,"connected_time":389000000000,"state":"active","ping":61},{"user_id":409,"name":"Weerk","steam_id":76561199209543551,"connected_time":2816000000000,"state":"active","ping":81},{"user_id":447,"name":"A_Malebolgia","steam_id":76561198097722818,"connected_time":292000000000,"state":"active","ping":91},{"user_id":448,"name":"ok","steam_id":76561198445140249,"connected_time":211000000000,"state":"active","ping":92},{"user_id":420,"name":"Psych03","steam_id":76561198061753667,"connected_time":2448000000000,"state":"active","ping":111},{"user_id":449,"name":"The Chosen One","steam_id":76561199046984627,"connected_time":143000000000,"state":"active","ping":70},{"user_id":422,"name":"M@verick","steam_id":76561198006363519,"connected_time":2350000000000,"state":"active","ping":78},{"user_id":430,"name":"Pizzaguy108","steam_id":76561198972791353,"connected_time":2155000000000,"state":"active","ping":97},{"user_id":450,"name":"shinon","steam_id":76561198373626848,"connected_time":26000000000,"state":"active","ping":61},{"user_id":425,"name":"|-HyperCube-|","steam_id":76561198167133597,"connected_time":2281000000000,"state":"active","ping":83},{"user_id":436,"name":"Communist Zobomafoo","steam_id":76561198068173978,"connected_time":1557000000000,"state":"active","ping":90},{"user_id":445,"name":"k3ramb1t","steam_id":76561198097880352,"connected_time":357000000000,"state":"active","ping":73},{"user_id":390,"name":"‚Ç™TBC‚Ç™ LeeMon337","steam_id":76561198005781265,"connected_time":4834000000000,"state":"active","ping":111},{"user_id":438,"name":"j1mmy","steam_id":76561198098554331,"connected_time":1505000000000,"state":"active","ping":92},{"user_id":439,"name":"The sad vanilla","steam_id":76561198268621447,"connected_time":1503000000000,"state":"active","ping":88},{"user_id":440,"name":"Path","steam_id":76561198106831514,"connected_time":1470000000000,"state":"active","ping":80},{"user_id":446,"name":"Notsocreative","steam_id":76561198236372202,"connected_time":326000000000,"state":"active","ping":78}]},{"server_id":400,"name":"Uncletopia | Atlanta | 3 | Community","name_short":"atl-3","host":"atl-1.us.uncletopia.com","port":27035,"enabled":true,"region":"us-east","cc":"us","latitude":33.753746,"longitude":-84.38633,"reserved":0,"last_update":"0001-01-01T00:00:00Z","name_a2s":"Uncletopia | Atlanta | 3 | Community","protocol":17,"map":"workshop/pl_vigil_rc9.ugc1266210012","folder":"tf","game":"Team Fortress","app_id":440,"player_count":24,"max_players":24,"Bots":0,"server_type":"Dedicated","server_os":"Linux","password":true,"vac":true,"version":"7757534","steam_id":85568392924515187,"keywords":["nocrits","nodmgspread","payload","uncletopia"],"game_id":440,"stv_port":27036,"stv_name":"Uncletopia | Atlanta | 3 | Community | STV","players":[{"user_id":245,"name":"GoldenJalapeno","steam_id":76561198064949206,"connected_time":1942000000000,"state":"active","ping":88},{"user_id":240,"name":"how do i girl???","steam_id":76561198050290565,"connected_time":2100000000000,"state":"active","ping":69},{"user_id":271,"name":"CloudVic","steam_id":76561198118868716,"connected_time":11000000000,"state":"active","ping":196},{"user_id":269,"name":"u z r u z r u z r u z r u z r","steam_id":76561198799343084,"connected_time":204000000000,"state":"active","ping":114},{"user_id":224,"name":"Sergeant Joker #savetf2","steam_id":76561198854616604,"connected_time":3080000000000,"state":"active","ping":80},{"user_id":260,"name":"Alex Jones","steam_id":76561198272738226,"connected_time":1044000000000,"state":"active","ping":93},{"user_id":230,"name":"Huey","steam_id":76561198972816386,"connected_time":2480000000000,"state":"active","ping":70},{"user_id":270,"name":"üî•üêá","steam_id":76561198357456014,"connected_time":191000000000,"state":"active","ping":107},{"user_id":250,"name":"Dragonofponies","steam_id":76561199016800803,"connected_time":1449000000000,"state":"active","ping":72},{"user_id":211,"name":"The Pencil Cunts","steam_id":76561198272606252,"connected_time":3481000000000,"state":"active","ping":60},{"user_id":265,"name":"Zelumie","steam_id":76561198147335801,"connected_time":493000000000,"state":"active","ping":78},{"user_id":266,"name":"@man","steam_id":76561198068324749,"connected_time":415000000000,"state":"active","ping":71},{"user_id":218,"name":"Dr. Neo Cortex","steam_id":76561198206522056,"connected_time":3309000000000,"state":"active","ping":160},{"user_id":267,"name":"Baker","steam_id":76561198055196430,"connected_time":414000000000,"state":"active","ping":84},{"user_id":261,"name":"Duckywinner","steam_id":76561198254828139,"connected_time":881000000000,"state":"active","ping":66},{"user_id":234,"name":"tropis","steam_id":76561198067365603,"connected_time":2383000000000,"state":"active","ping":57},{"user_id":268,"name":"Phobz","steam_id":76561198060409081,"connected_time":338000000000,"state":"active","ping":122},{"user_id":216,"name":"Dr Ivo Robotnik","steam_id":76561198452727570,"connected_time":3377000000000,"state":"active","ping":146},{"user_id":259,"name":"IPlayGamez","steam_id":76561198041387508,"connected_time":1113000000000,"state":"active","ping":58},{"user_id":220,"name":"Mario Head","steam_id":76561198977666346,"connected_time":3262000000000,"state":"active","ping":154},{"user_id":255,"name":"Ac√≥manas","steam_id":76561199031977210,"connected_time":1322000000000,"state":"active","ping":61},{"user_id":256,"name":"Crucible Kid","steam_id":76561199012574437,"connected_time":1319000000000,"state":"active","ping":82},{"user_id":223,"name":"Gravi","steam_id":76561198085728391,"connected_time":3122000000000,"state":"active","ping":95},{"user_id":262,"name":"Chube","steam_id":76561199140363630,"connected_time":710000000000,"state":"active","ping":75}]},{"server_id":401,"name":"Uncletopia | Atlanta | 4 | No Payload","name_short":"atl-4","host":"atl-1.us.uncletopia.com","port":27045,"enabled":true,"region":"us-east","cc":"us","latitude":33.753746,"longitude":-84.38633,"reserved":0,"last_update":"0001-01-01T00:00:00Z","name_a2s":"","protocol":0,"map":"","folder":"","game":"","app_id":0,"player_count":0,"max_players":0,"Bots":0,"server_type":"","server_os":"","password":false,"vac":false,"version":"","steam_id":0,"keywords":null,"game_id":0,"stv_port":0,"stv_name":"","players":null},{"server_id":2,"name":"Uncletopia | Chicago | 1 | All Maps","name_short":"chi-1","host":"chi-1.us.uncletopia.com","port":27015,"enabled":true,"region":"us-central","cc":"us","latitude":41.881832,"longitude":-87.62318,"reserved":0,"last_update":"0001-01-01T00:00:00Z","name_a2s":"Uncletopia | Chicago | 1 | All Maps","protocol":17,"map":"cp_process_final","folder":"tf","game":"Team Fortress","app_id":440,"player_count":22,"max_players":24,"Bots":0,"server_type":"Dedicated","server_os":"Linux","password":true,"vac":true,"version":"7757534","steam_id":85568392924469984,"keywords":["cp","nocrits","nodmgspread","uncletopia"],"game_id":440,"stv_port":27016,"stv_name":"Uncletopia | Chicago | 1 | All Maps | STV","players":[{"user_id":312,"name":"coodge","steam_id":76561198139080439,"connected_time":2672000000000,"state":"active","ping":74},{"user_id":154,"name":"Mike Charlie","steam_id":76561199470538309,"connected_time":14514000000000,"state":"active","ping":56},{"user_id":313,"name":"Ademar","steam_id":76561199391802581,"connected_time":2671000000000,"state":"active","ping":49},{"user_id":326,"name":"Captain Jack Gaming","steam_id":76561198128460335,"connected_time":1003000000000,"state":"active","ping":65},{"user_id":337,"name":"Thy.Roid","steam_id":76561198122291992,"connected_time":65000000000,"state":"active","ping":47},{"user_id":310,"name":"Rusty","steam_id":76561198178868626,"connected_time":2910000000000,"state":"active","ping":100},{"user_id":318,"name":"DarthEthanBoy","steam_id":76561198441643581,"connected_time":1716000000000,"state":"active","ping":74},{"user_id":278,"name":"PKBEAST_7","steam_id":76561198177136537,"connected_time":5030000000000,"state":"active","ping":93},{"user_id":301,"name":"Yam Jazzy Jim","steam_id":76561198000788950,"connected_time":3402000000000,"state":"active","ping":67},{"user_id":322,"name":"cubicpaper","steam_id":76561199014337818,"connected_time":1342000000000,"state":"active","ping":47},{"user_id":300,"name":"big ol' buford","steam_id":76561198290675957,"connected_time":3484000000000,"state":"active","ping":59},{"user_id":263,"name":".jpg","steam_id":76561198137237377,"connected_time":5687000000000,"state":"active","ping":71},{"user_id":293,"name":"Doomagedden","steam_id":76561198272589475,"connected_time":3752000000000,"state":"active","ping":82},{"user_id":302,"name":"Azuknow","steam_id":76561199229518180,"connected_time":3307000000000,"state":"active","ping":88},{"user_id":317,"name":"Dante","steam_id":76561198798234838,"connected_time":1782000000000,"state":"active","ping":114},{"user_id":316,"name":"tone","steam_id":76561198006505587,"connected_time":1867000000000,"state":"active","ping":77},{"user_id":305,"name":"Medic","steam_id":76561199030987614,"connected_time":3142000000000,"state":"active","ping":85},{"user_id":327,"name":"Dr Spaceman","steam_id":76561197969755657,"connected_time":1003000000000,"state":"active","ping":45},{"user_id":330,"name":"Rashi","steam_id":76561198390962022,"connected_time":636000000000,"state":"active","ping":88},{"user_id":331,"name":"Valious","steam_id":76561198119675193,"connected_time":622000000000,"state":"active","ping":53},{"user_id":324,"name":"Skoomar","steam_id":76561198116515589,"connected_time":1052000000000,"state":"active","ping":107},{"user_id":336,"name":"asbestos","steam_id":76561198079178866,"connected_time":159000000000,"state":"active","ping":66}]},{"server_id":106,"name":"Uncletopia | Chicago | 2 | All Maps","name_short":"chi-2","host":"chi-1.us.uncletopia.com","port":27025,"enabled":true,"region":"us-central","cc":"us","latitude":41.881832,"longitude":-87.62318,"reserved":0,"last_update":"0001-01-01T00:00:00Z","name_a2s":"Uncletopia | Chicago | 2 | All Maps","protocol":17,"map":"pl_upward","folder":"tf","game":"Team Fortress","app_id":440,"player_count":24,"max_players":24,"Bots":0,"server_type":"Dedicated","server_os":"Linux","password":true,"vac":true,"version":"7757534","steam_id":85568392924469985,"keywords":["nocrits","nodmgspread","payload","uncletopia"],"game_id":440,"stv_port":27026,"stv_name":"Uncletopia | Chicago | 2 | All Maps | STV","players":[{"user_id":535,"name":"MrKokonut","steam_id":76561198879575825,"connected_time":819000000000,"state":"active","ping":59},{"user_id":525,"name":"Nolan","steam_id":76561198169648081,"connected_time":2285000000000,"state":"active","ping":77},{"user_id":530,"name":"Poison light","steam_id":76561198190275319,"connected_time":1439000000000,"state":"active","ping":58},{"user_id":528,"name":"ÔºîÔºê Ôº¶Ôº∞Ôº≥","steam_id":76561198272394965,"connected_time":1759000000000,"state":"active","ping":131},{"user_id":540,"name":"Ring A Ding","steam_id":76561199205871164,"connected_time":777000000000,"state":"active","ping":87},{"user_id":434,"name":"CinnamonBoy","steam_id":76561198882330338,"connected_time":8028000000000,"state":"active","ping":62},{"user_id":518,"name":"Styx","steam_id":76561198158334494,"connected_time":2985000000000,"state":"active","ping":56},{"user_id":527,"name":"Smoky","steam_id":76561198041551259,"connected_time":2081000000000,"state":"active","ping":72},{"user_id":541,"name":"RetroDsk | TTV","steam_id":76561198020646524,"connected_time":769000000000,"state":"active","ping":60},{"user_id":546,"name":"Hampter","steam_id":76561198066227736,"connected_time":168000000000,"state":"active","ping":47},{"user_id":533,"name":"Deathpill","steam_id":76561197994404793,"connected_time":837000000000,"state":"active","ping":73},{"user_id":547,"name":"PotatoSaladMyDood","steam_id":76561198974226056,"connected_time":167000000000,"state":"active","ping":95},{"user_id":514,"name":"Jho-oh","steam_id":76561198062473436,"connected_time":3199000000000,"state":"active","ping":74},{"user_id":548,"name":"Ghost Cage","steam_id":76561198101172776,"connected_time":140000000000,"state":"active","ping":54},{"user_id":532,"name":"Piss Champion","steam_id":76561198059362878,"connected_time":1096000000000,"state":"active","ping":45},{"user_id":507,"name":"Motorbung87","steam_id":76561198976821898,"connected_time":3787000000000,"state":"active","ping":90},{"user_id":432,"name":"Doubting Dave","steam_id":76561198066410749,"connected_time":8180000000000,"state":"active","ping":66},{"user_id":550,"name":"hestalus","steam_id":76561198420130869,"connected_time":62000000000,"state":"active","ping":65},{"user_id":551,"name":"Jezzus","steam_id":76561199289676387,"connected_time":60000000000,"state":"active","ping":86},{"user_id":529,"name":"kevin supermarket","steam_id":76561198058287022,"connected_time":1756000000000,"state":"active","ping":68},{"user_id":521,"name":"Lilac","steam_id":76561198977523626,"connected_time":2893000000000,"state":"active","ping":60},{"user_id":543,"name":"stardust","steam_id":76561198413930183,"connected_time":540000000000,"state":"active","ping":60},{"user_id":534,"name":"Bulbasaur Gelt","steam_id":76561198022403355,"connected_time":831000000000,"state":"active","ping":60},{"user_id":538,"name":"me shoot floor","steam_id":76561198046526036,"connected_time":804000000000,"state":"active","ping":104}]},{"server_id":402,"name":"Uncletopia | Chicago | 3 | All Maps","name_short":"chi-3","host":"chi-1.us.uncletopia.com","port":27035,"enabled":true,"region":"us-central","cc":"us","latitude":41.881832,"longitude":-87.62318,"reserved":0,"last_update":"0001-01-01T00:00:00Z","name_a2s":"Uncletopia | Chicago | 3 | All Maps","protocol":17,"map":"koth_harvest_final","folder":"tf","game":"Team Fortress","app_id":440,"player_count":24,"max_players":24,"Bots":0,"server_type":"Dedicated","server_os":"Linux","password":true,"vac":true,"version":"7757534","steam_id":85568392924515191,"keywords":["cp","nocrits","nodmgspread","uncletopia"],"game_id":440,"stv_port":27036,"stv_name":"Uncletopia | Chicago | 3 | All Maps | STV","players":[{"user_id":384,"name":"[ibb‚Ñ¢]Shadow20X6-ENGI","steam_id":76561198019292755,"connected_time":1613000000000,"state":"active","ping":102},{"user_id":396,"name":"Cristanc99","steam_id":76561198114715810,"connected_time":1257000000000,"state":"active","ping":59},{"user_id":401,"name":"robot1point0","steam_id":76561198817258220,"connected_time":611000000000,"state":"active","ping":68},{"user_id":358,"name":"Ping","steam_id":76561198072947773,"connected_time":3644000000000,"state":"active","ping":58},{"user_id":387,"name":"reanimator","steam_id":76561198085830470,"connected_time":1553000000000,"state":"active","ping":62},{"user_id":368,"name":"RiverEgg","steam_id":76561198888913405,"connected_time":2502000000000,"state":"active","ping":53},{"user_id":360,"name":"Karma","steam_id":76561199112057184,"connected_time":3390000000000,"state":"active","ping":86},{"user_id":380,"name":"Noshy-Yoshi","steam_id":76561198189521209,"connected_time":1632000000000,"state":"active","ping":44},{"user_id":347,"name":"Nomad","steam_id":76561198211891324,"connected_time":3959000000000,"state":"active","ping":56},{"user_id":323,"name":"MECHANISM MALE","steam_id":76561198855935442,"connected_time":5245000000000,"state":"active","ping":72},{"user_id":405,"name":"N√©oGothiqueüïØ","steam_id":76561198003467269,"connected_time":275000000000,"state":"active","ping":70},{"user_id":268,"name":"Also Known As Assteeth","steam_id":76561198049837377,"connected_time":9103000000000,"state":"active","ping":45},{"user_id":397,"name":"slap goblin","steam_id":76561198889932456,"connected_time":1132000000000,"state":"active","ping":56},{"user_id":369,"name":"JetZ","steam_id":76561199122488957,"connected_time":2403000000000,"state":"active","ping":69},{"user_id":395,"name":"Cream Corn","steam_id":76561198043791586,"connected_time":1285000000000,"state":"active","ping":55},{"user_id":404,"name":"Mattron1","steam_id":76561198012270524,"connected_time":303000000000,"state":"active","ping":83},{"user_id":398,"name":"tra.trevor","steam_id":76561198072432652,"connected_time":1013000000000,"state":"active","ping":57},{"user_id":378,"name":"Ockulus","steam_id":76561199069638460,"connected_time":2061000000000,"state":"active","ping":101},{"user_id":382,"name":"Cog","steam_id":76561198119812649,"connected_time":1621000000000,"state":"active","ping":55},{"user_id":391,"name":"WildfireMicro","steam_id":76561198821187460,"connected_time":1383000000000,"state":"active","ping":66},{"user_id":403,"name":"WhoIsFrosty","steam_id":76561198880588117,"connected_time":489000000000,"state":"active","ping":43},{"user_id":285,"name":"J.G. Klaus","steam_id":76561198001111196,"connected_time":7569000000000,"state":"active","ping":63},{"user_id":399,"name":"vv","steam_id":76561198134813102,"connected_time":901000000000,"state":"active","ping":58},{"user_id":402,"name":"Dice | dellort","steam_id":76561198409206905,"connected_time":524000000000,"state":"active","ping":63}]},{"server_id":403,"name":"Uncletopia | Chicago | 4 | All Maps","name_short":"chi-4","host":"chi-1.us.uncletopia.com","port":27045,"enabled":true,"region":"us-central","cc":"us","latitude":41.881832,"longitude":-87.62318,"reserved":0,"last_update":"0001-01-01T00:00:00Z","name_a2s":"Uncletopia | Chicago | 4 | All Maps","protocol":17,"map":"cp_egypt_final","folder":"tf","game":"Team Fortress","app_id":440,"player_count":21,"max_players":24,"Bots":0,"server_type":"Dedicated","server_os":"Linux","password":true,"vac":true,"version":"7757534","steam_id":85568392924515193,"keywords":["cp","nocrits","nodmgspread","uncletopia"],"game_id":440,"stv_port":27046,"stv_name":"Uncletopia | Chicago | 4 | All Maps | STV","players":[{"user_id":8,"name":"NBA2k22hoodmoments","steam_id":76561198383103506,"connected_time":12435000000000,"state":"active","ping":45},{"user_id":154,"name":"koompa_stomp","steam_id":76561198073081735,"connected_time":2856000000000,"state":"active","ping":101},{"user_id":191,"name":"Lentil Soup","steam_id":76561198051834684,"connected_time":329000000000,"state":"active","ping":75},{"user_id":184,"name":"Moss Giant","steam_id":76561198062535902,"connected_time":951000000000,"state":"active","ping":53},{"user_id":150,"name":"Slart (bleeding out)","steam_id":76561198873467173,"connected_time":3083000000000,"state":"active","ping":92},{"user_id":192,"name":"Uso","steam_id":76561198012093238,"connected_time":274000000000,"state":"active","ping":47},{"user_id":176,"name":"Worst Scenario","steam_id":76561199052130229,"connected_time":1125000000000,"state":"active","ping":53},{"user_id":193,"name":"posionscorpion","steam_id":76561198115350334,"connected_time":264000000000,"state":"active","ping":140},{"user_id":159,"name":"sax","steam_id":76561198094788852,"connected_time":2737000000000,"state":"active","ping":59},{"user_id":121,"name":"i really like this dog :)","steam_id":76561198882404753,"connected_time":4839000000000,"state":"active","ping":79},{"user_id":188,"name":"Minion Accepter","steam_id":76561197987805095,"connected_time":831000000000,"state":"active","ping":90},{"user_id":197,"name":"Barlon","steam_id":76561198023717515,"connected_time":63000000000,"state":"active","ping":71},{"user_id":171,"name":"PurplePond","steam_id":76561199062421006,"connected_time":1433000000000,"state":"active","ping":47},{"user_id":194,"name":"gl1tchr","steam_id":76561198302661983,"connected_time":264000000000,"state":"active","ping":78},{"user_id":118,"name":"Acehay14","steam_id":76561198052373291,"connected_time":5394000000000,"state":"active","ping":54},{"user_id":195,"name":"legalizme223","steam_id":76561198051698391,"connected_time":162000000000,"state":"active","ping":64},{"user_id":180,"name":"TF2 2023 SUMMER UPDATE","steam_id":76561198084982609,"connected_time":1038000000000,"state":"active","ping":70},{"user_id":164,"name":"NovaSc6ut","steam_id":76561198277163301,"connected_time":2549000000000,"state":"active","ping":70},{"user_id":187,"name":"6kre_1t","steam_id":76561198106157810,"connected_time":894000000000,"state":"active","ping":62},{"user_id":182,"name":"smuffy","steam_id":76561198091459506,"connected_time":1023000000000,"state":"active","ping":75},{"user_id":189,"name":"[rat] RaviRavioli","steam_id":76561198968636443,"connected_time":690000000000,"state":"active","ping":60}]},{"server_id":36,"name":"Uncletopia | Chicago | 5 | All Maps","name_short":"chi-5","host":"chi-2.us.uncletopia.com","port":27015,"enabled":true,"region":"us-central","cc":"us","latitude":41.881832,"longitude":-87.62318,"reserved":0,"last_update":"0001-01-01T00:00:00Z","name_a2s":"Uncletopia | Chicago | 5 | All Maps","protocol":17,"map":"pl_swiftwater_final1","folder":"tf","game":"Team Fortress","app_id":440,"player_count":24,"max_players":24,"Bots":0,"server_type":"Dedicated","server_os":"Linux","password":true,"vac":true,"version":"7757534","steam_id":85568392924866362,"keywords":["nocrits","nodmgspread","payload","uncletopia"],"game_id":440,"stv_port":27016,"stv_name":"Uncletopia | Chicago | 5 | All Maps | STV","players":[{"user_id":103,"name":"Endzilla88","steam_id":76561198257926514,"connected_time":4367000000000,"state":"active","ping":69},{"user_id":107,"name":"mountain*‚ú©‚Äß‚ÇäÀö","steam_id":76561198078395002,"connected_time":4256000000000,"state":"active","ping":66},{"user_id":188,"name":"Vegerot","steam_id":76561197997843710,"connected_time":710000000000,"state":"active","ping":60},{"user_id":148,"name":"Ta5K","steam_id":76561198939558155,"connected_time":1844000000000,"state":"active","ping":45},{"user_id":170,"name":"neonchickens","steam_id":76561198063295644,"connected_time":1391000000000,"state":"active","ping":64},{"user_id":193,"name":"W H E E Z E","steam_id":76561198835430280,"connected_time":382000000000,"state":"active","ping":62},{"user_id":196,"name":"Decs","steam_id":76561198825197974,"connected_time":328000000000,"state":"active","ping":124},{"user_id":152,"name":"kittenkitchen24","steam_id":76561199171056489,"connected_time":1815000000000,"state":"active","ping":109},{"user_id":192,"name":"Absol","steam_id":76561198443003936,"connected_time":458000000000,"state":"active","ping":138},{"user_id":197,"name":"Wolverine Fingerblaster","steam_id":76561198095394582,"connected_time":233000000000,"state":"active","ping":84},{"user_id":198,"name":"Long Dong Silver","steam_id":76561198331087811,"connected_time":150000000000,"state":"active","ping":89},{"user_id":184,"name":"*","steam_id":76561198057717934,"connected_time":1048000000000,"state":"active","ping":60},{"user_id":185,"name":"Bob's your Uncle","steam_id":76561197995230744,"connected_time":1020000000000,"state":"active","ping":84},{"user_id":199,"name":"Once in a Lifetime","steam_id":76561199180652178,"connected_time":144000000000,"state":"active","ping":89},{"user_id":140,"name":"ItsRoy","steam_id":76561198119525485,"connected_time":2112000000000,"state":"active","ping":58},{"user_id":125,"name":"A Shiny Meat Bicycle","steam_id":76561198358757709,"connected_time":3358000000000,"state":"active","ping":95},{"user_id":163,"name":"‚ùÖ Dr. Chill ‚ùÖ","steam_id":76561198080012406,"connected_time":1508000000000,"state":"active","ping":64},{"user_id":189,"name":"Reisen","steam_id":76561197968832019,"connected_time":705000000000,"state":"active","ping":60},{"user_id":135,"name":"Sorrow","steam_id":76561198050225563,"connected_time":2373000000000,"state":"active","ping":73},{"user_id":162,"name":"ellie","steam_id":76561198388123421,"connected_time":1572000000000,"state":"active","ping":105},{"user_id":172,"name":"Monster","steam_id":76561198189429665,"connected_time":1369000000000,"state":"active","ping":74},{"user_id":200,"name":"a table","steam_id":76561198158461279,"connected_time":119000000000,"state":"active","ping":202},{"user_id":191,"name":"jiim jaam","steam_id":76561198069814977,"connected_time":680000000000,"state":"active","ping":71},{"user_id":181,"name":"butt plug gaming","steam_id":76561198044696803,"connected_time":1103000000000,"state":"active","ping":64}]},{"server_id":37,"name":"Uncletopia | Chicago | 6 | All Maps","name_short":"chi-6","host":"chi-2.us.uncletopia.com","port":27025,"enabled":true,"region":"us-central","cc":"us","latitude":41.881832,"longitude":-87.62318,"reserved":0,"last_update":"0001-01-01T00:00:00Z","name_a2s":"Uncletopia | Chicago | 6 | All Maps","protocol":17,"map":"pl_swiftwater_final1","folder":"tf","game":"Team Fortress","app_id":440,"player_count":24,"max_players":24,"Bots":0,"server_type":"Dedicated","server_os":"Linux","password":true,"vac":true,"version":"7757534","steam_id":85568392924866363,"keywords":["nocrits","nodmgspread","payload","uncletopia"],"game_id":440,"stv_port":27026,"stv_name":"Uncletopia | Chicago | 6 | All Maps | STV","players":[{"user_id":258,"name":"god approaches","steam_id":76561198081617990,"connected_time":2306000000000,"state":"active","ping":92},{"user_id":264,"name":"The Domb Loid","steam_id":76561198295791203,"connected_time":1917000000000,"state":"active","ping":45},{"user_id":292,"name":"Wiggee","steam_id":76561197972792989,"connected_time":68000000000,"state":"active","ping":68},{"user_id":283,"name":"Highphin","steam_id":76561198986584680,"connected_time":443000000000,"state":"active","ping":61},{"user_id":285,"name":"DiscoTraveler","steam_id":76561199240168088,"connected_time":226000000000,"state":"active","ping":71},{"user_id":274,"name":"Tavlet","steam_id":76561198347424762,"connected_time":1348000000000,"state":"active","ping":106},{"user_id":173,"name":"Bad Rollout","steam_id":76561197971948876,"connected_time":8534000000000,"state":"active","ping":74},{"user_id":197,"name":"Broadsword","steam_id":76561198011160411,"connected_time":6930000000000,"state":"active","ping":86},{"user_id":262,"name":"bachphong760","steam_id":76561199433780443,"connected_time":2046000000000,"state":"active","ping":86},{"user_id":282,"name":"penguinlord","steam_id":76561198305192692,"connected_time":787000000000,"state":"active","ping":61},{"user_id":284,"name":"OrangeShoes","steam_id":76561197971249940,"connected_time":287000000000,"state":"active","ping":82},{"user_id":286,"name":"Lexabyte","steam_id":76561198065032237,"connected_time":198000000000,"state":"active","ping":80},{"user_id":261,"name":"ungr8t","steam_id":76561198063521721,"connected_time":2148000000000,"state":"active","ping":75},{"user_id":251,"name":"4d4","steam_id":76561198402360789,"connected_time":2705000000000,"state":"active","ping":79},{"user_id":290,"name":"Timon's high on crack cocaine!","steam_id":76561198180396430,"connected_time":119000000000,"state":"active","ping":66},{"user_id":272,"name":"loyaldandan0764","steam_id":76561199231020424,"connected_time":1393000000000,"state":"active","ping":116},{"user_id":174,"name":"GrimDaReaper","steam_id":76561199038948822,"connected_time":8526000000000,"state":"active","ping":96},{"user_id":291,"name":"Generic_Soda","steam_id":76561197993528721,"connected_time":112000000000,"state":"active","ping":65},{"user_id":294,"name":"finn the human","steam_id":76561198072592880,"connected_time":42000000000,"state":"active","ping":43},{"user_id":49,"name":"Loki!","steam_id":76561198089201861,"connected_time":18254000000000,"state":"active","ping":62},{"user_id":295,"name":"de_lewk","steam_id":76561199102241333,"connected_time":36000000000,"state":"active","ping":71},{"user_id":296,"name":"GoroMajimaIsHot","steam_id":76561198365713042,"connected_time":33000000000,"state":"active","ping":98},{"user_id":297,"name":"conkerisdumb","steam_id":76561198851885218,"connected_time":18000000000,"state":"active","ping":87},{"user_id":254,"name":"‡ºò ‚ãÜÀöüéßCaffeine‚òï*Àñ¬∞","steam_id":76561199259309294,"connected_time":2560000000000,"state":"active","ping":75}]},{"server_id":38,"name":"Uncletopia | Chicago | 7 | Stopwatch Beta","name_short":"chi-7","host":"chi-2.us.uncletopia.com","port":27035,"enabled":true,"region":"us-central","cc":"us","latitude":41.881832,"longitude":-87.62318,"reserved":0,"last_update":"0001-01-01T00:00:00Z","name_a2s":"Uncletopia | Chicago | 7 | Stopwatch Beta","protocol":17,"map":"pl_barnblitz","folder":"tf","game":"Team Fortress","app_id":440,"player_count":0,"max_players":24,"Bots":0,"server_type":"Dedicated","server_os":"Linux","password":true,"vac":true,"version":"7757534","steam_id":85568392924866364,"keywords":["nocrits","nodmgspread","payload","uncletopia"],"game_id":440,"stv_port":27036,"stv_name":"Uncletopia | Chicago | 7 | Stopwatch Beta | STV","players":null},{"server_id":39,"name":"Uncletopia | Chicago | 8 | Community","name_short":"chi-8","host":"chi-2.us.uncletopia.com","port":27045,"enabled":true,"region":"us-central","cc":"us","latitude":41.881832,"longitude":-87.62318,"reserved":0,"last_update":"0001-01-01T00:00:00Z","name_a2s":"Uncletopia | Chicago | 8 | Community","protocol":17,"map":"koth_cascade","folder":"tf","game":"Team Fortress","app_id":440,"player_count":0,"max_players":24,"Bots":0,"server_type":"Dedicated","server_os":"Linux","password":true,"vac":true,"version":"7757534","steam_id":85568392924866365,"keywords":["cp","nocrits","nodmgspread","uncletopia"],"game_id":440,"stv_port":27046,"stv_name":"Uncletopia | Chicago | 8 | Community | STV","players":null},{"server_id":8,"name":"Uncletopia | Dallas | 1 | All Maps","name_short":"dal-1","host":"dal-1.us.uncletopia.com","port":27015,"enabled":true,"region":"us-central","cc":"us","latitude":32.779167,"longitude":-96.80889,"reserved":0,"last_update":"0001-01-01T00:00:00Z","name_a2s":"Uncletopia | Dallas | 1 | All Maps","protocol":17,"map":"pl_pier","folder":"tf","game":"Team Fortress","app_id":440,"player_count":23,"max_players":24,"Bots":0,"server_type":"Dedicated","server_os":"Linux","password":true,"vac":true,"version":"7757534","steam_id":85568392924469986,"keywords":["nocrits","nodmgspread","payload","uncletopia"],"game_id":440,"stv_port":27016,"stv_name":"Uncletopia | Dallas | 1 | All Maps | STV","players":[{"user_id":340,"name":"Average Xbox Controller Enjoyer","steam_id":76561199026721822,"connected_time":183000000000,"state":"active","ping":85},{"user_id":296,"name":"owen","steam_id":76561198121517871,"connected_time":3487000000000,"state":"active","ping":53},{"user_id":333,"name":"YoteDab McFapDab.jpg","steam_id":76561197984870380,"connected_time":1101000000000,"state":"active","ping":91},{"user_id":254,"name":"Moonflower ‚ú¶","steam_id":76561198191782483,"connected_time":6455000000000,"state":"active","ping":51},{"user_id":295,"name":"aidan long","steam_id":76561198073022833,"connected_time":3511000000000,"state":"active","ping":45},{"user_id":300,"name":"Green_GarBear","steam_id":76561199468912415,"connected_time":3271000000000,"state":"active","ping":90},{"user_id":302,"name":"radicalPolio","steam_id":76561197961561855,"connected_time":3190000000000,"state":"active","ping":44},{"user_id":329,"name":"DMM","steam_id":76561198065426171,"connected_time":1112000000000,"state":"active","ping":58},{"user_id":334,"name":"Fresh","steam_id":76561199006338675,"connected_time":1077000000000,"state":"active","ping":77},{"user_id":341,"name":"Dov-Ah-Bob","steam_id":76561198147798338,"connected_time":128000000000,"state":"active","ping":61},{"user_id":322,"name":"The Super Mario Bros. Movie","steam_id":76561198871692156,"connected_time":2164000000000,"state":"active","ping":104},{"user_id":271,"name":"Axities","steam_id":76561198278008225,"connected_time":5426000000000,"state":"active","ping":85},{"user_id":328,"name":"[cf] Captain Terror","steam_id":76561198028034742,"connected_time":1117000000000,"state":"active","ping":95},{"user_id":335,"name":"Sentry Gun","steam_id":76561199056503496,"connected_time":1063000000000,"state":"active","ping":107},{"user_id":319,"name":"thebadspy","steam_id":76561199213624583,"connected_time":2230000000000,"state":"active","ping":87},{"user_id":324,"name":"Kid B8","steam_id":76561198086764710,"connected_time":1795000000000,"state":"active","ping":76},{"user_id":339,"name":"Goblin Merchant (50 OFF)","steam_id":76561199323707429,"connected_time":322000000000,"state":"active","ping":89},{"user_id":306,"name":"VixianUwU „ÉÉ ‚ù§","steam_id":76561198948815060,"connected_time":3014000000000,"state":"active","ping":80},{"user_id":342,"name":"Stapler","steam_id":76561198099295077,"connected_time":90000000000,"state":"active","ping":90},{"user_id":338,"name":"Jamendithas","steam_id":76561198119537716,"connected_time":988000000000,"state":"active","ping":105},{"user_id":336,"name":"Rhutebeer","steam_id":76561198018302761,"connected_time":1062000000000,"state":"active","ping":84},{"user_id":337,"name":"Ellis","steam_id":76561198993634489,"connected_time":1058000000000,"state":"active","ping":82},{"user_id":294,"name":"carol in HR","steam_id":76561198071775268,"connected_time":3536000000000,"state":"active","ping":80}]},{"server_id":108,"name":"Uncletopia | Dallas | 2 | All Maps","name_short":"dal-2","host":"dal-1.us.uncletopia.com","port":27025,"enabled":true,"region":"us-central","cc":"us","latitude":32.779167,"longitude":-96.80889,"reserved":0,"last_update":"0001-01-01T00:00:00Z","name_a2s":"Uncletopia | Dallas | 2 | All Maps","protocol":17,"map":"pl_barnblitz","folder":"tf","game":"Team Fortress","app_id":440,"player_count":24,"max_players":24,"Bots":0,"server_type":"Dedicated","server_os":"Linux","password":true,"vac":true,"version":"7757534","steam_id":85568392924469988,"keywords":["nocrits","nodmgspread","payload","uncletopia"],"game_id":440,"stv_port":27026,"stv_name":"Uncletopia | Dallas | 2 | All Maps | STV","players":[{"user_id":82,"name":"Nightlygalad","steam_id":76561198170693990,"connected_time":10001000000000,"state":"active","ping":76},{"user_id":182,"name":"DoomoPelota","steam_id":76561198326462587,"connected_time":2852000000000,"state":"active","ping":90},{"user_id":97,"name":"Can You Feel It Mr.Krabs","steam_id":76561198128302414,"connected_time":9437000000000,"state":"active","ping":68},{"user_id":220,"name":"OttoDogX","steam_id":76561198042007578,"connected_time":280000000000,"state":"active","ping":60},{"user_id":202,"name":"not paying attention","steam_id":76561198097160898,"connected_time":1402000000000,"state":"active","ping":76},{"user_id":217,"name":"thc carts are evil","steam_id":76561198044115698,"connected_time":331000000000,"state":"active","ping":91},{"user_id":219,"name":"Ronnie Pickering!","steam_id":76561198041842118,"connected_time":300000000000,"state":"active","ping":88},{"user_id":211,"name":"tulpa","steam_id":76561198013253513,"connected_time":803000000000,"state":"active","ping":74},{"user_id":183,"name":"FETTUCCINE GANG","steam_id":76561198398722419,"connected_time":2839000000000,"state":"active","ping":66},{"user_id":223,"name":"Bzamo","steam_id":76561198039883392,"connected_time":166000000000,"state":"active","ping":75},{"user_id":155,"name":"Gaminglast","steam_id":76561198362927765,"connected_time":4535000000000,"state":"active","ping":128},{"user_id":197,"name":"ReDiculous22","steam_id":76561198038391383,"connected_time":2041000000000,"state":"active","ping":41},{"user_id":177,"name":"xZackAttack27x","steam_id":76561198035446639,"connected_time":2979000000000,"state":"active","ping":41},{"user_id":115,"name":"girl smell","steam_id":76561198118962168,"connected_time":7615000000000,"state":"active","ping":73},{"user_id":218,"name":"tobrehto","steam_id":76561198097544038,"connected_time":320000000000,"state":"active","ping":73},{"user_id":226,"name":"pissbaby","steam_id":76561198155434598,"connected_time":79000000000,"state":"active","ping":102},{"user_id":215,"name":"CFG Ponder","steam_id":76561198127039453,"connected_time":570000000000,"state":"active","ping":71},{"user_id":204,"name":"wahooka","steam_id":76561197981211922,"connected_time":1387000000000,"state":"active","ping":82},{"user_id":209,"name":"LikeASir","steam_id":76561198042209721,"connected_time":983000000000,"state":"active","ping":60},{"user_id":222,"name":"Zetta","steam_id":76561198045710113,"connected_time":256000000000,"state":"active","ping":85},{"user_id":206,"name":"Chrisscar","steam_id":76561198086298130,"connected_time":1253000000000,"state":"active","ping":80},{"user_id":207,"name":"MalnourishedHalloweenDecoration","steam_id":76561198873540641,"connected_time":1225000000000,"state":"active","ping":100},{"user_id":224,"name":"Magiclama","steam_id":76561199438818425,"connected_time":160000000000,"state":"active","ping":108},{"user_id":225,"name":"You Don't Nomi.","steam_id":76561197969137836,"connected_time":151000000000,"state":"active","ping":88}]},{"server_id":5,"name":"Uncletopia | Frankfurt | 1 | All Maps","name_short":"frk-1","host":"frk-1.de.uncletopia.com","port":27015,"enabled":true,"region":"eu","cc":"de","latitude":50.110924,"longitude":8.682127,"reserved":0,"last_update":"0001-01-01T00:00:00Z","name_a2s":"Uncletopia | Frankfurt | 1 | All Maps","protocol":17,"map":"pl_frontier_final","folder":"tf","game":"Team Fortress","app_id":440,"player_count":24,"max_players":24,"Bots":0,"server_type":"Dedicated","server_os":"Linux","password":true,"vac":true,"version":"7757534","steam_id":85568392924469989,"keywords":["nocrits","nodmgspread","payload","uncletopia"],"game_id":440,"stv_port":27016,"stv_name":"Uncletopia | Frankfurt | 1 | All Maps | STV","players":[{"user_id":705,"name":"KNARRER","steam_id":76561199130777953,"connected_time":361000000000,"state":"active","ping":51},{"user_id":635,"name":"Carrotcracker","steam_id":76561198034862396,"connected_time":5747000000000,"state":"active","ping":76},{"user_id":701,"name":"Have A Blessed Day","steam_id":76561198030956814,"connected_time":1302000000000,"state":"active","ping":80},{"user_id":710,"name":"mp1mp2mp3","steam_id":76561198088967665,"connected_time":121000000000,"state":"active","ping":84},{"user_id":694,"name":"Meeseeran","steam_id":76561198283416769,"connected_time":1599000000000,"state":"active","ping":61},{"user_id":685,"name":"Abhorrent","steam_id":76561198056338288,"connected_time":2502000000000,"state":"active","ping":60},{"user_id":704,"name":"Dorich","steam_id":76561198287126217,"connected_time":453000000000,"state":"active","ping":57},{"user_id":680,"name":"astigmatic","steam_id":76561199103959197,"connected_time":3400000000000,"state":"active","ping":88},{"user_id":631,"name":"eeeeee","steam_id":76561198017786875,"connected_time":5869000000000,"state":"active","ping":65},{"user_id":689,"name":"Mr.B","steam_id":76561199204478925,"connected_time":2351000000000,"state":"active","ping":117},{"user_id":651,"name":"Nemium","steam_id":76561198070757635,"connected_time":4735000000000,"state":"active","ping":63},{"user_id":692,"name":"ovy","steam_id":76561198991965287,"connected_time":1645000000000,"state":"active","ping":70},{"user_id":683,"name":"Hat Lover","steam_id":76561198312283433,"connected_time":3062000000000,"state":"active","ping":86},{"user_id":699,"name":"Stupid Sexy Flanders","steam_id":76561198136311983,"connected_time":1449000000000,"state":"active","ping":157},{"user_id":707,"name":"YoanM_","steam_id":76561198157124880,"connected_time":315000000000,"state":"active","ping":76},{"user_id":711,"name":"Ozzak","steam_id":76561198353664262,"connected_time":108000000000,"state":"active","ping":45},{"user_id":656,"name":"mrSi","steam_id":76561198281528013,"connected_time":4331000000000,"state":"active","ping":45},{"user_id":695,"name":"Alexei","steam_id":76561197987169026,"connected_time":1580000000000,"state":"active","ping":65},{"user_id":696,"name":"FoOzTV","steam_id":76561197998636728,"connected_time":1579000000000,"state":"active","ping":71},{"user_id":697,"name":"Dewotter","steam_id":76561198007653168,"connected_time":1575000000000,"state":"active","ping":68},{"user_id":712,"name":"Crazy Ivan","steam_id":76561197993072059,"connected_time":24000000000,"state":"active","ping":166},{"user_id":691,"name":"Grillem Dafoe","steam_id":76561198306874574,"connected_time":1874000000000,"state":"active","ping":95},{"user_id":709,"name":"Carol Olston","steam_id":76561198080257273,"connected_time":221000000000,"state":"active","ping":53},{"user_id":698,"name":"MatesThePlayer","steam_id":76561198066156449,"connected_time":1538000000000,"state":"active","ping":49}]},{"server_id":110,"name":"Uncletopia | Frankfurt | 2 | All Maps","name_short":"frk-2","host":"frk-1.de.uncletopia.com","port":27025,"enabled":true,"region":"eu","cc":"de","latitude":50.110924,"longitude":8.682127,"reserved":0,"last_update":"0001-01-01T00:00:00Z","name_a2s":"Uncletopia | Frankfurt | 2 | All Maps","protocol":17,"map":"cp_dustbowl","folder":"tf","game":"Team Fortress","app_id":440,"player_count":0,"max_players":24,"Bots":0,"server_type":"Dedicated","server_os":"Linux","password":true,"vac":true,"version":"7757534","steam_id":85568392924469990,"keywords":["cp","nocrits","nodmgspread","uncletopia"],"game_id":440,"stv_port":27026,"stv_name":"Uncletopia | Frankfurt | 2 | All Maps | STV","players":null},{"server_id":308,"name":"Uncletopia | Frankfurt | 3 | All Maps","name_short":"frk-3","host":"frk-1.de.uncletopia.com","port":27035,"enabled":true,"region":"eu","cc":"de","latitude":50.110924,"longitude":8.682127,"reserved":0,"last_update":"0001-01-01T00:00:00Z","name_a2s":"Uncletopia | Frankfurt | 3 | All Maps","protocol":17,"map":"cp_granary","folder":"tf","game":"Team Fortress","app_id":440,"player_count":24,"max_players":24,"Bots":0,"server_type":"Dedicated","server_os":"Linux","password":true,"vac":true,"version":"7757534","steam_id":85568392924504274,"keywords":["cp","nocrits","nodmgspread","uncletopia"],"game_id":440,"stv_port":27036,"stv_name":"Uncletopia | Frankfurt | 3 | All Maps | STV","players":[{"user_id":383,"name":"grandpa's post-mortem photo","steam_id":76561198130116078,"connected_time":3461000000000,"state":"active","ping":90},{"user_id":352,"name":"dn4k","steam_id":76561199221755690,"connected_time":5104000000000,"state":"active","ping":80},{"user_id":394,"name":"cyanic","steam_id":76561198047828651,"connected_time":2824000000000,"state":"active","ping":61},{"user_id":414,"name":"Absolute_clamp","steam_id":76561198958563865,"connected_time":519000000000,"state":"active","ping":46},{"user_id":381,"name":"Balls","steam_id":76561198086400484,"connected_time":3657000000000,"state":"active","ping":73},{"user_id":410,"name":"Dill Killem","steam_id":76561199071571354,"connected_time":604000000000,"state":"active","ping":74},{"user_id":287,"name":"Ecton","steam_id":76561198025103720,"connected_time":9840000000000,"state":"active","ping":60},{"user_id":415,"name":"=PB=","steam_id":76561197999146612,"connected_time":503000000000,"state":"active","ping":59},{"user_id":408,"name":"promario1011","steam_id":76561199223218300,"connected_time":964000000000,"state":"active","ping":163},{"user_id":341,"name":"Nyhde","steam_id":76561198012771416,"connected_time":5676000000000,"state":"active","ping":87},{"user_id":342,"name":"tiny engi","steam_id":76561199380255051,"connected_time":5621000000000,"state":"active","ping":86},{"user_id":377,"name":"Lil Ari","steam_id":76561198218178180,"connected_time":3950000000000,"state":"active","ping":83},{"user_id":402,"name":"Alibi","steam_id":76561198061845595,"connected_time":2099000000000,"state":"active","ping":62},{"user_id":397,"name":"PluNgBe","steam_id":76561198131100420,"connected_time":2245000000000,"state":"active","ping":64},{"user_id":399,"name":"‚Ä† saVage ‚Ä†","steam_id":76561198057824494,"connected_time":2185000000000,"state":"active","ping":85},{"user_id":421,"name":"BunkerBoy","steam_id":76561198859439313,"connected_time":249000000000,"state":"active","ping":77},{"user_id":401,"name":"Dr Crow","steam_id":76561198138444201,"connected_time":2152000000000,"state":"active","ping":61},{"user_id":403,"name":"ruined","steam_id":76561198048741472,"connected_time":2098000000000,"state":"active","ping":55},{"user_id":389,"name":"printer is broken","steam_id":76561198234270592,"connected_time":3155000000000,"state":"active","ping":63},{"user_id":413,"name":"‚ô• Cirno ‚ô•","steam_id":76561198834982738,"connected_time":550000000000,"state":"active","ping":69},{"user_id":368,"name":"the one who says bruh too much","steam_id":76561198334042273,"connected_time":4394000000000,"state":"active","ping":70},{"user_id":404,"name":"Kikuri","steam_id":76561198376786609,"connected_time":2091000000000,"state":"active","ping":91},{"user_id":419,"name":"Lorelei","steam_id":76561198056341754,"connected_time":351000000000,"state":"active","ping":46},{"user_id":395,"name":"Sarah Obama Michella","steam_id":76561198078996559,"connected_time":2810000000000,"state":"active","ping":76}]},{"server_id":309,"name":"Uncletopia | Frankfurt | 4 | All Maps","name_short":"frk-4","host":"frk-1.de.uncletopia.com","port":27045,"enabled":true,"region":"eu","cc":"de","latitude":50.110924,"longitude":8.682127,"reserved":0,"last_update":"0001-01-01T00:00:00Z","name_a2s":"Uncletopia | Frankfurt | 4 | All Maps","protocol":17,"map":"koth_harvest_final","folder":"tf","game":"Team Fortress","app_id":440,"player_count":24,"max_players":24,"Bots":0,"server_type":"Dedicated","server_os":"Linux","password":true,"vac":true,"version":"7757534","steam_id":85568392924504275,"keywords":["cp","nocrits","nodmgspread","uncletopia"],"game_id":440,"stv_port":27046,"stv_name":"Uncletopia | Frankfurt | 4 | All Maps | STV","players":[{"user_id":165,"name":"Edmost","steam_id":76561198090748165,"connected_time":662000000000,"state":"active","ping":61},{"user_id":178,"name":"yourlastshadow","steam_id":76561198433376216,"connected_time":377000000000,"state":"active","ping":65},{"user_id":160,"name":"86","steam_id":76561199084186097,"connected_time":833000000000,"state":"active","ping":88},{"user_id":158,"name":"Aesthetic Alcoholism","steam_id":76561198044418968,"connected_time":1150000000000,"state":"active","ping":46},{"user_id":180,"name":"X45Y","steam_id":76561198112534025,"connected_time":133000000000,"state":"active","ping":45},{"user_id":161,"name":"Dozer","steam_id":76561197998742338,"connected_time":833000000000,"state":"active","ping":67},{"user_id":167,"name":"swagmaster9000","steam_id":76561198232259356,"connected_time":591000000000,"state":"active","ping":75},{"user_id":143,"name":"Towercat","steam_id":76561198013141793,"connected_time":3164000000000,"state":"active","ping":69},{"user_id":168,"name":"funkliner","steam_id":76561198436902492,"connected_time":583000000000,"state":"active","ping":119},{"user_id":176,"name":"Panu69","steam_id":76561198861856713,"connected_time":424000000000,"state":"active","ping":72},{"user_id":164,"name":"mumbler","steam_id":76561197970641239,"connected_time":772000000000,"state":"active","ping":53},{"user_id":169,"name":"rudolph","steam_id":76561198057399765,"connected_time":540000000000,"state":"active","ping":38},{"user_id":122,"name":"sock","steam_id":76561198211198731,"connected_time":4724000000000,"state":"active","ping":51},{"user_id":118,"name":"fake rx","steam_id":76561198105121641,"connected_time":4837000000000,"state":"active","ping":68},{"user_id":137,"name":"HOT LOIS","steam_id":76561198302623594,"connected_time":3357000000000,"state":"active","ping":88},{"user_id":183,"name":"Bobo the greg slayer","steam_id":76561199242072490,"connected_time":8000000000,"state":"active","ping":70},{"user_id":170,"name":"Intruder","steam_id":76561198156128173,"connected_time":538000000000,"state":"active","ping":81},{"user_id":182,"name":"Tesla","steam_id":76561198378649144,"connected_time":31000000000,"state":"spawning","ping":58},{"user_id":172,"name":"scroted sigma freud","steam_id":76561198162462063,"connected_time":504000000000,"state":"active","ping":64},{"user_id":124,"name":"Sza","steam_id":76561198022132105,"connected_time":4702000000000,"state":"active","ping":59},{"user_id":173,"name":"Asuka","steam_id":76561198358436150,"connected_time":488000000000,"state":"active","ping":61},{"user_id":174,"name":"nvs\"","steam_id":76561198188745915,"connected_time":481000000000,"state":"active","ping":79},{"user_id":177,"name":"YAFN_Dev","steam_id":76561199374075281,"connected_time":418000000000,"state":"active","ping":147},{"user_id":106,"name":"Economic crisis","steam_id":76561198063562843,"connected_time":6554000000000,"state":"active","ping":52}]},{"server_id":310,"name":"Uncletopia | Frankfurt | 5 | All Maps","name_short":"frk-5","host":"frk-1.de.uncletopia.com","port":27055,"enabled":true,"region":"eu","cc":"de","latitude":50.110924,"longitude":8.682127,"reserved":0,"last_update":"0001-01-01T00:00:00Z","name_a2s":"Uncletopia | Frankfurt | 5 | All Maps","protocol":17,"map":"pl_barnblitz","folder":"tf","game":"Team Fortress","app_id":440,"player_count":24,"max_players":24,"Bots":0,"server_type":"Dedicated","server_os":"Linux","password":true,"vac":true,"version":"7757534","steam_id":85568392924504277,"keywords":["nocrits","nodmgspread","payload","uncletopia"],"game_id":440,"stv_port":27056,"stv_name":"Uncletopia | Frankfurt | 5 | All Maps | STV","players":[{"user_id":679,"name":"NukePigg","steam_id":76561198131324143,"connected_time":1485000000000,"state":"active","ping":58},{"user_id":611,"name":"xavier","steam_id":76561198076494034,"connected_time":9382000000000,"state":"active","ping":57},{"user_id":612,"name":"LarsInABox","steam_id":76561198028329262,"connected_time":9370000000000,"state":"active","ping":77},{"user_id":682,"name":"Cookies and Bakies","steam_id":76561198017442928,"connected_time":1440000000000,"state":"active","ping":62},{"user_id":680,"name":"—è —Å–∏–∂—É","steam_id":76561198172046813,"connected_time":1461000000000,"state":"active","ping":75},{"user_id":676,"name":"‚ô• aura ‚ô•","steam_id":76561198066258544,"connected_time":2409000000000,"state":"active","ping":52},{"user_id":646,"name":"MAKENTAKEN","steam_id":76561199127359587,"connected_time":5507000000000,"state":"active","ping":114},{"user_id":628,"name":"Fat Pigeon","steam_id":76561198817940142,"connected_time":7476000000000,"state":"active","ping":52},{"user_id":686,"name":"Gen","steam_id":76561198021775885,"connected_time":423000000000,"state":"active","ping":59},{"user_id":580,"name":"hananamanna","steam_id":76561198006570285,"connected_time":11890000000000,"state":"active","ping":111},{"user_id":662,"name":"Udinese Dion","steam_id":76561198067931573,"connected_time":4851000000000,"state":"active","ping":51},{"user_id":622,"name":"Serton‚ôù","steam_id":76561198011061126,"connected_time":8726000000000,"state":"active","ping":87},{"user_id":613,"name":"cursedbygod‚ô°","steam_id":76561198318291047,"connected_time":9368000000000,"state":"active","ping":117},{"user_id":667,"name":"Kleiner Engel","steam_id":76561198009922500,"connected_time":4383000000000,"state":"active","ping":61},{"user_id":576,"name":"elsuedi","steam_id":76561198074722832,"connected_time":12288000000000,"state":"active","ping":60},{"user_id":663,"name":"Pestdoktor","steam_id":76561198058159271,"connected_time":4686000000000,"state":"active","ping":64},{"user_id":685,"name":"PizzaPete123","steam_id":76561198089478290,"connected_time":1132000000000,"state":"active","ping":50},{"user_id":674,"name":"jack53","steam_id":76561198821002160,"connected_time":2990000000000,"state":"active","ping":85},{"user_id":681,"name":"Picki","steam_id":76561198004526493,"connected_time":1451000000000,"state":"active","ping":86},{"user_id":687,"name":"bowchika wowa #SlavaUkraine","steam_id":76561198159564550,"connected_time":409000000000,"state":"active","ping":76},{"user_id":677,"name":"SHLUUUURP","steam_id":76561199150903062,"connected_time":1998000000000,"state":"active","ping":73},{"user_id":664,"name":"Lyncurion","steam_id":76561199260022725,"connected_time":4545000000000,"state":"active","ping":81},{"user_id":668,"name":"Yangus","steam_id":76561198147796010,"connected_time":4334000000000,"state":"active","ping":65},{"user_id":669,"name":"sareena","steam_id":76561198810194062,"connected_time":4307000000000,"state":"active","ping":79}]},{"server_id":311,"name":"Uncletopia | Frankfurt | 6 | All Maps","name_short":"frk-6","host":"frk-1.de.uncletopia.com","port":27065,"enabled":true,"region":"eu","cc":"de","latitude":50.110924,"longitude":8.682127,"reserved":0,"last_update":"0001-01-01T00:00:00Z","name_a2s":"Uncletopia | Frankfurt | 6 | All Maps","protocol":17,"map":"pl_upward","folder":"tf","game":"Team Fortress","app_id":440,"player_count":24,"max_players":24,"Bots":0,"server_type":"Dedicated","server_os":"Linux","password":true,"vac":true,"version":"7757534","steam_id":85568392924504278,"keywords":["nocrits","nodmgspread","payload","uncletopia"],"game_id":440,"stv_port":27066,"stv_name":"Uncletopia | Frankfurt | 6 | All Maps | STV","players":[{"user_id":572,"name":"Wabzi","steam_id":76561198192696722,"connected_time":4094000000000,"state":"active","ping":93},{"user_id":557,"name":"Farao Ramses II","steam_id":76561198078722712,"connected_time":5133000000000,"state":"active","ping":48},{"user_id":573,"name":"Snd","steam_id":76561198010816408,"connected_time":4077000000000,"state":"active","ping":104},{"user_id":626,"name":"Goobie","steam_id":76561198047375383,"connected_time":367000000000,"state":"active","ping":54},{"user_id":622,"name":"AsuX","steam_id":76561197990333289,"connected_time":526000000000,"state":"active","ping":60},{"user_id":581,"name":"stole ur gender lol","steam_id":76561199474154775,"connected_time":3904000000000,"state":"active","ping":57},{"user_id":623,"name":"chey","steam_id":76561198035380064,"connected_time":432000000000,"state":"active","ping":44},{"user_id":628,"name":"Germanium_Ge","steam_id":76561198130561775,"connected_time":281000000000,"state":"active","ping":55},{"user_id":630,"name":"Krimmblz","steam_id":76561198326488448,"connected_time":215000000000,"state":"active","ping":68},{"user_id":620,"name":"BarrackOmaha","steam_id":76561198027922724,"connected_time":767000000000,"state":"active","ping":95},{"user_id":596,"name":"=FAZE= Fernandinho the Eggplant","steam_id":76561198042988373,"connected_time":2363000000000,"state":"active","ping":138},{"user_id":627,"name":"heatburn","steam_id":76561198019001992,"connected_time":361000000000,"state":"active","ping":60},{"user_id":598,"name":"Moe Jama","steam_id":76561198021676997,"connected_time":2301000000000,"state":"active","ping":80},{"user_id":612,"name":"Ben UFO","steam_id":76561198001648348,"connected_time":1157000000000,"state":"active","ping":65},{"user_id":621,"name":"gjhkgfkjfh","steam_id":76561198031181349,"connected_time":582000000000,"state":"active","ping":86},{"user_id":634,"name":"demoman","steam_id":76561198046170435,"connected_time":43000000000,"state":"active","ping":102},{"user_id":613,"name":"Aroo","steam_id":76561198132601368,"connected_time":1151000000000,"state":"active","ping":74},{"user_id":602,"name":"Syll","steam_id":76561198040736202,"connected_time":1814000000000,"state":"active","ping":95},{"user_id":631,"name":"tone","steam_id":76561197975301462,"connected_time":186000000000,"state":"active","ping":84},{"user_id":633,"name":"Uncle Moomin","steam_id":76561198011628656,"connected_time":114000000000,"state":"active","ping":86},{"user_id":629,"name":"addicted","steam_id":76561199129801006,"connected_time":266000000000,"state":"active","ping":45},{"user_id":603,"name":"Ziltoid","steam_id":76561198020753675,"connected_time":1557000000000,"state":"active","ping":69},{"user_id":632,"name":"D_Ink","steam_id":76561198267716662,"connected_time":136000000000,"state":"active","ping":53},{"user_id":619,"name":"Droy","steam_id":76561198065854668,"connected_time":952000000000,"state":"active","ping":62}]},{"server_id":23,"name":"Uncletopia | Frankfurt | 7 | Stopwatch Beta","name_short":"frk-7","host":"frk-1.de.uncletopia.com","port":27075,"enabled":true,"region":"eu","cc":"de","latitude":50.110924,"longitude":8.682127,"reserved":0,"last_update":"0001-01-01T00:00:00Z","name_a2s":"Uncletopia | Frankfurt | 7 | Stopwatch Beta","protocol":17,"map":"workshop/koth_bagel_rc6.ugc2514036946","folder":"tf","game":"Team Fortress","app_id":440,"player_count":0,"max_players":24,"Bots":0,"server_type":"Dedicated","server_os":"Linux","password":true,"vac":true,"version":"7757534","steam_id":85568392924742827,"keywords":["cp","nocrits","nodmgspread","uncletopia"],"game_id":440,"stv_port":27076,"stv_name":"Uncletopia | Frankfurt | 7 | Stopwatch Beta | STV","players":null},{"server_id":24,"name":"Uncletopia | Frankfurt | 8 | Community","name_short":"frk-8","host":"frk-1.de.uncletopia.com","port":27085,"enabled":true,"region":"eu","cc":"de","latitude":50.110924,"longitude":8.682127,"reserved":0,"last_update":"0001-01-01T00:00:00Z","name_a2s":"Uncletopia | Frankfurt | 8 | Community","protocol":17,"map":"workshop/cp_hazyfort_rc6.ugc1365963729","folder":"tf","game":"Team Fortress","app_id":440,"player_count":0,"max_players":24,"Bots":0,"server_type":"Dedicated","server_os":"Linux","password":true,"vac":true,"version":"7757534","steam_id":85568392924742828,"keywords":["cp","nocrits","nodmgspread","uncletopia"],"game_id":440,"stv_port":27086,"stv_name":"Uncletopia | Frankfurt | 8 | Community | STV","players":null},{"server_id":202,"name":"Uncletopia | Hong Kong | 1 | All Maps","name_short":"hgk-1","host":"hgk-1.hk.uncletopia.com","port":27015,"enabled":true,"region":"asia","cc":"hk","latitude":22.302711,"longitude":114.177216,"reserved":0,"last_update":"0001-01-01T00:00:00Z","name_a2s":"Uncletopia | Hong Kong | 1 | All Maps","protocol":17,"map":"pl_borneo","folder":"tf","game":"Team Fortress","app_id":440,"player_count":0,"max_players":24,"Bots":0,"server_type":"Dedicated","server_os":"Linux","password":true,"vac":true,"version":"7757534","steam_id":85568392924494504,"keywords":["nocrits","nodmgspread","payload","uncletopia"],"game_id":440,"stv_port":27016,"stv_name":"Uncletopia | Hong Kong | 1 | All Maps | STV","players":null},{"server_id":1,"name":"Uncletopia | Los Angeles | 1 | All Maps","name_short":"lax-1","host":"lax-1.us.uncletopia.com","port":27015,"enabled":true,"region":"us-west","cc":"us","latitude":33.94279,"longitude":-118.41004,"reserved":0,"last_update":"0001-01-01T00:00:00Z","name_a2s":"Uncletopia | Los Angeles | 1 | All Maps","protocol":17,"map":"koth_viaduct","folder":"tf","game":"Team Fortress","app_id":440,"player_count":24,"max_players":24,"Bots":0,"server_type":"Dedicated","server_os":"Linux","password":true,"vac":true,"version":"7757534","steam_id":85568392924469991,"keywords":["cp","nocrits","nodmgspread","uncletopia"],"game_id":440,"stv_port":27016,"stv_name":"Uncletopia | Los Angeles | 1 | All Maps | STV","players":[{"user_id":49,"name":"Bullwinkle J. Moose","steam_id":76561198075977196,"connected_time":438000000000,"state":"active","ping":83},{"user_id":57,"name":"EmperorSeagull","steam_id":76561198214669185,"connected_time":13000000000,"state":"active","ping":119},{"user_id":48,"name":"_cza","steam_id":76561198079793576,"connected_time":468000000000,"state":"active","ping":73},{"user_id":24,"name":"Zerg_Man","steam_id":76561199060404359,"connected_time":1329000000000,"state":"active","ping":104},{"user_id":25,"name":"wait no stop dont do that","steam_id":76561199117157198,"connected_time":1294000000000,"state":"active","ping":72},{"user_id":56,"name":"jimmyfortnite2014","steam_id":76561198987713830,"connected_time":106000000000,"state":"active","ping":159},{"user_id":28,"name":"IV","steam_id":76561198208996573,"connected_time":1028000000000,"state":"active","ping":56},{"user_id":29,"name":"Zizen","steam_id":76561199011832069,"connected_time":1003000000000,"state":"active","ping":61},{"user_id":30,"name":"Luna_Blossom","steam_id":76561198816384987,"connected_time":990000000000,"state":"active","ping":71},{"user_id":51,"name":"Jhon Xina","steam_id":76561198411174051,"connected_time":274000000000,"state":"active","ping":75},{"user_id":35,"name":"Natsuki the Scunt","steam_id":76561199175922684,"connected_time":789000000000,"state":"active","ping":118},{"user_id":52,"name":"jadesouledout","steam_id":76561198866936507,"connected_time":273000000000,"state":"active","ping":56},{"user_id":36,"name":"Cammicus","steam_id":76561198033375316,"connected_time":781000000000,"state":"active","ping":99},{"user_id":37,"name":"corncakecoolcat","steam_id":76561198090716968,"connected_time":723000000000,"state":"active","ping":96},{"user_id":53,"name":"Driffter","steam_id":76561199122194221,"connected_time":253000000000,"state":"active","ping":174},{"user_id":39,"name":"Ace","steam_id":76561198155489173,"connected_time":649000000000,"state":"active","ping":68},{"user_id":40,"name":"Thequirka","steam_id":76561198968058652,"connected_time":645000000000,"state":"active","ping":77},{"user_id":41,"name":"Cuno Doesn't Care!","steam_id":76561198007372782,"connected_time":612000000000,"state":"active","ping":59},{"user_id":42,"name":"Logan601 #savetf2","steam_id":76561198263116731,"connected_time":611000000000,"state":"active","ping":73},{"user_id":55,"name":"Dr.Sez","steam_id":76561198860416560,"connected_time":119000000000,"state":"active","ping":121},{"user_id":44,"name":"Alf Creepypasta","steam_id":76561198841844093,"connected_time":604000000000,"state":"active","ping":45},{"user_id":45,"name":"i forgor","steam_id":76561199120622265,"connected_time":602000000000,"state":"active","ping":85},{"user_id":46,"name":"Juevos","steam_id":76561198066142119,"connected_time":601000000000,"state":"active","ping":65},{"user_id":58,"name":"Wso1123","steam_id":76561198048040111,"connected_time":7000000000,"state":"spawning","ping":59}]},{"server_id":112,"name":"Uncletopia | Los Angeles | 2 | All Maps","name_short":"lax-2","host":"lax-1.us.uncletopia.com","port":27025,"enabled":true,"region":"us-west","cc":"us","latitude":33.94279,"longitude":-118.41004,"reserved":0,"last_update":"0001-01-01T00:00:00Z","name_a2s":"Uncletopia | Los Angeles | 2 | All Maps","protocol":17,"map":"cp_altitude","folder":"tf","game":"Team Fortress","app_id":440,"player_count":0,"max_players":24,"Bots":0,"server_type":"Dedicated","server_os":"Linux","password":true,"vac":true,"version":"7757534","steam_id":85568392924469992,"keywords":["cp","nocrits","nodmgspread","uncletopia"],"game_id":440,"stv_port":27026,"stv_name":"Uncletopia | Los Angeles | 2 | All Maps | STV","players":null},{"server_id":324,"name":"Uncletopia | Los Angeles | 3 | All Maps","name_short":"lax-3","host":"lax-1.us.uncletopia.com","port":27035,"enabled":true,"region":"us-west","cc":"us","latitude":33.94279,"longitude":-118.41004,"reserved":0,"last_update":"0001-01-01T00:00:00Z","name_a2s":"Uncletopia | Los Angeles | 3 | All Maps","protocol":17,"map":"pl_barnblitz","folder":"tf","game":"Team Fortress","app_id":440,"player_count":0,"max_players":24,"Bots":0,"server_type":"Dedicated","server_os":"Linux","password":true,"vac":true,"version":"7757534","steam_id":85568392924510198,"keywords":["nocrits","nodmgspread","payload","uncletopia"],"game_id":440,"stv_port":27036,"stv_name":"Uncletopia | Los Angeles | 3 | All Maps | STV","players":null},{"server_id":25,"name":"Uncletopia | Los Angeles | 4 | Stopwatch Beta","name_short":"lax-4","host":"lax-1.us.uncletopia.com","port":27045,"enabled":true,"region":"us-west","cc":"us","latitude":33.94279,"longitude":-118.41004,"reserved":0,"last_update":"0001-01-01T00:00:00Z","name_a2s":"Uncletopia | Los Angeles | 4 | Stopwatch Beta","protocol":17,"map":"pl_swiftwater_final1","folder":"tf","game":"Team Fortress","app_id":440,"player_count":0,"max_players":24,"Bots":0,"server_type":"Dedicated","server_os":"Linux","password":true,"vac":true,"version":"7757534","steam_id":85568392924510199,"keywords":["nocrits","nodmgspread","payload","uncletopia"],"game_id":440,"stv_port":27046,"stv_name":"Uncletopia | Los Angeles | 4 | Stopwatch Beta | STV","players":null},{"server_id":11,"name":"Uncletopia | London | 1 | All Maps","name_short":"lon-1","host":"lon-1.uk.uncletopia.com","port":27015,"enabled":true,"region":"eu","cc":"gb","latitude":51.509865,"longitude":-0.118092,"reserved":0,"last_update":"0001-01-01T00:00:00Z","name_a2s":"Uncletopia | London | 1 | All Maps","protocol":17,"map":"cp_dustbowl","folder":"tf","game":"Team Fortress","app_id":440,"player_count":22,"max_players":24,"Bots":0,"server_type":"Dedicated","server_os":"Linux","password":true,"vac":true,"version":"7757534","steam_id":85568392924367362,"keywords":["cp","nocrits","nodmgspread","uncletopia"],"game_id":440,"stv_port":27016,"stv_name":"Uncletopia | London | 1 | All Maps | STV","players":[{"user_id":665,"name":"Number 6","steam_id":76561198427754179,"connected_time":88000000000,"state":"active","ping":136},{"user_id":662,"name":"Furry Femboy Puppygirl FL1X","steam_id":76561198278523698,"connected_time":240000000000,"state":"active","ping":40},{"user_id":646,"name":"Joseph Stalin","steam_id":76561198033199746,"connected_time":1457000000000,"state":"active","ping":55},{"user_id":630,"name":"SOPHIIEE","steam_id":76561198443798981,"connected_time":3267000000000,"state":"active","ping":49},{"user_id":653,"name":"Knugen the Conqueror","steam_id":76561198127091993,"connected_time":972000000000,"state":"active","ping":64},{"user_id":655,"name":"beebo","steam_id":76561199120277007,"connected_time":442000000000,"state":"active","ping":47},{"user_id":631,"name":"Generic text","steam_id":76561198291962185,"connected_time":3266000000000,"state":"active","ping":89},{"user_id":663,"name":"Air","steam_id":76561198271025518,"connected_time":219000000000,"state":"active","ping":106},{"user_id":659,"name":"finbar","steam_id":76561198056812396,"connected_time":367000000000,"state":"active","ping":80},{"user_id":625,"name":"It's a me Malario","steam_id":76561198176546013,"connected_time":4483000000000,"state":"active","ping":49},{"user_id":602,"name":"Sandshee","steam_id":76561198088574666,"connected_time":5865000000000,"state":"active","ping":43},{"user_id":657,"name":"‚ùÑÔ∏éSHIT PISSER JULIANNE‚ùÑ","steam_id":76561198061955351,"connected_time":433000000000,"state":"active","ping":141},{"user_id":649,"name":"sloppy transgirl toppy","steam_id":76561198057092208,"connected_time":1443000000000,"state":"active","ping":71},{"user_id":643,"name":"Robotomatique","steam_id":76561198354793952,"connected_time":1673000000000,"state":"active","ping":47},{"user_id":608,"name":"jimmy bob","steam_id":76561198319583692,"connected_time":5376000000000,"state":"active","ping":61},{"user_id":656,"name":"rrainbot","steam_id":76561199414716848,"connected_time":440000000000,"state":"active","ping":75},{"user_id":664,"name":"regimiro","steam_id":76561198120457008,"connected_time":199000000000,"state":"active","ping":49},{"user_id":638,"name":"kojitori","steam_id":76561198838072150,"connected_time":2270000000000,"state":"active","ping":45},{"user_id":587,"name":"teddy","steam_id":76561198007436837,"connected_time":7733000000000,"state":"active","ping":45},{"user_id":642,"name":"hedon/","steam_id":76561198249832770,"connected_time":2000000000000,"state":"active","ping":48},{"user_id":654,"name":"BSantos57","steam_id":76561198000597094,"connected_time":836000000000,"state":"active","ping":93},{"user_id":658,"name":"Lord GabeN","steam_id":76561198140862723,"connected_time":433000000000,"state":"active","ping":140}]},{"server_id":114,"name":"Uncletopia | London | 2 | All Maps","name_short":"lon-2","host":"lon-1.uk.uncletopia.com","port":27025,"enabled":true,"region":"eu","cc":"gb","latitude":51.509865,"longitude":-0.118092,"reserved":0,"last_update":"0001-01-01T00:00:00Z","name_a2s":"Uncletopia | London | 2 | All Maps","protocol":17,"map":"cp_mountainlab","folder":"tf","game":"Team Fortress","app_id":440,"player_count":24,"max_players":24,"Bots":0,"server_type":"Dedicated","server_os":"Linux","password":true,"vac":true,"version":"7757534","steam_id":85568392924470941,"keywords":["cp","nocrits","nodmgspread","uncletopia"],"game_id":440,"stv_port":27026,"stv_name":"Uncletopia | London | 2 | All Maps | STV","players":[{"user_id":491,"name":"Noodle","steam_id":76561198306486695,"connected_time":1978000000000,"state":"active","ping":69},{"user_id":508,"name":"Lucky :)","steam_id":76561198317649032,"connected_time":409000000000,"state":"active","ping":44},{"user_id":498,"name":"1 toke 4 mars bars","steam_id":76561198056460000,"connected_time":984000000000,"state":"active","ping":47},{"user_id":467,"name":"demolition2n3","steam_id":76561198356060442,"connected_time":2474000000000,"state":"active","ping":44},{"user_id":507,"name":"JOHN GAMING (#transrights)","steam_id":76561199085822219,"connected_time":444000000000,"state":"active","ping":88},{"user_id":493,"name":"lambrusco di sorbara","steam_id":76561198066071855,"connected_time":1937000000000,"state":"active","ping":71},{"user_id":512,"name":"KEEEFEX","steam_id":76561198316041208,"connected_time":126000000000,"state":"active","ping":81},{"user_id":468,"name":"Xpload","steam_id":76561198188505089,"connected_time":2472000000000,"state":"active","ping":46},{"user_id":509,"name":"Saken","steam_id":76561198049075295,"connected_time":399000000000,"state":"active","ping":65},{"user_id":451,"name":"Anonymous47007","steam_id":76561199005211417,"connected_time":3656000000000,"state":"active","ping":75},{"user_id":513,"name":"Lethal","steam_id":76561198452042648,"connected_time":76000000000,"state":"active","ping":66},{"user_id":446,"name":"NoPfizer","steam_id":76561198307914381,"connected_time":3787000000000,"state":"active","ping":58},{"user_id":501,"name":"jmp","steam_id":76561198168283286,"connected_time":562000000000,"state":"active","ping":75},{"user_id":472,"name":"M√∂ppy #savetf2","steam_id":76561198020555530,"connected_time":2449000000000,"state":"active","ping":44},{"user_id":504,"name":"CollDragon","steam_id":76561198067534450,"connected_time":512000000000,"state":"active","ping":124},{"user_id":497,"name":"60Hz notebook gamer","steam_id":76561198215359609,"connected_time":1644000000000,"state":"active","ping":37},{"user_id":506,"name":"swallowed 10 pennies please hel","steam_id":76561198055816412,"connected_time":482000000000,"state":"active","ping":48},{"user_id":496,"name":"‡∂ûbominasus 2137  #SaveTF2","steam_id":76561198030062981,"connected_time":1744000000000,"state":"active","ping":73},{"user_id":484,"name":"The Sealion","steam_id":76561198014154047,"connected_time":2409000000000,"state":"active","ping":53},{"user_id":511,"name":"zoinks!","steam_id":76561198068645362,"connected_time":319000000000,"state":"active","ping":41},{"user_id":514,"name":"disc0rd","steam_id":76561197985965776,"connected_time":47000000000,"state":"active","ping":59},{"user_id":515,"name":"lark","steam_id":76561198091724522,"connected_time":21000000000,"state":"active","ping":55},{"user_id":499,"name":"hud_saytext_time 0","steam_id":76561198010327228,"connected_time":977000000000,"state":"active","ping":65},{"user_id":503,"name":"Thumnder","steam_id":76561198271944544,"connected_time":525000000000,"state":"active","ping":150}]},{"server_id":320,"name":"Uncletopia | London | 3 | All Maps","name_short":"lon-3","host":"lon-1.uk.uncletopia.com","port":27035,"enabled":true,"region":"eu","cc":"gb","latitude":51.509865,"longitude":-0.118092,"reserved":0,"last_update":"0001-01-01T00:00:00Z","name_a2s":"Uncletopia | London | 3 | All Maps","protocol":17,"map":"cp_steel","folder":"tf","game":"Team Fortress","app_id":440,"player_count":0,"max_players":24,"Bots":0,"server_type":"Dedicated","server_os":"Linux","password":true,"vac":true,"version":"7757534","steam_id":85568392924510192,"keywords":["cp","nocrits","nodmgspread","uncletopia"],"game_id":440,"stv_port":27036,"stv_name":"Uncletopia | London | 3 | All Maps | STV","players":null},{"server_id":321,"name":"Uncletopia | London | 4 | All Maps","name_short":"lon-4","host":"lon-1.uk.uncletopia.com","port":27045,"enabled":true,"region":"eu","cc":"gb","latitude":51.509865,"longitude":-0.118092,"reserved":0,"last_update":"0001-01-01T00:00:00Z","name_a2s":"Uncletopia | London | 4 | All Maps","protocol":17,"map":"koth_highpass","folder":"tf","game":"Team Fortress","app_id":440,"player_count":0,"max_players":24,"Bots":0,"server_type":"Dedicated","server_os":"Linux","password":true,"vac":true,"version":"7757534","steam_id":85568392924510193,"keywords":["cp","nocrits","nodmgspread","uncletopia"],"game_id":440,"stv_port":27046,"stv_name":"Uncletopia | London | 4 | All Maps | STV","players":null},{"server_id":21,"name":"Uncletopia | London | 5 | All Maps","name_short":"lon-5","host":"lon-1.uk.uncletopia.com","port":27055,"enabled":true,"region":"eu","cc":"gb","latitude":51.509865,"longitude":-0.118092,"reserved":0,"last_update":"0001-01-01T00:00:00Z","name_a2s":"Uncletopia | London | 5 | All Maps","protocol":17,"map":"cp_steel","folder":"tf","game":"Team Fortress","app_id":440,"player_count":19,"max_players":24,"Bots":0,"server_type":"Dedicated","server_os":"Linux","password":true,"vac":true,"version":"7757534","steam_id":85568392924742829,"keywords":["cp","nocrits","nodmgspread","uncletopia"],"game_id":440,"stv_port":27056,"stv_name":"Uncletopia | London | 5 | All Maps | STV","players":[{"user_id":307,"name":"big t","steam_id":76561198067179454,"connected_time":1233000000000,"state":"active","ping":43},{"user_id":274,"name":"HRCR118","steam_id":76561199146388596,"connected_time":3123000000000,"state":"active","ping":67},{"user_id":317,"name":"DrRavioli","steam_id":76561198170822595,"connected_time":129000000000,"state":"active","ping":61},{"user_id":287,"name":"Dwapking","steam_id":76561198039583834,"connected_time":1997000000000,"state":"active","ping":57},{"user_id":293,"name":"dotdotdot","steam_id":76561198057628751,"connected_time":1913000000000,"state":"active","ping":63},{"user_id":306,"name":"Kkikok","steam_id":76561198055767709,"connected_time":1297000000000,"state":"active","ping":86},{"user_id":299,"name":"STONER08","steam_id":76561199478378377,"connected_time":1816000000000,"state":"active","ping":55},{"user_id":315,"name":"t√Øger","steam_id":76561198260483157,"connected_time":647000000000,"state":"active","ping":82},{"user_id":247,"name":"kaelan","steam_id":76561198001425310,"connected_time":3940000000000,"state":"active","ping":71},{"user_id":308,"name":"dya","steam_id":76561198167283985,"connected_time":1232000000000,"state":"active","ping":80},{"user_id":268,"name":"biohazard.pt","steam_id":76561198088367808,"connected_time":3277000000000,"state":"active","ping":104},{"user_id":254,"name":"MacKaivuri","steam_id":76561198951925161,"connected_time":3787000000000,"state":"active","ping":95},{"user_id":309,"name":"gofdrey","steam_id":76561198121941052,"connected_time":1216000000000,"state":"active","ping":67},{"user_id":230,"name":"Yaire","steam_id":76561198017343510,"connected_time":5653000000000,"state":"active","ping":55},{"user_id":291,"name":"marco / s /","steam_id":76561198300120382,"connected_time":1952000000000,"state":"active","ping":63},{"user_id":318,"name":"I Am Living in Your Walls","steam_id":76561198166648195,"connected_time":102000000000,"state":"active","ping":96},{"user_id":272,"name":"Spanns","steam_id":76561197998349793,"connected_time":3209000000000,"state":"active","ping":71},{"user_id":313,"name":"Duskie","steam_id":76561198036695121,"connected_time":1103000000000,"state":"active","ping":55},{"user_id":312,"name":"Rooce","steam_id":76561199061011421,"connected_time":1171000000000,"state":"active","ping":82}]},{"server_id":22,"name":"Uncletopia | London | 6 | All Maps","name_short":"lon-6","host":"lon-1.uk.uncletopia.com","port":27065,"enabled":true,"region":"eu","cc":"gb","latitude":51.509865,"longitude":-0.118092,"reserved":0,"last_update":"0001-01-01T00:00:00Z","name_a2s":"Uncletopia | London | 6 | All Maps","protocol":17,"map":"pl_barnblitz","folder":"tf","game":"Team Fortress","app_id":440,"player_count":24,"max_players":24,"Bots":0,"server_type":"Dedicated","server_os":"Linux","password":true,"vac":true,"version":"7757534","steam_id":85568392924742830,"keywords":["nocrits","nodmgspread","payload","uncletopia"],"game_id":440,"stv_port":27066,"stv_name":"Uncletopia | London | 6 | All Maps | STV","players":[{"user_id":395,"name":"ack","steam_id":76561198139796077,"connected_time":41000000000,"state":"active","ping":53},{"user_id":339,"name":"Kjat","steam_id":76561198839433592,"connected_time":2922000000000,"state":"active","ping":60},{"user_id":392,"name":"ja","steam_id":76561199228540618,"connected_time":156000000000,"state":"active","ping":82},{"user_id":354,"name":"evanlittlejohn967","steam_id":76561198219770784,"connected_time":1842000000000,"state":"active","ping":150},{"user_id":355,"name":"Charles Darwin","steam_id":76561197973496139,"connected_time":1794000000000,"state":"active","ping":61},{"user_id":396,"name":"CrowbarWarrior","steam_id":76561198044077015,"connected_time":18000000000,"state":"spawning","ping":60},{"user_id":356,"name":"Average Pyro Main","steam_id":76561199092528522,"connected_time":1783000000000,"state":"active","ping":62},{"user_id":371,"name":"Ankle Dane","steam_id":76561198134378108,"connected_time":1520000000000,"state":"active","ping":81},{"user_id":357,"name":"Mr_Pulse_","steam_id":76561198095001602,"connected_time":1771000000000,"state":"active","ping":103},{"user_id":344,"name":"var","steam_id":76561198886111917,"connected_time":2417000000000,"state":"active","ping":65},{"user_id":386,"name":"YBOT554","steam_id":76561198836830645,"connected_time":565000000000,"state":"active","ping":47},{"user_id":372,"name":"Liza–Ødl–ß","steam_id":76561198176750238,"connected_time":1516000000000,"state":"active","ping":62},{"user_id":379,"name":"Bob.","steam_id":76561198330093822,"connected_time":1216000000000,"state":"active","ping":86},{"user_id":360,"name":"cherry powder","steam_id":76561199006915718,"connected_time":1735000000000,"state":"active","ping":71},{"user_id":394,"name":"nedilya","steam_id":76561198039692077,"connected_time":136000000000,"state":"active","ping":61},{"user_id":397,"name":".car‚Ä†el SMG Body.","steam_id":76561198178863635,"connected_time":16000000000,"state":"spawning","ping":71},{"user_id":362,"name":"dogs","steam_id":76561198068683174,"connected_time":1668000000000,"state":"active","ping":56},{"user_id":382,"name":"Balls_Mackenzie","steam_id":76561198040916876,"connected_time":957000000000,"state":"active","ping":115},{"user_id":391,"name":"help","steam_id":76561199056338917,"connected_time":274000000000,"state":"active","ping":162},{"user_id":365,"name":"BonsaiCat_","steam_id":76561198232236020,"connected_time":1602000000000,"state":"active","ping":50},{"user_id":380,"name":"Unfortunate","steam_id":76561198125500777,"connected_time":1144000000000,"state":"active","ping":94},{"user_id":367,"name":"bandana enjoyer","steam_id":76561198058531702,"connected_time":1580000000000,"state":"active","ping":149},{"user_id":368,"name":"flange","steam_id":76561198040182692,"connected_time":1572000000000,"state":"active","ping":42},{"user_id":376,"name":"Mari Christmas","steam_id":76561197997020707,"connected_time":1466000000000,"state":"active","ping":56}]},{"server_id":40,"name":"Uncletopia | London | 7 | No Payload","name_short":"lon-7","host":"lon-1.uk.uncletopia.com","port":27075,"enabled":true,"region":"eu","cc":"gb","latitude":51.509865,"longitude":-0.118092,"reserved":0,"last_update":"0001-01-01T00:00:00Z","name_a2s":"Uncletopia | London | 7 | No Payload","protocol":17,"map":"cp_gorge","folder":"tf","game":"Team Fortress","app_id":440,"player_count":0,"max_players":24,"Bots":0,"server_type":"Dedicated","server_os":"Linux","password":true,"vac":true,"version":"7757534","steam_id":85568392924964314,"keywords":["cp","nocrits","nodmgspread","uncletopia"],"game_id":440,"stv_port":27076,"stv_name":"Uncletopia | London | 7 | No Payload | STV","players":null},{"server_id":41,"name":"Uncletopia | London | 8 | Community","name_short":"lon-8","host":"lon-1.uk.uncletopia.com","port":27085,"enabled":true,"region":"eu","cc":"gb","latitude":51.509865,"longitude":-0.118092,"reserved":0,"last_update":"0001-01-01T00:00:00Z","name_a2s":"Uncletopia | London | 8 | Community","protocol":17,"map":"workshop/koth_bagel_rc6.ugc2514036946","folder":"tf","game":"Team Fortress","app_id":440,"player_count":0,"max_players":24,"Bots":0,"server_type":"Dedicated","server_os":"Linux","password":true,"vac":true,"version":"7757534","steam_id":85568392924964315,"keywords":["cp","nocrits","nodmgspread","uncletopia"],"game_id":440,"stv_port":27086,"stv_name":"Uncletopia | London | 8 | Community | STV","players":null},{"server_id":300,"name":"Uncletopia | Montr√©al | 1 | All Maps","name_short":"mtl-1","host":"mtl-1.ca.uncletopia.com","port":27015,"enabled":true,"region":"us-east","cc":"ca","latitude":45.50889,"longitude":-73.56167,"reserved":0,"last_update":"0001-01-01T00:00:00Z","name_a2s":"Uncletopia | Montr√©al | 1 | All Maps","protocol":17,"map":"cp_snakewater_final1","folder":"tf","game":"Team Fortress","app_id":440,"player_count":0,"max_players":24,"Bots":0,"server_type":"Dedicated","server_os":"Linux","password":true,"vac":true,"version":"7757534","steam_id":85568392924500087,"keywords":["cp","nocrits","nodmgspread","uncletopia"],"game_id":440,"stv_port":27016,"stv_name":"Uncletopia | Montr√©al | 1 | All Maps | STV","players":null},{"server_id":301,"name":"Uncletopia | Montr√©al | 2 | All Maps","name_short":"mtl-2","host":"mtl-1.ca.uncletopia.com","port":27025,"enabled":true,"region":"us-east","cc":"ca","latitude":45.50889,"longitude":-73.56167,"reserved":0,"last_update":"0001-01-01T00:00:00Z","name_a2s":"Uncletopia | Montr√©al | 2 | All Maps","protocol":17,"map":"cp_snakewater_final1","folder":"tf","game":"Team Fortress","app_id":440,"player_count":0,"max_players":24,"Bots":0,"server_type":"Dedicated","server_os":"Linux","password":true,"vac":true,"version":"7757534","steam_id":85568392924500088,"keywords":["cp","nocrits","nodmgspread","uncletopia"],"game_id":440,"stv_port":27026,"stv_name":"Uncletopia | Montr√©al | 2 | All Maps | STV","players":null},{"server_id":302,"name":"Uncletopia | Montr√©al | 3 | All Maps","name_short":"mtl-3","host":"mtl-1.ca.uncletopia.com","port":27035,"enabled":true,"region":"us-east","cc":"ca","latitude":45.50889,"longitude":-73.56167,"reserved":0,"last_update":"0001-01-01T00:00:00Z","name_a2s":"Uncletopia | Montr√©al | 3 | All Maps","protocol":17,"map":"koth_lakeside_final","folder":"tf","game":"Team Fortress","app_id":440,"player_count":0,"max_players":24,"Bots":0,"server_type":"Dedicated","server_os":"Linux","password":true,"vac":true,"version":"7757534","steam_id":85568392924500089,"keywords":["cp","nocrits","nodmgspread","uncletopia"],"game_id":440,"stv_port":27036,"stv_name":"Uncletopia | Montr√©al | 3 | All Maps | STV","players":null},{"server_id":303,"name":"Uncletopia | Montr√©al | 4 | No Payload","name_short":"mtl-4","host":"mtl-1.ca.uncletopia.com","port":27045,"enabled":true,"region":"us-east","cc":"ca","latitude":45.50889,"longitude":-73.56167,"reserved":0,"last_update":"0001-01-01T00:00:00Z","name_a2s":"Uncletopia | Montr√©al | 4 | No Payload","protocol":17,"map":"cp_foundry","folder":"tf","game":"Team Fortress","app_id":440,"player_count":0,"max_players":24,"Bots":0,"server_type":"Dedicated","server_os":"Linux","password":true,"vac":true,"version":"7757534","steam_id":85568392924500090,"keywords":["cp","nocrits","nodmgspread","uncletopia"],"game_id":440,"stv_port":27046,"stv_name":"Uncletopia | Montr√©al | 4 | No Payload | STV","players":null},{"server_id":13,"name":"Uncletopia | New York City | 1 | All Maps","name_short":"nyc-1","host":"nyc-1.us.uncletopia.com","port":27015,"enabled":true,"region":"us-east","cc":"us","latitude":40.73061,"longitude":-73.93524,"reserved":0,"last_update":"0001-01-01T00:00:00Z","name_a2s":"Uncletopia | New York City | 1 | All Maps","protocol":17,"map":"cp_process_final","folder":"tf","game":"Team Fortress","app_id":440,"player_count":23,"max_players":24,"Bots":0,"server_type":"Dedicated","server_os":"Linux","password":true,"vac":true,"version":"7757534","steam_id":85568392924469993,"keywords":["cp","nocrits","nodmgspread","uncletopia"],"game_id":440,"stv_port":27016,"stv_name":"Uncletopia | New York City | 1 | All Maps | STV","players":[{"user_id":320,"name":"jzplr üé∑üêõ","steam_id":76561198091901520,"connected_time":621000000000,"state":"active","ping":59},{"user_id":314,"name":"Porcupine's Revenge!","steam_id":76561199121615234,"connected_time":1358000000000,"state":"active","ping":56},{"user_id":276,"name":"Gocel","steam_id":76561198071467515,"connected_time":4359000000000,"state":"active","ping":41},{"user_id":286,"name":"WeegeePJ","steam_id":76561199383362382,"connected_time":3689000000000,"state":"active","ping":67},{"user_id":306,"name":"The Floating Portato","steam_id":76561198929761359,"connected_time":1632000000000,"state":"active","ping":136},{"user_id":307,"name":"b4rry","steam_id":76561198365887154,"connected_time":1600000000000,"state":"active","ping":46},{"user_id":308,"name":"Swifgz","steam_id":76561198162875756,"connected_time":1568000000000,"state":"active","ping":39},{"user_id":285,"name":"Chinese Cabbage","steam_id":76561198311588768,"connected_time":3733000000000,"state":"active","ping":70},{"user_id":299,"name":"Vivid Hut 64","steam_id":76561198170050059,"connected_time":3017000000000,"state":"active","ping":58},{"user_id":325,"name":"Eden Hazard","steam_id":76561198089241053,"connected_time":191000000000,"state":"active","ping":43},{"user_id":274,"name":"dell-star","steam_id":76561198841709393,"connected_time":4396000000000,"state":"active","ping":49},{"user_id":304,"name":"minimagicdoom","steam_id":76561199220316405,"connected_time":1690000000000,"state":"active","ping":120},{"user_id":318,"name":"pj_the_primalpeashootergaming_h","steam_id":76561199081735998,"connected_time":825000000000,"state":"active","ping":150},{"user_id":270,"name":"mana_sourcer","steam_id":76561199231055566,"connected_time":4846000000000,"state":"active","ping":85},{"user_id":324,"name":"Jamie(^_^)","steam_id":76561198835286379,"connected_time":239000000000,"state":"active","ping":86},{"user_id":316,"name":"Room_237","steam_id":76561199135081315,"connected_time":1187000000000,"state":"active","ping":68},{"user_id":245,"name":"El Bondin","steam_id":76561198820792434,"connected_time":7793000000000,"state":"active","ping":94},{"user_id":294,"name":"peee pee man","steam_id":76561198044979205,"connected_time":3530000000000,"state":"active","ping":55},{"user_id":277,"name":"ANTJedi","steam_id":76561198010456111,"connected_time":4350000000000,"state":"active","ping":69},{"user_id":295,"name":"Mochi","steam_id":76561199151314140,"connected_time":3517000000000,"state":"active","ping":37},{"user_id":301,"name":"RASK0LN1K0V","steam_id":76561199242418087,"connected_time":2671000000000,"state":"active","ping":78},{"user_id":319,"name":"Owl Pacino","steam_id":76561197979970666,"connected_time":825000000000,"state":"active","ping":70},{"user_id":313,"name":"Schmingus","steam_id":76561199476148332,"connected_time":1406000000000,"state":"active","ping":96}]},{"server_id":14,"name":"Uncletopia | New York City | 2 | All Maps","name_short":"nyc-2","host":"nyc-1.us.uncletopia.com","port":27025,"enabled":true,"region":"us-east","cc":"us","latitude":40.73061,"longitude":-73.93524,"reserved":0,"last_update":"0001-01-01T00:00:00Z","name_a2s":"Uncletopia | New York City | 2 | All Maps","protocol":17,"map":"pl_upward","folder":"tf","game":"Team Fortress","app_id":440,"player_count":24,"max_players":24,"Bots":0,"server_type":"Dedicated","server_os":"Linux","password":true,"vac":true,"version":"7757534","steam_id":85568392924469994,"keywords":["nocrits","nodmgspread","payload","uncletopia"],"game_id":440,"stv_port":27026,"stv_name":"Uncletopia | New York City | 2 | All Maps | STV","players":[{"user_id":603,"name":"goldgardian","steam_id":76561198319471339,"connected_time":2097000000000,"state":"active","ping":90},{"user_id":640,"name":"theonepptickler","steam_id":76561199439256359,"connected_time":972000000000,"state":"active","ping":76},{"user_id":650,"name":"Femtofarad","steam_id":76561198308583053,"connected_time":619000000000,"state":"active","ping":66},{"user_id":652,"name":"BetoelAff es","steam_id":76561198377842585,"connected_time":508000000000,"state":"active","ping":135},{"user_id":643,"name":"Borgir","steam_id":76561198325390265,"connected_time":899000000000,"state":"active","ping":102},{"user_id":660,"name":"Grand Piano Tuna","steam_id":76561198135137213,"connected_time":222000000000,"state":"active","ping":102},{"user_id":654,"name":"Garfield tf2","steam_id":76561199013551051,"connected_time":480000000000,"state":"active","ping":57},{"user_id":636,"name":"GLaDOS","steam_id":76561198148724163,"connected_time":1151000000000,"state":"active","ping":119},{"user_id":626,"name":"Kingmako1099","steam_id":76561199266890323,"connected_time":1595000000000,"state":"active","ping":58},{"user_id":655,"name":"Jackie Bnuyy {{Trans Rights}}","steam_id":76561198804886675,"connected_time":474000000000,"state":"active","ping":71},{"user_id":659,"name":"e","steam_id":76561198131245396,"connected_time":283000000000,"state":"active","ping":62},{"user_id":648,"name":"royalheap real","steam_id":76561198082983680,"connected_time":693000000000,"state":"active","ping":98},{"user_id":656,"name":"Dehydrated lft s15","steam_id":76561198970587989,"connected_time":464000000000,"state":"active","ping":156},{"user_id":645,"name":"Biome","steam_id":76561198133485826,"connected_time":888000000000,"state":"active","ping":57},{"user_id":611,"name":"Carson","steam_id":76561198076771071,"connected_time":1932000000000,"state":"active","ping":60},{"user_id":657,"name":"SuperFresh","steam_id":76561198200723198,"connected_time":455000000000,"state":"active","ping":56},{"user_id":615,"name":"STartlight","steam_id":76561198985717670,"connected_time":1907000000000,"state":"active","ping":61},{"user_id":658,"name":"Wild Zangoose","steam_id":76561198008137094,"connected_time":440000000000,"state":"active","ping":92},{"user_id":618,"name":"Brain Tumor","steam_id":76561198805526881,"connected_time":1860000000000,"state":"active","ping":69},{"user_id":619,"name":"xthyl","steam_id":76561199361299006,"connected_time":1855000000000,"state":"active","ping":98},{"user_id":623,"name":"Fallowheart","steam_id":76561198044462864,"connected_time":1817000000000,"state":"active","ping":58},{"user_id":630,"name":"highmechs","steam_id":76561198013650292,"connected_time":1341000000000,"state":"active","ping":108},{"user_id":646,"name":"Porco Rosso","steam_id":76561198410024945,"connected_time":880000000000,"state":"active","ping":101},{"user_id":649,"name":"quint","steam_id":76561198046797995,"connected_time":670000000000,"state":"active","ping":67}]},{"server_id":15,"name":"Uncletopia | New York City | 3 | Stopwatch Beta","name_short":"nyc-3","host":"nyc-1.us.uncletopia.com","port":27035,"enabled":true,"region":"us-east","cc":"us","latitude":40.73061,"longitude":-73.93524,"reserved":0,"last_update":"0001-01-01T00:00:00Z","name_a2s":"Uncletopia | New York City | 3 | Stopwatch Beta","protocol":17,"map":"koth_lakeside_final","folder":"tf","game":"Team Fortress","app_id":440,"player_count":0,"max_players":24,"Bots":0,"server_type":"Dedicated","server_os":"Linux","password":true,"vac":true,"version":"7757534","steam_id":85568392924742820,"keywords":["cp","nocrits","nodmgspread","uncletopia"],"game_id":440,"stv_port":27036,"stv_name":"Uncletopia | New York City | 3 | Stopwatch Beta | STV","players":null},{"server_id":16,"name":"Uncletopia | New York City | 4 | Community","name_short":"nyc-4","host":"nyc-1.us.uncletopia.com","port":27045,"enabled":true,"region":"us-east","cc":"us","latitude":40.73061,"longitude":-73.93524,"reserved":0,"last_update":"0001-01-01T00:00:00Z","name_a2s":"Uncletopia | New York City | 4 | Community","protocol":17,"map":"pl_swiftwater_final1","folder":"tf","game":"Team Fortress","app_id":440,"player_count":0,"max_players":24,"Bots":0,"server_type":"Dedicated","server_os":"Linux","password":true,"vac":true,"version":"7757534","steam_id":85568392924742821,"keywords":["nocrits","nodmgspread","payload","uncletopia"],"game_id":440,"stv_port":27046,"stv_name":"Uncletopia | New York City | 4 | Community | STV","players":null},{"server_id":142,"name":"Uncletopia | S√£o Paulo | 1 | All Maps","name_short":"sao-1","host":"sao-1.br.uncletopia.com","port":27015,"enabled":true,"region":"sa","cc":"br","latitude":-23.533773,"longitude":-46.62529,"reserved":0,"last_update":"0001-01-01T00:00:00Z","name_a2s":"Uncletopia | S√£o Paulo | 1 | All Maps","protocol":17,"map":"koth_cascade","folder":"tf","game":"Team Fortress","app_id":440,"player_count":0,"max_players":24,"Bots":0,"server_type":"Dedicated","server_os":"Linux","password":true,"vac":true,"version":"7757534","steam_id":85568392924469996,"keywords":["cp","nocrits","nodmgspread","uncletopia"],"game_id":440,"stv_port":27016,"stv_name":"Uncletopia | S√£o Paulo | 1 | All Maps | STV","players":null},{"server_id":143,"name":"Uncletopia | S√£o Paulo | 2 | All Maps","name_short":"sao-2","host":"sao-2.br.uncletopia.com","port":27015,"enabled":true,"region":"sa","cc":"br","latitude":-23.533773,"longitude":-46.62529,"reserved":0,"last_update":"0001-01-01T00:00:00Z","name_a2s":"Uncletopia | S√£o Paulo | 2 | All Maps","protocol":17,"map":"pl_borneo","folder":"tf","game":"Team Fortress","app_id":440,"player_count":22,"max_players":24,"Bots":0,"server_type":"Dedicated","server_os":"Linux","password":true,"vac":true,"version":"7757534","steam_id":85568392924485349,"keywords":["nocrits","nodmgspread","payload","uncletopia"],"game_id":440,"stv_port":27016,"stv_name":"Uncletopia | S√£o Paulo | 2 | All Maps | STV","players":[{"user_id":189,"name":"ericgoodheart","steam_id":76561198871056612,"connected_time":124000000000,"state":"active","ping":188},{"user_id":155,"name":"Bomb","steam_id":76561198367361513,"connected_time":2537000000000,"state":"active","ping":51},{"user_id":148,"name":"LIPOTRAS","steam_id":76561198380600657,"connected_time":2771000000000,"state":"active","ping":165},{"user_id":152,"name":"Eets (vineboom)","steam_id":76561198237350282,"connected_time":2679000000000,"state":"active","ping":57},{"user_id":188,"name":"TheCattoofDankness","steam_id":76561197961922329,"connected_time":141000000000,"state":"active","ping":179},{"user_id":170,"name":"Tyrone","steam_id":76561198977849688,"connected_time":1243000000000,"state":"active","ping":45},{"user_id":165,"name":"Pathetic","steam_id":76561198051056987,"connected_time":1827000000000,"state":"active","ping":60},{"user_id":186,"name":"Blue9Fairy","steam_id":76561198039942928,"connected_time":294000000000,"state":"active","ping":50},{"user_id":151,"name":"kronos","steam_id":76561198410645341,"connected_time":2730000000000,"state":"active","ping":45},{"user_id":100,"name":":^)","steam_id":76561198276113571,"connected_time":5613000000000,"state":"active","ping":43},{"user_id":190,"name":"kaoru mitoma","steam_id":76561198143438576,"connected_time":69000000000,"state":"active","ping":44},{"user_id":171,"name":"admouse","steam_id":76561198251951784,"connected_time":1194000000000,"state":"active","ping":40},{"user_id":138,"name":"Flade","steam_id":76561199022522272,"connected_time":3110000000000,"state":"active","ping":48},{"user_id":139,"name":"White","steam_id":76561198805132813,"connected_time":3067000000000,"state":"active","ping":49},{"user_id":159,"name":"Tio do suco","steam_id":76561198328645486,"connected_time":2270000000000,"state":"active","ping":34},{"user_id":185,"name":"gudaleyt","steam_id":76561199438654682,"connected_time":332000000000,"state":"active","ping":57},{"user_id":181,"name":"Pastel do Pedr√£o","steam_id":76561199359501901,"connected_time":725000000000,"state":"active","ping":45},{"user_id":142,"name":"A Lagosta Azul","steam_id":76561198927907896,"connected_time":3045000000000,"state":"active","ping":57},{"user_id":168,"name":"King Arthur","steam_id":76561198314888449,"connected_time":1416000000000,"state":"active","ping":59},{"user_id":182,"name":"Sakura","steam_id":76561198821139110,"connected_time":705000000000,"state":"active","ping":54},{"user_id":147,"name":"lean","steam_id":76561198388376734,"connected_time":2806000000000,"state":"active","ping":104},{"user_id":184,"name":"CHUVA GAMEPLAYS","steam_id":76561198146167209,"connected_time":529000000000,"state":"active","ping":55}]},{"server_id":7,"name":"Uncletopia | Seattle | 1 | All Maps","name_short":"sea-1","host":"sea-1.us.uncletopia.com","port":27015,"enabled":true,"region":"us-west","cc":"us","latitude":47.608013,"longitude":-122.33517,"reserved":0,"last_update":"0001-01-01T00:00:00Z","name_a2s":"Uncletopia | Seattle | 1 | All Maps","protocol":17,"map":"cp_mountainlab","folder":"tf","game":"Team Fortress","app_id":440,"player_count":24,"max_players":24,"Bots":0,"server_type":"Dedicated","server_os":"Linux","password":true,"vac":true,"version":"7757534","steam_id":85568392924469997,"keywords":["cp","nocrits","nodmgspread","uncletopia"],"game_id":440,"stv_port":27016,"stv_name":"Uncletopia | Seattle | 1 | All Maps | STV","players":[{"user_id":165,"name":"River Rat","steam_id":76561198116383976,"connected_time":5125000000000,"state":"active","ping":68},{"user_id":151,"name":"Reb","steam_id":76561198144756713,"connected_time":6239000000000,"state":"active","ping":71},{"user_id":205,"name":"Keamy","steam_id":76561199471434875,"connected_time":1934000000000,"state":"active","ping":37},{"user_id":191,"name":"bloodhail","steam_id":76561198121633820,"connected_time":3501000000000,"state":"active","ping":75},{"user_id":223,"name":"da bong lord","steam_id":76561198301019618,"connected_time":200000000000,"state":"active","ping":76},{"user_id":138,"name":"Ultra Pinstinct","steam_id":76561198336604599,"connected_time":6723000000000,"state":"active","ping":61},{"user_id":164,"name":"tacofever","steam_id":76561198010966507,"connected_time":5303000000000,"state":"active","ping":75},{"user_id":203,"name":"[TTV]slendermansmoom","steam_id":76561199053946374,"connected_time":2109000000000,"state":"active","ping":63},{"user_id":197,"name":"Thewaffleman141","steam_id":76561198083068694,"connected_time":2971000000000,"state":"active","ping":114},{"user_id":207,"name":"Pah-Wraith Gul Dukat","steam_id":76561198033918106,"connected_time":1518000000000,"state":"active","ping":75},{"user_id":126,"name":"Medic","steam_id":76561198152570304,"connected_time":7340000000000,"state":"active","ping":79},{"user_id":150,"name":"Themasterman75","steam_id":76561199385573293,"connected_time":6249000000000,"state":"active","ping":73},{"user_id":195,"name":"Quarter Cheese","steam_id":76561198115814588,"connected_time":3152000000000,"state":"active","ping":44},{"user_id":204,"name":"Mitchell","steam_id":76561197972922328,"connected_time":1999000000000,"state":"active","ping":86},{"user_id":219,"name":"k1tty","steam_id":76561198869348268,"connected_time":551000000000,"state":"active","ping":69},{"user_id":190,"name":"Google (perhaps real)","steam_id":76561198857237473,"connected_time":3602000000000,"state":"active","ping":53},{"user_id":221,"name":"Coolshroomish","steam_id":76561199109440924,"connected_time":336000000000,"state":"active","ping":51},{"user_id":212,"name":"Ulrich Stern","steam_id":76561198101739682,"connected_time":689000000000,"state":"active","ping":116},{"user_id":202,"name":"Dimple #TF2Center","steam_id":76561198980324190,"connected_time":2207000000000,"state":"active","ping":48},{"user_id":206,"name":"litcherally in vents","steam_id":76561199169558959,"connected_time":1800000000000,"state":"active","ping":41},{"user_id":215,"name":"The local hobo","steam_id":76561198289650060,"connected_time":657000000000,"state":"active","ping":69},{"user_id":184,"name":"El Texicano","steam_id":76561198053207411,"connected_time":4563000000000,"state":"active","ping":116},{"user_id":216,"name":"CartNip","steam_id":76561198290916628,"connected_time":648000000000,"state":"active","ping":116},{"user_id":222,"name":"Y2K","steam_id":76561199191855486,"connected_time":294000000000,"state":"active","ping":46}]},{"server_id":119,"name":"Uncletopia | Seattle | 2 | All Maps","name_short":"sea-2","host":"sea-1.us.uncletopia.com","port":27025,"enabled":true,"region":"us-west","cc":"us","latitude":47.608013,"longitude":-122.33517,"reserved":0,"last_update":"0001-01-01T00:00:00Z","name_a2s":"Uncletopia | Seattle | 2 | All Maps","protocol":17,"map":"pl_thundermountain","folder":"tf","game":"Team Fortress","app_id":440,"player_count":24,"max_players":24,"Bots":0,"server_type":"Dedicated","server_os":"Linux","password":true,"vac":true,"version":"7757534","steam_id":85568392924469998,"keywords":["nocrits","nodmgspread","payload","uncletopia"],"game_id":440,"stv_port":27026,"stv_name":"Uncletopia | Seattle | 2 | All Maps | STV","players":[{"user_id":427,"name":"yaboismitty","steam_id":76561199130187442,"connected_time":665000000000,"state":"active","ping":74},{"user_id":426,"name":"McTriggered69","steam_id":76561198854334889,"connected_time":679000000000,"state":"active","ping":89},{"user_id":384,"name":"SaltyFlump","steam_id":76561199379601288,"connected_time":3881000000000,"state":"active","ping":59},{"user_id":409,"name":"joe rippa","steam_id":76561198170402666,"connected_time":2248000000000,"state":"active","ping":70},{"user_id":417,"name":"jon pickle water","steam_id":76561199036212135,"connected_time":1419000000000,"state":"active","ping":61},{"user_id":435,"name":"oops","steam_id":76561198339756008,"connected_time":258000000000,"state":"active","ping":139},{"user_id":410,"name":"Snippykeegan","steam_id":76561198274529343,"connected_time":2009000000000,"state":"active","ping":77},{"user_id":403,"name":"Training Arc","steam_id":76561198038832034,"connected_time":2923000000000,"state":"active","ping":59},{"user_id":434,"name":"Dunkachinno","steam_id":76561198116003100,"connected_time":615000000000,"state":"active","ping":116},{"user_id":418,"name":"Running (90's edition)","steam_id":76561198217678785,"connected_time":1407000000000,"state":"active","ping":75},{"user_id":436,"name":"the_zombie","steam_id":76561198880717356,"connected_time":177000000000,"state":"active","ping":104},{"user_id":419,"name":"TheGreatDong","steam_id":76561198000634178,"connected_time":1395000000000,"state":"active","ping":70},{"user_id":375,"name":"Eraser cat","steam_id":76561199045570463,"connected_time":4642000000000,"state":"active","ping":54},{"user_id":429,"name":"Dr. Dad Rock Deluxe","steam_id":76561198051224819,"connected_time":657000000000,"state":"active","ping":94},{"user_id":424,"name":"mrbeast109385079350229083479082","steam_id":76561198370687830,"connected_time":868000000000,"state":"active","ping":126},{"user_id":414,"name":"TheCowledWiz","steam_id":76561198016735868,"connected_time":1558000000000,"state":"active","ping":48},{"user_id":431,"name":"dougrocks421","steam_id":76561198165063918,"connected_time":643000000000,"state":"active","ping":42},{"user_id":398,"name":"lil homie gay ass","steam_id":76561198044804626,"connected_time":3173000000000,"state":"active","ping":106},{"user_id":425,"name":"heimdall","steam_id":76561198069380992,"connected_time":867000000000,"state":"active","ping":118},{"user_id":433,"name":"Tibetan Pop Star","steam_id":76561198844903984,"connected_time":620000000000,"state":"active","ping":85},{"user_id":420,"name":"M√™ ‚Ä†ro","steam_id":76561198165562389,"connected_time":1388000000000,"state":"active","ping":109},{"user_id":437,"name":"Bendidy","steam_id":76561198041964300,"connected_time":32000000000,"state":"active","ping":109},{"user_id":430,"name":"kiviviviviviviviviviviviviviviv","steam_id":76561198838223023,"connected_time":648000000000,"state":"active","ping":106},{"user_id":432,"name":"fountain Mann","steam_id":76561198834350355,"connected_time":642000000000,"state":"active","ping":63}]},{"server_id":406,"name":"Uncletopia | Seattle | 3 | Stopwatch Beta","name_short":"sea-3","host":"sea-1.us.uncletopia.com","port":27035,"enabled":true,"region":"us-west","cc":"us","latitude":47.608013,"longitude":-122.33517,"reserved":0,"last_update":"0001-01-01T00:00:00Z","name_a2s":"Uncletopia | Seattle | 3 | Stopwatch Beta","protocol":17,"map":"koth_lakeside_final","folder":"tf","game":"Team Fortress","app_id":440,"player_count":0,"max_players":24,"Bots":0,"server_type":"Dedicated","server_os":"Linux","password":true,"vac":true,"version":"7757534","steam_id":85568392924515217,"keywords":["cp","nocrits","nodmgspread","uncletopia"],"game_id":440,"stv_port":27036,"stv_name":"Uncletopia | Seattle | 3 | Stopwatch Beta | STV","players":null},{"server_id":17,"name":"Uncletopia | San Francisco | 1 | All Maps","name_short":"sfo-1","host":"sfo-1.us.uncletopia.com","port":27015,"enabled":true,"region":"us-west","cc":"us","latitude":37.77397,"longitude":-122.4313,"reserved":0,"last_update":"0001-01-01T00:00:00Z","name_a2s":"Uncletopia | San Francisco | 1 | All Maps","protocol":17,"map":"koth_king","folder":"tf","game":"Team Fortress","app_id":440,"player_count":24,"max_players":24,"Bots":0,"server_type":"Dedicated","server_os":"Linux","password":true,"vac":true,"version":"7757534","steam_id":85568392924469999,"keywords":["cp","nocrits","nodmgspread","uncletopia"],"game_id":440,"stv_port":27016,"stv_name":"Uncletopia | San Francisco | 1 | All Maps | STV","players":[{"user_id":95,"name":"Phil Collins","steam_id":76561198068868644,"connected_time":4434000000000,"state":"active","ping":53},{"user_id":119,"name":"SneekiCheekiQbone","steam_id":76561198045077980,"connected_time":2423000000000,"state":"active","ping":53},{"user_id":137,"name":"cuppo","steam_id":76561198022008901,"connected_time":1021000000000,"state":"active","ping":74},{"user_id":142,"name":"Shadowsona","steam_id":76561199224873444,"connected_time":455000000000,"state":"active","ping":101},{"user_id":138,"name":"The Glizzanator","steam_id":76561198115355451,"connected_time":1004000000000,"state":"active","ping":46},{"user_id":144,"name":"delphidae","steam_id":76561198201668298,"connected_time":105000000000,"state":"active","ping":112},{"user_id":143,"name":"kym","steam_id":76561198340743816,"connected_time":304000000000,"state":"active","ping":50},{"user_id":141,"name":"chicken","steam_id":76561198196998007,"connected_time":475000000000,"state":"active","ping":58},{"user_id":130,"name":"monkey squirts","steam_id":76561197983101644,"connected_time":1693000000000,"state":"active","ping":51},{"user_id":132,"name":"help","steam_id":76561198044689625,"connected_time":1446000000000,"state":"active","ping":62},{"user_id":114,"name":"bonk schnoffer","steam_id":76561198301598124,"connected_time":2619000000000,"state":"active","ping":77},{"user_id":91,"name":"alpharuby","steam_id":76561198051638462,"connected_time":4468000000000,"state":"active","ping":54},{"user_id":100,"name":"NotAWeeb","steam_id":76561198165530739,"connected_time":3819000000000,"state":"active","ping":44},{"user_id":145,"name":"Margret Thatcher Gaming","steam_id":76561198883903285,"connected_time":59000000000,"state":"active","ping":57},{"user_id":110,"name":"Jacob Hornberger 2016 dice","steam_id":76561198204549723,"connected_time":2913000000000,"state":"active","ping":133},{"user_id":134,"name":"Sentry Gun","steam_id":76561199198902869,"connected_time":1343000000000,"state":"active","ping":75},{"user_id":115,"name":"Cesar","steam_id":76561199244427790,"connected_time":2612000000000,"state":"active","ping":101},{"user_id":146,"name":"Buswolley","steam_id":76561197995205571,"connected_time":52000000000,"state":"active","ping":46},{"user_id":136,"name":"eau:","steam_id":76561198110020262,"connected_time":1090000000000,"state":"active","ping":49},{"user_id":147,"name":"0cho","steam_id":76561198014092640,"connected_time":32000000000,"state":"active","ping":72},{"user_id":118,"name":"Carthage","steam_id":76561198049001571,"connected_time":2549000000000,"state":"active","ping":93},{"user_id":129,"name":"Engynier Gaimeang (F2P)","steam_id":76561199013888779,"connected_time":1700000000000,"state":"active","ping":58},{"user_id":128,"name":"JustForKicks96","steam_id":76561198055486814,"connected_time":1790000000000,"state":"active","ping":64},{"user_id":148,"name":"Marble City","steam_id":76561198103064457,"connected_time":25000000000,"state":"active","ping":118}]},{"server_id":18,"name":"Uncletopia | San Francisco | 2 | All Maps","name_short":"sfo-2","host":"sfo-1.us.uncletopia.com","port":27025,"enabled":true,"region":"us-west","cc":"us","latitude":37.77397,"longitude":-122.4313,"reserved":0,"last_update":"0001-01-01T00:00:00Z","name_a2s":"Uncletopia | San Francisco | 2 | All Maps","protocol":17,"map":"koth_viaduct","folder":"tf","game":"Team Fortress","app_id":440,"player_count":24,"max_players":24,"Bots":0,"server_type":"Dedicated","server_os":"Linux","password":true,"vac":true,"version":"7757534","steam_id":85568392924470000,"keywords":["cp","nocrits","nodmgspread","uncletopia"],"game_id":440,"stv_port":27026,"stv_name":"Uncletopia | San Francisco | 2 | All Maps | STV","players":[{"user_id":136,"name":"Aequalis747","steam_id":76561199456589841,"connected_time":1332000000000,"state":"active","ping":77},{"user_id":118,"name":"Mina's Ninas","steam_id":76561198046502179,"connected_time":3007000000000,"state":"active","ping":67},{"user_id":148,"name":"ChaoticAngel","steam_id":76561198293528217,"connected_time":784000000000,"state":"active","ping":97},{"user_id":93,"name":"momus","steam_id":76561198966979196,"connected_time":4991000000000,"state":"active","ping":52},{"user_id":95,"name":"The Horny","steam_id":76561198863639459,"connected_time":4970000000000,"state":"active","ping":71},{"user_id":122,"name":"bee","steam_id":76561198178015361,"connected_time":2798000000000,"state":"active","ping":108},{"user_id":126,"name":"kaede :3","steam_id":76561198345528370,"connected_time":2408000000000,"state":"active","ping":42},{"user_id":129,"name":"lonelymaw","steam_id":76561198020675278,"connected_time":2214000000000,"state":"active","ping":59},{"user_id":130,"name":"jaketropolis","steam_id":76561198044728812,"connected_time":2193000000000,"state":"active","ping":105},{"user_id":151,"name":"Auggy","steam_id":76561198041816037,"connected_time":752000000000,"state":"active","ping":59},{"user_id":158,"name":"HuntBunt","steam_id":76561199055381357,"connected_time":494000000000,"state":"active","ping":87},{"user_id":159,"name":"Eremital","steam_id":76561198069557669,"connected_time":469000000000,"state":"active","ping":60},{"user_id":150,"name":"Big Jon","steam_id":76561198402285099,"connected_time":757000000000,"state":"active","ping":59},{"user_id":33,"name":"old birb man","steam_id":76561199410269097,"connected_time":8578000000000,"state":"active","ping":98},{"user_id":152,"name":"Gumba21","steam_id":76561199167640179,"connected_time":752000000000,"state":"active","ping":261},{"user_id":140,"name":"frank gallagher","steam_id":76561198973429541,"connected_time":1171000000000,"state":"active","ping":145},{"user_id":153,"name":"Saucy Santum","steam_id":76561199245789973,"connected_time":741000000000,"state":"active","ping":72},{"user_id":135,"name":"Reptile DysFunktion","steam_id":76561198018725250,"connected_time":1530000000000,"state":"active","ping":47},{"user_id":131,"name":"Bobby Ray","steam_id":76561198044131188,"connected_time":2192000000000,"state":"active","ping":74},{"user_id":121,"name":"Sgt. Satire","steam_id":76561198104193483,"connected_time":2893000000000,"state":"active","ping":74},{"user_id":157,"name":"The Warrior","steam_id":76561198304697019,"connected_time":621000000000,"state":"active","ping":96},{"user_id":97,"name":"Landlord","steam_id":76561198987913057,"connected_time":4947000000000,"state":"active","ping":81},{"user_id":160,"name":"ivy","steam_id":76561198031474906,"connected_time":32000000000,"state":"spawning","ping":111},{"user_id":155,"name":"Sheev Palpatine","steam_id":76561198252332430,"connected_time":651000000000,"state":"active","ping":71}]},{"server_id":19,"name":"Uncletopia | San Francisco | 3 | Stopwatch Beta","name_short":"sfo-3","host":"sfo-1.us.uncletopia.com","port":27035,"enabled":true,"region":"us-west","cc":"us","latitude":37.77397,"longitude":-122.4313,"reserved":0,"last_update":"0001-01-01T00:00:00Z","name_a2s":"Uncletopia | San Francisco | 3 | Stopwatch Beta","protocol":17,"map":"workshop/cp_reckoner_rc6.ugc674719999","folder":"tf","game":"Team Fortress","app_id":440,"player_count":0,"max_players":24,"Bots":0,"server_type":"Dedicated","server_os":"Linux","password":true,"vac":true,"version":"7757534","steam_id":85568392924742824,"keywords":["cp","nocrits","nodmgspread","uncletopia"],"game_id":440,"stv_port":27036,"stv_name":"Uncletopia | San Francisco | 3 | Stopwatch Beta | STV","players":null},{"server_id":20,"name":"Uncletopia | San Francisco | 4 | Community","name_short":"sfo-4","host":"sfo-1.us.uncletopia.com","port":27045,"enabled":true,"region":"us-west","cc":"us","latitude":37.77397,"longitude":-122.4313,"reserved":0,"last_update":"0001-01-01T00:00:00Z","name_a2s":"Uncletopia | San Francisco | 4 | Community","protocol":17,"map":"workshop/koth_product_final.ugc454272353","folder":"tf","game":"Team Fortress","app_id":440,"player_count":0,"max_players":24,"Bots":0,"server_type":"Dedicated","server_os":"Linux","password":true,"vac":true,"version":"7757534","steam_id":85568392924742826,"keywords":["cp","nocrits","nodmgspread","uncletopia"],"game_id":440,"stv_port":27046,"stv_name":"Uncletopia | San Francisco | 4 | Community | STV","players":null},{"server_id":141,"name":"Uncletopia | Sydney | 1 | All Maps","name_short":"syd-1","host":"syd-1.au.uncletopia.com","port":27015,"enabled":true,"region":"au","cc":"au","latitude":-33.865143,"longitude":151.2099,"reserved":0,"last_update":"0001-01-01T00:00:00Z","name_a2s":"Uncletopia | Sydney | 1 | All Maps","protocol":17,"map":"koth_viaduct","folder":"tf","game":"Team Fortress","app_id":440,"player_count":2,"max_players":24,"Bots":0,"server_type":"Dedicated","server_os":"Linux","password":true,"vac":true,"version":"7757534","steam_id":85568392924470001,"keywords":["cp","nocrits","nodmgspread","uncletopia"],"game_id":440,"stv_port":27016,"stv_name":"Uncletopia | Sydney | 1 | All Maps | STV","players":[{"user_id":9,"name":"Cyborgcupine","steam_id":76561198257389366,"connected_time":826000000000,"state":"active","ping":90},{"user_id":11,"name":"greglange","steam_id":76561199006294296,"connected_time":89000000000,"state":"active","ping":308}]},{"server_id":123,"name":"Uncletopia | Sydney | 2 | All Maps","name_short":"syd-2","host":"syd-1.au.uncletopia.com","port":27025,"enabled":true,"region":"au","cc":"au","latitude":-33.865143,"longitude":151.2099,"reserved":0,"last_update":"0001-01-01T00:00:00Z","name_a2s":"Uncletopia | Sydney | 2 | All Maps","protocol":17,"map":"cp_process_final","folder":"tf","game":"Team Fortress","app_id":440,"player_count":0,"max_players":24,"Bots":0,"server_type":"Dedicated","server_os":"Linux","password":true,"vac":true,"version":"7757534","steam_id":85568392924470002,"keywords":["cp","nocrits","nodmgspread","uncletopia"],"game_id":440,"stv_port":27026,"stv_name":"Uncletopia | Sydney | 2 | All Maps | STV","players":null},{"server_id":395,"name":"Uncletopia | Sydney | 3 | All Maps","name_short":"syd-3","host":"syd-1.au.uncletopia.com","port":27035,"enabled":true,"region":"au","cc":"au","latitude":-33.865143,"longitude":151.2099,"reserved":0,"last_update":"0001-01-01T00:00:00Z","name_a2s":"Uncletopia | Sydney | 3 | All Maps","protocol":17,"map":"pl_swiftwater_final1","folder":"tf","game":"Team Fortress","app_id":440,"player_count":0,"max_players":24,"Bots":0,"server_type":"Dedicated","server_os":"Linux","password":true,"vac":true,"version":"7757534","steam_id":85568392925194467,"keywords":["nocrits","nodmgspread","payload","uncletopia"],"game_id":440,"stv_port":27036,"stv_name":"Uncletopia | Sydney | 3 | All Maps | STV","players":null},{"server_id":396,"name":"Uncletopia | Sydney | 4 | All Maps","name_short":"syd-4","host":"syd-1.au.uncletopia.com","port":27045,"enabled":true,"region":"au","cc":"au","latitude":-33.865143,"longitude":151.2099,"reserved":0,"last_update":"0001-01-01T00:00:00Z","name_a2s":"Uncletopia | Sydney | 4 | All Maps","protocol":17,"map":"koth_highpass","folder":"tf","game":"Team Fortress","app_id":440,"player_count":0,"max_players":24,"Bots":0,"server_type":"Dedicated","server_os":"Linux","password":true,"vac":true,"version":"7757534","steam_id":85568392925397958,"keywords":["cp","nocrits","nodmgspread","uncletopia"],"game_id":440,"stv_port":27046,"stv_name":"Uncletopia | Sydney | 4 | All Maps | STV","players":null},{"server_id":58,"name":"Uncletopia | Sydney | 5 | Stopwatch Beta","name_short":"syd-5","host":"syd-1.au.uncletopia.com","port":27055,"enabled":true,"region":"au","cc":"au","latitude":-33.865143,"longitude":151.2099,"reserved":0,"last_update":"0001-01-01T00:00:00Z","name_a2s":"Uncletopia | Sydney | 5 | Stopwatch Beta","protocol":17,"map":"koth_cascade","folder":"tf","game":"Team Fortress","app_id":440,"player_count":0,"max_players":24,"Bots":0,"server_type":"Dedicated","server_os":"Linux","password":true,"vac":true,"version":"7757534","steam_id":85568392925397959,"keywords":["cp","nocrits","nodmgspread","uncletopia"],"game_id":440,"stv_port":27056,"stv_name":"Uncletopia | Sydney | 5 | Stopwatch Beta | STV","players":null},{"server_id":59,"name":"Uncletopia | Sydney | 6 | Community","name_short":"syd-6","host":"syd-1.au.uncletopia.com","port":27065,"enabled":true,"region":"au","cc":"au","latitude":-33.865143,"longitude":151.2099,"reserved":0,"last_update":"0001-01-01T00:00:00Z","name_a2s":"Uncletopia | Sydney | 6 | Community","protocol":17,"map":"cp_snakewater_final1","folder":"tf","game":"Team Fortress","app_id":440,"player_count":0,"max_players":24,"Bots":0,"server_type":"Dedicated","server_os":"Linux","password":true,"vac":true,"version":"7757534","steam_id":85568392925397960,"keywords":["cp","nocrits","nodmgspread","uncletopia"],"game_id":440,"stv_port":27066,"stv_name":"Uncletopia | Sydney | 6 | Community | STV","players":null},{"server_id":49,"name":"Uncletopia | Warsaw | 1 | All Maps","name_short":"waw-1","host":"waw-1.pl.uncletopia.com","port":27015,"enabled":true,"region":"eu","cc":"pl","latitude":52.2297,"longitude":21.017532,"reserved":0,"last_update":"0001-01-01T00:00:00Z","name_a2s":"","protocol":0,"map":"","folder":"","game":"","app_id":0,"player_count":0,"max_players":0,"Bots":0,"server_type":"","server_os":"","password":false,"vac":false,"version":"","steam_id":0,"keywords":null,"game_id":0,"stv_port":0,"stv_name":"","players":null},{"server_id":50,"name":"Uncletopia | Warsaw | 2 | All Maps","name_short":"waw-2","host":"waw-1.pl.uncletopia.com","port":27025,"enabled":true,"region":"eu","cc":"pl","latitude":52.2297,"longitude":21.017532,"reserved":0,"last_update":"0001-01-01T00:00:00Z","name_a2s":"Uncletopia | Warsaw | 2 | All Maps","protocol":17,"map":"koth_viaduct","folder":"tf","game":"Team Fortress","app_id":440,"player_count":0,"max_players":24,"Bots":0,"server_type":"Dedicated","server_os":"Linux","password":true,"vac":true,"version":"7757534","steam_id":85568392925397851,"keywords":["cp","nocrits","nodmgspread","uncletopia"],"game_id":440,"stv_port":27026,"stv_name":"Uncletopia | Warsaw | 2 | All Maps | STV","players":null},{"server_id":51,"name":"Uncletopia | Warsaw | 3 | All Maps","name_short":"waw-3","host":"waw-1.pl.uncletopia.com","port":27035,"enabled":true,"region":"eu","cc":"pl","latitude":52.2297,"longitude":21.017532,"reserved":0,"last_update":"0001-01-01T00:00:00Z","name_a2s":"Uncletopia | Warsaw | 3 | All Maps","protocol":17,"map":"koth_viaduct","folder":"tf","game":"Team Fortress","app_id":440,"player_count":0,"max_players":24,"Bots":0,"server_type":"Dedicated","server_os":"Linux","password":true,"vac":true,"version":"7757534","steam_id":85568392925397852,"keywords":["cp","nocrits","nodmgspread","uncletopia"],"game_id":440,"stv_port":27036,"stv_name":"Uncletopia | Warsaw | 3 | All Maps | STV","players":null},{"server_id":52,"name":"Uncletopia | Warsaw | 4 | All Maps","name_short":"waw-4","host":"waw-1.pl.uncletopia.com","port":27045,"enabled":true,"region":"eu","cc":"pl","latitude":52.2297,"longitude":21.017532,"reserved":0,"last_update":"0001-01-01T00:00:00Z","name_a2s":"Uncletopia | Warsaw | 4 | All Maps","protocol":17,"map":"koth_lakeside_final","folder":"tf","game":"Team Fortress","app_id":440,"player_count":0,"max_players":24,"Bots":0,"server_type":"Dedicated","server_os":"Linux","password":true,"vac":true,"version":"7757534","steam_id":85568392925397853,"keywords":["cp","nocrits","nodmgspread","uncletopia"],"game_id":440,"stv_port":27046,"stv_name":"Uncletopia | Warsaw | 4 | All Maps | STV","players":null},{"server_id":53,"name":"Uncletopia | Warsaw | 5 | Stopwatch Beta","name_short":"waw-5","host":"waw-1.pl.uncletopia.com","port":27055,"enabled":true,"region":"eu","cc":"pl","latitude":52.2297,"longitude":21.017532,"reserved":0,"last_update":"0001-01-01T00:00:00Z","name_a2s":"Uncletopia | Warsaw | 5 | Stopwatch Beta","protocol":17,"map":"pl_borneo","folder":"tf","game":"Team Fortress","app_id":440,"player_count":0,"max_players":24,"Bots":0,"server_type":"Dedicated","server_os":"Linux","password":true,"vac":true,"version":"7757534","steam_id":85568392925397854,"keywords":["nocrits","nodmgspread","payload","uncletopia"],"game_id":440,"stv_port":27056,"stv_name":"Uncletopia | Warsaw | 5 | Stopwatch Beta | STV","players":null},{"server_id":54,"name":"Uncletopia | Warsaw | 6 | Community","name_short":"waw-6","host":"waw-1.pl.uncletopia.com","port":27065,"enabled":true,"region":"eu","cc":"pl","latitude":52.2297,"longitude":21.017532,"reserved":0,"last_update":"0001-01-01T00:00:00Z","name_a2s":"Uncletopia | Warsaw | 6 | Community","protocol":17,"map":"koth_lakeside_final","folder":"tf","game":"Team Fortress","app_id":440,"player_count":0,"max_players":24,"Bots":0,"server_type":"Dedicated","server_os":"Linux","password":true,"vac":true,"version":"7757534","steam_id":85568392925397856,"keywords":["cp","nocrits","nodmgspread","uncletopia"],"game_id":440,"stv_port":27066,"stv_name":"Uncletopia | Warsaw | 6 | Community | STV","players":null}]}