{"status":true,"message":"","result":[{"server_id":9,"name":"Uncletopia | Atlanta | 1 | All Maps","name_short":"atl-1","host":"atl-1.us.uncletopia.com","port":27015,"enabled":true,"region":"us-east","cc":"us","latitude":33.753746,"longitude":-84.38633,"reserved":0,"last_update":"0001-01-01T00:00:00Z","name_a2s":"Uncletopia | Atlanta | 1 | All Maps","protocol":17,"map":"pl_barnblitz","folder":"tf","game":"Team Fortress","app_id":440,"player_count":24,"max_players":24,"Bots":0,"server_type":"Dedicated","server_os":"Linux","password":true,"vac":true,"version":"7961495","steam_id":85568392924469982,"keywords":["nocrits","nodmgspread","payload","uncletopia"],"game_id":440,"stv_port":27016,"stv_name":"Uncletopia | Atlanta | 1 | All Maps | STV","players":[{"user_id":75,"name":"ATL2 | Hugecliff","steam_id":76561198044288534,"connected_time":3512000000000,"state":"active","ping":65},{"user_id":33,"name":"Killbasa","steam_id":76561198064868400,"connected_time":6960000000000,"state":"active","ping":78},{"user_id":111,"name":"Ashes!","steam_id":76561197998475441,"connected_time":540000000000,"state":"active","ping":99},{"user_id":68,"name":"e doctor","steam_id":76561198081851446,"connected_time":4247000000000,"state":"active","ping":61},{"user_id":97,"name":"frick sniper","steam_id":76561198079603532,"connected_time":2107000000000,"state":"active","ping":67},{"user_id":113,"name":"Rat","steam_id":76561198137925582,"connected_time":382000000000,"state":"active","ping":69},{"user_id":116,"name":"Goldoche","steam_id":76561197995065045,"connected_time":330000000000,"state":"active","ping":83},{"user_id":63,"name":"KillSwitch","steam_id":76561198271909107,"connected_time":4482000000000,"state":"active","ping":105},{"user_id":117,"name":"Seducktive","steam_id":76561198003267177,"connected_time":286000000000,"state":"active","ping":85},{"user_id":101,"name":"ℓ0ℓO","steam_id":76561198026811744,"connected_time":1643000000000,"state":"active","ping":62},{"user_id":76,"name":"NotoriousThicc","steam_id":76561198244650474,"connected_time":3499000000000,"state":"active","ping":91},{"user_id":114,"name":"6ix *","steam_id":76561198415484497,"connected_time":347000000000,"state":"active","ping":176},{"user_id":57,"name":"Thotimus Begonimus","steam_id":76561197970275938,"connected_time":5312000000000,"state":"active","ping":49},{"user_id":115,"name":"HÖLLENFEUER","steam_id":76561198032751171,"connected_time":345000000000,"state":"active","ping":46},{"user_id":90,"name":"Kuri","steam_id":76561199037050183,"connected_time":3073000000000,"state":"active","ping":90},{"user_id":91,"name":"willyum","steam_id":76561198168168261,"connected_time":3073000000000,"state":"active","ping":67},{"user_id":99,"name":"Obelisk","steam_id":76561198049416866,"connected_time":1895000000000,"state":"active","ping":57},{"user_id":107,"name":"FIJI","steam_id":76561198126087725,"connected_time":980000000000,"state":"active","ping":70},{"user_id":106,"name":"Gustavo Fring","steam_id":76561198132807405,"connected_time":1015000000000,"state":"active","ping":78},{"user_id":83,"name":"lionel messi","steam_id":76561198138455706,"connected_time":3387000000000,"state":"active","ping":71},{"user_id":109,"name":"nettles","steam_id":76561199238923581,"connected_time":903000000000,"state":"active","ping":107},{"user_id":56,"name":"Ryoko","steam_id":76561198084725087,"connected_time":5556000000000,"state":"active","ping":80},{"user_id":52,"name":"Aku+","steam_id":76561198813782795,"connected_time":5598000000000,"state":"active","ping":167},{"user_id":79,"name":"Kick Down Door 6:00AM TUCK☃RO","steam_id":76561197976146738,"connected_time":3400000000000,"state":"active","ping":82}]},{"server_id":104,"name":"Uncletopia | Atlanta | 2 | All Maps","name_short":"atl-2","host":"atl-1.us.uncletopia.com","port":27025,"enabled":true,"region":"us-east","cc":"us","latitude":33.753746,"longitude":-84.38633,"reserved":0,"last_update":"0001-01-01T00:00:00Z","name_a2s":"Uncletopia | Atlanta | 2 | All Maps","protocol":17,"map":"pl_snowycoast","folder":"tf","game":"Team Fortress","app_id":440,"player_count":0,"max_players":24,"Bots":0,"server_type":"Dedicated","server_os":"Linux","password":true,"vac":true,"version":"7961495","steam_id":85568392924469983,"keywords":["nocrits","nodmgspread","payload","uncletopia"],"game_id":440,"stv_port":27026,"stv_name":"Uncletopia | Atlanta | 2 | All Maps | STV","players":null},{"server_id":400,"name":"Uncletopia | Atlanta | 3 | Stopwatch","name_short":"atl-3","host":"atl-1.us.uncletopia.com","port":27035,"enabled":true,"region":"us-east","cc":"us","latitude":33.753746,"longitude":-84.38633,"reserved":0,"last_update":"0001-01-01T00:00:00Z","name_a2s":"Uncletopia | Atlanta | 3 | Stopwatch","protocol":17,"map":"workshop/koth_clearcut_b15.ugc2107050255","folder":"tf","game":"Team Fortress","app_id":440,"player_count":0,"max_players":24,"Bots":0,"server_type":"Dedicated","server_os":"Linux","password":true,"vac":true,"version":"7961495","steam_id":85568392924515187,"keywords":["cp","nocrits","nodmgspread","uncletopia"],"game_id":440,"stv_port":27036,"stv_name":"Uncletopia | Atlanta | 3 | Stopwatch | STV","players":null},{"server_id":401,"name":"Uncletopia | Atlanta | 4 | Community","name_short":"atl-4","host":"atl-1.us.uncletopia.com","port":27045,"enabled":true,"region":"us-east","cc":"us","latitude":33.753746,"longitude":-84.38633,"reserved":0,"last_update":"0001-01-01T00:00:00Z","name_a2s":"Uncletopia | Atlanta | 4 | Community","protocol":17,"map":"workshop/koth_slaughter_rc1.ugc1712845210","folder":"tf","game":"Team Fortress","app_id":440,"player_count":0,"max_players":24,"Bots":0,"server_type":"Dedicated","server_os":"Linux","password":true,"vac":true,"version":"7961495","steam_id":85568392924515188,"keywords":["cp","nocrits","nodmgspread","uncletopia"],"game_id":440,"stv_port":27046,"stv_name":"Uncletopia | Atlanta | 4 | Community | STV","players":null},{"server_id":2,"name":"Uncletopia | Chicago | 1 | All Maps","name_short":"chi-1","host":"chi-1.us.uncletopia.com","port":27015,"enabled":true,"region":"us-central","cc":"us","latitude":41.881832,"longitude":-87.62318,"reserved":0,"last_update":"0001-01-01T00:00:00Z","name_a2s":"Uncletopia | Chicago | 1 | All Maps","protocol":17,"map":"pl_snowycoast","folder":"tf","game":"Team Fortress","app_id":440,"player_count":24,"max_players":24,"Bots":0,"server_type":"Dedicated","server_os":"Linux","password":true,"vac":true,"version":"7961495","steam_id":85568392924469984,"keywords":["nocrits","nodmgspread","payload","uncletopia"],"game_id":440,"stv_port":27016,"stv_name":"Uncletopia | Chicago | 1 | All Maps | STV","players":[{"user_id":286,"name":"potatoes or potatoes","steam_id":76561198268384671,"connected_time":2039000000000,"state":"active","ping":62},{"user_id":261,"name":"Kilphax","steam_id":76561197993814144,"connected_time":3805000000000,"state":"active","ping":61},{"user_id":311,"name":"Boxxed","steam_id":76561198255787237,"connected_time":485000000000,"state":"active","ping":75},{"user_id":302,"name":"mkl","steam_id":76561197986401685,"connected_time":1236000000000,"state":"active","ping":84},{"user_id":288,"name":"2.5 Oz of Paprika","steam_id":76561198174647666,"connected_time":2033000000000,"state":"active","ping":83},{"user_id":303,"name":"Praise_to_the_Flashlight!","steam_id":76561199001728789,"connected_time":1106000000000,"state":"active","ping":61},{"user_id":290,"name":"mr ploobmeister","steam_id":76561198128908529,"connected_time":1935000000000,"state":"active","ping":80},{"user_id":307,"name":"Mentally Ill Woman","steam_id":76561198072030567,"connected_time":904000000000,"state":"active","ping":52},{"user_id":309,"name":"Rawhide Kobayashi","steam_id":76561198067051062,"connected_time":645000000000,"state":"active","ping":42},{"user_id":310,"name":"Bee_Pirate","steam_id":76561199000599111,"connected_time":553000000000,"state":"active","ping":55},{"user_id":297,"name":"Shark Sandwich","steam_id":76561198025007938,"connected_time":1376000000000,"state":"active","ping":85},{"user_id":300,"name":"MacawAbalone","steam_id":76561198015127948,"connected_time":1315000000000,"state":"active","ping":41},{"user_id":312,"name":"TurboHossBoss","steam_id":76561198052457735,"connected_time":479000000000,"state":"active","ping":75},{"user_id":259,"name":"peachy","steam_id":76561198028721790,"connected_time":4130000000000,"state":"active","ping":87},{"user_id":308,"name":"The Devil of Ramadi","steam_id":76561198060121935,"connected_time":898000000000,"state":"active","ping":66},{"user_id":217,"name":"ThatGamingKiwi","steam_id":76561199170522237,"connected_time":7858000000000,"state":"active","ping":70},{"user_id":282,"name":"BeefClapper420","steam_id":76561198080892634,"connected_time":2159000000000,"state":"active","ping":68},{"user_id":313,"name":"Chip","steam_id":76561198182205245,"connected_time":436000000000,"state":"active","ping":60},{"user_id":266,"name":"TehOneZoot","steam_id":76561198121944243,"connected_time":3566000000000,"state":"active","ping":77},{"user_id":301,"name":"Shoeshocker","steam_id":76561198174302467,"connected_time":1309000000000,"state":"active","ping":66},{"user_id":210,"name":"Rode hard, put away wet","steam_id":76561198062764039,"connected_time":8397000000000,"state":"active","ping":72},{"user_id":314,"name":"Little Skull Boi","steam_id":76561198093595888,"connected_time":426000000000,"state":"active","ping":105},{"user_id":215,"name":"B.","steam_id":76561198040445907,"connected_time":8123000000000,"state":"active","ping":76},{"user_id":272,"name":"floofy","steam_id":76561198389769098,"connected_time":2787000000000,"state":"active","ping":78}]},{"server_id":106,"name":"Uncletopia | Chicago | 2 | All Maps","name_short":"chi-2","host":"chi-1.us.uncletopia.com","port":27025,"enabled":true,"region":"us-central","cc":"us","latitude":41.881832,"longitude":-87.62318,"reserved":0,"last_update":"0001-01-01T00:00:00Z","name_a2s":"Uncletopia | Chicago | 2 | All Maps","protocol":17,"map":"cp_dustbowl","folder":"tf","game":"Team Fortress","app_id":440,"player_count":0,"max_players":24,"Bots":0,"server_type":"Dedicated","server_os":"Linux","password":true,"vac":true,"version":"7961495","steam_id":85568392924469985,"keywords":["cp","nocrits","nodmgspread","uncletopia"],"game_id":440,"stv_port":27026,"stv_name":"Uncletopia | Chicago | 2 | All Maps | STV","players":null},{"server_id":402,"name":"Uncletopia | Chicago | 3 | All Maps","name_short":"chi-3","host":"chi-1.us.uncletopia.com","port":27035,"enabled":true,"region":"us-central","cc":"us","latitude":41.881832,"longitude":-87.62318,"reserved":0,"last_update":"0001-01-01T00:00:00Z","name_a2s":"Uncletopia | Chicago | 3 | All Maps","protocol":17,"map":"plr_pipeline","folder":"tf","game":"Team Fortress","app_id":440,"player_count":0,"max_players":24,"Bots":0,"server_type":"Dedicated","server_os":"Linux","password":true,"vac":true,"version":"7961495","steam_id":85568392924515191,"keywords":["nocrits","nodmgspread","payload","uncletopia"],"game_id":440,"stv_port":27036,"stv_name":"Uncletopia | Chicago | 3 | All Maps | STV","players":null},{"server_id":403,"name":"Uncletopia | Chicago | 4 | All Maps","name_short":"chi-4","host":"chi-1.us.uncletopia.com","port":27045,"enabled":true,"region":"us-central","cc":"us","latitude":41.881832,"longitude":-87.62318,"reserved":0,"last_update":"0001-01-01T00:00:00Z","name_a2s":"Uncletopia | Chicago | 4 | All Maps","protocol":17,"map":"pl_rumford_event","folder":"tf","game":"Team Fortress","app_id":440,"player_count":0,"max_players":24,"Bots":0,"server_type":"Dedicated","server_os":"Linux","password":true,"vac":true,"version":"7961495","steam_id":85568392924515193,"keywords":["nocrits","nodmgspread","payload","uncletopia"],"game_id":440,"stv_port":27046,"stv_name":"Uncletopia | Chicago | 4 | All Maps | STV","players":null},{"server_id":36,"name":"Uncletopia | Chicago | 5 | All Maps","name_short":"chi-5","host":"chi-2.us.uncletopia.com","port":27015,"enabled":true,"region":"us-central","cc":"us","latitude":41.881832,"longitude":-87.62318,"reserved":0,"last_update":"0001-01-01T00:00:00Z","name_a2s":"Uncletopia | Chicago | 5 | All Maps","protocol":17,"map":"pl_borneo","folder":"tf","game":"Team Fortress","app_id":440,"player_count":0,"max_players":24,"Bots":0,"server_type":"Dedicated","server_os":"Linux","password":true,"vac":true,"version":"7961495","steam_id":85568392924866362,"keywords":["nocrits","nodmgspread","payload","uncletopia"],"game_id":440,"stv_port":27016,"stv_name":"Uncletopia | Chicago | 5 | All Maps | STV","players":null},{"server_id":37,"name":"Uncletopia | Chicago | 6 | All Maps","name_short":"chi-6","host":"chi-2.us.uncletopia.com","port":27025,"enabled":true,"region":"us-central","cc":"us","latitude":41.881832,"longitude":-87.62318,"reserved":0,"last_update":"0001-01-01T00:00:00Z","name_a2s":"Uncletopia | Chicago | 6 | All Maps","protocol":17,"map":"pl_badwater","folder":"tf","game":"Team Fortress","app_id":440,"player_count":24,"max_players":24,"Bots":0,"server_type":"Dedicated","server_os":"Linux","password":true,"vac":true,"version":"7961495","steam_id":85568392924866363,"keywords":["nocrits","nodmgspread","payload","uncletopia"],"game_id":440,"stv_port":27026,"stv_name":"Uncletopia | Chicago | 6 | All Maps | STV","players":[{"user_id":207,"name":"Peppa Pig","steam_id":76561198147772879,"connected_time":36000000000,"state":"active","ping":76},{"user_id":203,"name":"Kng","steam_id":76561198993248203,"connected_time":528000000000,"state":"active","ping":73},{"user_id":189,"name":"seven1","steam_id":76561198082210257,"connected_time":1367000000000,"state":"active","ping":65},{"user_id":45,"name":"dantheman","steam_id":76561199486390813,"connected_time":9990000000000,"state":"active","ping":86},{"user_id":193,"name":"Equinox","steam_id":76561198274279754,"connected_time":1147000000000,"state":"active","ping":60},{"user_id":159,"name":"Squash","steam_id":76561198054254518,"connected_time":3219000000000,"state":"active","ping":64},{"user_id":173,"name":"tanktripper","steam_id":76561198101758127,"connected_time":2075000000000,"state":"active","ping":90},{"user_id":194,"name":"Lumi","steam_id":76561198089978036,"connected_time":1066000000000,"state":"active","ping":61},{"user_id":202,"name":"Fraglin","steam_id":76561198124964000,"connected_time":557000000000,"state":"active","ping":61},{"user_id":200,"name":"choi","steam_id":76561198053669887,"connected_time":844000000000,"state":"active","ping":119},{"user_id":182,"name":"dirty30","steam_id":76561198021226566,"connected_time":1494000000000,"state":"active","ping":94},{"user_id":197,"name":"Garlic","steam_id":76561198357375007,"connected_time":895000000000,"state":"active","ping":75},{"user_id":183,"name":"brotalium","steam_id":76561198055439054,"connected_time":1476000000000,"state":"active","ping":63},{"user_id":77,"name":"everything is a lie (wake up)","steam_id":76561198144436132,"connected_time":8145000000000,"state":"active","ping":76},{"user_id":104,"name":"I'm Only 4 Inches","steam_id":76561198055542546,"connected_time":6208000000000,"state":"active","ping":44},{"user_id":206,"name":"LerN","steam_id":76561198083463877,"connected_time":408000000000,"state":"active","ping":61},{"user_id":198,"name":"Starkiller","steam_id":76561198101643120,"connected_time":883000000000,"state":"active","ping":91},{"user_id":163,"name":"dr peppah chug!","steam_id":76561198068835693,"connected_time":2369000000000,"state":"active","ping":93},{"user_id":204,"name":"Sqiddwr","steam_id":76561197998071622,"connected_time":526000000000,"state":"active","ping":88},{"user_id":191,"name":"DaRoyalYoshi","steam_id":76561198145186375,"connected_time":1330000000000,"state":"active","ping":46},{"user_id":192,"name":"An Engineer","steam_id":76561198110381643,"connected_time":1328000000000,"state":"active","ping":68},{"user_id":169,"name":"1920","steam_id":76561198111669774,"connected_time":2332000000000,"state":"active","ping":57},{"user_id":171,"name":"Jump Taunter","steam_id":76561199151398882,"connected_time":2165000000000,"state":"active","ping":77},{"user_id":205,"name":"mr poop","steam_id":76561199195196632,"connected_time":523000000000,"state":"active","ping":77}]},{"server_id":38,"name":"Uncletopia | Chicago | 7 | Stopwatch","name_short":"chi-7","host":"chi-2.us.uncletopia.com","port":27035,"enabled":true,"region":"us-central","cc":"us","latitude":41.881832,"longitude":-87.62318,"reserved":0,"last_update":"0001-01-01T00:00:00Z","name_a2s":"Uncletopia | Chicago | 7 | Stopwatch","protocol":17,"map":"cp_snakewater_final1","folder":"tf","game":"Team Fortress","app_id":440,"player_count":0,"max_players":24,"Bots":0,"server_type":"Dedicated","server_os":"Linux","password":true,"vac":true,"version":"7961495","steam_id":85568392924866364,"keywords":["cp","nocrits","nodmgspread","uncletopia"],"game_id":440,"stv_port":27036,"stv_name":"Uncletopia | Chicago | 7 | Stopwatch | STV","players":null},{"server_id":39,"name":"Uncletopia | Chicago | 8 | Community","name_short":"chi-8","host":"chi-2.us.uncletopia.com","port":27045,"enabled":true,"region":"us-central","cc":"us","latitude":41.881832,"longitude":-87.62318,"reserved":0,"last_update":"0001-01-01T00:00:00Z","name_a2s":"Uncletopia | Chicago | 8 | Community","protocol":17,"map":"workshop/koth_slaughter_rc1.ugc1712845210","folder":"tf","game":"Team Fortress","app_id":440,"player_count":0,"max_players":24,"Bots":0,"server_type":"Dedicated","server_os":"Linux","password":true,"vac":true,"version":"7961495","steam_id":85568392924866365,"keywords":["cp","nocrits","nodmgspread","uncletopia"],"game_id":440,"stv_port":27046,"stv_name":"Uncletopia | Chicago | 8 | Community | STV","players":null},{"server_id":8,"name":"Uncletopia | Dallas | 1 | All Maps","name_short":"dal-1","host":"dal-1.us.uncletopia.com","port":27015,"enabled":true,"region":"us-central","cc":"us","latitude":32.779167,"longitude":-96.80889,"reserved":0,"last_update":"0001-01-01T00:00:00Z","name_a2s":"Uncletopia | Dallas | 1 | All Maps","protocol":17,"map":"cp_sunshine","folder":"tf","game":"Team Fortress","app_id":440,"player_count":24,"max_players":24,"Bots":0,"server_type":"Dedicated","server_os":"Linux","password":true,"vac":true,"version":"7961495","steam_id":85568392924469986,"keywords":["cp","nocrits","nodmgspread","uncletopia"],"game_id":440,"stv_port":27016,"stv_name":"Uncletopia | Dallas | 1 | All Maps | STV","players":[{"user_id":157,"name":"abc123","steam_id":76561199177831971,"connected_time":1265000000000,"state":"active","ping":57},{"user_id":151,"name":"Mr. Noodle","steam_id":76561198037803087,"connected_time":1450000000000,"state":"active","ping":66},{"user_id":96,"name":"gulch","steam_id":76561199227946025,"connected_time":6332000000000,"state":"active","ping":59},{"user_id":69,"name":"Nestor","steam_id":76561198070782619,"connected_time":8466000000000,"state":"active","ping":80},{"user_id":153,"name":"Volteer","steam_id":76561198069395024,"connected_time":1404000000000,"state":"active","ping":58},{"user_id":136,"name":"Skooot","steam_id":76561198800357246,"connected_time":2803000000000,"state":"active","ping":76},{"user_id":98,"name":"beats (across the sea)","steam_id":76561199245717718,"connected_time":6313000000000,"state":"active","ping":72},{"user_id":152,"name":"DMM","steam_id":76561198065426171,"connected_time":1441000000000,"state":"active","ping":58},{"user_id":141,"name":"cloaker","steam_id":76561199453618642,"connected_time":2099000000000,"state":"active","ping":88},{"user_id":156,"name":"rizzard of oz","steam_id":76561198040907214,"connected_time":1363000000000,"state":"active","ping":60},{"user_id":162,"name":"Colonel Knacker","steam_id":76561198151578423,"connected_time":662000000000,"state":"active","ping":52},{"user_id":130,"name":"Decapitation Station","steam_id":76561198201796098,"connected_time":3298000000000,"state":"active","ping":80},{"user_id":160,"name":"Soda","steam_id":76561198219209367,"connected_time":907000000000,"state":"active","ping":57},{"user_id":165,"name":"mrpineapple070","steam_id":76561199088278757,"connected_time":339000000000,"state":"active","ping":60},{"user_id":128,"name":"POLICE","steam_id":76561198120757569,"connected_time":3728000000000,"state":"active","ping":81},{"user_id":116,"name":"coda","steam_id":76561198092052685,"connected_time":4883000000000,"state":"active","ping":90},{"user_id":159,"name":"Eden","steam_id":76561198081284664,"connected_time":1037000000000,"state":"active","ping":79},{"user_id":163,"name":"VisciousPotato","steam_id":76561198992859414,"connected_time":426000000000,"state":"active","ping":75},{"user_id":146,"name":"Derblitz","steam_id":76561198040953176,"connected_time":2044000000000,"state":"active","ping":76},{"user_id":154,"name":"Captain Malarkey","steam_id":76561198869924281,"connected_time":1403000000000,"state":"active","ping":41},{"user_id":139,"name":"RamenNoodles","steam_id":76561198325805701,"connected_time":2127000000000,"state":"active","ping":66},{"user_id":134,"name":"Dr. Han","steam_id":76561198811130843,"connected_time":3068000000000,"state":"active","ping":91},{"user_id":88,"name":"rad killl raccoon","steam_id":76561198980975595,"connected_time":7278000000000,"state":"active","ping":101},{"user_id":142,"name":"BananaMangoFestival2013","steam_id":76561198218558897,"connected_time":2098000000000,"state":"active","ping":158}]},{"server_id":108,"name":"Uncletopia | Dallas | 2 | All Maps","name_short":"dal-2","host":"dal-1.us.uncletopia.com","port":27025,"enabled":true,"region":"us-central","cc":"us","latitude":32.779167,"longitude":-96.80889,"reserved":0,"last_update":"0001-01-01T00:00:00Z","name_a2s":"Uncletopia | Dallas | 2 | All Maps","protocol":17,"map":"pl_borneo","folder":"tf","game":"Team Fortress","app_id":440,"player_count":0,"max_players":24,"Bots":0,"server_type":"Dedicated","server_os":"Linux","password":true,"vac":true,"version":"7961495","steam_id":85568392924469988,"keywords":["nocrits","nodmgspread","payload","uncletopia"],"game_id":440,"stv_port":27026,"stv_name":"Uncletopia | Dallas | 2 | All Maps | STV","players":null},{"server_id":404,"name":"Uncletopia | Dallas | 3 | All Maps","name_short":"dal-3","host":"dal-1.us.uncletopia.com","port":27035,"enabled":true,"region":"us-central","cc":"us","latitude":32.779167,"longitude":-96.80889,"reserved":0,"last_update":"0001-01-01T00:00:00Z","name_a2s":"Uncletopia | Dallas | 3 | All Maps","protocol":17,"map":"cp_coldfront","folder":"tf","game":"Team Fortress","app_id":440,"player_count":0,"max_players":24,"Bots":0,"server_type":"Dedicated","server_os":"Linux","password":true,"vac":true,"version":"7961495","steam_id":85568392924515219,"keywords":["cp","nocrits","nodmgspread","uncletopia"],"game_id":440,"stv_port":27036,"stv_name":"Uncletopia | Dallas | 3 | All Maps | STV","players":null},{"server_id":405,"name":"Uncletopia | Dallas | 4 | Community","name_short":"dal-4","host":"dal-1.us.uncletopia.com","port":27045,"enabled":true,"region":"us-central","cc":"us","latitude":32.779167,"longitude":-96.80889,"reserved":0,"last_update":"0001-01-01T00:00:00Z","name_a2s":"Uncletopia | Dallas | 4 | Community","protocol":17,"map":"workshop/cp_reckoner_rc6.ugc674719999","folder":"tf","game":"Team Fortress","app_id":440,"player_count":2,"max_players":24,"Bots":0,"server_type":"Dedicated","server_os":"Linux","password":true,"vac":true,"version":"7961495","steam_id":85568392924515220,"keywords":["cp","nocrits","nodmgspread","uncletopia"],"game_id":440,"stv_port":27046,"stv_name":"Uncletopia | Dallas | 4 | Community | STV","players":[{"user_id":4,"name":"drillstevejr","steam_id":76561198905993824,"connected_time":2585000000000,"state":"spawning","ping":170},{"user_id":6,"name":"Boot Mcstink","steam_id":76561199226873917,"connected_time":1900000000000,"state":"active","ping":71}]},{"server_id":5,"name":"Uncletopia | Frankfurt | 1 | All Maps","name_short":"frk-1","host":"frk-1.de.uncletopia.com","port":27015,"enabled":true,"region":"eu","cc":"de","latitude":50.110924,"longitude":8.682127,"reserved":0,"last_update":"0001-01-01T00:00:00Z","name_a2s":"Uncletopia | Frankfurt | 1 | All Maps","protocol":17,"map":"pl_borneo","folder":"tf","game":"Team Fortress","app_id":440,"player_count":24,"max_players":24,"Bots":0,"server_type":"Dedicated","server_os":"Linux","password":true,"vac":true,"version":"7961495","steam_id":85568392924469989,"keywords":["nocrits","nodmgspread","payload","uncletopia"],"game_id":440,"stv_port":27016,"stv_name":"Uncletopia | Frankfurt | 1 | All Maps | STV","players":[{"user_id":314,"name":"Fishlover30","steam_id":76561199197436568,"connected_time":2538000000000,"state":"active","ping":73},{"user_id":279,"name":"MR BUBBLES","steam_id":76561198019005259,"connected_time":5454000000000,"state":"active","ping":87},{"user_id":347,"name":"Yassine","steam_id":76561198140565712,"connected_time":173000000000,"state":"active","ping":56},{"user_id":311,"name":"skown","steam_id":76561198977269281,"connected_time":2826000000000,"state":"active","ping":62},{"user_id":325,"name":"rob","steam_id":76561198122211848,"connected_time":1977000000000,"state":"active","ping":106},{"user_id":307,"name":"Laru","steam_id":76561197998838438,"connected_time":3365000000000,"state":"active","ping":76},{"user_id":340,"name":"Amandus","steam_id":76561198036281079,"connected_time":895000000000,"state":"active","ping":56},{"user_id":336,"name":"Diggity","steam_id":76561198297157085,"connected_time":1053000000000,"state":"active","ping":55},{"user_id":317,"name":"bAdmon","steam_id":76561197961785793,"connected_time":2278000000000,"state":"active","ping":55},{"user_id":268,"name":"anders McFlanders","steam_id":76561198022811995,"connected_time":6133000000000,"state":"active","ping":44},{"user_id":320,"name":"photonbinding","steam_id":76561198250996330,"connected_time":2098000000000,"state":"active","ping":164},{"user_id":345,"name":"Meff","steam_id":76561197970610839,"connected_time":508000000000,"state":"active","ping":43},{"user_id":337,"name":"Master coitus","steam_id":76561198050416948,"connected_time":1051000000000,"state":"active","ping":45},{"user_id":247,"name":"✚Чыж✚","steam_id":76561198273074492,"connected_time":6815000000000,"state":"active","ping":111},{"user_id":338,"name":"Titut11","steam_id":76561198392505656,"connected_time":968000000000,"state":"active","ping":59},{"user_id":321,"name":"dre","steam_id":76561198252628006,"connected_time":2066000000000,"state":"active","ping":59},{"user_id":298,"name":"soupalognionycrouton","steam_id":76561199021878433,"connected_time":3700000000000,"state":"active","ping":75},{"user_id":348,"name":"xavier","steam_id":76561198076494034,"connected_time":161000000000,"state":"active","ping":50},{"user_id":253,"name":"Yonio","steam_id":76561198408428132,"connected_time":6750000000000,"state":"active","ping":75},{"user_id":329,"name":"michalstrach13","steam_id":76561199004687217,"connected_time":1754000000000,"state":"active","ping":61},{"user_id":335,"name":"Visphiric - All Muted","steam_id":76561198071938027,"connected_time":1109000000000,"state":"active","ping":50},{"user_id":349,"name":"Moth","steam_id":76561198405910705,"connected_time":143000000000,"state":"active","ping":76},{"user_id":331,"name":"mikkeli","steam_id":76561198123176246,"connected_time":1643000000000,"state":"active","ping":80},{"user_id":334,"name":"JohkupohkuXD","steam_id":76561198391108762,"connected_time":1112000000000,"state":"active","ping":78}]},{"server_id":110,"name":"Uncletopia | Frankfurt | 2 | All Maps","name_short":"frk-2","host":"frk-1.de.uncletopia.com","port":27025,"enabled":true,"region":"eu","cc":"de","latitude":50.110924,"longitude":8.682127,"reserved":0,"last_update":"0001-01-01T00:00:00Z","name_a2s":"Uncletopia | Frankfurt | 2 | All Maps","protocol":17,"map":"pl_swiftwater_final1","folder":"tf","game":"Team Fortress","app_id":440,"player_count":17,"max_players":24,"Bots":0,"server_type":"Dedicated","server_os":"Linux","password":true,"vac":true,"version":"7961495","steam_id":85568392924469990,"keywords":["nocrits","nodmgspread","payload","uncletopia"],"game_id":440,"stv_port":27026,"stv_name":"Uncletopia | Frankfurt | 2 | All Maps | STV","players":[{"user_id":324,"name":"Mabyz","steam_id":76561199121707139,"connected_time":581000000000,"state":"active","ping":73},{"user_id":328,"name":"..-.|..|.-..|..|.--.|","steam_id":76561198829879386,"connected_time":389000000000,"state":"active","ping":60},{"user_id":336,"name":"The Bucket","steam_id":76561199131973613,"connected_time":102000000000,"state":"active","ping":93},{"user_id":321,"name":"tiamat","steam_id":76561198116027948,"connected_time":769000000000,"state":"active","ping":75},{"user_id":288,"name":"Glada Snickaren","steam_id":76561198019037458,"connected_time":3009000000000,"state":"active","ping":47},{"user_id":291,"name":"Carrot Arc","steam_id":76561198164957006,"connected_time":2966000000000,"state":"active","ping":60},{"user_id":330,"name":"Oscaros","steam_id":76561198037661128,"connected_time":279000000000,"state":"active","ping":69},{"user_id":329,"name":"Steak","steam_id":76561198305868571,"connected_time":282000000000,"state":"active","ping":61},{"user_id":317,"name":"please do not the cat","steam_id":76561198089003514,"connected_time":1318000000000,"state":"active","ping":36},{"user_id":297,"name":"kgf","steam_id":76561198181442259,"connected_time":2613000000000,"state":"active","ping":45},{"user_id":220,"name":"else1","steam_id":76561197996558319,"connected_time":9070000000000,"state":"active","ping":75},{"user_id":331,"name":"square. possibly cube","steam_id":76561198104896547,"connected_time":239000000000,"state":"active","ping":60},{"user_id":332,"name":"Walgon","steam_id":76561198073393489,"connected_time":231000000000,"state":"active","ping":65},{"user_id":334,"name":"Vagapoot-☦","steam_id":76561199140101687,"connected_time":200000000000,"state":"active","ping":88},{"user_id":307,"name":"『Dorarhim』","steam_id":76561198220232352,"connected_time":2201000000000,"state":"active","ping":46},{"user_id":333,"name":"Waltcha","steam_id":76561198007691468,"connected_time":218000000000,"state":"active","ping":60},{"user_id":335,"name":"Solid","steam_id":76561198357049292,"connected_time":190000000000,"state":"active","ping":76}]},{"server_id":308,"name":"Uncletopia | Frankfurt | 3 | All Maps","name_short":"frk-3","host":"frk-1.de.uncletopia.com","port":27035,"enabled":true,"region":"eu","cc":"de","latitude":50.110924,"longitude":8.682127,"reserved":0,"last_update":"0001-01-01T00:00:00Z","name_a2s":"Uncletopia | Frankfurt | 3 | All Maps","protocol":17,"map":"pl_borneo","folder":"tf","game":"Team Fortress","app_id":440,"player_count":23,"max_players":24,"Bots":0,"server_type":"Dedicated","server_os":"Linux","password":true,"vac":true,"version":"7961495","steam_id":85568392924504274,"keywords":["nocrits","nodmgspread","payload","uncletopia"],"game_id":440,"stv_port":27036,"stv_name":"Uncletopia | Frankfurt | 3 | All Maps | STV","players":[{"user_id":22,"name":"WIZARD","steam_id":76561198199570742,"connected_time":3361000000000,"state":"active","ping":94},{"user_id":69,"name":"anabol1c steroids","steam_id":76561199470147761,"connected_time":1046000000000,"state":"active","ping":160},{"user_id":23,"name":"Draugluin","steam_id":76561199219965276,"connected_time":3239000000000,"state":"active","ping":48},{"user_id":90,"name":"Kal-Blansh","steam_id":76561198193882203,"connected_time":7000000000,"state":"spawning","ping":78},{"user_id":72,"name":"MM*","steam_id":76561198091084631,"connected_time":770000000000,"state":"active","ping":110},{"user_id":79,"name":"ball","steam_id":76561199042470246,"connected_time":531000000000,"state":"active","ping":51},{"user_id":86,"name":"Katta363","steam_id":76561198877144992,"connected_time":127000000000,"state":"active","ping":92},{"user_id":28,"name":"Begone","steam_id":76561199093369711,"connected_time":2015000000000,"state":"active","ping":91},{"user_id":29,"name":"ValJul456","steam_id":76561198254622005,"connected_time":2006000000000,"state":"active","ping":46},{"user_id":30,"name":"Alyosha","steam_id":76561198032771167,"connected_time":2003000000000,"state":"active","ping":75},{"user_id":81,"name":"Maxin","steam_id":76561197999923364,"connected_time":518000000000,"state":"active","ping":64},{"user_id":84,"name":"Creamers","steam_id":76561199158854856,"connected_time":317000000000,"state":"active","ping":43},{"user_id":70,"name":"SirClyan","steam_id":76561199196651938,"connected_time":1046000000000,"state":"active","ping":57},{"user_id":77,"name":"golfmastr","steam_id":76561198993144124,"connected_time":670000000000,"state":"active","ping":72},{"user_id":87,"name":"I Love Filtered Water","steam_id":76561198016042113,"connected_time":78000000000,"state":"active","ping":75},{"user_id":74,"name":"Daddys #1 candy baby","steam_id":76561198062152208,"connected_time":729000000000,"state":"active","ping":107},{"user_id":83,"name":"Mike","steam_id":76561198228455736,"connected_time":400000000000,"state":"active","ping":63},{"user_id":52,"name":"Big Smoke","steam_id":76561198118625233,"connected_time":1473000000000,"state":"active","ping":61},{"user_id":53,"name":"Charles Darwin","steam_id":76561197973496139,"connected_time":1470000000000,"state":"active","ping":70},{"user_id":89,"name":"-rikeOo-","steam_id":76561198303995379,"connected_time":24000000000,"state":"active","ping":66},{"user_id":78,"name":"aaa","steam_id":76561198322459156,"connected_time":624000000000,"state":"active","ping":45},{"user_id":58,"name":"kelm","steam_id":76561198027166144,"connected_time":1442000000000,"state":"active","ping":85},{"user_id":59,"name":"raczekr95","steam_id":76561198137619296,"connected_time":1417000000000,"state":"active","ping":59}]},{"server_id":309,"name":"Uncletopia | Frankfurt | 4 | All Maps","name_short":"frk-4","host":"frk-1.de.uncletopia.com","port":27045,"enabled":true,"region":"eu","cc":"de","latitude":50.110924,"longitude":8.682127,"reserved":0,"last_update":"0001-01-01T00:00:00Z","name_a2s":"Uncletopia | Frankfurt | 4 | All Maps","protocol":17,"map":"ctf_turbine","folder":"tf","game":"Team Fortress","app_id":440,"player_count":24,"max_players":24,"Bots":0,"server_type":"Dedicated","server_os":"Linux","password":true,"vac":true,"version":"7961495","steam_id":85568392924504275,"keywords":["ctf","nocrits","nodmgspread","uncletopia"],"game_id":440,"stv_port":27046,"stv_name":"Uncletopia | Frankfurt | 4 | All Maps | STV","players":[{"user_id":140,"name":"Ash_Dies_Alone","steam_id":76561198136126828,"connected_time":1338000000000,"state":"active","ping":45},{"user_id":146,"name":"^1MARAMA PALEX","steam_id":76561198311372563,"connected_time":913000000000,"state":"active","ping":75},{"user_id":148,"name":"Rusty","steam_id":76561198382642979,"connected_time":846000000000,"state":"active","ping":90},{"user_id":117,"name":"Lauchboiz | Bannic","steam_id":76561198060362129,"connected_time":3165000000000,"state":"active","ping":49},{"user_id":124,"name":"smart birdie","steam_id":76561199055185732,"connected_time":2652000000000,"state":"active","ping":89},{"user_id":155,"name":"Shoe Gayser","steam_id":76561198063127464,"connected_time":368000000000,"state":"active","ping":75},{"user_id":112,"name":"grr","steam_id":76561199429407130,"connected_time":3401000000000,"state":"active","ping":77},{"user_id":90,"name":"DocTwoEight","steam_id":76561198153488940,"connected_time":4373000000000,"state":"active","ping":60},{"user_id":44,"name":"Cem","steam_id":76561198138221277,"connected_time":5697000000000,"state":"active","ping":123},{"user_id":154,"name":"Out of Touch","steam_id":76561199175959277,"connected_time":502000000000,"state":"active","ping":104},{"user_id":151,"name":"tete","steam_id":76561198045222850,"connected_time":765000000000,"state":"active","ping":79},{"user_id":138,"name":"Splarvis","steam_id":76561198007792525,"connected_time":1405000000000,"state":"active","ping":58},{"user_id":133,"name":"Carry Krypl","steam_id":76561198136938121,"connected_time":2383000000000,"state":"active","ping":45},{"user_id":116,"name":"My Extraordinary Left Nut","steam_id":76561198338129578,"connected_time":3202000000000,"state":"active","ping":58},{"user_id":139,"name":"engineer drip","steam_id":76561198991032570,"connected_time":1349000000000,"state":"active","ping":82},{"user_id":153,"name":"Chappi","steam_id":76561198075512843,"connected_time":556000000000,"state":"active","ping":83},{"user_id":114,"name":"Sn1Ch","steam_id":76561198073076943,"connected_time":3308000000000,"state":"active","ping":73},{"user_id":127,"name":"orange","steam_id":76561198153181940,"connected_time":2564000000000,"state":"active","ping":76},{"user_id":145,"name":"sticks","steam_id":76561198127099299,"connected_time":1116000000000,"state":"active","ping":60},{"user_id":142,"name":"ballsack","steam_id":76561198973232202,"connected_time":1309000000000,"state":"active","ping":92},{"user_id":150,"name":"Sex Negator","steam_id":76561198296104441,"connected_time":799000000000,"state":"active","ping":157},{"user_id":110,"name":"NonProphet","steam_id":76561198280149820,"connected_time":3747000000000,"state":"active","ping":65},{"user_id":92,"name":"Mr_Touchyou","steam_id":76561198452524697,"connected_time":4362000000000,"state":"active","ping":105},{"user_id":132,"name":"h","steam_id":76561199117830682,"connected_time":2411000000000,"state":"active","ping":96}]},{"server_id":310,"name":"Uncletopia | Frankfurt | 5 | All Maps","name_short":"frk-5","host":"frk-1.de.uncletopia.com","port":27055,"enabled":true,"region":"eu","cc":"de","latitude":50.110924,"longitude":8.682127,"reserved":0,"last_update":"0001-01-01T00:00:00Z","name_a2s":"Uncletopia | Frankfurt | 5 | All Maps","protocol":17,"map":"koth_highpass","folder":"tf","game":"Team Fortress","app_id":440,"player_count":0,"max_players":24,"Bots":0,"server_type":"Dedicated","server_os":"Linux","password":true,"vac":true,"version":"7961495","steam_id":85568392924504277,"keywords":["cp","nocrits","nodmgspread","uncletopia"],"game_id":440,"stv_port":27056,"stv_name":"Uncletopia | Frankfurt | 5 | All Maps | STV","players":null},{"server_id":311,"name":"Uncletopia | Frankfurt | 6 | All Maps","name_short":"frk-6","host":"frk-1.de.uncletopia.com","port":27065,"enabled":true,"region":"eu","cc":"de","latitude":50.110924,"longitude":8.682127,"reserved":0,"last_update":"0001-01-01T00:00:00Z","name_a2s":"Uncletopia | Frankfurt | 6 | All Maps","protocol":17,"map":"pl_barnblitz","folder":"tf","game":"Team Fortress","app_id":440,"player_count":24,"max_players":24,"Bots":0,"server_type":"Dedicated","server_os":"Linux","password":true,"vac":true,"version":"7961495","steam_id":85568392924504278,"keywords":["nocrits","nodmgspread","payload","uncletopia"],"game_id":440,"stv_port":27066,"stv_name":"Uncletopia | Frankfurt | 6 | All Maps | STV","players":[{"user_id":346,"name":"chrissweep","steam_id":76561198072826791,"connected_time":821000000000,"state":"active","ping":140},{"user_id":339,"name":"Mléčný Cecek","steam_id":76561198138939377,"connected_time":1210000000000,"state":"active","ping":45},{"user_id":348,"name":"Autumn","steam_id":76561198288382452,"connected_time":461000000000,"state":"active","ping":75},{"user_id":345,"name":"Pfaff Ferenc","steam_id":76561199502583278,"connected_time":905000000000,"state":"active","ping":58},{"user_id":329,"name":"francisco","steam_id":76561198074614581,"connected_time":2022000000000,"state":"active","ping":76},{"user_id":352,"name":"Silva_mlon","steam_id":76561199310242047,"connected_time":18000000000,"state":"active","ping":69},{"user_id":336,"name":"Caliban","steam_id":76561197999696839,"connected_time":1480000000000,"state":"active","ping":96},{"user_id":318,"name":"Supercoxylac","steam_id":76561198376300138,"connected_time":2741000000000,"state":"active","ping":54},{"user_id":341,"name":"HorizonR2","steam_id":76561198034824778,"connected_time":1186000000000,"state":"active","ping":59},{"user_id":333,"name":"Rummin","steam_id":76561198064739834,"connected_time":1698000000000,"state":"active","ping":60},{"user_id":349,"name":"Lag","steam_id":76561198159360376,"connected_time":352000000000,"state":"active","ping":56},{"user_id":319,"name":"Mr. Hunts","steam_id":76561197981910397,"connected_time":2732000000000,"state":"active","ping":68},{"user_id":347,"name":"szmen","steam_id":76561198072569764,"connected_time":603000000000,"state":"active","ping":67},{"user_id":311,"name":"Name","steam_id":76561197990757157,"connected_time":3120000000000,"state":"active","ping":71},{"user_id":286,"name":"CreepyPanda","steam_id":76561198316611815,"connected_time":4753000000000,"state":"active","ping":56},{"user_id":338,"name":"Oceanic | tuesday maybe","steam_id":76561197979741827,"connected_time":1402000000000,"state":"active","ping":56},{"user_id":310,"name":"Coac","steam_id":76561198085265740,"connected_time":3302000000000,"state":"active","ping":74},{"user_id":291,"name":"Jethro Tull","steam_id":76561199034041634,"connected_time":4614000000000,"state":"active","ping":57},{"user_id":343,"name":"G_raff","steam_id":76561199048512726,"connected_time":1159000000000,"state":"active","ping":77},{"user_id":337,"name":"Cencut","steam_id":76561198989449047,"connected_time":1443000000000,"state":"active","ping":117},{"user_id":335,"name":"Noxifoxis","steam_id":76561198838493783,"connected_time":1602000000000,"state":"active","ping":63},{"user_id":278,"name":"Chinpo to bōru no gōmon","steam_id":76561199214163032,"connected_time":5006000000000,"state":"active","ping":88},{"user_id":304,"name":"Siegmeyer","steam_id":76561198328543549,"connected_time":3911000000000,"state":"active","ping":85},{"user_id":350,"name":"Rembo","steam_id":76561198406769841,"connected_time":319000000000,"state":"active","ping":101}]},{"server_id":23,"name":"Uncletopia | Frankfurt | 7 | Stopwatch","name_short":"frk-7","host":"frk-1.de.uncletopia.com","port":27075,"enabled":true,"region":"eu","cc":"de","latitude":50.110924,"longitude":8.682127,"reserved":0,"last_update":"0001-01-01T00:00:00Z","name_a2s":"Uncletopia | Frankfurt | 7 | Stopwatch","protocol":17,"map":"workshop/cp_process_f12.ugc2302948105","folder":"tf","game":"Team Fortress","app_id":440,"player_count":19,"max_players":24,"Bots":0,"server_type":"Dedicated","server_os":"Linux","password":true,"vac":true,"version":"7961495","steam_id":85568392924742827,"keywords":["cp","nocrits","nodmgspread","uncletopia"],"game_id":440,"stv_port":27076,"stv_name":"Uncletopia | Frankfurt | 7 | Stopwatch | STV","players":[{"user_id":280,"name":"Moss","steam_id":76561198970737500,"connected_time":125000000000,"state":"active","ping":72},{"user_id":253,"name":"Xx_LudZip_xX","steam_id":76561198321008764,"connected_time":1491000000000,"state":"active","ping":52},{"user_id":260,"name":"spake","steam_id":76561198109247682,"connected_time":1240000000000,"state":"active","ping":65},{"user_id":255,"name":"[insert name here]","steam_id":76561198353984272,"connected_time":1422000000000,"state":"active","ping":57},{"user_id":269,"name":"Vermilion.","steam_id":76561198050555372,"connected_time":749000000000,"state":"active","ping":60},{"user_id":217,"name":"Dicartal","steam_id":76561198295793592,"connected_time":3914000000000,"state":"active","ping":135},{"user_id":262,"name":"silicon based life form","steam_id":76561199127121346,"connected_time":1237000000000,"state":"active","ping":58},{"user_id":258,"name":"Sc1tchy","steam_id":76561198268763121,"connected_time":1379000000000,"state":"active","ping":90},{"user_id":263,"name":"jabar7","steam_id":76561198055137986,"connected_time":1226000000000,"state":"active","ping":48},{"user_id":272,"name":"Javier dorsaless","steam_id":76561198179324075,"connected_time":483000000000,"state":"active","ping":67},{"user_id":273,"name":"Kazuya","steam_id":76561198172101254,"connected_time":468000000000,"state":"active","ping":83},{"user_id":259,"name":"Average meme enjoyer","steam_id":76561199087566663,"connected_time":1347000000000,"state":"active","ping":79},{"user_id":274,"name":"PGAndy","steam_id":76561199218070297,"connected_time":447000000000,"state":"active","ping":75},{"user_id":278,"name":"severewindow731","steam_id":76561199444083275,"connected_time":374000000000,"state":"active","ping":86},{"user_id":277,"name":"Амброзиус Кусто","steam_id":76561199305171893,"connected_time":396000000000,"state":"active","ping":129},{"user_id":266,"name":"compact disc","steam_id":76561198154677956,"connected_time":1152000000000,"state":"active","ping":61},{"user_id":279,"name":"7oid","steam_id":76561198142074232,"connected_time":330000000000,"state":"active","ping":89},{"user_id":248,"name":"Ozzie","steam_id":76561197992915315,"connected_time":1937000000000,"state":"active","ping":75},{"user_id":226,"name":"akakez","steam_id":76561198095432821,"connected_time":2912000000000,"state":"active","ping":117}]},{"server_id":24,"name":"Uncletopia | Frankfurt | 8 | Community","name_short":"frk-8","host":"frk-1.de.uncletopia.com","port":27085,"enabled":true,"region":"eu","cc":"de","latitude":50.110924,"longitude":8.682127,"reserved":0,"last_update":"0001-01-01T00:00:00Z","name_a2s":"Uncletopia | Frankfurt | 8 | Community","protocol":17,"map":"workshop/pl_boundary_final1.ugc456799153","folder":"tf","game":"Team Fortress","app_id":440,"player_count":0,"max_players":24,"Bots":0,"server_type":"Dedicated","server_os":"Linux","password":true,"vac":true,"version":"7961495","steam_id":85568392924742828,"keywords":["nocrits","nodmgspread","payload","uncletopia"],"game_id":440,"stv_port":27086,"stv_name":"Uncletopia | Frankfurt | 8 | Community | STV","players":null},{"server_id":202,"name":"Uncletopia | Hong Kong | 1 | All Maps","name_short":"hgk-1","host":"hgk-1.hk.uncletopia.com","port":27015,"enabled":true,"region":"asia","cc":"hk","latitude":22.302711,"longitude":114.177216,"reserved":0,"last_update":"0001-01-01T00:00:00Z","name_a2s":"Uncletopia | Hong Kong | 1 | All Maps","protocol":17,"map":"pl_borneo","folder":"tf","game":"Team Fortress","app_id":440,"player_count":0,"max_players":24,"Bots":0,"server_type":"Dedicated","server_os":"Linux","password":true,"vac":true,"version":"7961495","steam_id":85568392924494504,"keywords":["nocrits","nodmgspread","payload","uncletopia"],"game_id":440,"stv_port":27016,"stv_name":"Uncletopia | Hong Kong | 1 | All Maps | STV","players":null},{"server_id":1,"name":"Uncletopia | Los Angeles | 1 | All Maps","name_short":"lax-1","host":"lax-1.us.uncletopia.com","port":27015,"enabled":true,"region":"us-west","cc":"us","latitude":33.94279,"longitude":-118.41004,"reserved":0,"last_update":"0001-01-01T00:00:00Z","name_a2s":"Uncletopia | Los Angeles | 1 | All Maps","protocol":17,"map":"pl_pier","folder":"tf","game":"Team Fortress","app_id":440,"player_count":24,"max_players":24,"Bots":0,"server_type":"Dedicated","server_os":"Linux","password":true,"vac":true,"version":"7961495","steam_id":85568392924469991,"keywords":["nocrits","nodmgspread","payload","uncletopia"],"game_id":440,"stv_port":27016,"stv_name":"Uncletopia | Los Angeles | 1 | All Maps | STV","players":[{"user_id":31,"name":"Cave Mushroom","steam_id":76561198090419068,"connected_time":443000000000,"state":"active","ping":90},{"user_id":4,"name":"Oktayey","steam_id":76561198143213426,"connected_time":3429000000000,"state":"active","ping":54},{"user_id":32,"name":"A Bucket","steam_id":76561198142437700,"connected_time":126000000000,"state":"active","ping":123},{"user_id":33,"name":"TheUrgeWithin","steam_id":76561198033385972,"connected_time":123000000000,"state":"active","ping":60},{"user_id":9,"name":"Kawaiiestboi","steam_id":76561198182178703,"connected_time":2013000000000,"state":"active","ping":73},{"user_id":15,"name":"usedhalfcart","steam_id":76561198072621852,"connected_time":1144000000000,"state":"active","ping":62},{"user_id":11,"name":"Marco Pierre white","steam_id":76561198115714484,"connected_time":1934000000000,"state":"active","ping":90},{"user_id":34,"name":"clavin","steam_id":76561198069380992,"connected_time":77000000000,"state":"active","ping":81},{"user_id":13,"name":"Stimpry","steam_id":76561199055662248,"connected_time":1821000000000,"state":"active","ping":51},{"user_id":14,"name":"duck duck quack","steam_id":76561198803753163,"connected_time":1181000000000,"state":"active","ping":97},{"user_id":18,"name":"aBigPoo","steam_id":76561198425027856,"connected_time":956000000000,"state":"active","ping":49},{"user_id":17,"name":"this is awkward","steam_id":76561198082873484,"connected_time":1073000000000,"state":"active","ping":49},{"user_id":19,"name":"SunkenSole9132","steam_id":76561198359562446,"connected_time":953000000000,"state":"active","ping":60},{"user_id":35,"name":"stiffle crippler","steam_id":76561198136435702,"connected_time":56000000000,"state":"active","ping":70},{"user_id":36,"name":"D1 DieHard","steam_id":76561198139084679,"connected_time":46000000000,"state":"active","ping":86},{"user_id":23,"name":"Noire","steam_id":76561198149370109,"connected_time":663000000000,"state":"active","ping":62},{"user_id":24,"name":"Spybusters","steam_id":76561198951505681,"connected_time":594000000000,"state":"active","ping":56},{"user_id":25,"name":"Dr. Juvenal","steam_id":76561198114553453,"connected_time":575000000000,"state":"active","ping":49},{"user_id":26,"name":"Travorski","steam_id":76561198072493142,"connected_time":571000000000,"state":"active","ping":84},{"user_id":27,"name":"Bad Medic Girlfriend","steam_id":76561198294054569,"connected_time":567000000000,"state":"active","ping":114},{"user_id":28,"name":"Doob","steam_id":76561199088573055,"connected_time":555000000000,"state":"active","ping":75},{"user_id":37,"name":"ChickenShred","steam_id":76561198867897841,"connected_time":7000000000,"state":"spawning","ping":81},{"user_id":30,"name":"Firedust19","steam_id":76561198153238631,"connected_time":544000000000,"state":"active","ping":60},{"user_id":38,"name":"Sir_DankToast","steam_id":76561198385093022,"connected_time":1000000000,"state":"spawning","ping":33}]},{"server_id":112,"name":"Uncletopia | Los Angeles | 2 | All Maps","name_short":"lax-2","host":"lax-1.us.uncletopia.com","port":27025,"enabled":true,"region":"us-west","cc":"us","latitude":33.94279,"longitude":-118.41004,"reserved":0,"last_update":"0001-01-01T00:00:00Z","name_a2s":"Uncletopia | Los Angeles | 2 | All Maps","protocol":17,"map":"koth_cascade","folder":"tf","game":"Team Fortress","app_id":440,"player_count":0,"max_players":24,"Bots":0,"server_type":"Dedicated","server_os":"Linux","password":true,"vac":true,"version":"7961495","steam_id":85568392924469992,"keywords":["cp","nocrits","nodmgspread","uncletopia"],"game_id":440,"stv_port":27026,"stv_name":"Uncletopia | Los Angeles | 2 | All Maps | STV","players":null},{"server_id":324,"name":"Uncletopia | Los Angeles | 3 | All Maps","name_short":"lax-3","host":"lax-1.us.uncletopia.com","port":27035,"enabled":true,"region":"us-west","cc":"us","latitude":33.94279,"longitude":-118.41004,"reserved":0,"last_update":"0001-01-01T00:00:00Z","name_a2s":"Uncletopia | Los Angeles | 3 | All Maps","protocol":17,"map":"pl_hoodoo_final","folder":"tf","game":"Team Fortress","app_id":440,"player_count":0,"max_players":24,"Bots":0,"server_type":"Dedicated","server_os":"Linux","password":true,"vac":true,"version":"7961495","steam_id":85568392924510198,"keywords":["nocrits","nodmgspread","payload","uncletopia"],"game_id":440,"stv_port":27036,"stv_name":"Uncletopia | Los Angeles | 3 | All Maps | STV","players":null},{"server_id":25,"name":"Uncletopia | Los Angeles | 4 | Stopwatch","name_short":"lax-4","host":"lax-1.us.uncletopia.com","port":27045,"enabled":true,"region":"us-west","cc":"us","latitude":33.94279,"longitude":-118.41004,"reserved":0,"last_update":"0001-01-01T00:00:00Z","name_a2s":"Uncletopia | Los Angeles | 4 | Stopwatch","protocol":17,"map":"pl_upward","folder":"tf","game":"Team Fortress","app_id":440,"player_count":0,"max_players":24,"Bots":0,"server_type":"Dedicated","server_os":"Linux","password":true,"vac":true,"version":"7961495","steam_id":85568392924510199,"keywords":["nocrits","nodmgspread","payload","uncletopia"],"game_id":440,"stv_port":27046,"stv_name":"Uncletopia | Los Angeles | 4 | Stopwatch | STV","players":null},{"server_id":11,"name":"Uncletopia | London | 1 | All Maps","name_short":"lon-1","host":"lon-1.uk.uncletopia.com","port":27015,"enabled":true,"region":"eu","cc":"gb","latitude":51.509865,"longitude":-0.118092,"reserved":0,"last_update":"0001-01-01T00:00:00Z","name_a2s":"Uncletopia | London | 1 | All Maps","protocol":17,"map":"cp_steel","folder":"tf","game":"Team Fortress","app_id":440,"player_count":24,"max_players":24,"Bots":0,"server_type":"Dedicated","server_os":"Linux","password":true,"vac":true,"version":"7961495","steam_id":85568392924367362,"keywords":["cp","nocrits","nodmgspread","uncletopia"],"game_id":440,"stv_port":27016,"stv_name":"Uncletopia | London | 1 | All Maps | STV","players":[{"user_id":266,"name":"Richard nixon roleplayer","steam_id":76561198236015392,"connected_time":4294000000000,"state":"active","ping":121},{"user_id":248,"name":"one two buckle my shoe","steam_id":76561198010662796,"connected_time":5433000000000,"state":"active","ping":46},{"user_id":276,"name":"Son Goku","steam_id":76561199383437138,"connected_time":2886000000000,"state":"active","ping":149},{"user_id":326,"name":"reika","steam_id":76561198043601838,"connected_time":106000000000,"state":"active","ping":60},{"user_id":286,"name":"map","steam_id":76561198370196400,"connected_time":2259000000000,"state":"active","ping":83},{"user_id":228,"name":"three four buckle some more","steam_id":76561198046873337,"connected_time":6552000000000,"state":"active","ping":58},{"user_id":312,"name":"Smokio","steam_id":76561198069650580,"connected_time":769000000000,"state":"active","ping":86},{"user_id":226,"name":"soil.dirt.earth","steam_id":76561198014377623,"connected_time":7134000000000,"state":"active","ping":40},{"user_id":313,"name":"Warrior555MainsGanon","steam_id":76561198388627786,"connected_time":710000000000,"state":"active","ping":59},{"user_id":324,"name":"trite","steam_id":76561197983765323,"connected_time":114000000000,"state":"active","ping":40},{"user_id":308,"name":"hiiiii haiiii hello","steam_id":76561198106049954,"connected_time":886000000000,"state":"active","ping":76},{"user_id":264,"name":"toad (ungodly gigantic)","steam_id":76561198870327755,"connected_time":4357000000000,"state":"active","ping":82},{"user_id":293,"name":"lila","steam_id":76561198040690770,"connected_time":1289000000000,"state":"active","ping":45},{"user_id":261,"name":"0:21","steam_id":76561198797266244,"connected_time":4412000000000,"state":"active","ping":64},{"user_id":315,"name":"Senior","steam_id":76561198065014164,"connected_time":594000000000,"state":"active","ping":49},{"user_id":309,"name":"Salamdar","steam_id":76561198061910407,"connected_time":853000000000,"state":"active","ping":51},{"user_id":316,"name":"george floyd","steam_id":76561198257082081,"connected_time":564000000000,"state":"active","ping":75},{"user_id":318,"name":"tola","steam_id":76561199504168033,"connected_time":546000000000,"state":"active","ping":53},{"user_id":319,"name":"Zamorocian","steam_id":76561198076604017,"connected_time":464000000000,"state":"active","ping":41},{"user_id":322,"name":"Burpman","steam_id":76561198022897937,"connected_time":348000000000,"state":"active","ping":48},{"user_id":296,"name":"STEFF","steam_id":76561198013306538,"connected_time":988000000000,"state":"active","ping":51},{"user_id":323,"name":"albert","steam_id":76561198353496134,"connected_time":319000000000,"state":"active","ping":60},{"user_id":325,"name":"Finkaksu Devourer of Sour Candy","steam_id":76561198201389163,"connected_time":113000000000,"state":"active","ping":74},{"user_id":203,"name":"whimsy. (live)","steam_id":76561198878171763,"connected_time":9933000000000,"state":"active","ping":56}]},{"server_id":114,"name":"Uncletopia | London | 2 | All Maps","name_short":"lon-2","host":"lon-1.uk.uncletopia.com","port":27025,"enabled":true,"region":"eu","cc":"gb","latitude":51.509865,"longitude":-0.118092,"reserved":0,"last_update":"0001-01-01T00:00:00Z","name_a2s":"Uncletopia | London | 2 | All Maps","protocol":17,"map":"pl_borneo","folder":"tf","game":"Team Fortress","app_id":440,"player_count":24,"max_players":24,"Bots":0,"server_type":"Dedicated","server_os":"Linux","password":true,"vac":true,"version":"7961495","steam_id":85568392924470941,"keywords":["nocrits","nodmgspread","payload","uncletopia"],"game_id":440,"stv_port":27026,"stv_name":"Uncletopia | London | 2 | All Maps | STV","players":[{"user_id":353,"name":"brazil number 1 fan","steam_id":76561198799519725,"connected_time":222000000000,"state":"active","ping":88},{"user_id":331,"name":"---","steam_id":76561198092283741,"connected_time":1488000000000,"state":"active","ping":56},{"user_id":354,"name":"THE SPIRIT","steam_id":76561198170744597,"connected_time":178000000000,"state":"active","ping":81},{"user_id":341,"name":"U F Onion","steam_id":76561198843305350,"connected_time":792000000000,"state":"active","ping":94},{"user_id":342,"name":"xanderomeister","steam_id":76561198882550389,"connected_time":779000000000,"state":"active","ping":71},{"user_id":355,"name":"Potato","steam_id":76561198070035643,"connected_time":132000000000,"state":"active","ping":66},{"user_id":343,"name":"IS3BITEL","steam_id":76561199178060325,"connected_time":770000000000,"state":"active","ping":60},{"user_id":299,"name":"Lyell","steam_id":76561198350329389,"connected_time":3374000000000,"state":"active","ping":68},{"user_id":345,"name":"crimson","steam_id":76561198208349835,"connected_time":696000000000,"state":"active","ping":65},{"user_id":356,"name":"Pringles","steam_id":76561198120850843,"connected_time":95000000000,"state":"active","ping":79},{"user_id":330,"name":"FUKAYOU","steam_id":76561198380484033,"connected_time":1541000000000,"state":"active","ping":49},{"user_id":357,"name":"baggy bum the beer belly","steam_id":76561199157336836,"connected_time":95000000000,"state":"active","ping":60},{"user_id":314,"name":"Hexagon","steam_id":76561198151205758,"connected_time":2655000000000,"state":"active","ping":60},{"user_id":263,"name":"Marcel","steam_id":76561198348686648,"connected_time":5812000000000,"state":"active","ping":44},{"user_id":352,"name":"Markein","steam_id":76561198360754280,"connected_time":251000000000,"state":"active","ping":52},{"user_id":347,"name":"Femboy Thighs","steam_id":76561198115496457,"connected_time":628000000000,"state":"active","ping":42},{"user_id":295,"name":"mrznja","steam_id":76561198170334258,"connected_time":3973000000000,"state":"active","ping":69},{"user_id":346,"name":"♥Medical student♥","steam_id":76561199119401415,"connected_time":673000000000,"state":"active","ping":119},{"user_id":335,"name":"Dagertul","steam_id":76561198102822860,"connected_time":1396000000000,"state":"active","ping":89},{"user_id":337,"name":"蓮 Lotus","steam_id":76561198083141117,"connected_time":1389000000000,"state":"active","ping":62},{"user_id":348,"name":"Sir Cauterize","steam_id":76561198047079422,"connected_time":619000000000,"state":"active","ping":41},{"user_id":349,"name":"Dr. Gruno","steam_id":76561198815633513,"connected_time":585000000000,"state":"active","ping":89},{"user_id":323,"name":"WasnaG","steam_id":76561197994445955,"connected_time":2343000000000,"state":"active","ping":67},{"user_id":328,"name":"Mr. Mundy","steam_id":76561198132008918,"connected_time":1928000000000,"state":"active","ping":86}]},{"server_id":320,"name":"Uncletopia | London | 3 | All Maps","name_short":"lon-3","host":"lon-1.uk.uncletopia.com","port":27035,"enabled":true,"region":"eu","cc":"gb","latitude":51.509865,"longitude":-0.118092,"reserved":0,"last_update":"0001-01-01T00:00:00Z","name_a2s":"Uncletopia | London | 3 | All Maps","protocol":17,"map":"pl_upward","folder":"tf","game":"Team Fortress","app_id":440,"player_count":22,"max_players":24,"Bots":0,"server_type":"Dedicated","server_os":"Linux","password":true,"vac":true,"version":"7961495","steam_id":85568392924510192,"keywords":["nocrits","nodmgspread","payload","uncletopia"],"game_id":440,"stv_port":27036,"stv_name":"Uncletopia | London | 3 | All Maps | STV","players":[{"user_id":84,"name":"TOP G","steam_id":76561198138928548,"connected_time":28000000000,"state":"active","ping":63},{"user_id":33,"name":"B∞p | ❤Fasto❤","steam_id":76561198118298527,"connected_time":3041000000000,"state":"active","ping":52},{"user_id":34,"name":"B∞p | ❤Hina❤","steam_id":76561198058465921,"connected_time":3035000000000,"state":"active","ping":53},{"user_id":47,"name":"woople","steam_id":76561198076625889,"connected_time":2412000000000,"state":"active","ping":81},{"user_id":35,"name":"Tankedup_","steam_id":76561198168659251,"connected_time":3029000000000,"state":"active","ping":43},{"user_id":60,"name":"Pharaoh","steam_id":76561198974553024,"connected_time":2101000000000,"state":"active","ping":95},{"user_id":85,"name":"DeBozMann_","steam_id":76561198266876790,"connected_time":5000000000,"state":"spawning","ping":80},{"user_id":38,"name":"1 toke 4 mars bars","steam_id":76561198056460000,"connected_time":2862000000000,"state":"active","ping":47},{"user_id":54,"name":"Cobalt","steam_id":76561198349228196,"connected_time":2231000000000,"state":"active","ping":44},{"user_id":43,"name":"TickTock|Mink","steam_id":76561198069809794,"connected_time":2717000000000,"state":"active","ping":150},{"user_id":86,"name":"yuno appreciator","steam_id":76561198083286511,"connected_time":5000000000,"state":"spawning","ping":124},{"user_id":45,"name":"Rubi","steam_id":76561198139410003,"connected_time":2584000000000,"state":"active","ping":62},{"user_id":48,"name":"Syd","steam_id":76561198020515027,"connected_time":2371000000000,"state":"active","ping":85},{"user_id":76,"name":"RoofRabbid","steam_id":76561198012821810,"connected_time":489000000000,"state":"active","ping":77},{"user_id":77,"name":"ran is running","steam_id":76561199443185667,"connected_time":477000000000,"state":"active","ping":106},{"user_id":56,"name":"Tekky☻","steam_id":76561197990987315,"connected_time":2170000000000,"state":"active","ping":37},{"user_id":78,"name":"tea for trees too","steam_id":76561198131031404,"connected_time":451000000000,"state":"active","ping":102},{"user_id":58,"name":"Lemon","steam_id":76561198188535947,"connected_time":2165000000000,"state":"active","ping":60},{"user_id":79,"name":"munkle","steam_id":76561198153943749,"connected_time":237000000000,"state":"active","ping":79},{"user_id":82,"name":"Vito","steam_id":76561198103978102,"connected_time":199000000000,"state":"active","ping":67},{"user_id":83,"name":"supercow","steam_id":76561198163201973,"connected_time":81000000000,"state":"active","ping":79},{"user_id":67,"name":"Violent_Raccoons","steam_id":76561199006002337,"connected_time":1994000000000,"state":"active","ping":45}]},{"server_id":321,"name":"Uncletopia | London | 4 | All Maps","name_short":"lon-4","host":"lon-1.uk.uncletopia.com","port":27045,"enabled":true,"region":"eu","cc":"gb","latitude":51.509865,"longitude":-0.118092,"reserved":0,"last_update":"0001-01-01T00:00:00Z","name_a2s":"Uncletopia | London | 4 | All Maps","protocol":17,"map":"cp_gullywash_final1","folder":"tf","game":"Team Fortress","app_id":440,"player_count":22,"max_players":24,"Bots":0,"server_type":"Dedicated","server_os":"Linux","password":true,"vac":true,"version":"7961495","steam_id":85568392924510193,"keywords":["cp","nocrits","nodmgspread","uncletopia"],"game_id":440,"stv_port":27046,"stv_name":"Uncletopia | London | 4 | All Maps | STV","players":[{"user_id":342,"name":"doomer","steam_id":76561198977420882,"connected_time":764000000000,"state":"active","ping":41},{"user_id":317,"name":"British Disapproval","steam_id":76561198001375260,"connected_time":2721000000000,"state":"active","ping":33},{"user_id":345,"name":"breadbear \u003c3","steam_id":76561198036895007,"connected_time":245000000000,"state":"active","ping":80},{"user_id":307,"name":"crit hit!","steam_id":76561198112693639,"connected_time":3433000000000,"state":"active","ping":43},{"user_id":249,"name":"sex haver","steam_id":76561198798892497,"connected_time":5731000000000,"state":"active","ping":57},{"user_id":340,"name":"Ullr","steam_id":76561198140547483,"connected_time":946000000000,"state":"active","ping":39},{"user_id":351,"name":"Ullapool scotsman","steam_id":76561199407941086,"connected_time":73000000000,"state":"spawning","ping":145},{"user_id":343,"name":"Spinya","steam_id":76561198086653667,"connected_time":391000000000,"state":"active","ping":58},{"user_id":344,"name":"DudeoftheRock","steam_id":76561198059401865,"connected_time":389000000000,"state":"active","ping":61},{"user_id":352,"name":"combine","steam_id":76561198007909007,"connected_time":72000000000,"state":"active","ping":53},{"user_id":330,"name":"Fat Pigeon","steam_id":76561198817940142,"connected_time":2013000000000,"state":"active","ping":53},{"user_id":337,"name":"Bobirulez","steam_id":76561198009125458,"connected_time":1501000000000,"state":"active","ping":75},{"user_id":348,"name":"joachym","steam_id":76561198428579761,"connected_time":147000000000,"state":"active","ping":60},{"user_id":341,"name":"P3rsErkki","steam_id":76561198063093495,"connected_time":779000000000,"state":"active","ping":62},{"user_id":327,"name":"ztrs6","steam_id":76561198314853803,"connected_time":2369000000000,"state":"active","ping":102},{"user_id":265,"name":"Udinese Dion","steam_id":76561198067931573,"connected_time":4614000000000,"state":"active","ping":61},{"user_id":308,"name":"Valfezant","steam_id":76561199063983797,"connected_time":3417000000000,"state":"active","ping":79},{"user_id":326,"name":"RLCrazyCat3","steam_id":76561197983757878,"connected_time":2382000000000,"state":"active","ping":51},{"user_id":281,"name":"333res","steam_id":76561198148106704,"connected_time":4269000000000,"state":"active","ping":80},{"user_id":350,"name":"full of nefarious acts","steam_id":76561198079524152,"connected_time":113000000000,"state":"active","ping":60},{"user_id":283,"name":"KLAMA  ❤","steam_id":76561198351549661,"connected_time":4230000000000,"state":"active","ping":73},{"user_id":334,"name":"Rin-Nakaret","steam_id":76561197971051188,"connected_time":1716000000000,"state":"active","ping":50}]},{"server_id":21,"name":"Uncletopia | London | 5 | All Maps","name_short":"lon-5","host":"lon-1.uk.uncletopia.com","port":27055,"enabled":true,"region":"eu","cc":"gb","latitude":51.509865,"longitude":-0.118092,"reserved":0,"last_update":"0001-01-01T00:00:00Z","name_a2s":"Uncletopia | London | 5 | All Maps","protocol":17,"map":"pl_badwater","folder":"tf","game":"Team Fortress","app_id":440,"player_count":24,"max_players":24,"Bots":0,"server_type":"Dedicated","server_os":"Linux","password":true,"vac":true,"version":"7961495","steam_id":85568392924742829,"keywords":["nocrits","nodmgspread","payload","uncletopia"],"game_id":440,"stv_port":27056,"stv_name":"Uncletopia | London | 5 | All Maps | STV","players":[{"user_id":169,"name":"Random","steam_id":76561199116602799,"connected_time":2315000000000,"state":"active","ping":32},{"user_id":200,"name":"Narvhalø","steam_id":76561198147495474,"connected_time":558000000000,"state":"active","ping":45},{"user_id":193,"name":"Huskai","steam_id":76561198141512362,"connected_time":1047000000000,"state":"active","ping":44},{"user_id":182,"name":"Snow","steam_id":76561198246680606,"connected_time":1343000000000,"state":"active","ping":67},{"user_id":203,"name":"RocketBoy08","steam_id":76561198833978944,"connected_time":475000000000,"state":"active","ping":92},{"user_id":198,"name":"LivEssense","steam_id":76561198052476979,"connected_time":608000000000,"state":"active","ping":77},{"user_id":196,"name":"phrög","steam_id":76561199230709660,"connected_time":813000000000,"state":"active","ping":60},{"user_id":201,"name":"zinzyk","steam_id":76561198128011822,"connected_time":546000000000,"state":"active","ping":60},{"user_id":194,"name":"Plep","steam_id":76561198840259819,"connected_time":943000000000,"state":"active","ping":59},{"user_id":166,"name":"YuraGreek","steam_id":76561198050182252,"connected_time":2650000000000,"state":"active","ping":90},{"user_id":209,"name":"spencer pooties","steam_id":76561198123044544,"connected_time":127000000000,"state":"spawning","ping":65},{"user_id":202,"name":"LEGEND FUMO.","steam_id":76561198061033903,"connected_time":542000000000,"state":"active","ping":60},{"user_id":154,"name":"Bags.","steam_id":76561198045708372,"connected_time":3553000000000,"state":"active","ping":53},{"user_id":179,"name":"[Imbr] Supe7nova","steam_id":76561197986998963,"connected_time":1704000000000,"state":"active","ping":56},{"user_id":142,"name":"NALA","steam_id":76561198039806469,"connected_time":3967000000000,"state":"active","ping":75},{"user_id":204,"name":"kwayeh","steam_id":76561197960546492,"connected_time":424000000000,"state":"active","ping":51},{"user_id":180,"name":"FistfulOfKittens","steam_id":76561198323611129,"connected_time":1613000000000,"state":"active","ping":61},{"user_id":189,"name":"Temperance","steam_id":76561198446955878,"connected_time":1160000000000,"state":"active","ping":59},{"user_id":205,"name":"NESS","steam_id":76561197995225318,"connected_time":402000000000,"state":"active","ping":49},{"user_id":190,"name":"Maxinator80","steam_id":76561198064728122,"connected_time":1119000000000,"state":"active","ping":48},{"user_id":206,"name":"ERBLIN011","steam_id":76561198302006065,"connected_time":371000000000,"state":"active","ping":85},{"user_id":208,"name":"[Imbr] kurush117","steam_id":76561198003364899,"connected_time":250000000000,"state":"active","ping":42},{"user_id":126,"name":"LOBZIK","steam_id":76561198114830120,"connected_time":4992000000000,"state":"active","ping":77},{"user_id":191,"name":"WinterBucket","steam_id":76561198381313801,"connected_time":1117000000000,"state":"active","ping":58}]},{"server_id":22,"name":"Uncletopia | London | 6 | All Maps","name_short":"lon-6","host":"lon-1.uk.uncletopia.com","port":27065,"enabled":true,"region":"eu","cc":"gb","latitude":51.509865,"longitude":-0.118092,"reserved":0,"last_update":"0001-01-01T00:00:00Z","name_a2s":"Uncletopia | London | 6 | All Maps","protocol":17,"map":"cp_steel","folder":"tf","game":"Team Fortress","app_id":440,"player_count":13,"max_players":24,"Bots":0,"server_type":"Dedicated","server_os":"Linux","password":true,"vac":true,"version":"7961495","steam_id":85568392924742830,"keywords":["cp","nocrits","nodmgspread","uncletopia"],"game_id":440,"stv_port":27066,"stv_name":"Uncletopia | London | 6 | All Maps | STV","players":[{"user_id":259,"name":"粗暴的性行為","steam_id":76561198843748467,"connected_time":180000000000,"state":"active","ping":63},{"user_id":260,"name":"Hopper","steam_id":76561198842778221,"connected_time":167000000000,"state":"active","ping":75},{"user_id":257,"name":"Crew","steam_id":76561198207659821,"connected_time":694000000000,"state":"active","ping":54},{"user_id":249,"name":"Ferrariracer5f1","steam_id":76561199229815098,"connected_time":1152000000000,"state":"active","ping":50},{"user_id":261,"name":"SOSI_NALOGI","steam_id":76561198858731978,"connected_time":148000000000,"state":"active","ping":60},{"user_id":262,"name":"RoastQuil","steam_id":76561198174378098,"connected_time":56000000000,"state":"active","ping":50},{"user_id":229,"name":"Wardruna96","steam_id":76561199057083828,"connected_time":2618000000000,"state":"active","ping":75},{"user_id":231,"name":"DrExplosive","steam_id":76561198063678579,"connected_time":2535000000000,"state":"active","ping":49},{"user_id":247,"name":"sac","steam_id":76561197992659494,"connected_time":1245000000000,"state":"active","ping":47},{"user_id":251,"name":"Mael-chan\u003c3","steam_id":76561197996852498,"connected_time":1080000000000,"state":"active","ping":46},{"user_id":240,"name":"Arecibo","steam_id":76561198014359615,"connected_time":1718000000000,"state":"active","ping":54},{"user_id":242,"name":"KFD","steam_id":76561198157183003,"connected_time":1535000000000,"state":"active","ping":88},{"user_id":254,"name":"L1nuS","steam_id":76561199017922842,"connected_time":1014000000000,"state":"active","ping":88}]},{"server_id":40,"name":"Uncletopia | London | 7 | Stopwatch","name_short":"lon-7","host":"lon-1.uk.uncletopia.com","port":27075,"enabled":true,"region":"eu","cc":"gb","latitude":51.509865,"longitude":-0.118092,"reserved":0,"last_update":"0001-01-01T00:00:00Z","name_a2s":"Uncletopia | London | 7 | Stopwatch","protocol":17,"map":"workshop/koth_clearcut_b15.ugc2107050255","folder":"tf","game":"Team Fortress","app_id":440,"player_count":0,"max_players":24,"Bots":0,"server_type":"Dedicated","server_os":"Linux","password":true,"vac":true,"version":"7961495","steam_id":85568392924964314,"keywords":["cp","nocrits","nodmgspread","uncletopia"],"game_id":440,"stv_port":27076,"stv_name":"Uncletopia | London | 7 | Stopwatch | STV","players":null},{"server_id":41,"name":"Uncletopia | London | 8 | Community","name_short":"lon-8","host":"lon-1.uk.uncletopia.com","port":27085,"enabled":true,"region":"eu","cc":"gb","latitude":51.509865,"longitude":-0.118092,"reserved":0,"last_update":"0001-01-01T00:00:00Z","name_a2s":"Uncletopia | London | 8 | Community","protocol":17,"map":"workshop/koth_product_final.ugc454272353","folder":"tf","game":"Team Fortress","app_id":440,"player_count":5,"max_players":24,"Bots":0,"server_type":"Dedicated","server_os":"Linux","password":true,"vac":true,"version":"7961495","steam_id":85568392924964315,"keywords":["cp","nocrits","nodmgspread","uncletopia"],"game_id":440,"stv_port":27086,"stv_name":"Uncletopia | London | 8 | Community | STV","players":[{"user_id":13,"name":"Fleak","steam_id":76561197998892190,"connected_time":1828000000000,"state":"active","ping":30},{"user_id":14,"name":"noah","steam_id":76561199146429428,"connected_time":1804000000000,"state":"active","ping":48},{"user_id":16,"name":"gabrielglod928","steam_id":76561199014805744,"connected_time":638000000000,"state":"active","ping":44},{"user_id":17,"name":"jr_","steam_id":76561198313937899,"connected_time":247000000000,"state":"active","ping":224},{"user_id":18,"name":"gametram","steam_id":76561199129180186,"connected_time":220000000000,"state":"active","ping":53}]},{"server_id":300,"name":"Uncletopia | Montréal | 1 | One Thousand Uncles","name_short":"mtl-1","host":"mtl-1.ca.uncletopia.com","port":27015,"enabled":true,"region":"us-east","cc":"ca","latitude":45.50889,"longitude":-73.56167,"reserved":0,"last_update":"0001-01-01T00:00:00Z","name_a2s":"Uncletopia | Montréal | 1 | One Thousand Uncles","protocol":17,"map":"pl_chilly","folder":"tf","game":"Team Fortress","app_id":440,"player_count":0,"max_players":32,"Bots":0,"server_type":"Dedicated","server_os":"Linux","password":true,"vac":true,"version":"7961495","steam_id":85568392924500087,"keywords":["alltalk","danepve","increased_maxplayers","norespawntime","payload","uncletopia"],"game_id":440,"stv_port":0,"stv_name":"","players":null},{"server_id":301,"name":"Uncletopia | Montréal | 2 | One Thousand Uncles","name_short":"mtl-2","host":"mtl-1.ca.uncletopia.com","port":27025,"enabled":true,"region":"us-east","cc":"ca","latitude":45.50889,"longitude":-73.56167,"reserved":0,"last_update":"0001-01-01T00:00:00Z","name_a2s":"Uncletopia | Montréal | 2 | One Thousand Uncles","protocol":17,"map":"pl_chilly","folder":"tf","game":"Team Fortress","app_id":440,"player_count":0,"max_players":32,"Bots":0,"server_type":"Dedicated","server_os":"Linux","password":true,"vac":true,"version":"7961495","steam_id":85568392924500088,"keywords":["alltalk","danepve","increased_maxplayers","norespawntime","payload","uncletopia"],"game_id":440,"stv_port":0,"stv_name":"","players":null},{"server_id":302,"name":"Uncletopia | Montréal | 3 | One Thousand Uncles","name_short":"mtl-3","host":"mtl-1.ca.uncletopia.com","port":27035,"enabled":true,"region":"us-east","cc":"ca","latitude":45.50889,"longitude":-73.56167,"reserved":0,"last_update":"0001-01-01T00:00:00Z","name_a2s":"Uncletopia | Montréal | 3 | One Thousand Uncles","protocol":17,"map":"pl_upward","folder":"tf","game":"Team Fortress","app_id":440,"player_count":0,"max_players":32,"Bots":0,"server_type":"Dedicated","server_os":"Linux","password":true,"vac":true,"version":"7961495","steam_id":85568392924500089,"keywords":["alltalk","danepve","increased_maxplayers","norespawntime","payload","uncletopia"],"game_id":440,"stv_port":0,"stv_name":"","players":null},{"server_id":13,"name":"Uncletopia | New York City | 1 | All Maps","name_short":"nyc-1","host":"nyc-1.us.uncletopia.com","port":27015,"enabled":true,"region":"us-east","cc":"us","latitude":40.73061,"longitude":-73.93524,"reserved":0,"last_update":"0001-01-01T00:00:00Z","name_a2s":"Uncletopia | New York City | 1 | All Maps","protocol":17,"map":"koth_brazil","folder":"tf","game":"Team Fortress","app_id":440,"player_count":1,"max_players":24,"Bots":0,"server_type":"Dedicated","server_os":"Linux","password":true,"vac":true,"version":"7961495","steam_id":85568392924469993,"keywords":["cp","nocrits","nodmgspread","uncletopia"],"game_id":440,"stv_port":27016,"stv_name":"Uncletopia | New York City | 1 | All Maps | STV","players":[{"user_id":5,"name":"level 5 sentry","steam_id":76561199167176376,"connected_time":30000000000,"state":"active","ping":63}]},{"server_id":14,"name":"Uncletopia | New York City | 2 | All Maps","name_short":"nyc-2","host":"nyc-1.us.uncletopia.com","port":27025,"enabled":true,"region":"us-east","cc":"us","latitude":40.73061,"longitude":-73.93524,"reserved":0,"last_update":"0001-01-01T00:00:00Z","name_a2s":"Uncletopia | New York City | 2 | All Maps","protocol":17,"map":"cp_granary","folder":"tf","game":"Team Fortress","app_id":440,"player_count":0,"max_players":24,"Bots":0,"server_type":"Dedicated","server_os":"Linux","password":true,"vac":true,"version":"7961495","steam_id":85568392924469994,"keywords":["cp","nocrits","nodmgspread","uncletopia"],"game_id":440,"stv_port":27026,"stv_name":"Uncletopia | New York City | 2 | All Maps | STV","players":null},{"server_id":15,"name":"Uncletopia | New York City | 3 | Stopwatch","name_short":"nyc-3","host":"nyc-1.us.uncletopia.com","port":27035,"enabled":true,"region":"us-east","cc":"us","latitude":40.73061,"longitude":-73.93524,"reserved":0,"last_update":"0001-01-01T00:00:00Z","name_a2s":"Uncletopia | New York City | 3 | Stopwatch","protocol":17,"map":"workshop/cp_reckoner_rc6.ugc674719999","folder":"tf","game":"Team Fortress","app_id":440,"player_count":0,"max_players":24,"Bots":0,"server_type":"Dedicated","server_os":"Linux","password":true,"vac":true,"version":"7961495","steam_id":85568392924742820,"keywords":["cp","nocrits","nodmgspread","uncletopia"],"game_id":440,"stv_port":27036,"stv_name":"Uncletopia | New York City | 3 | Stopwatch | STV","players":null},{"server_id":16,"name":"Uncletopia | New York City | 4 | Community","name_short":"nyc-4","host":"nyc-1.us.uncletopia.com","port":27045,"enabled":true,"region":"us-east","cc":"us","latitude":40.73061,"longitude":-73.93524,"reserved":0,"last_update":"0001-01-01T00:00:00Z","name_a2s":"Uncletopia | New York City | 4 | Community","protocol":17,"map":"workshop/cp_indulge.ugc528106646","folder":"tf","game":"Team Fortress","app_id":440,"player_count":0,"max_players":24,"Bots":0,"server_type":"Dedicated","server_os":"Linux","password":true,"vac":true,"version":"7961495","steam_id":85568392924742821,"keywords":["cp","nocrits","nodmgspread","uncletopia"],"game_id":440,"stv_port":27046,"stv_name":"Uncletopia | New York City | 4 | Community | STV","players":null},{"server_id":142,"name":"Uncletopia | São Paulo | 1 | All Maps","name_short":"sao-1","host":"sao-1.br.uncletopia.com","port":27015,"enabled":true,"region":"sa","cc":"br","latitude":-23.533773,"longitude":-46.62529,"reserved":0,"last_update":"0001-01-01T00:00:00Z","name_a2s":"Uncletopia | São Paulo | 1 | All Maps","protocol":17,"map":"cp_granary","folder":"tf","game":"Team Fortress","app_id":440,"player_count":0,"max_players":24,"Bots":0,"server_type":"Dedicated","server_os":"Linux","password":true,"vac":true,"version":"7961495","steam_id":85568392924469996,"keywords":["cp","nocrits","nodmgspread","uncletopia"],"game_id":440,"stv_port":27016,"stv_name":"Uncletopia | São Paulo | 1 | All Maps | STV","players":null},{"server_id":143,"name":"Uncletopia | São Paulo | 2 | Community","name_short":"sao-2","host":"sao-2.br.uncletopia.com","port":27015,"enabled":true,"region":"sa","cc":"br","latitude":-23.533773,"longitude":-46.62529,"reserved":0,"last_update":"0001-01-01T00:00:00Z","name_a2s":"Uncletopia | São Paulo | 2 | Community","protocol":17,"map":"workshop/cp_snowbase_b21.ugc2081770490","folder":"tf","game":"Team Fortress","app_id":440,"player_count":0,"max_players":24,"Bots":0,"server_type":"Dedicated","server_os":"Linux","password":true,"vac":true,"version":"7961495","steam_id":85568392924485349,"keywords":["cp","nocrits","nodmgspread","uncletopia"],"game_id":440,"stv_port":27016,"stv_name":"Uncletopia | São Paulo | 2 | Community | STV","players":null},{"server_id":7,"name":"Uncletopia | Seattle | 1 | All Maps","name_short":"sea-1","host":"sea-1.us.uncletopia.com","port":27015,"enabled":true,"region":"us-west","cc":"us","latitude":47.608013,"longitude":-122.33517,"reserved":0,"last_update":"0001-01-01T00:00:00Z","name_a2s":"Uncletopia | Seattle | 1 | All Maps","protocol":17,"map":"koth_cascade","folder":"tf","game":"Team Fortress","app_id":440,"player_count":7,"max_players":24,"Bots":0,"server_type":"Dedicated","server_os":"Linux","password":true,"vac":true,"version":"7961495","steam_id":85568392924469997,"keywords":["cp","nocrits","nodmgspread","uncletopia"],"game_id":440,"stv_port":27016,"stv_name":"Uncletopia | Seattle | 1 | All Maps | STV","players":[{"user_id":10,"name":"you just got dyked on","steam_id":76561198018977723,"connected_time":1068000000000,"state":"active","ping":44},{"user_id":11,"name":"deeeefers","steam_id":76561198082592496,"connected_time":727000000000,"state":"active","ping":45},{"user_id":12,"name":"NavyDinosaur","steam_id":76561198088459962,"connected_time":615000000000,"state":"active","ping":60},{"user_id":13,"name":"goofy goober","steam_id":76561199024079388,"connected_time":433000000000,"state":"active","ping":45},{"user_id":14,"name":"Tracey [sillymoder]","steam_id":76561198202235495,"connected_time":400000000000,"state":"active","ping":30},{"user_id":15,"name":"filthycasual","steam_id":76561199138226238,"connected_time":128000000000,"state":"active","ping":43},{"user_id":16,"name":"o o o o o o o o o","steam_id":76561197993757506,"connected_time":124000000000,"state":"active","ping":68}]},{"server_id":119,"name":"Uncletopia | Seattle | 2 | All Maps","name_short":"sea-2","host":"sea-1.us.uncletopia.com","port":27025,"enabled":true,"region":"us-west","cc":"us","latitude":47.608013,"longitude":-122.33517,"reserved":0,"last_update":"0001-01-01T00:00:00Z","name_a2s":"Uncletopia | Seattle | 2 | All Maps","protocol":17,"map":"koth_lakeside_final","folder":"tf","game":"Team Fortress","app_id":440,"player_count":0,"max_players":24,"Bots":0,"server_type":"Dedicated","server_os":"Linux","password":true,"vac":true,"version":"7961495","steam_id":85568392924469998,"keywords":["cp","nocrits","nodmgspread","uncletopia"],"game_id":440,"stv_port":27026,"stv_name":"Uncletopia | Seattle | 2 | All Maps | STV","players":null},{"server_id":406,"name":"Uncletopia | Seattle | 3 | Stopwatch","name_short":"sea-3","host":"sea-1.us.uncletopia.com","port":27035,"enabled":true,"region":"us-west","cc":"us","latitude":47.608013,"longitude":-122.33517,"reserved":0,"last_update":"0001-01-01T00:00:00Z","name_a2s":"Uncletopia | Seattle | 3 | Stopwatch","protocol":17,"map":"workshop/pl_barnblitz_pro7.ugc582280235","folder":"tf","game":"Team Fortress","app_id":440,"player_count":0,"max_players":24,"Bots":0,"server_type":"Dedicated","server_os":"Linux","password":true,"vac":true,"version":"7961495","steam_id":85568392924515217,"keywords":["nocrits","nodmgspread","payload","uncletopia"],"game_id":440,"stv_port":27036,"stv_name":"Uncletopia | Seattle | 3 | Stopwatch | STV","players":null},{"server_id":17,"name":"Uncletopia | San Francisco | 1 | All Maps","name_short":"sfo-1","host":"sfo-1.us.uncletopia.com","port":27015,"enabled":true,"region":"us-west","cc":"us","latitude":37.77397,"longitude":-122.4313,"reserved":0,"last_update":"0001-01-01T00:00:00Z","name_a2s":"Uncletopia | San Francisco | 1 | All Maps","protocol":17,"map":"koth_highpass","folder":"tf","game":"Team Fortress","app_id":440,"player_count":0,"max_players":24,"Bots":0,"server_type":"Dedicated","server_os":"Linux","password":true,"vac":true,"version":"7961495","steam_id":85568392924469999,"keywords":["cp","nocrits","nodmgspread","uncletopia"],"game_id":440,"stv_port":27016,"stv_name":"Uncletopia | San Francisco | 1 | All Maps | STV","players":null},{"server_id":18,"name":"Uncletopia | San Francisco | 2 | All Maps","name_short":"sfo-2","host":"sfo-1.us.uncletopia.com","port":27025,"enabled":true,"region":"us-west","cc":"us","latitude":37.77397,"longitude":-122.4313,"reserved":0,"last_update":"0001-01-01T00:00:00Z","name_a2s":"Uncletopia | San Francisco | 2 | All Maps","protocol":17,"map":"cp_dustbowl","folder":"tf","game":"Team Fortress","app_id":440,"player_count":0,"max_players":24,"Bots":0,"server_type":"Dedicated","server_os":"Linux","password":true,"vac":true,"version":"7961495","steam_id":85568392924470000,"keywords":["cp","nocrits","nodmgspread","uncletopia"],"game_id":440,"stv_port":27026,"stv_name":"Uncletopia | San Francisco | 2 | All Maps | STV","players":null},{"server_id":19,"name":"Uncletopia | San Francisco | 3 | Stopwatch","name_short":"sfo-3","host":"sfo-1.us.uncletopia.com","port":27035,"enabled":true,"region":"us-west","cc":"us","latitude":37.77397,"longitude":-122.4313,"reserved":0,"last_update":"0001-01-01T00:00:00Z","name_a2s":"Uncletopia | San Francisco | 3 | Stopwatch","protocol":17,"map":"workshop/koth_product_final.ugc454272353","folder":"tf","game":"Team Fortress","app_id":440,"player_count":0,"max_players":24,"Bots":0,"server_type":"Dedicated","server_os":"Linux","password":true,"vac":true,"version":"7961495","steam_id":85568392924742824,"keywords":["cp","nocrits","nodmgspread","uncletopia"],"game_id":440,"stv_port":27036,"stv_name":"Uncletopia | San Francisco | 3 | Stopwatch | STV","players":null},{"server_id":20,"name":"Uncletopia | San Francisco | 4 | Community","name_short":"sfo-4","host":"sfo-1.us.uncletopia.com","port":27045,"enabled":true,"region":"us-west","cc":"us","latitude":37.77397,"longitude":-122.4313,"reserved":0,"last_update":"0001-01-01T00:00:00Z","name_a2s":"Uncletopia | San Francisco | 4 | Community","protocol":17,"map":"workshop/pl_cactuscanyon_redux_final2.ugc2579644293","folder":"tf","game":"Team Fortress","app_id":440,"player_count":0,"max_players":24,"Bots":0,"server_type":"Dedicated","server_os":"Linux","password":true,"vac":true,"version":"7961495","steam_id":85568392924742826,"keywords":["nocrits","nodmgspread","payload","uncletopia"],"game_id":440,"stv_port":27046,"stv_name":"Uncletopia | San Francisco | 4 | Community | STV","players":null},{"server_id":141,"name":"Uncletopia | Sydney | 1 | All Maps","name_short":"syd-1","host":"syd-1.au.uncletopia.com","port":27015,"enabled":true,"region":"au","cc":"au","latitude":-33.865143,"longitude":151.2099,"reserved":0,"last_update":"0001-01-01T00:00:00Z","name_a2s":"Uncletopia | Sydney | 1 | All Maps","protocol":17,"map":"ctf_turbine","folder":"tf","game":"Team Fortress","app_id":440,"player_count":0,"max_players":24,"Bots":0,"server_type":"Dedicated","server_os":"Linux","password":true,"vac":true,"version":"7961495","steam_id":85568392924470001,"keywords":["ctf","nocrits","nodmgspread","uncletopia"],"game_id":440,"stv_port":27016,"stv_name":"Uncletopia | Sydney | 1 | All Maps | STV","players":null},{"server_id":123,"name":"Uncletopia | Sydney | 2 | All Maps","name_short":"syd-2","host":"syd-1.au.uncletopia.com","port":27025,"enabled":true,"region":"au","cc":"au","latitude":-33.865143,"longitude":151.2099,"reserved":0,"last_update":"0001-01-01T00:00:00Z","name_a2s":"Uncletopia | Sydney | 2 | All Maps","protocol":17,"map":"pl_pier","folder":"tf","game":"Team Fortress","app_id":440,"player_count":0,"max_players":24,"Bots":0,"server_type":"Dedicated","server_os":"Linux","password":true,"vac":true,"version":"7961495","steam_id":85568392924470002,"keywords":["nocrits","nodmgspread","payload","uncletopia"],"game_id":440,"stv_port":27026,"stv_name":"Uncletopia | Sydney | 2 | All Maps | STV","players":null},{"server_id":395,"name":"Uncletopia | Sydney | 3 | All Maps","name_short":"syd-3","host":"syd-1.au.uncletopia.com","port":27035,"enabled":true,"region":"au","cc":"au","latitude":-33.865143,"longitude":151.2099,"reserved":0,"last_update":"0001-01-01T00:00:00Z","name_a2s":"Uncletopia | Sydney | 3 | All Maps","protocol":17,"map":"cp_metalworks","folder":"tf","game":"Team Fortress","app_id":440,"player_count":0,"max_players":24,"Bots":0,"server_type":"Dedicated","server_os":"Linux","password":true,"vac":true,"version":"7961495","steam_id":85568392925194467,"keywords":["cp","nocrits","nodmgspread","uncletopia"],"game_id":440,"stv_port":27036,"stv_name":"Uncletopia | Sydney | 3 | All Maps | STV","players":null},{"server_id":396,"name":"Uncletopia | Sydney | 4 | All Maps","name_short":"syd-4","host":"syd-1.au.uncletopia.com","port":27045,"enabled":true,"region":"au","cc":"au","latitude":-33.865143,"longitude":151.2099,"reserved":0,"last_update":"0001-01-01T00:00:00Z","name_a2s":"Uncletopia | Sydney | 4 | All Maps","protocol":17,"map":"koth_cascade","folder":"tf","game":"Team Fortress","app_id":440,"player_count":0,"max_players":24,"Bots":0,"server_type":"Dedicated","server_os":"Linux","password":true,"vac":true,"version":"7961495","steam_id":85568392925397958,"keywords":["cp","nocrits","nodmgspread","uncletopia"],"game_id":440,"stv_port":27046,"stv_name":"Uncletopia | Sydney | 4 | All Maps | STV","players":null},{"server_id":58,"name":"Uncletopia | Sydney | 5 | Stopwatch","name_short":"syd-5","host":"syd-1.au.uncletopia.com","port":27055,"enabled":true,"region":"au","cc":"au","latitude":-33.865143,"longitude":151.2099,"reserved":0,"last_update":"0001-01-01T00:00:00Z","name_a2s":"Uncletopia | Sydney | 5 | Stopwatch","protocol":17,"map":"cp_sunshine","folder":"tf","game":"Team Fortress","app_id":440,"player_count":0,"max_players":24,"Bots":0,"server_type":"Dedicated","server_os":"Linux","password":true,"vac":true,"version":"7961495","steam_id":85568392925397959,"keywords":["cp","nocrits","nodmgspread","uncletopia"],"game_id":440,"stv_port":27056,"stv_name":"Uncletopia | Sydney | 5 | Stopwatch | STV","players":null},{"server_id":59,"name":"Uncletopia | Sydney | 6 | Community","name_short":"syd-6","host":"syd-1.au.uncletopia.com","port":27065,"enabled":true,"region":"au","cc":"au","latitude":-33.865143,"longitude":151.2099,"reserved":0,"last_update":"0001-01-01T00:00:00Z","name_a2s":"Uncletopia | Sydney | 6 | Community","protocol":17,"map":"workshop/koth_trenchfoot_ab1.ugc731436616","folder":"tf","game":"Team Fortress","app_id":440,"player_count":0,"max_players":24,"Bots":0,"server_type":"Dedicated","server_os":"Linux","password":true,"vac":true,"version":"7961495","steam_id":85568392925397960,"keywords":["cp","nocrits","nodmgspread","uncletopia"],"game_id":440,"stv_port":27066,"stv_name":"Uncletopia | Sydney | 6 | Community | STV","players":null},{"server_id":49,"name":"Uncletopia | Warsaw | 1 | One Thousand Uncles","name_short":"waw-1","host":"waw-1.pl.uncletopia.com","port":27015,"enabled":true,"region":"eu","cc":"pl","latitude":52.2297,"longitude":21.017532,"reserved":0,"last_update":"0001-01-01T00:00:00Z","name_a2s":"Uncletopia | Warsaw | 1 | One Thousand Uncles","protocol":17,"map":"pl_badwater","folder":"tf","game":"Team Fortress","app_id":440,"player_count":28,"max_players":32,"Bots":16,"server_type":"Dedicated","server_os":"Linux","password":true,"vac":true,"version":"7961495","steam_id":85568392925397850,"keywords":["alltalk","bots","danepve","increased_maxplayers","norespawntime","payload","uncletopia"],"game_id":440,"stv_port":0,"stv_name":"","players":[{"user_id":322,"name":"Rayco","steam_id":76561198048013129,"connected_time":6386000000000,"state":"active","ping":59},{"user_id":436,"name":"Millennial on phone","steam_id":76561199083638722,"connected_time":399000000000,"state":"active","ping":75},{"user_id":400,"name":"Dr_Foxy_scp_sl_PL","steam_id":76561199438046064,"connected_time":1287000000000,"state":"active","ping":62},{"user_id":349,"name":"Denton","steam_id":76561198367991717,"connected_time":4179000000000,"state":"active","ping":45},{"user_id":437,"name":"lapi","steam_id":76561198302976864,"connected_time":298000000000,"state":"active","ping":178},{"user_id":377,"name":"Meat Dragon","steam_id":76561198120319256,"connected_time":2886000000000,"state":"active","ping":160},{"user_id":385,"name":"Vecraubung","steam_id":76561198050018221,"connected_time":2106000000000,"state":"active","ping":30},{"user_id":439,"name":"A SODA FROM THE FRIDGE","steam_id":76561199393312258,"connected_time":201000000000,"state":"active","ping":68},{"user_id":389,"name":"gamer (real)","steam_id":76561198106275451,"connected_time":1988000000000,"state":"active","ping":72},{"user_id":440,"name":"=PISS MAN GAMING =","steam_id":76561198940590846,"connected_time":174000000000,"state":"active","ping":74},{"user_id":341,"name":"Valoxi","steam_id":76561197995042938,"connected_time":4462000000000,"state":"active","ping":75},{"user_id":391,"name":"Blue Orange","steam_id":76561198154572884,"connected_time":1915000000000,"state":"active","ping":68}]},{"server_id":50,"name":"Uncletopia | Warsaw | 2 | One Thousand Uncles","name_short":"waw-2","host":"waw-1.pl.uncletopia.com","port":27025,"enabled":true,"region":"eu","cc":"pl","latitude":52.2297,"longitude":21.017532,"reserved":0,"last_update":"0001-01-01T00:00:00Z","name_a2s":"Uncletopia | Warsaw | 2 | One Thousand Uncles","protocol":17,"map":"cp_egypt_final","folder":"tf","game":"Team Fortress","app_id":440,"player_count":21,"max_players":32,"Bots":16,"server_type":"Dedicated","server_os":"Linux","password":true,"vac":true,"version":"7961495","steam_id":85568392925397851,"keywords":["alltalk","bots","cp","danepve","increased_maxplayers","norespawntime","uncletopia"],"game_id":440,"stv_port":0,"stv_name":"","players":[{"user_id":127,"name":"kovajatkaolevinaan","steam_id":76561199471146687,"connected_time":410000000000,"state":"active","ping":88},{"user_id":128,"name":"Riky95","steam_id":76561198095289436,"connected_time":323000000000,"state":"active","ping":60},{"user_id":129,"name":"Kyup","steam_id":76561198873205468,"connected_time":322000000000,"state":"active","ping":57},{"user_id":146,"name":"LightBulbGlue #SaveTF2","steam_id":76561198329573529,"connected_time":265000000000,"state":"active","ping":177},{"user_id":147,"name":"Feet Bandit","steam_id":76561199152252878,"connected_time":4000000000,"state":"spawning","ping":194}]},{"server_id":51,"name":"Uncletopia | Warsaw | 3 | All Maps","name_short":"waw-3","host":"waw-1.pl.uncletopia.com","port":27035,"enabled":true,"region":"eu","cc":"pl","latitude":52.2297,"longitude":21.017532,"reserved":0,"last_update":"0001-01-01T00:00:00Z","name_a2s":"Uncletopia | Warsaw | 3 | All Maps","protocol":17,"map":"pl_swiftwater_final1","folder":"tf","game":"Team Fortress","app_id":440,"player_count":0,"max_players":24,"Bots":0,"server_type":"Dedicated","server_os":"Linux","password":true,"vac":true,"version":"7961495","steam_id":85568392925397852,"keywords":["nocrits","nodmgspread","payload","uncletopia"],"game_id":440,"stv_port":27036,"stv_name":"Uncletopia | Warsaw | 3 | All Maps | STV","players":null},{"server_id":52,"name":"Uncletopia | Warsaw | 4 | All Maps","name_short":"waw-4","host":"waw-1.pl.uncletopia.com","port":27045,"enabled":true,"region":"eu","cc":"pl","latitude":52.2297,"longitude":21.017532,"reserved":0,"last_update":"0001-01-01T00:00:00Z","name_a2s":"Uncletopia | Warsaw | 4 | All Maps","protocol":17,"map":"koth_cascade","folder":"tf","game":"Team Fortress","app_id":440,"player_count":0,"max_players":24,"Bots":0,"server_type":"Dedicated","server_os":"Linux","password":true,"vac":true,"version":"7961495","steam_id":85568392925397853,"keywords":["cp","nocrits","nodmgspread","uncletopia"],"game_id":440,"stv_port":27046,"stv_name":"Uncletopia | Warsaw | 4 | All Maps | STV","players":null},{"server_id":53,"name":"Uncletopia | Warsaw | 5 | Stopwatch","name_short":"waw-5","host":"waw-1.pl.uncletopia.com","port":27055,"enabled":true,"region":"eu","cc":"pl","latitude":52.2297,"longitude":21.017532,"reserved":0,"last_update":"0001-01-01T00:00:00Z","name_a2s":"Uncletopia | Warsaw | 5 | Stopwatch","protocol":17,"map":"koth_highpass","folder":"tf","game":"Team Fortress","app_id":440,"player_count":0,"max_players":24,"Bots":0,"server_type":"Dedicated","server_os":"Linux","password":true,"vac":true,"version":"7961495","steam_id":85568392925397854,"keywords":["cp","nocrits","nodmgspread","uncletopia"],"game_id":440,"stv_port":27056,"stv_name":"Uncletopia | Warsaw | 5 | Stopwatch | STV","players":null},{"server_id":54,"name":"Uncletopia | Warsaw | 6 | Community","name_short":"waw-6","host":"waw-1.pl.uncletopia.com","port":27065,"enabled":true,"region":"eu","cc":"pl","latitude":52.2297,"longitude":21.017532,"reserved":0,"last_update":"0001-01-01T00:00:00Z","name_a2s":"Uncletopia | Warsaw | 6 | Community","protocol":17,"map":"workshop/pl_highwood_b13.ugc1769496557","folder":"tf","game":"Team Fortress","app_id":440,"player_count":0,"max_players":24,"Bots":0,"server_type":"Dedicated","server_os":"Linux","password":true,"vac":true,"version":"7961495","steam_id":85568392925397856,"keywords":["nocrits","nodmgspread","payload","uncletopia"],"game_id":440,"stv_port":27066,"stv_name":"Uncletopia | Warsaw | 6 | Community | STV","players":null}]}