{"status":true,"message":"","result":[{"server_id":9,"name":"Uncletopia | Atlanta | 1 | All Maps","name_short":"atl-1","host":"atl-1.us.uncletopia.com","port":27015,"enabled":true,"region":"us-east","cc":"us","latitude":33.753746,"longitude":-84.38633,"reserved":0,"last_update":"0001-01-01T00:00:00Z","name_a2s":"Uncletopia | Atlanta | 1 | All Maps","protocol":17,"map":"pl_badwater","folder":"tf","game":"Team Fortress","app_id":440,"player_count":24,"max_players":24,"Bots":0,"server_type":"Dedicated","server_os":"Linux","password":true,"vac":true,"version":"7757534","steam_id":85568392924469982,"keywords":["nocrits","nodmgspread","payload","uncletopia"],"game_id":440,"stv_port":27016,"stv_name":"Uncletopia | Atlanta | 1 | All Maps | STV","players":[{"user_id":370,"name":"bovvle","steam_id":76561198259113008,"connected_time":1110000000000,"state":"active","ping":68},{"user_id":381,"name":"Pulp Free Fiction","steam_id":76561198095396514,"connected_time":491000000000,"state":"active","ping":88},{"user_id":357,"name":"Dr.Zarann","steam_id":76561198163952958,"connected_time":2613000000000,"state":"active","ping":55},{"user_id":388,"name":"TGD","steam_id":76561198197582594,"connected_time":288000000000,"state":"active","ping":68},{"user_id":384,"name":"Karma","steam_id":76561198030565234,"connected_time":436000000000,"state":"active","ping":76},{"user_id":380,"name":"seraph","steam_id":76561198381136912,"connected_time":542000000000,"state":"active","ping":76},{"user_id":377,"name":"blue of days","steam_id":76561199113013688,"connected_time":685000000000,"state":"active","ping":99},{"user_id":372,"name":"Cog","steam_id":76561198119812649,"connected_time":957000000000,"state":"active","ping":82},{"user_id":354,"name":"hoboways","steam_id":76561198168035195,"connected_time":2624000000000,"state":"active","ping":87},{"user_id":390,"name":"Im High","steam_id":76561198049954886,"connected_time":103000000000,"state":"active","ping":72},{"user_id":374,"name":"ATL1 | Psionic Box","steam_id":76561198151019322,"connected_time":736000000000,"state":"active","ping":60},{"user_id":358,"name":"yomo","steam_id":76561198063175935,"connected_time":2591000000000,"state":"active","ping":59},{"user_id":246,"name":"lukiepills","steam_id":76561199020587077,"connected_time":12462000000000,"state":"active","ping":60},{"user_id":365,"name":"Miro","steam_id":76561198936412406,"connected_time":2121000000000,"state":"active","ping":80},{"user_id":360,"name":"Mug","steam_id":76561199282207802,"connected_time":2579000000000,"state":"active","ping":77},{"user_id":386,"name":"Lilith","steam_id":76561198125102885,"connected_time":389000000000,"state":"active","ping":65},{"user_id":385,"name":"rose","steam_id":76561198048882285,"connected_time":411000000000,"state":"active","ping":60},{"user_id":369,"name":"com lag","steam_id":76561198019019392,"connected_time":1400000000000,"state":"active","ping":64},{"user_id":367,"name":"AlexLovesYou","steam_id":76561199163263543,"connected_time":1928000000000,"state":"active","ping":79},{"user_id":373,"name":"Just PYE","steam_id":76561199439622967,"connected_time":915000000000,"state":"active","ping":76},{"user_id":378,"name":"Notafraid90","steam_id":76561198104072542,"connected_time":661000000000,"state":"active","ping":75},{"user_id":332,"name":"Mage","steam_id":76561198285026879,"connected_time":5160000000000,"state":"active","ping":87},{"user_id":379,"name":"El Bondin","steam_id":76561198820792434,"connected_time":657000000000,"state":"active","ping":80},{"user_id":389,"name":"MotorolÂª","steam_id":76561198358119669,"connected_time":239000000000,"state":"active","ping":119}]},{"server_id":104,"name":"Uncletopia | Atlanta | 2 | All Maps","name_short":"atl-2","host":"atl-1.us.uncletopia.com","port":27025,"enabled":true,"region":"us-east","cc":"us","latitude":33.753746,"longitude":-84.38633,"reserved":0,"last_update":"0001-01-01T00:00:00Z","name_a2s":"Uncletopia | Atlanta | 2 | All Maps","protocol":17,"map":"pl_upward","folder":"tf","game":"Team Fortress","app_id":440,"player_count":24,"max_players":24,"Bots":0,"server_type":"Dedicated","server_os":"Linux","password":true,"vac":true,"version":"7757534","steam_id":85568392924469983,"keywords":["nocrits","nodmgspread","payload","uncletopia"],"game_id":440,"stv_port":27026,"stv_name":"Uncletopia | Atlanta | 2 | All Maps | STV","players":[{"user_id":483,"name":"Swaus","steam_id":76561198035761308,"connected_time":2807000000000,"state":"active","ping":67},{"user_id":457,"name":"à¼˜ â‹†ËšðŸŽ§Caffeineâ˜•*Ë–Â°","steam_id":76561199259309294,"connected_time":4356000000000,"state":"active","ping":90},{"user_id":507,"name":"Reuben.","steam_id":76561199063084505,"connected_time":71000000000,"state":"active","ping":64},{"user_id":477,"name":"ItsRoy","steam_id":76561198119525485,"connected_time":3662000000000,"state":"active","ping":60},{"user_id":500,"name":"KoolBucky","steam_id":76561198147927648,"connected_time":1040000000000,"state":"active","ping":70},{"user_id":481,"name":"Chance","steam_id":76561198360789770,"connected_time":2841000000000,"state":"active","ping":63},{"user_id":497,"name":"Eden Hazard","steam_id":76561198089241053,"connected_time":1608000000000,"state":"active","ping":64},{"user_id":502,"name":"Dabbledornk","steam_id":76561198065241300,"connected_time":862000000000,"state":"active","ping":55},{"user_id":505,"name":"snapski_HJA","steam_id":76561198007052727,"connected_time":417000000000,"state":"active","ping":61},{"user_id":479,"name":"Belmore","steam_id":76561198009355231,"connected_time":3008000000000,"state":"active","ping":103},{"user_id":448,"name":"ok","steam_id":76561198445140249,"connected_time":4878000000000,"state":"active","ping":91},{"user_id":492,"name":"oxygen user","steam_id":76561199111975528,"connected_time":2712000000000,"state":"active","ping":84},{"user_id":472,"name":"Baker","steam_id":76561198055196430,"connected_time":3858000000000,"state":"active","ping":83},{"user_id":473,"name":"BetoelAff es","steam_id":76561198377842585,"connected_time":3839000000000,"state":"active","ping":100},{"user_id":506,"name":"ElephantInTheRoom","steam_id":76561198091991980,"connected_time":235000000000,"state":"active","ping":62},{"user_id":501,"name":"illious","steam_id":76561198169925494,"connected_time":893000000000,"state":"active","ping":67},{"user_id":499,"name":"dan","steam_id":76561198061589465,"connected_time":1322000000000,"state":"active","ping":73},{"user_id":504,"name":"Cream Corn","steam_id":76561198043791586,"connected_time":489000000000,"state":"active","ping":55},{"user_id":464,"name":"venialivelizard","steam_id":76561198198441871,"connected_time":4187000000000,"state":"active","ping":73},{"user_id":498,"name":"k0ka","steam_id":76561198247969962,"connected_time":1369000000000,"state":"active","ping":52},{"user_id":463,"name":"Nanachi","steam_id":76561198120705850,"connected_time":4267000000000,"state":"active","ping":97},{"user_id":493,"name":"Auld","steam_id":76561198013180268,"connected_time":2425000000000,"state":"active","ping":104},{"user_id":508,"name":"Choose Studly","steam_id":76561198066086096,"connected_time":40000000000,"state":"active","ping":74},{"user_id":446,"name":"Notsocreative","steam_id":76561198236372202,"connected_time":4993000000000,"state":"active","ping":78}]},{"server_id":400,"name":"Uncletopia | Atlanta | 3 | Community","name_short":"atl-3","host":"atl-1.us.uncletopia.com","port":27035,"enabled":true,"region":"us-east","cc":"us","latitude":33.753746,"longitude":-84.38633,"reserved":0,"last_update":"0001-01-01T00:00:00Z","name_a2s":"Uncletopia | Atlanta | 3 | Community","protocol":17,"map":"workshop/koth_ashville_final.ugc2130459942","folder":"tf","game":"Team Fortress","app_id":440,"player_count":24,"max_players":24,"Bots":0,"server_type":"Dedicated","server_os":"Linux","password":true,"vac":true,"version":"7757534","steam_id":85568392924515187,"keywords":["cp","nocrits","nodmgspread","uncletopia"],"game_id":440,"stv_port":27036,"stv_name":"Uncletopia | Atlanta | 3 | Community | STV","players":[{"user_id":344,"name":"FHC | Nyle","steam_id":76561198045652639,"connected_time":846000000000,"state":"active","ping":115},{"user_id":343,"name":"cornshot","steam_id":76561198043496387,"connected_time":871000000000,"state":"active","ping":120},{"user_id":345,"name":"Nicko","steam_id":76561198328490503,"connected_time":685000000000,"state":"active","ping":142},{"user_id":349,"name":"RussianVesper","steam_id":76561198263326607,"connected_time":507000000000,"state":"active","ping":65},{"user_id":346,"name":"BrawlStar17","steam_id":76561199045408110,"connected_time":657000000000,"state":"active","ping":63},{"user_id":289,"name":"â™¥ mom â™¥","steam_id":76561198303508324,"connected_time":3618000000000,"state":"active","ping":46},{"user_id":347,"name":"TheSugoiLegendz","steam_id":76561199081730804,"connected_time":574000000000,"state":"active","ping":70},{"user_id":335,"name":"tropis","steam_id":76561198067365603,"connected_time":1853000000000,"state":"active","ping":60},{"user_id":334,"name":"J.G. Klaus","steam_id":76561198001111196,"connected_time":1900000000000,"state":"active","ping":73},{"user_id":211,"name":"The Pencil Cunts","steam_id":76561198272606252,"connected_time":8134000000000,"state":"active","ping":59},{"user_id":353,"name":"kazoo2","steam_id":76561198260473504,"connected_time":423000000000,"state":"active","ping":91},{"user_id":326,"name":"a baby","steam_id":76561198008662184,"connected_time":2307000000000,"state":"active","ping":82},{"user_id":283,"name":"bingus","steam_id":76561198283992686,"connected_time":3990000000000,"state":"active","ping":87},{"user_id":293,"name":"de_lewk","steam_id":76561199102241333,"connected_time":3480000000000,"state":"active","ping":87},{"user_id":261,"name":"Duckywinner","steam_id":76561198254828139,"connected_time":5534000000000,"state":"active","ping":67},{"user_id":350,"name":"zzz","steam_id":76561198302976864,"connected_time":495000000000,"state":"active","ping":60},{"user_id":355,"name":"Lexabyte","steam_id":76561198065032237,"connected_time":212000000000,"state":"active","ping":78},{"user_id":320,"name":"will uber light classes","steam_id":76561198117033273,"connected_time":2574000000000,"state":"active","ping":142},{"user_id":356,"name":"The_Epic_Conclusion","steam_id":76561198084250179,"connected_time":207000000000,"state":"active","ping":75},{"user_id":352,"name":"Lost CS player","steam_id":76561198892387723,"connected_time":469000000000,"state":"active","ping":73},{"user_id":313,"name":"URL_p","steam_id":76561198133873203,"connected_time":2831000000000,"state":"active","ping":83},{"user_id":325,"name":"Sushii","steam_id":76561198160962635,"connected_time":2476000000000,"state":"active","ping":148},{"user_id":296,"name":"stozzy","steam_id":76561198085809880,"connected_time":3415000000000,"state":"active","ping":91},{"user_id":354,"name":"big pancake","steam_id":76561198068580322,"connected_time":403000000000,"state":"active","ping":63}]},{"server_id":401,"name":"Uncletopia | Atlanta | 4 | No Payload","name_short":"atl-4","host":"atl-1.us.uncletopia.com","port":27045,"enabled":true,"region":"us-east","cc":"us","latitude":33.753746,"longitude":-84.38633,"reserved":0,"last_update":"0001-01-01T00:00:00Z","name_a2s":"","protocol":0,"map":"","folder":"","game":"","app_id":0,"player_count":0,"max_players":0,"Bots":0,"server_type":"","server_os":"","password":false,"vac":false,"version":"","steam_id":0,"keywords":null,"game_id":0,"stv_port":0,"stv_name":"","players":null},{"server_id":2,"name":"Uncletopia | Chicago | 1 | All Maps","name_short":"chi-1","host":"chi-1.us.uncletopia.com","port":27015,"enabled":true,"region":"us-central","cc":"us","latitude":41.881832,"longitude":-87.62318,"reserved":0,"last_update":"0001-01-01T00:00:00Z","name_a2s":"Uncletopia | Chicago | 1 | All Maps","protocol":17,"map":"cp_dustbowl","folder":"tf","game":"Team Fortress","app_id":440,"player_count":24,"max_players":24,"Bots":0,"server_type":"Dedicated","server_os":"Linux","password":true,"vac":true,"version":"7757534","steam_id":85568392924469984,"keywords":["cp","nocrits","nodmgspread","uncletopia"],"game_id":440,"stv_port":27016,"stv_name":"Uncletopia | Chicago | 1 | All Maps | STV","players":[{"user_id":360,"name":"earthbound393","steam_id":76561199444276547,"connected_time":2422000000000,"state":"active","ping":111},{"user_id":338,"name":"Luca!","steam_id":76561198137880777,"connected_time":4662000000000,"state":"active","ping":80},{"user_id":343,"name":"Weebmcgee","steam_id":76561198081231557,"connected_time":4180000000000,"state":"active","ping":60},{"user_id":313,"name":"Ademar","steam_id":76561199391802581,"connected_time":7343000000000,"state":"active","ping":50},{"user_id":355,"name":"killername","steam_id":76561199105156791,"connected_time":2960000000000,"state":"active","ping":66},{"user_id":373,"name":"BONESAW Lombardi","steam_id":76561198158124937,"connected_time":2115000000000,"state":"active","ping":74},{"user_id":387,"name":"Rookie","steam_id":76561198191763447,"connected_time":1381000000000,"state":"active","ping":70},{"user_id":389,"name":"The Chosen One","steam_id":76561199046984627,"connected_time":1246000000000,"state":"active","ping":86},{"user_id":396,"name":"asbestos","steam_id":76561198079178866,"connected_time":326000000000,"state":"active","ping":63},{"user_id":380,"name":"MonkeeBoy","steam_id":76561199004097235,"connected_time":1805000000000,"state":"active","ping":97},{"user_id":351,"name":"Dug","steam_id":76561198017691029,"connected_time":3229000000000,"state":"active","ping":58},{"user_id":398,"name":"barker bill","steam_id":76561198018451994,"connected_time":165000000000,"state":"active","ping":80},{"user_id":383,"name":"bruiseraaron","steam_id":76561198020092380,"connected_time":1683000000000,"state":"active","ping":56},{"user_id":368,"name":"Zoot","steam_id":76561198121944243,"connected_time":2331000000000,"state":"active","ping":78},{"user_id":359,"name":"eloressa","steam_id":76561198120330867,"connected_time":2496000000000,"state":"active","ping":48},{"user_id":388,"name":"NBA2k22hoodmoments","steam_id":76561198383103506,"connected_time":1350000000000,"state":"active","ping":55},{"user_id":317,"name":"Dante","steam_id":76561198798234838,"connected_time":6454000000000,"state":"active","ping":129},{"user_id":400,"name":"ZodiacThundaga","steam_id":76561199025117814,"connected_time":90000000000,"state":"active","ping":67},{"user_id":395,"name":"[UHS] K24A4 2.4","steam_id":76561199072970627,"connected_time":910000000000,"state":"active","ping":47},{"user_id":397,"name":"DJ Chalice","steam_id":76561197974872458,"connected_time":180000000000,"state":"active","ping":75},{"user_id":382,"name":"DrD","steam_id":76561198067266383,"connected_time":1725000000000,"state":"active","ping":85},{"user_id":399,"name":"TeeTree","steam_id":76561198862307874,"connected_time":164000000000,"state":"active","ping":60},{"user_id":376,"name":"48","steam_id":76561198156422760,"connected_time":2010000000000,"state":"active","ping":62},{"user_id":394,"name":"Dr Smeggman","steam_id":76561197966614845,"connected_time":991000000000,"state":"active","ping":133}]},{"server_id":106,"name":"Uncletopia | Chicago | 2 | All Maps","name_short":"chi-2","host":"chi-1.us.uncletopia.com","port":27025,"enabled":true,"region":"us-central","cc":"us","latitude":41.881832,"longitude":-87.62318,"reserved":0,"last_update":"0001-01-01T00:00:00Z","name_a2s":"Uncletopia | Chicago | 2 | All Maps","protocol":17,"map":"pl_barnblitz","folder":"tf","game":"Team Fortress","app_id":440,"player_count":23,"max_players":24,"Bots":0,"server_type":"Dedicated","server_os":"Linux","password":true,"vac":true,"version":"7757534","steam_id":85568392924469985,"keywords":["nocrits","nodmgspread","payload","uncletopia"],"game_id":440,"stv_port":27026,"stv_name":"Uncletopia | Chicago | 2 | All Maps | STV","players":[{"user_id":606,"name":"me shoot floor","steam_id":76561198046526036,"connected_time":786000000000,"state":"active","ping":96},{"user_id":607,"name":"cheers2x","steam_id":76561198366299848,"connected_time":770000000000,"state":"active","ping":105},{"user_id":579,"name":"Mr. Cheesey","steam_id":76561198153462183,"connected_time":2207000000000,"state":"active","ping":66},{"user_id":602,"name":"Hotdog Goblin","steam_id":76561198004133638,"connected_time":1201000000000,"state":"active","ping":109},{"user_id":609,"name":"TrevBev45","steam_id":76561198273637677,"connected_time":698000000000,"state":"active","ping":77},{"user_id":603,"name":"Five weasels in a trenchcoat","steam_id":76561199237623071,"connected_time":900000000000,"state":"active","ping":60},{"user_id":617,"name":"MoriJillPls.TV","steam_id":76561198310822778,"connected_time":518000000000,"state":"active","ping":68},{"user_id":608,"name":"The Luigi","steam_id":76561199184140541,"connected_time":766000000000,"state":"active","ping":63},{"user_id":611,"name":"Xii","steam_id":76561198860209947,"connected_time":682000000000,"state":"active","ping":47},{"user_id":612,"name":"untan","steam_id":76561198060145549,"connected_time":680000000000,"state":"active","ping":54},{"user_id":604,"name":"Cringe Guillotine User","steam_id":76561198997067030,"connected_time":861000000000,"state":"active","ping":86},{"user_id":569,"name":"antknee","steam_id":76561198263793809,"connected_time":2770000000000,"state":"active","ping":76},{"user_id":613,"name":"guhhhhhh","steam_id":76561198169570097,"connected_time":677000000000,"state":"active","ping":175},{"user_id":563,"name":"Daniel Craig Fan","steam_id":76561198053467923,"connected_time":3040000000000,"state":"active","ping":39},{"user_id":600,"name":"Lilac","steam_id":76561198977523626,"connected_time":1322000000000,"state":"active","ping":69},{"user_id":581,"name":"Captain Jack Gaming","steam_id":76561198128460335,"connected_time":2134000000000,"state":"active","ping":62},{"user_id":566,"name":"vanilla gorilla","steam_id":76561197989019617,"connected_time":2883000000000,"state":"active","ping":48},{"user_id":616,"name":"shake","steam_id":76561199064204750,"connected_time":607000000000,"state":"active","ping":82},{"user_id":614,"name":"Pithecanthropus","steam_id":76561197997072732,"connected_time":672000000000,"state":"active","ping":83},{"user_id":585,"name":"Reeder0417","steam_id":76561198160340032,"connected_time":1705000000000,"state":"active","ping":61},{"user_id":615,"name":"JFK GAMING","steam_id":76561198025593142,"connected_time":667000000000,"state":"active","ping":52},{"user_id":591,"name":"The indomitable human spirit","steam_id":76561198282395338,"connected_time":1502000000000,"state":"active","ping":62},{"user_id":578,"name":"!! HEY GOYAMON !!","steam_id":76561198095313463,"connected_time":2338000000000,"state":"active","ping":75}]},{"server_id":402,"name":"Uncletopia | Chicago | 3 | All Maps","name_short":"chi-3","host":"chi-1.us.uncletopia.com","port":27035,"enabled":true,"region":"us-central","cc":"us","latitude":41.881832,"longitude":-87.62318,"reserved":0,"last_update":"0001-01-01T00:00:00Z","name_a2s":"Uncletopia | Chicago | 3 | All Maps","protocol":17,"map":"pl_pier","folder":"tf","game":"Team Fortress","app_id":440,"player_count":23,"max_players":24,"Bots":0,"server_type":"Dedicated","server_os":"Linux","password":true,"vac":true,"version":"7757534","steam_id":85568392924515191,"keywords":["nocrits","nodmgspread","payload","uncletopia"],"game_id":440,"stv_port":27036,"stv_name":"Uncletopia | Chicago | 3 | All Maps | STV","players":[{"user_id":429,"name":"Vin","steam_id":76561198042514817,"connected_time":2026000000000,"state":"active","ping":109},{"user_id":455,"name":"Area 51","steam_id":76561198278018071,"connected_time":613000000000,"state":"active","ping":80},{"user_id":456,"name":"Jamendithas","steam_id":76561198119537716,"connected_time":596000000000,"state":"active","ping":81},{"user_id":457,"name":"Yam Jazzy Jim","steam_id":76561198000788950,"connected_time":580000000000,"state":"active","ping":60},{"user_id":460,"name":"Wiscipline","steam_id":76561198019206178,"connected_time":58000000000,"state":"active","ping":77},{"user_id":451,"name":"His buddy Eric","steam_id":76561198275362375,"connected_time":837000000000,"state":"active","ping":97},{"user_id":434,"name":"Henry Ota-Clay","steam_id":76561198053232470,"connected_time":1676000000000,"state":"active","ping":59},{"user_id":453,"name":"Yune","steam_id":76561198039324447,"connected_time":679000000000,"state":"active","ping":77},{"user_id":448,"name":"bonk","steam_id":76561198004823930,"connected_time":1314000000000,"state":"active","ping":80},{"user_id":420,"name":"Forrest702","steam_id":76561198029218298,"connected_time":2980000000000,"state":"active","ping":98},{"user_id":454,"name":"the ifunny watermark","steam_id":76561198077272494,"connected_time":674000000000,"state":"active","ping":48},{"user_id":458,"name":"PINGAS DISPENSERâ„¢","steam_id":76561198014868070,"connected_time":556000000000,"state":"active","ping":105},{"user_id":452,"name":"Mildstrife","steam_id":76561198000080715,"connected_time":837000000000,"state":"active","ping":69},{"user_id":437,"name":"igotmail","steam_id":76561198070631899,"connected_time":1597000000000,"state":"active","ping":69},{"user_id":438,"name":"Doctor Glocktorpus [NGC]","steam_id":76561198049194645,"connected_time":1577000000000,"state":"active","ping":70},{"user_id":441,"name":"DFR Le4n!!!","steam_id":76561198045522596,"connected_time":1554000000000,"state":"active","ping":84},{"user_id":459,"name":"dodecadron","steam_id":76561198027397222,"connected_time":548000000000,"state":"active","ping":108},{"user_id":444,"name":"Thumbs","steam_id":76561199065890132,"connected_time":1496000000000,"state":"active","ping":63},{"user_id":445,"name":"bobbymcbobington","steam_id":76561199089411172,"connected_time":1489000000000,"state":"active","ping":118},{"user_id":428,"name":"chiswola","steam_id":76561198046920142,"connected_time":2054000000000,"state":"active","ping":98},{"user_id":446,"name":"Mr.Pan","steam_id":76561198069030613,"connected_time":1482000000000,"state":"active","ping":70},{"user_id":399,"name":"vv","steam_id":76561198134813102,"connected_time":5573000000000,"state":"active","ping":60},{"user_id":447,"name":"ATL1 | Lylith!!!","steam_id":76561198386687546,"connected_time":1480000000000,"state":"active","ping":63}]},{"server_id":403,"name":"Uncletopia | Chicago | 4 | All Maps","name_short":"chi-4","host":"chi-1.us.uncletopia.com","port":27045,"enabled":true,"region":"us-central","cc":"us","latitude":41.881832,"longitude":-87.62318,"reserved":0,"last_update":"0001-01-01T00:00:00Z","name_a2s":"Uncletopia | Chicago | 4 | All Maps","protocol":17,"map":"pl_borneo","folder":"tf","game":"Team Fortress","app_id":440,"player_count":24,"max_players":24,"Bots":0,"server_type":"Dedicated","server_os":"Linux","password":true,"vac":true,"version":"7757534","steam_id":85568392924515193,"keywords":["nocrits","nodmgspread","payload","uncletopia"],"game_id":440,"stv_port":27046,"stv_name":"Uncletopia | Chicago | 4 | All Maps | STV","players":[{"user_id":247,"name":"Milk Apprentice Marmaduke","steam_id":76561198236512294,"connected_time":386000000000,"state":"active","ping":69},{"user_id":240,"name":"Shmurgabur","steam_id":76561199368485421,"connected_time":951000000000,"state":"active","ping":45},{"user_id":241,"name":"Wool","steam_id":76561198332704108,"connected_time":934000000000,"state":"active","ping":50},{"user_id":244,"name":"Girox","steam_id":76561198009921751,"connected_time":650000000000,"state":"active","ping":69},{"user_id":255,"name":"SackOfPotatoes","steam_id":76561198799020069,"connected_time":119000000000,"state":"active","ping":73},{"user_id":245,"name":"Cristanc99","steam_id":76561198114715810,"connected_time":410000000000,"state":"active","ping":59},{"user_id":176,"name":"Worst Scenario","steam_id":76561199052130229,"connected_time":5798000000000,"state":"active","ping":60},{"user_id":249,"name":"NUt","steam_id":76561198031007966,"connected_time":363000000000,"state":"active","ping":72},{"user_id":209,"name":"hud_saytext_time 0","steam_id":76561198010327228,"connected_time":3600000000000,"state":"active","ping":168},{"user_id":219,"name":"CHEEKY EUNUCH","steam_id":76561198990825232,"connected_time":2664000000000,"state":"active","ping":60},{"user_id":250,"name":"Fresh0c0","steam_id":76561198271933283,"connected_time":360000000000,"state":"active","ping":60},{"user_id":237,"name":"matchmatch                     ","steam_id":76561198048925904,"connected_time":981000000000,"state":"active","ping":119},{"user_id":254,"name":"Slashes","steam_id":76561197968573499,"connected_time":193000000000,"state":"active","ping":57},{"user_id":251,"name":"LT.Steeamer","steam_id":76561198271938142,"connected_time":353000000000,"state":"active","ping":173},{"user_id":194,"name":"gl1tchr","steam_id":76561198302661983,"connected_time":4937000000000,"state":"active","ping":77},{"user_id":235,"name":"geoff","steam_id":76561198038448355,"connected_time":1038000000000,"state":"active","ping":45},{"user_id":256,"name":"Toast","steam_id":76561198401995265,"connected_time":20000000000,"state":"active","ping":56},{"user_id":227,"name":"Stew Eater","steam_id":76561198978307159,"connected_time":1695000000000,"state":"active","ping":66},{"user_id":236,"name":"Bee","steam_id":76561198074681324,"connected_time":997000000000,"state":"active","ping":65},{"user_id":164,"name":"NovaSc6ut","steam_id":76561198277163301,"connected_time":7222000000000,"state":"active","ping":63},{"user_id":233,"name":"COOK","steam_id":76561198149929885,"connected_time":1093000000000,"state":"active","ping":60},{"user_id":252,"name":"MamamiaTF2","steam_id":76561199070885213,"connected_time":307000000000,"state":"active","ping":73},{"user_id":253,"name":"bear","steam_id":76561198909415646,"connected_time":289000000000,"state":"active","ping":77},{"user_id":246,"name":"Cruisin'","steam_id":76561199245457119,"connected_time":409000000000,"state":"active","ping":78}]},{"server_id":36,"name":"Uncletopia | Chicago | 5 | All Maps","name_short":"chi-5","host":"chi-2.us.uncletopia.com","port":27015,"enabled":true,"region":"us-central","cc":"us","latitude":41.881832,"longitude":-87.62318,"reserved":0,"last_update":"0001-01-01T00:00:00Z","name_a2s":"Uncletopia | Chicago | 5 | All Maps","protocol":17,"map":"pl_upward","folder":"tf","game":"Team Fortress","app_id":440,"player_count":24,"max_players":24,"Bots":0,"server_type":"Dedicated","server_os":"Linux","password":true,"vac":true,"version":"7757534","steam_id":85568392924866362,"keywords":["nocrits","nodmgspread","payload","uncletopia"],"game_id":440,"stv_port":27016,"stv_name":"Uncletopia | Chicago | 5 | All Maps | STV","players":[{"user_id":224,"name":"Normalux","steam_id":76561198293891426,"connected_time":1782000000000,"state":"active","ping":91},{"user_id":246,"name":"Shoehorn Jim","steam_id":76561198310004779,"connected_time":208000000000,"state":"active","ping":137},{"user_id":225,"name":"bengineer","steam_id":76561198171912174,"connected_time":1713000000000,"state":"active","ping":89},{"user_id":247,"name":"Sergeant Joker #savetf2","steam_id":76561198854616604,"connected_time":79000000000,"state":"active","ping":61},{"user_id":230,"name":"warrior","steam_id":76561198074500319,"connected_time":1549000000000,"state":"active","ping":106},{"user_id":193,"name":"W H E E Z E","steam_id":76561198835430280,"connected_time":5058000000000,"state":"active","ping":62},{"user_id":244,"name":"VerdantSunset","steam_id":76561198062313478,"connected_time":417000000000,"state":"active","ping":86},{"user_id":203,"name":"WHATISYOURNAME","steam_id":76561198342560783,"connected_time":4397000000000,"state":"active","ping":64},{"user_id":234,"name":"shibaba bababool","steam_id":76561197972601902,"connected_time":662000000000,"state":"active","ping":84},{"user_id":237,"name":"Wumps","steam_id":76561198207226825,"connected_time":594000000000,"state":"active","ping":75},{"user_id":210,"name":"HollyBlocky","steam_id":76561198030156100,"connected_time":3580000000000,"state":"active","ping":70},{"user_id":184,"name":"*","steam_id":76561198057717934,"connected_time":5724000000000,"state":"active","ping":76},{"user_id":211,"name":"heavyArmor","steam_id":76561198191056059,"connected_time":3573000000000,"state":"active","ping":75},{"user_id":228,"name":"mArc","steam_id":76561198416030814,"connected_time":1665000000000,"state":"active","ping":88},{"user_id":238,"name":"KrautCakes!","steam_id":76561198133973878,"connected_time":593000000000,"state":"active","ping":88},{"user_id":239,"name":"gritty 2024","steam_id":76561198165567310,"connected_time":571000000000,"state":"active","ping":60},{"user_id":205,"name":"Angry Ginger","steam_id":76561198256929349,"connected_time":3685000000000,"state":"active","ping":59},{"user_id":189,"name":"Reisen","steam_id":76561197968832019,"connected_time":5381000000000,"state":"active","ping":59},{"user_id":135,"name":"Sorrow","steam_id":76561198050225563,"connected_time":7049000000000,"state":"active","ping":71},{"user_id":240,"name":"even_steven.4season","steam_id":76561199161322235,"connected_time":548000000000,"state":"active","ping":61},{"user_id":229,"name":"Báµ¢g Bâ‚’â‚›â‚›","steam_id":76561198090271815,"connected_time":1631000000000,"state":"active","ping":129},{"user_id":235,"name":"...","steam_id":76561198312298321,"connected_time":654000000000,"state":"active","ping":68},{"user_id":241,"name":"LONG WAY DOWN","steam_id":76561198138221795,"connected_time":546000000000,"state":"active","ping":77},{"user_id":245,"name":"https://en.wikipedia.org/","steam_id":76561198261326806,"connected_time":405000000000,"state":"active","ping":103}]},{"server_id":37,"name":"Uncletopia | Chicago | 6 | All Maps","name_short":"chi-6","host":"chi-2.us.uncletopia.com","port":27025,"enabled":true,"region":"us-central","cc":"us","latitude":41.881832,"longitude":-87.62318,"reserved":0,"last_update":"0001-01-01T00:00:00Z","name_a2s":"Uncletopia | Chicago | 6 | All Maps","protocol":17,"map":"pl_frontier_final","folder":"tf","game":"Team Fortress","app_id":440,"player_count":24,"max_players":24,"Bots":0,"server_type":"Dedicated","server_os":"Linux","password":true,"vac":true,"version":"7757534","steam_id":85568392924866363,"keywords":["nocrits","nodmgspread","payload","uncletopia"],"game_id":440,"stv_port":27026,"stv_name":"Uncletopia | Chicago | 6 | All Maps | STV","players":[{"user_id":364,"name":"crayonnipple","steam_id":76561198070253331,"connected_time":525000000000,"state":"active","ping":64},{"user_id":339,"name":"Ringo Barrs","steam_id":76561198043906449,"connected_time":1981000000000,"state":"active","ping":58},{"user_id":373,"name":"Spring Beans","steam_id":76561197978546259,"connected_time":171000000000,"state":"active","ping":58},{"user_id":341,"name":"SpingBoe","steam_id":76561198824846716,"connected_time":1850000000000,"state":"active","ping":100},{"user_id":342,"name":"NyanHorses","steam_id":76561198161584966,"connected_time":1606000000000,"state":"active","ping":71},{"user_id":318,"name":"Evolution","steam_id":76561198144767370,"connected_time":3268000000000,"state":"active","ping":55},{"user_id":374,"name":"sock","steam_id":76561199117597830,"connected_time":170000000000,"state":"active","ping":94},{"user_id":299,"name":"X-7","steam_id":76561198127217378,"connected_time":4570000000000,"state":"active","ping":65},{"user_id":365,"name":"Eric","steam_id":76561198404909720,"connected_time":515000000000,"state":"active","ping":58},{"user_id":360,"name":"ASHCOLOGNE","steam_id":76561198967261342,"connected_time":816000000000,"state":"active","ping":97},{"user_id":370,"name":"Stickeez Nuts","steam_id":76561199031241776,"connected_time":252000000000,"state":"active","ping":77},{"user_id":375,"name":"batheman63","steam_id":76561198881818552,"connected_time":165000000000,"state":"active","ping":83},{"user_id":366,"name":"Potato","steam_id":76561198115677693,"connected_time":513000000000,"state":"active","ping":53},{"user_id":349,"name":"Zin","steam_id":76561199041369507,"connected_time":1145000000000,"state":"active","ping":77},{"user_id":363,"name":"Clyde","steam_id":76561198158206236,"connected_time":555000000000,"state":"active","ping":111},{"user_id":367,"name":"DefnotKali","steam_id":76561198211233177,"connected_time":444000000000,"state":"active","ping":79},{"user_id":356,"name":"Sin the F2P","steam_id":76561198117271690,"connected_time":1008000000000,"state":"active","ping":125},{"user_id":357,"name":"bogus","steam_id":76561198377555279,"connected_time":983000000000,"state":"active","ping":90},{"user_id":362,"name":"WM1 PYRO","steam_id":76561198045893896,"connected_time":607000000000,"state":"active","ping":115},{"user_id":376,"name":"MAK","steam_id":76561198089361823,"connected_time":159000000000,"state":"active","ping":124},{"user_id":352,"name":"corncakecoolcat","steam_id":76561198090716968,"connected_time":1116000000000,"state":"active","ping":63},{"user_id":333,"name":"chica anime caliente","steam_id":76561199477240252,"connected_time":2185000000000,"state":"active","ping":102},{"user_id":369,"name":"nat","steam_id":76561198865090309,"connected_time":400000000000,"state":"active","ping":87},{"user_id":345,"name":"ShinyOrion (She/Her)","steam_id":76561198408378321,"connected_time":1520000000000,"state":"active","ping":75}]},{"server_id":38,"name":"Uncletopia | Chicago | 7 | Stopwatch Beta","name_short":"chi-7","host":"chi-2.us.uncletopia.com","port":27035,"enabled":true,"region":"us-central","cc":"us","latitude":41.881832,"longitude":-87.62318,"reserved":0,"last_update":"0001-01-01T00:00:00Z","name_a2s":"Uncletopia | Chicago | 7 | Stopwatch Beta","protocol":17,"map":"cp_snakewater_final1","folder":"tf","game":"Team Fortress","app_id":440,"player_count":24,"max_players":24,"Bots":0,"server_type":"Dedicated","server_os":"Linux","password":true,"vac":true,"version":"7757534","steam_id":85568392924866364,"keywords":["cp","nocrits","nodmgspread","uncletopia"],"game_id":440,"stv_port":27036,"stv_name":"Uncletopia | Chicago | 7 | Stopwatch Beta | STV","players":[{"user_id":21,"name":"Frisbee","steam_id":76561197962808987,"connected_time":3680000000000,"state":"active","ping":58},{"user_id":25,"name":"Yeti","steam_id":76561198035450920,"connected_time":3192000000000,"state":"active","ping":82},{"user_id":20,"name":"Eviscerator","steam_id":76561197980073637,"connected_time":3686000000000,"state":"active","ping":74},{"user_id":72,"name":"u z r u z r u z r u z r u z r","steam_id":76561198799343084,"connected_time":362000000000,"state":"active","ping":102},{"user_id":45,"name":"gyozaking","steam_id":76561197972312696,"connected_time":1742000000000,"state":"active","ping":42},{"user_id":29,"name":"I Exist","steam_id":76561199229739789,"connected_time":2767000000000,"state":"active","ping":90},{"user_id":30,"name":"Smiegle","steam_id":76561198073535516,"connected_time":2714000000000,"state":"active","ping":71},{"user_id":23,"name":"Evan","steam_id":76561197972292926,"connected_time":3616000000000,"state":"active","ping":73},{"user_id":42,"name":"Stormz64","steam_id":76561198239036482,"connected_time":1913000000000,"state":"active","ping":42},{"user_id":65,"name":"Eden","steam_id":76561198075587475,"connected_time":665000000000,"state":"active","ping":46},{"user_id":35,"name":"WhoWee","steam_id":76561198269471732,"connected_time":2040000000000,"state":"active","ping":75},{"user_id":66,"name":"Fallowheart","steam_id":76561198044462864,"connected_time":630000000000,"state":"active","ping":71},{"user_id":59,"name":"Feesh","steam_id":76561198817024734,"connected_time":1272000000000,"state":"active","ping":56},{"user_id":40,"name":"X0X2","steam_id":76561198418503762,"connected_time":1967000000000,"state":"active","ping":96},{"user_id":41,"name":"ROME Vio","steam_id":76561198068686187,"connected_time":1948000000000,"state":"active","ping":72},{"user_id":64,"name":"t","steam_id":76561198175988929,"connected_time":694000000000,"state":"active","ping":64},{"user_id":73,"name":"SDL","steam_id":76561198859719985,"connected_time":357000000000,"state":"active","ping":87},{"user_id":74,"name":"Hydragon","steam_id":76561198929219710,"connected_time":192000000000,"state":"spawning","ping":70},{"user_id":68,"name":"ScoutRoseDeuce","steam_id":76561198126515375,"connected_time":605000000000,"state":"active","ping":113},{"user_id":62,"name":"sc67","steam_id":76561199302471485,"connected_time":1184000000000,"state":"active","ping":40},{"user_id":69,"name":"Unicorn","steam_id":76561198119261280,"connected_time":604000000000,"state":"active","ping":87},{"user_id":75,"name":"gromit","steam_id":76561198037746805,"connected_time":189000000000,"state":"active","ping":71},{"user_id":54,"name":"jaydn","steam_id":76561198086615208,"connected_time":1411000000000,"state":"active","ping":60},{"user_id":76,"name":"Scoober Doob","steam_id":76561198117582706,"connected_time":189000000000,"state":"active","ping":86}]},{"server_id":39,"name":"Uncletopia | Chicago | 8 | Community","name_short":"chi-8","host":"chi-2.us.uncletopia.com","port":27045,"enabled":true,"region":"us-central","cc":"us","latitude":41.881832,"longitude":-87.62318,"reserved":0,"last_update":"0001-01-01T00:00:00Z","name_a2s":"Uncletopia | Chicago | 8 | Community","protocol":17,"map":"koth_cascade","folder":"tf","game":"Team Fortress","app_id":440,"player_count":1,"max_players":24,"Bots":0,"server_type":"Dedicated","server_os":"Linux","password":true,"vac":true,"version":"7757534","steam_id":85568392924866365,"keywords":["cp","nocrits","nodmgspread","uncletopia"],"game_id":440,"stv_port":27046,"stv_name":"Uncletopia | Chicago | 8 | Community | STV","players":[{"user_id":15,"name":"LerN","steam_id":76561198083463877,"connected_time":95000000000,"state":"active","ping":125}]},{"server_id":8,"name":"Uncletopia | Dallas | 1 | All Maps","name_short":"dal-1","host":"dal-1.us.uncletopia.com","port":27015,"enabled":true,"region":"us-central","cc":"us","latitude":32.779167,"longitude":-96.80889,"reserved":0,"last_update":"0001-01-01T00:00:00Z","name_a2s":"Uncletopia | Dallas | 1 | All Maps","protocol":17,"map":"cp_dustbowl","folder":"tf","game":"Team Fortress","app_id":440,"player_count":24,"max_players":24,"Bots":0,"server_type":"Dedicated","server_os":"Linux","password":true,"vac":true,"version":"7757534","steam_id":85568392924469986,"keywords":["cp","nocrits","nodmgspread","uncletopia"],"game_id":440,"stv_port":27016,"stv_name":"Uncletopia | Dallas | 1 | All Maps | STV","players":[{"user_id":403,"name":"pp","steam_id":76561198396247454,"connected_time":158000000000,"state":"active","ping":74},{"user_id":395,"name":"carol in HR","steam_id":76561198071775268,"connected_time":359000000000,"state":"active","ping":94},{"user_id":381,"name":"Novak","steam_id":76561198137041747,"connected_time":1080000000000,"state":"active","ping":73},{"user_id":389,"name":"Tomato","steam_id":76561197996472649,"connected_time":497000000000,"state":"active","ping":89},{"user_id":384,"name":"{ST} Oxythemoron","steam_id":76561198060089965,"connected_time":1012000000000,"state":"active","ping":54},{"user_id":361,"name":"Yes","steam_id":76561198175329038,"connected_time":3072000000000,"state":"active","ping":68},{"user_id":367,"name":"orange rind (3 cent wifi)","steam_id":76561198130242461,"connected_time":2552000000000,"state":"active","ping":52},{"user_id":391,"name":"barrakmf","steam_id":76561198124801907,"connected_time":463000000000,"state":"active","ping":99},{"user_id":380,"name":"Iron Argus","steam_id":76561198181088245,"connected_time":1087000000000,"state":"active","ping":96},{"user_id":385,"name":"shady","steam_id":76561198058098509,"connected_time":861000000000,"state":"active","ping":78},{"user_id":364,"name":"Jello","steam_id":76561198890633732,"connected_time":2720000000000,"state":"active","ping":60},{"user_id":383,"name":"Mothafucka Jones","steam_id":76561199220540891,"connected_time":1034000000000,"state":"active","ping":92},{"user_id":400,"name":"CupcakeWarlock","steam_id":76561198179963697,"connected_time":236000000000,"state":"active","ping":99},{"user_id":328,"name":"[cf] Captain Terror","steam_id":76561198028034742,"connected_time":5772000000000,"state":"active","ping":86},{"user_id":404,"name":"thelazydog","steam_id":76561198947215423,"connected_time":27000000000,"state":"active","ping":62},{"user_id":399,"name":"CartNip","steam_id":76561198290916628,"connected_time":291000000000,"state":"active","ping":67},{"user_id":402,"name":"GRAPE","steam_id":76561198150447896,"connected_time":206000000000,"state":"active","ping":79},{"user_id":345,"name":"whats an egg","steam_id":76561198991039398,"connected_time":4071000000000,"state":"active","ping":88},{"user_id":386,"name":"Gelliterate","steam_id":76561198107233070,"connected_time":832000000000,"state":"active","ping":54},{"user_id":401,"name":"Loki!","steam_id":76561198089201861,"connected_time":223000000000,"state":"active","ping":61},{"user_id":344,"name":"Ballista","steam_id":76561197983182562,"connected_time":4074000000000,"state":"active","ping":57},{"user_id":388,"name":"Volley","steam_id":76561198112053055,"connected_time":576000000000,"state":"active","ping":79},{"user_id":377,"name":"Playboy Carti","steam_id":76561198305836153,"connected_time":1337000000000,"state":"active","ping":68},{"user_id":360,"name":"-Danger-","steam_id":76561198025405728,"connected_time":3190000000000,"state":"active","ping":76}]},{"server_id":108,"name":"Uncletopia | Dallas | 2 | All Maps","name_short":"dal-2","host":"dal-1.us.uncletopia.com","port":27025,"enabled":true,"region":"us-central","cc":"us","latitude":32.779167,"longitude":-96.80889,"reserved":0,"last_update":"0001-01-01T00:00:00Z","name_a2s":"Uncletopia | Dallas | 2 | All Maps","protocol":17,"map":"cp_powerhouse","folder":"tf","game":"Team Fortress","app_id":440,"player_count":24,"max_players":24,"Bots":0,"server_type":"Dedicated","server_os":"Linux","password":true,"vac":true,"version":"7757534","steam_id":85568392924469988,"keywords":["cp","nocrits","nodmgspread","uncletopia"],"game_id":440,"stv_port":27026,"stv_name":"Uncletopia | Dallas | 2 | All Maps | STV","players":[{"user_id":269,"name":"Doc{MDW}","steam_id":76561198075049640,"connected_time":1442000000000,"state":"active","ping":75},{"user_id":274,"name":"skegeton","steam_id":76561198095581099,"connected_time":537000000000,"state":"active","ping":61},{"user_id":278,"name":"FI LO","steam_id":76561198976530881,"connected_time":11000000000,"state":"active","ping":90},{"user_id":220,"name":"OttoDogX","steam_id":76561198042007578,"connected_time":4956000000000,"state":"active","ping":63},{"user_id":202,"name":"not paying attention","steam_id":76561198097160898,"connected_time":6078000000000,"state":"active","ping":76},{"user_id":275,"name":"Sir.TopHats","steam_id":76561198267326839,"connected_time":53000000000,"state":"active","ping":66},{"user_id":228,"name":"krakowski","steam_id":76561198119536224,"connected_time":4481000000000,"state":"active","ping":75},{"user_id":263,"name":"Genetic Komodo (He/Him)","steam_id":76561198174806758,"connected_time":1991000000000,"state":"active","ping":41},{"user_id":271,"name":"Rockcrusher","steam_id":76561199012666353,"connected_time":805000000000,"state":"active","ping":77},{"user_id":270,"name":"guy","steam_id":76561198967158026,"connected_time":981000000000,"state":"active","ping":73},{"user_id":155,"name":"Gaminglast","steam_id":76561198362927765,"connected_time":9211000000000,"state":"active","ping":127},{"user_id":239,"name":"what","steam_id":76561198082336619,"connected_time":3650000000000,"state":"active","ping":95},{"user_id":248,"name":"THEDINKY","steam_id":76561198190077399,"connected_time":3093000000000,"state":"active","ping":84},{"user_id":256,"name":"Demoman With One Joke","steam_id":76561197993467034,"connected_time":2411000000000,"state":"active","ping":76},{"user_id":244,"name":"lpk","steam_id":76561198025478698,"connected_time":3406000000000,"state":"active","ping":62},{"user_id":249,"name":"?pengin","steam_id":76561198254236408,"connected_time":2929000000000,"state":"active","ping":98},{"user_id":215,"name":"CFG Ponder","steam_id":76561198127039453,"connected_time":5246000000000,"state":"active","ping":71},{"user_id":264,"name":"Justis","steam_id":76561197963835016,"connected_time":1984000000000,"state":"active","ping":104},{"user_id":209,"name":"LikeASir","steam_id":76561198042209721,"connected_time":5659000000000,"state":"active","ping":63},{"user_id":222,"name":"Zetta","steam_id":76561198045710113,"connected_time":4932000000000,"state":"active","ping":83},{"user_id":265,"name":"Aeri","steam_id":76561197996522919,"connected_time":1982000000000,"state":"active","ping":101},{"user_id":253,"name":"Psych03","steam_id":76561198061753667,"connected_time":2717000000000,"state":"active","ping":78},{"user_id":245,"name":"Jailbreak","steam_id":76561198802085218,"connected_time":3353000000000,"state":"active","ping":56},{"user_id":267,"name":"clenZORZ","steam_id":76561198835570628,"connected_time":1757000000000,"state":"active","ping":65}]},{"server_id":5,"name":"Uncletopia | Frankfurt | 1 | All Maps","name_short":"frk-1","host":"frk-1.de.uncletopia.com","port":27015,"enabled":true,"region":"eu","cc":"de","latitude":50.110924,"longitude":8.682127,"reserved":0,"last_update":"0001-01-01T00:00:00Z","name_a2s":"Uncletopia | Frankfurt | 1 | All Maps","protocol":17,"map":"koth_lakeside_final","folder":"tf","game":"Team Fortress","app_id":440,"player_count":7,"max_players":24,"Bots":0,"server_type":"Dedicated","server_os":"Linux","password":true,"vac":true,"version":"7757534","steam_id":85568392924469989,"keywords":["cp","nocrits","nodmgspread","uncletopia"],"game_id":440,"stv_port":27016,"stv_name":"Uncletopia | Frankfurt | 1 | All Maps | STV","players":[{"user_id":755,"name":"aari","steam_id":76561198355068405,"connected_time":465000000000,"state":"active","ping":136},{"user_id":757,"name":"Blud walked 0 miles ðŸ˜­ðŸ˜­\ufffd\ufffd\ufffd","steam_id":76561199285074344,"connected_time":27000000000,"state":"active","ping":152},{"user_id":754,"name":"I Live In Tha Cracklantis","steam_id":76561198071882999,"connected_time":978000000000,"state":"active","ping":73},{"user_id":748,"name":"FanFish","steam_id":76561199389558024,"connected_time":2009000000000,"state":"active","ping":56},{"user_id":743,"name":"dinorno","steam_id":76561198146276830,"connected_time":2675000000000,"state":"active","ping":78},{"user_id":745,"name":"The Feds","steam_id":76561199134834554,"connected_time":2418000000000,"state":"active","ping":155},{"user_id":651,"name":"Nemium","steam_id":76561198070757635,"connected_time":9420000000000,"state":"active","ping":57}]},{"server_id":110,"name":"Uncletopia | Frankfurt | 2 | All Maps","name_short":"frk-2","host":"frk-1.de.uncletopia.com","port":27025,"enabled":true,"region":"eu","cc":"de","latitude":50.110924,"longitude":8.682127,"reserved":0,"last_update":"0001-01-01T00:00:00Z","name_a2s":"Uncletopia | Frankfurt | 2 | All Maps","protocol":17,"map":"cp_dustbowl","folder":"tf","game":"Team Fortress","app_id":440,"player_count":0,"max_players":24,"Bots":0,"server_type":"Dedicated","server_os":"Linux","password":true,"vac":true,"version":"7757534","steam_id":85568392924469990,"keywords":["cp","nocrits","nodmgspread","uncletopia"],"game_id":440,"stv_port":27026,"stv_name":"Uncletopia | Frankfurt | 2 | All Maps | STV","players":null},{"server_id":308,"name":"Uncletopia | Frankfurt | 3 | All Maps","name_short":"frk-3","host":"frk-1.de.uncletopia.com","port":27035,"enabled":true,"region":"eu","cc":"de","latitude":50.110924,"longitude":8.682127,"reserved":0,"last_update":"0001-01-01T00:00:00Z","name_a2s":"Uncletopia | Frankfurt | 3 | All Maps","protocol":17,"map":"koth_lazarus","folder":"tf","game":"Team Fortress","app_id":440,"player_count":22,"max_players":24,"Bots":0,"server_type":"Dedicated","server_os":"Linux","password":true,"vac":true,"version":"7757534","steam_id":85568392924504274,"keywords":["cp","nocrits","nodmgspread","uncletopia"],"game_id":440,"stv_port":27036,"stv_name":"Uncletopia | Frankfurt | 3 | All Maps | STV","players":[{"user_id":383,"name":"grandpa's post-mortem photo","steam_id":76561198130116078,"connected_time":8147000000000,"state":"active","ping":90},{"user_id":452,"name":"Farao Ramses II","steam_id":76561198078722712,"connected_time":2286000000000,"state":"active","ping":48},{"user_id":469,"name":"Lukas","steam_id":76561198009118452,"connected_time":1015000000000,"state":"active","ping":58},{"user_id":457,"name":"Avast AntiPony 9445","steam_id":76561197992046533,"connected_time":2109000000000,"state":"active","ping":53},{"user_id":474,"name":"kektuse","steam_id":76561198088426580,"connected_time":873000000000,"state":"active","ping":58},{"user_id":485,"name":"Manslayer","steam_id":76561198063956707,"connected_time":362000000000,"state":"active","ping":59},{"user_id":491,"name":"noodlehairronaldoprime","steam_id":76561199471954402,"connected_time":40000000000,"state":"active","ping":64},{"user_id":471,"name":"Daga","steam_id":76561198055450219,"connected_time":929000000000,"state":"active","ping":59},{"user_id":442,"name":"Nyhde","steam_id":76561198012771416,"connected_time":2724000000000,"state":"active","ping":91},{"user_id":486,"name":"daphnit (she/they)","steam_id":76561198021596004,"connected_time":347000000000,"state":"active","ping":48},{"user_id":440,"name":"thespe","steam_id":76561198088225107,"connected_time":2978000000000,"state":"active","ping":69},{"user_id":473,"name":"tÃ¯ger","steam_id":76561198260483157,"connected_time":915000000000,"state":"active","ping":80},{"user_id":451,"name":"Dr Crow","steam_id":76561198138444201,"connected_time":2333000000000,"state":"active","ping":62},{"user_id":399,"name":"â€  saVage â€ ","steam_id":76561198057824494,"connected_time":6870000000000,"state":"active","ping":79},{"user_id":483,"name":"0","steam_id":76561199084809092,"connected_time":396000000000,"state":"active","ping":98},{"user_id":487,"name":"Sputnik","steam_id":76561198138660241,"connected_time":347000000000,"state":"active","ping":77},{"user_id":477,"name":"DarthMurloc_OW","steam_id":76561198075577711,"connected_time":668000000000,"state":"active","ping":76},{"user_id":478,"name":"Phalcon","steam_id":76561197987051394,"connected_time":665000000000,"state":"active","ping":71},{"user_id":462,"name":"BoJack #TF2Center","steam_id":76561197994147794,"connected_time":1109000000000,"state":"active","ping":85},{"user_id":460,"name":"Tonuka","steam_id":76561198140929798,"connected_time":1867000000000,"state":"active","ping":35},{"user_id":479,"name":"HilldogGaming","steam_id":76561198082209322,"connected_time":645000000000,"state":"active","ping":87},{"user_id":488,"name":"Syll","steam_id":76561198040736202,"connected_time":337000000000,"state":"active","ping":99}]},{"server_id":309,"name":"Uncletopia | Frankfurt | 4 | All Maps","name_short":"frk-4","host":"frk-1.de.uncletopia.com","port":27045,"enabled":true,"region":"eu","cc":"de","latitude":50.110924,"longitude":8.682127,"reserved":0,"last_update":"0001-01-01T00:00:00Z","name_a2s":"Uncletopia | Frankfurt | 4 | All Maps","protocol":17,"map":"pl_pier","folder":"tf","game":"Team Fortress","app_id":440,"player_count":14,"max_players":24,"Bots":0,"server_type":"Dedicated","server_os":"Linux","password":true,"vac":true,"version":"7757534","steam_id":85568392924504275,"keywords":["nocrits","nodmgspread","payload","uncletopia"],"game_id":440,"stv_port":27046,"stv_name":"Uncletopia | Frankfurt | 4 | All Maps | STV","players":[{"user_id":259,"name":"Raine","steam_id":76561198098860903,"connected_time":452000000000,"state":"active","ping":60},{"user_id":213,"name":"nyanezt","steam_id":76561198253734265,"connected_time":2866000000000,"state":"active","ping":99},{"user_id":260,"name":"kotamine","steam_id":76561198068907991,"connected_time":392000000000,"state":"active","ping":60},{"user_id":261,"name":"Cheshireycat","steam_id":76561198067204908,"connected_time":322000000000,"state":"active","ping":60},{"user_id":239,"name":"Ñ ÑÐ¸Ð¶Ñƒ","steam_id":76561198172046813,"connected_time":1856000000000,"state":"active","ping":72},{"user_id":263,"name":"Superiumentarius","steam_id":76561198081642249,"connected_time":41000000000,"state":"active","ping":48},{"user_id":221,"name":"DrekadÃ³ttir","steam_id":76561198119979169,"connected_time":2648000000000,"state":"active","ping":68},{"user_id":251,"name":"^ ^6ðŸ‘Œ","steam_id":76561198346042974,"connected_time":1139000000000,"state":"active","ping":70},{"user_id":256,"name":"Portal2Player","steam_id":76561198062870114,"connected_time":740000000000,"state":"active","ping":147},{"user_id":257,"name":"Deacon Dracul","steam_id":76561198046880663,"connected_time":624000000000,"state":"active","ping":90},{"user_id":231,"name":"BAPHOMET","steam_id":76561198160069534,"connected_time":2501000000000,"state":"active","ping":112},{"user_id":242,"name":"Rizz","steam_id":76561198192135953,"connected_time":1816000000000,"state":"active","ping":85},{"user_id":229,"name":"Soyboy","steam_id":76561198053885716,"connected_time":2540000000000,"state":"active","ping":74},{"user_id":245,"name":"mary","steam_id":76561198014828037,"connected_time":1736000000000,"state":"active","ping":70}]},{"server_id":310,"name":"Uncletopia | Frankfurt | 5 | All Maps","name_short":"frk-5","host":"frk-1.de.uncletopia.com","port":27055,"enabled":true,"region":"eu","cc":"de","latitude":50.110924,"longitude":8.682127,"reserved":0,"last_update":"0001-01-01T00:00:00Z","name_a2s":"Uncletopia | Frankfurt | 5 | All Maps","protocol":17,"map":"ctf_well","folder":"tf","game":"Team Fortress","app_id":440,"player_count":0,"max_players":24,"Bots":0,"server_type":"Dedicated","server_os":"Linux","password":true,"vac":true,"version":"7757534","steam_id":85568392924504277,"keywords":["ctf","nocrits","nodmgspread","uncletopia"],"game_id":440,"stv_port":27056,"stv_name":"Uncletopia | Frankfurt | 5 | All Maps | STV","players":null},{"server_id":311,"name":"Uncletopia | Frankfurt | 6 | All Maps","name_short":"frk-6","host":"frk-1.de.uncletopia.com","port":27065,"enabled":true,"region":"eu","cc":"de","latitude":50.110924,"longitude":8.682127,"reserved":0,"last_update":"0001-01-01T00:00:00Z","name_a2s":"Uncletopia | Frankfurt | 6 | All Maps","protocol":17,"map":"cp_altitude","folder":"tf","game":"Team Fortress","app_id":440,"player_count":0,"max_players":24,"Bots":0,"server_type":"Dedicated","server_os":"Linux","password":true,"vac":true,"version":"7757534","steam_id":85568392924504278,"keywords":["cp","nocrits","nodmgspread","uncletopia"],"game_id":440,"stv_port":27066,"stv_name":"Uncletopia | Frankfurt | 6 | All Maps | STV","players":null},{"server_id":23,"name":"Uncletopia | Frankfurt | 7 | Stopwatch Beta","name_short":"frk-7","host":"frk-1.de.uncletopia.com","port":27075,"enabled":true,"region":"eu","cc":"de","latitude":50.110924,"longitude":8.682127,"reserved":0,"last_update":"0001-01-01T00:00:00Z","name_a2s":"Uncletopia | Frankfurt | 7 | Stopwatch Beta","protocol":17,"map":"workshop/koth_bagel_rc6.ugc2514036946","folder":"tf","game":"Team Fortress","app_id":440,"player_count":0,"max_players":24,"Bots":0,"server_type":"Dedicated","server_os":"Linux","password":true,"vac":true,"version":"7757534","steam_id":85568392924742827,"keywords":["cp","nocrits","nodmgspread","uncletopia"],"game_id":440,"stv_port":27076,"stv_name":"Uncletopia | Frankfurt | 7 | Stopwatch Beta | STV","players":null},{"server_id":24,"name":"Uncletopia | Frankfurt | 8 | Community","name_short":"frk-8","host":"frk-1.de.uncletopia.com","port":27085,"enabled":true,"region":"eu","cc":"de","latitude":50.110924,"longitude":8.682127,"reserved":0,"last_update":"0001-01-01T00:00:00Z","name_a2s":"Uncletopia | Frankfurt | 8 | Community","protocol":17,"map":"workshop/cp_hazyfort_rc6.ugc1365963729","folder":"tf","game":"Team Fortress","app_id":440,"player_count":0,"max_players":24,"Bots":0,"server_type":"Dedicated","server_os":"Linux","password":true,"vac":true,"version":"7757534","steam_id":85568392924742828,"keywords":["cp","nocrits","nodmgspread","uncletopia"],"game_id":440,"stv_port":27086,"stv_name":"Uncletopia | Frankfurt | 8 | Community | STV","players":null},{"server_id":202,"name":"Uncletopia | Hong Kong | 1 | All Maps","name_short":"hgk-1","host":"hgk-1.hk.uncletopia.com","port":27015,"enabled":true,"region":"asia","cc":"hk","latitude":22.302711,"longitude":114.177216,"reserved":0,"last_update":"0001-01-01T00:00:00Z","name_a2s":"Uncletopia | Hong Kong | 1 | All Maps","protocol":17,"map":"pl_borneo","folder":"tf","game":"Team Fortress","app_id":440,"player_count":0,"max_players":24,"Bots":0,"server_type":"Dedicated","server_os":"Linux","password":true,"vac":true,"version":"7757534","steam_id":85568392924494504,"keywords":["nocrits","nodmgspread","payload","uncletopia"],"game_id":440,"stv_port":27016,"stv_name":"Uncletopia | Hong Kong | 1 | All Maps | STV","players":null},{"server_id":1,"name":"Uncletopia | Los Angeles | 1 | All Maps","name_short":"lax-1","host":"lax-1.us.uncletopia.com","port":27015,"enabled":true,"region":"us-west","cc":"us","latitude":33.94279,"longitude":-118.41004,"reserved":0,"last_update":"0001-01-01T00:00:00Z","name_a2s":"Uncletopia | Los Angeles | 1 | All Maps","protocol":17,"map":"pl_swiftwater_final1","folder":"tf","game":"Team Fortress","app_id":440,"player_count":24,"max_players":24,"Bots":0,"server_type":"Dedicated","server_os":"Linux","password":true,"vac":true,"version":"7757534","steam_id":85568392924469991,"keywords":["nocrits","nodmgspread","payload","uncletopia"],"game_id":440,"stv_port":27016,"stv_name":"Uncletopia | Los Angeles | 1 | All Maps | STV","players":[{"user_id":110,"name":"Frank Cilantro","steam_id":76561198120789856,"connected_time":864000000000,"state":"active","ping":104},{"user_id":70,"name":"Isn't Water","steam_id":76561199253511650,"connected_time":3826000000000,"state":"active","ping":98},{"user_id":123,"name":"Landlord","steam_id":76561198987913057,"connected_time":277000000000,"state":"active","ping":60},{"user_id":105,"name":"flo rida","steam_id":76561198226169704,"connected_time":1658000000000,"state":"active","ping":56},{"user_id":78,"name":"DoctorHa","steam_id":76561198044026008,"connected_time":3447000000000,"state":"active","ping":59},{"user_id":108,"name":"rmbl","steam_id":76561198150137369,"connected_time":1137000000000,"state":"active","ping":53},{"user_id":64,"name":"STONE COLD","steam_id":76561198041643833,"connected_time":4224000000000,"state":"active","ping":96},{"user_id":119,"name":"patjiaviar","steam_id":76561199465783209,"connected_time":462000000000,"state":"active","ping":53},{"user_id":109,"name":"Dimension","steam_id":76561198132803810,"connected_time":1071000000000,"state":"active","ping":83},{"user_id":106,"name":"Some Retard","steam_id":76561197994544587,"connected_time":1429000000000,"state":"active","ping":61},{"user_id":118,"name":"â™¥ bibi â™¥","steam_id":76561198354864687,"connected_time":500000000000,"state":"active","ping":69},{"user_id":52,"name":"jadesouledout","steam_id":76561198866936507,"connected_time":4948000000000,"state":"active","ping":59},{"user_id":72,"name":"wait no stop dont do that","steam_id":76561199117157198,"connected_time":3724000000000,"state":"active","ping":105},{"user_id":125,"name":"imbadatvideogames","steam_id":76561198856246322,"connected_time":45000000000,"state":"active","ping":107},{"user_id":113,"name":"Coolshroomish","steam_id":76561199109440924,"connected_time":722000000000,"state":"active","ping":83},{"user_id":122,"name":"Tanner The Fish Man","steam_id":76561198372696640,"connected_time":335000000000,"state":"active","ping":51},{"user_id":121,"name":"Lanky Kong","steam_id":76561198251119798,"connected_time":361000000000,"state":"active","ping":64},{"user_id":107,"name":"demonight team defense too","steam_id":76561198038400226,"connected_time":1330000000000,"state":"active","ping":85},{"user_id":116,"name":"DV","steam_id":76561198295570806,"connected_time":662000000000,"state":"active","ping":59},{"user_id":120,"name":"momus","steam_id":76561198966979196,"connected_time":462000000000,"state":"active","ping":47},{"user_id":76,"name":"THE UNDERTAKER","steam_id":76561198089852954,"connected_time":3515000000000,"state":"active","ping":105},{"user_id":45,"name":"i forgor","steam_id":76561199120622265,"connected_time":5277000000000,"state":"active","ping":93},{"user_id":126,"name":"INFINITE","steam_id":76561197971285557,"connected_time":13000000000,"state":"active","ping":153},{"user_id":104,"name":"Jacob Hornberger 2016 dice","steam_id":76561198204549723,"connected_time":1828000000000,"state":"active","ping":130}]},{"server_id":112,"name":"Uncletopia | Los Angeles | 2 | All Maps","name_short":"lax-2","host":"lax-1.us.uncletopia.com","port":27025,"enabled":true,"region":"us-west","cc":"us","latitude":33.94279,"longitude":-118.41004,"reserved":0,"last_update":"0001-01-01T00:00:00Z","name_a2s":"Uncletopia | Los Angeles | 2 | All Maps","protocol":17,"map":"cp_altitude","folder":"tf","game":"Team Fortress","app_id":440,"player_count":0,"max_players":24,"Bots":0,"server_type":"Dedicated","server_os":"Linux","password":true,"vac":true,"version":"7757534","steam_id":85568392924469992,"keywords":["cp","nocrits","nodmgspread","uncletopia"],"game_id":440,"stv_port":27026,"stv_name":"Uncletopia | Los Angeles | 2 | All Maps | STV","players":null},{"server_id":324,"name":"Uncletopia | Los Angeles | 3 | All Maps","name_short":"lax-3","host":"lax-1.us.uncletopia.com","port":27035,"enabled":true,"region":"us-west","cc":"us","latitude":33.94279,"longitude":-118.41004,"reserved":0,"last_update":"0001-01-01T00:00:00Z","name_a2s":"Uncletopia | Los Angeles | 3 | All Maps","protocol":17,"map":"pl_badwater","folder":"tf","game":"Team Fortress","app_id":440,"player_count":0,"max_players":24,"Bots":0,"server_type":"Dedicated","server_os":"Linux","password":true,"vac":true,"version":"7757534","steam_id":85568392924510198,"keywords":["nocrits","nodmgspread","payload","uncletopia"],"game_id":440,"stv_port":27036,"stv_name":"Uncletopia | Los Angeles | 3 | All Maps | STV","players":null},{"server_id":25,"name":"Uncletopia | Los Angeles | 4 | Stopwatch Beta","name_short":"lax-4","host":"lax-1.us.uncletopia.com","port":27045,"enabled":true,"region":"us-west","cc":"us","latitude":33.94279,"longitude":-118.41004,"reserved":0,"last_update":"0001-01-01T00:00:00Z","name_a2s":"Uncletopia | Los Angeles | 4 | Stopwatch Beta","protocol":17,"map":"pl_swiftwater_final1","folder":"tf","game":"Team Fortress","app_id":440,"player_count":0,"max_players":24,"Bots":0,"server_type":"Dedicated","server_os":"Linux","password":true,"vac":true,"version":"7757534","steam_id":85568392924510199,"keywords":["nocrits","nodmgspread","payload","uncletopia"],"game_id":440,"stv_port":27046,"stv_name":"Uncletopia | Los Angeles | 4 | Stopwatch Beta | STV","players":null},{"server_id":11,"name":"Uncletopia | London | 1 | All Maps","name_short":"lon-1","host":"lon-1.uk.uncletopia.com","port":27015,"enabled":true,"region":"eu","cc":"gb","latitude":51.509865,"longitude":-0.118092,"reserved":0,"last_update":"0001-01-01T00:00:00Z","name_a2s":"Uncletopia | London | 1 | All Maps","protocol":17,"map":"pl_borneo","folder":"tf","game":"Team Fortress","app_id":440,"player_count":23,"max_players":24,"Bots":0,"server_type":"Dedicated","server_os":"Linux","password":true,"vac":true,"version":"7757534","steam_id":85568392924367362,"keywords":["nocrits","nodmgspread","payload","uncletopia"],"game_id":440,"stv_port":27016,"stv_name":"Uncletopia | London | 1 | All Maps | STV","players":[{"user_id":672,"name":"Wedgeridoo","steam_id":76561198082813907,"connected_time":4071000000000,"state":"active","ping":106},{"user_id":795,"name":"SHLUUUURP","steam_id":76561199150903062,"connected_time":307000000000,"state":"active","ping":53},{"user_id":713,"name":"Depressed","steam_id":76561198154405093,"connected_time":2305000000000,"state":"active","ping":78},{"user_id":630,"name":"SOPHIIEE","steam_id":76561198443798981,"connected_time":7952000000000,"state":"active","ping":50},{"user_id":798,"name":"owo","steam_id":76561198158209651,"connected_time":230000000000,"state":"active","ping":62},{"user_id":655,"name":"beebo","steam_id":76561199120277007,"connected_time":5127000000000,"state":"active","ping":51},{"user_id":726,"name":"BreadBubbles","steam_id":76561198174332826,"connected_time":1605000000000,"state":"active","ping":59},{"user_id":663,"name":"Air","steam_id":76561198271025518,"connected_time":4904000000000,"state":"active","ping":105},{"user_id":683,"name":"Lau","steam_id":76561197993573576,"connected_time":3488000000000,"state":"active","ping":92},{"user_id":673,"name":"Prome","steam_id":76561199050383942,"connected_time":4070000000000,"state":"active","ping":59},{"user_id":800,"name":"Oxer","steam_id":76561198055942412,"connected_time":182000000000,"state":"active","ping":79},{"user_id":801,"name":"randompixel","steam_id":76561198003941207,"connected_time":176000000000,"state":"active","ping":50},{"user_id":754,"name":"GoTo","steam_id":76561197961094787,"connected_time":1008000000000,"state":"active","ping":67},{"user_id":718,"name":"UltimateSlayer","steam_id":76561198384109309,"connected_time":1942000000000,"state":"active","ping":45},{"user_id":802,"name":"Silverdarlin","steam_id":76561198118540970,"connected_time":173000000000,"state":"active","ping":46},{"user_id":736,"name":"Drosan ãƒ„","steam_id":76561197960389216,"connected_time":1382000000000,"state":"active","ping":45},{"user_id":715,"name":"regimiro","steam_id":76561198120457008,"connected_time":2166000000000,"state":"active","ping":54},{"user_id":710,"name":"homeinvasion$","steam_id":76561199111905021,"connected_time":2555000000000,"state":"active","ping":117},{"user_id":803,"name":"shemale cum guzzler","steam_id":76561198077421906,"connected_time":166000000000,"state":"active","ping":53},{"user_id":587,"name":"teddy","steam_id":76561198007436837,"connected_time":12418000000000,"state":"active","ping":39},{"user_id":792,"name":"SuperBob103","steam_id":76561199175360012,"connected_time":378000000000,"state":"active","ping":48},{"user_id":703,"name":"86","steam_id":76561199084186097,"connected_time":2895000000000,"state":"active","ping":77},{"user_id":685,"name":"Harpenden, Harpenden, Harpenden","steam_id":76561198118138546,"connected_time":3430000000000,"state":"active","ping":44}]},{"server_id":114,"name":"Uncletopia | London | 2 | All Maps","name_short":"lon-2","host":"lon-1.uk.uncletopia.com","port":27025,"enabled":true,"region":"eu","cc":"gb","latitude":51.509865,"longitude":-0.118092,"reserved":0,"last_update":"0001-01-01T00:00:00Z","name_a2s":"Uncletopia | London | 2 | All Maps","protocol":17,"map":"pl_badwater","folder":"tf","game":"Team Fortress","app_id":440,"player_count":24,"max_players":24,"Bots":0,"server_type":"Dedicated","server_os":"Linux","password":true,"vac":true,"version":"7757534","steam_id":85568392924470941,"keywords":["nocrits","nodmgspread","payload","uncletopia"],"game_id":440,"stv_port":27026,"stv_name":"Uncletopia | London | 2 | All Maps | STV","players":[{"user_id":491,"name":"Noodle","steam_id":76561198306486695,"connected_time":6663000000000,"state":"active","ping":67},{"user_id":518,"name":"Elyo","steam_id":76561198108054688,"connected_time":3754000000000,"state":"active","ping":85},{"user_id":556,"name":"Houlles","steam_id":76561198095277383,"connected_time":1471000000000,"state":"active","ping":57},{"user_id":529,"name":"Spetse","steam_id":76561197990649972,"connected_time":2476000000000,"state":"active","ping":90},{"user_id":536,"name":"Magic","steam_id":76561198401602586,"connected_time":2190000000000,"state":"active","ping":72},{"user_id":521,"name":"Rubikskubbakall29","steam_id":76561198861495164,"connected_time":3653000000000,"state":"active","ping":88},{"user_id":537,"name":"vani","steam_id":76561197991778291,"connected_time":2143000000000,"state":"active","ping":75},{"user_id":561,"name":"Owenter","steam_id":76561198083201886,"connected_time":473000000000,"state":"active","ping":35},{"user_id":509,"name":"Saken","steam_id":76561198049075295,"connected_time":5083000000000,"state":"active","ping":70},{"user_id":540,"name":"Pixie","steam_id":76561198044038797,"connected_time":1989000000000,"state":"active","ping":84},{"user_id":544,"name":"tosti_tower","steam_id":76561198153445364,"connected_time":1820000000000,"state":"active","ping":49},{"user_id":533,"name":"Chadrysiaque","steam_id":76561198061333310,"connected_time":2391000000000,"state":"active","ping":59},{"user_id":551,"name":"Economic crisis","steam_id":76561198063562843,"connected_time":1638000000000,"state":"active","ping":64},{"user_id":563,"name":"Volcyy","steam_id":76561198063979124,"connected_time":347000000000,"state":"active","ping":46},{"user_id":565,"name":"âœª qua âœª","steam_id":76561198066408333,"connected_time":215000000000,"state":"active","ping":83},{"user_id":557,"name":"LSKi","steam_id":76561198215470228,"connected_time":1292000000000,"state":"active","ping":55},{"user_id":552,"name":"jameslol123465","steam_id":76561199004898983,"connected_time":1610000000000,"state":"active","ping":99},{"user_id":560,"name":"Dumb Whore","steam_id":76561198279771056,"connected_time":890000000000,"state":"active","ping":77},{"user_id":553,"name":"Hatonfire","steam_id":76561198287372060,"connected_time":1575000000000,"state":"active","ping":44},{"user_id":558,"name":"jmp","steam_id":76561198168283286,"connected_time":1192000000000,"state":"active","ping":75},{"user_id":562,"name":"all my cables BRAIDED","steam_id":76561198014688238,"connected_time":443000000000,"state":"active","ping":62},{"user_id":515,"name":"lark","steam_id":76561198091724522,"connected_time":4705000000000,"state":"active","ping":58},{"user_id":559,"name":"tube","steam_id":76561198188642265,"connected_time":1159000000000,"state":"active","ping":55},{"user_id":543,"name":"alchemist","steam_id":76561198042595246,"connected_time":1886000000000,"state":"active","ping":138}]},{"server_id":320,"name":"Uncletopia | London | 3 | All Maps","name_short":"lon-3","host":"lon-1.uk.uncletopia.com","port":27035,"enabled":true,"region":"eu","cc":"gb","latitude":51.509865,"longitude":-0.118092,"reserved":0,"last_update":"0001-01-01T00:00:00Z","name_a2s":"Uncletopia | London | 3 | All Maps","protocol":17,"map":"pl_pier","folder":"tf","game":"Team Fortress","app_id":440,"player_count":1,"max_players":24,"Bots":0,"server_type":"Dedicated","server_os":"Linux","password":true,"vac":true,"version":"7757534","steam_id":85568392924510192,"keywords":["nocrits","nodmgspread","payload","uncletopia"],"game_id":440,"stv_port":27036,"stv_name":"Uncletopia | London | 3 | All Maps | STV","players":[{"user_id":246,"name":"Lady Dimitrescu Fact of the Day","steam_id":76561199078337104,"connected_time":265000000000,"state":"active","ping":53}]},{"server_id":321,"name":"Uncletopia | London | 4 | All Maps","name_short":"lon-4","host":"lon-1.uk.uncletopia.com","port":27045,"enabled":true,"region":"eu","cc":"gb","latitude":51.509865,"longitude":-0.118092,"reserved":0,"last_update":"0001-01-01T00:00:00Z","name_a2s":"Uncletopia | London | 4 | All Maps","protocol":17,"map":"koth_highpass","folder":"tf","game":"Team Fortress","app_id":440,"player_count":0,"max_players":24,"Bots":0,"server_type":"Dedicated","server_os":"Linux","password":true,"vac":true,"version":"7757534","steam_id":85568392924510193,"keywords":["cp","nocrits","nodmgspread","uncletopia"],"game_id":440,"stv_port":27046,"stv_name":"Uncletopia | London | 4 | All Maps | STV","players":null},{"server_id":21,"name":"Uncletopia | London | 5 | All Maps","name_short":"lon-5","host":"lon-1.uk.uncletopia.com","port":27055,"enabled":true,"region":"eu","cc":"gb","latitude":51.509865,"longitude":-0.118092,"reserved":0,"last_update":"0001-01-01T00:00:00Z","name_a2s":"Uncletopia | London | 5 | All Maps","protocol":17,"map":"pl_borneo","folder":"tf","game":"Team Fortress","app_id":440,"player_count":24,"max_players":24,"Bots":0,"server_type":"Dedicated","server_os":"Linux","password":true,"vac":true,"version":"7757534","steam_id":85568392924742829,"keywords":["nocrits","nodmgspread","payload","uncletopia"],"game_id":440,"stv_port":27056,"stv_name":"Uncletopia | London | 5 | All Maps | STV","players":[{"user_id":307,"name":"big t","steam_id":76561198067179454,"connected_time":5918000000000,"state":"active","ping":23},{"user_id":353,"name":"trixy","steam_id":76561199474154775,"connected_time":2747000000000,"state":"active","ping":49},{"user_id":379,"name":"Anoobis","steam_id":76561199419533757,"connected_time":903000000000,"state":"active","ping":76},{"user_id":391,"name":"AsuX","steam_id":76561197990333289,"connected_time":515000000000,"state":"active","ping":57},{"user_id":384,"name":"bojka","steam_id":76561197993911349,"connected_time":839000000000,"state":"active","ping":70},{"user_id":377,"name":"Hyperek","steam_id":76561198130797464,"connected_time":959000000000,"state":"active","ping":75},{"user_id":356,"name":"Zerfesh","steam_id":76561198117534358,"connected_time":2632000000000,"state":"active","ping":98},{"user_id":338,"name":"RadialMount","steam_id":76561198063002562,"connected_time":3072000000000,"state":"active","ping":69},{"user_id":380,"name":"Cornmac","steam_id":76561198104780569,"connected_time":860000000000,"state":"active","ping":73},{"user_id":374,"name":"LiterallyRyanGosling","steam_id":76561199017856691,"connected_time":1088000000000,"state":"active","ping":46},{"user_id":381,"name":"Homosapien","steam_id":76561197972035953,"connected_time":857000000000,"state":"active","ping":60},{"user_id":369,"name":"hot dog water","steam_id":76561198078291890,"connected_time":1950000000000,"state":"active","ping":33},{"user_id":355,"name":"OutOfDucks","steam_id":76561198166376227,"connected_time":2723000000000,"state":"active","ping":55},{"user_id":309,"name":"gofdrey","steam_id":76561198121941052,"connected_time":5901000000000,"state":"active","ping":53},{"user_id":378,"name":"Garbo","steam_id":76561198133885944,"connected_time":941000000000,"state":"active","ping":55},{"user_id":366,"name":"Cosmetic brain","steam_id":76561198055936410,"connected_time":2008000000000,"state":"active","ping":251},{"user_id":382,"name":"fÃ©nix","steam_id":76561198083199151,"connected_time":855000000000,"state":"active","ping":56},{"user_id":392,"name":"help","steam_id":76561199056338917,"connected_time":419000000000,"state":"active","ping":165},{"user_id":354,"name":"Jyghc","steam_id":76561198405980575,"connected_time":2729000000000,"state":"active","ping":71},{"user_id":373,"name":"Gnarville","steam_id":76561198006373329,"connected_time":1782000000000,"state":"active","ping":46},{"user_id":393,"name":"le Shtink","steam_id":76561199433948284,"connected_time":9000000000,"state":"spawning","ping":128},{"user_id":371,"name":"Cappuccino","steam_id":76561199065155403,"connected_time":1938000000000,"state":"active","ping":52},{"user_id":387,"name":"SolidSalt","steam_id":76561198334789026,"connected_time":672000000000,"state":"active","ping":37},{"user_id":386,"name":"free uber","steam_id":76561198198581079,"connected_time":812000000000,"state":"active","ping":68}]},{"server_id":22,"name":"Uncletopia | London | 6 | All Maps","name_short":"lon-6","host":"lon-1.uk.uncletopia.com","port":27065,"enabled":true,"region":"eu","cc":"gb","latitude":51.509865,"longitude":-0.118092,"reserved":0,"last_update":"0001-01-01T00:00:00Z","name_a2s":"Uncletopia | London | 6 | All Maps","protocol":17,"map":"pl_thundermountain","folder":"tf","game":"Team Fortress","app_id":440,"player_count":18,"max_players":24,"Bots":0,"server_type":"Dedicated","server_os":"Linux","password":true,"vac":true,"version":"7757534","steam_id":85568392924742830,"keywords":["nocrits","nodmgspread","payload","uncletopia"],"game_id":440,"stv_port":27066,"stv_name":"Uncletopia | London | 6 | All Maps | STV","players":[{"user_id":444,"name":"XANNUR","steam_id":76561198255004930,"connected_time":1046000000000,"state":"active","ping":54},{"user_id":458,"name":"Burpman","steam_id":76561198022897937,"connected_time":561000000000,"state":"active","ping":50},{"user_id":455,"name":"Mike Oxmells-Grim","steam_id":76561198206218692,"connected_time":677000000000,"state":"active","ping":71},{"user_id":453,"name":"Armando","steam_id":76561198271977372,"connected_time":870000000000,"state":"active","ping":55},{"user_id":447,"name":"Adi Tagbar","steam_id":76561198255130741,"connected_time":981000000000,"state":"active","ping":63},{"user_id":465,"name":"Youssef S Ahmed","steam_id":76561199435139103,"connected_time":364000000000,"state":"active","ping":115},{"user_id":468,"name":"Twitchy Gains","steam_id":76561198981136003,"connected_time":143000000000,"state":"active","ping":127},{"user_id":456,"name":"Burnie","steam_id":76561198240975318,"connected_time":671000000000,"state":"active","ping":67},{"user_id":467,"name":"tone","steam_id":76561197975301462,"connected_time":216000000000,"state":"active","ping":66},{"user_id":469,"name":"Reptikality","steam_id":76561199057211698,"connected_time":100000000000,"state":"active","ping":152},{"user_id":470,"name":"wolfninja","steam_id":76561199218099629,"connected_time":2000000000,"state":"spawning","ping":150},{"user_id":426,"name":"Penis Contortionist","steam_id":76561198073663784,"connected_time":2327000000000,"state":"active","ping":41},{"user_id":427,"name":"Mari Christmas","steam_id":76561197997020707,"connected_time":2261000000000,"state":"active","ping":50},{"user_id":394,"name":"nedilya","steam_id":76561198039692077,"connected_time":4822000000000,"state":"active","ping":66},{"user_id":461,"name":"Black Sheep","steam_id":76561198042244701,"connected_time":543000000000,"state":"active","ping":60},{"user_id":365,"name":"BonsaiCat_","steam_id":76561198232236020,"connected_time":6288000000000,"state":"active","ping":45},{"user_id":437,"name":"Matznmilian","steam_id":76561198024358403,"connected_time":1848000000000,"state":"active","ping":73}]},{"server_id":40,"name":"Uncletopia | London | 7 | No Payload","name_short":"lon-7","host":"lon-1.uk.uncletopia.com","port":27075,"enabled":true,"region":"eu","cc":"gb","latitude":51.509865,"longitude":-0.118092,"reserved":0,"last_update":"0001-01-01T00:00:00Z","name_a2s":"Uncletopia | London | 7 | No Payload","protocol":17,"map":"cp_gorge","folder":"tf","game":"Team Fortress","app_id":440,"player_count":0,"max_players":24,"Bots":0,"server_type":"Dedicated","server_os":"Linux","password":true,"vac":true,"version":"7757534","steam_id":85568392924964314,"keywords":["cp","nocrits","nodmgspread","uncletopia"],"game_id":440,"stv_port":27076,"stv_name":"Uncletopia | London | 7 | No Payload | STV","players":null},{"server_id":41,"name":"Uncletopia | London | 8 | Community","name_short":"lon-8","host":"lon-1.uk.uncletopia.com","port":27085,"enabled":true,"region":"eu","cc":"gb","latitude":51.509865,"longitude":-0.118092,"reserved":0,"last_update":"0001-01-01T00:00:00Z","name_a2s":"Uncletopia | London | 8 | Community","protocol":17,"map":"workshop/koth_bagel_rc6.ugc2514036946","folder":"tf","game":"Team Fortress","app_id":440,"player_count":0,"max_players":24,"Bots":0,"server_type":"Dedicated","server_os":"Linux","password":true,"vac":true,"version":"7757534","steam_id":85568392924964315,"keywords":["cp","nocrits","nodmgspread","uncletopia"],"game_id":440,"stv_port":27086,"stv_name":"Uncletopia | London | 8 | Community | STV","players":null},{"server_id":300,"name":"Uncletopia | MontrÃ©al | 1 | All Maps","name_short":"mtl-1","host":"mtl-1.ca.uncletopia.com","port":27015,"enabled":true,"region":"us-east","cc":"ca","latitude":45.50889,"longitude":-73.56167,"reserved":0,"last_update":"0001-01-01T00:00:00Z","name_a2s":"Uncletopia | MontrÃ©al | 1 | All Maps","protocol":17,"map":"koth_highpass","folder":"tf","game":"Team Fortress","app_id":440,"player_count":0,"max_players":24,"Bots":0,"server_type":"Dedicated","server_os":"Linux","password":true,"vac":true,"version":"7757534","steam_id":85568392924500087,"keywords":["cp","nocrits","nodmgspread","uncletopia"],"game_id":440,"stv_port":27016,"stv_name":"Uncletopia | MontrÃ©al | 1 | All Maps | STV","players":null},{"server_id":301,"name":"Uncletopia | MontrÃ©al | 2 | All Maps","name_short":"mtl-2","host":"mtl-1.ca.uncletopia.com","port":27025,"enabled":true,"region":"us-east","cc":"ca","latitude":45.50889,"longitude":-73.56167,"reserved":0,"last_update":"0001-01-01T00:00:00Z","name_a2s":"Uncletopia | MontrÃ©al | 2 | All Maps","protocol":17,"map":"koth_lakeside_final","folder":"tf","game":"Team Fortress","app_id":440,"player_count":0,"max_players":24,"Bots":0,"server_type":"Dedicated","server_os":"Linux","password":true,"vac":true,"version":"7757534","steam_id":85568392924500088,"keywords":["cp","nocrits","nodmgspread","uncletopia"],"game_id":440,"stv_port":27026,"stv_name":"Uncletopia | MontrÃ©al | 2 | All Maps | STV","players":null},{"server_id":302,"name":"Uncletopia | MontrÃ©al | 3 | All Maps","name_short":"mtl-3","host":"mtl-1.ca.uncletopia.com","port":27035,"enabled":true,"region":"us-east","cc":"ca","latitude":45.50889,"longitude":-73.56167,"reserved":0,"last_update":"0001-01-01T00:00:00Z","name_a2s":"Uncletopia | MontrÃ©al | 3 | All Maps","protocol":17,"map":"koth_lakeside_final","folder":"tf","game":"Team Fortress","app_id":440,"player_count":0,"max_players":24,"Bots":0,"server_type":"Dedicated","server_os":"Linux","password":true,"vac":true,"version":"7757534","steam_id":85568392924500089,"keywords":["cp","nocrits","nodmgspread","uncletopia"],"game_id":440,"stv_port":27036,"stv_name":"Uncletopia | MontrÃ©al | 3 | All Maps | STV","players":null},{"server_id":303,"name":"Uncletopia | MontrÃ©al | 4 | No Payload","name_short":"mtl-4","host":"mtl-1.ca.uncletopia.com","port":27045,"enabled":true,"region":"us-east","cc":"ca","latitude":45.50889,"longitude":-73.56167,"reserved":0,"last_update":"0001-01-01T00:00:00Z","name_a2s":"Uncletopia | MontrÃ©al | 4 | No Payload","protocol":17,"map":"cp_foundry","folder":"tf","game":"Team Fortress","app_id":440,"player_count":0,"max_players":24,"Bots":0,"server_type":"Dedicated","server_os":"Linux","password":true,"vac":true,"version":"7757534","steam_id":85568392924500090,"keywords":["cp","nocrits","nodmgspread","uncletopia"],"game_id":440,"stv_port":27046,"stv_name":"Uncletopia | MontrÃ©al | 4 | No Payload | STV","players":null},{"server_id":13,"name":"Uncletopia | New York City | 1 | All Maps","name_short":"nyc-1","host":"nyc-1.us.uncletopia.com","port":27015,"enabled":true,"region":"us-east","cc":"us","latitude":40.73061,"longitude":-73.93524,"reserved":0,"last_update":"0001-01-01T00:00:00Z","name_a2s":"Uncletopia | New York City | 1 | All Maps","protocol":17,"map":"pl_frontier_final","folder":"tf","game":"Team Fortress","app_id":440,"player_count":24,"max_players":24,"Bots":0,"server_type":"Dedicated","server_os":"Linux","password":true,"vac":true,"version":"7757534","steam_id":85568392924469993,"keywords":["nocrits","nodmgspread","payload","uncletopia"],"game_id":440,"stv_port":27016,"stv_name":"Uncletopia | New York City | 1 | All Maps | STV","players":[{"user_id":355,"name":"Timon's high on crack cocaine!","steam_id":76561198180396430,"connected_time":2736000000000,"state":"active","ping":60},{"user_id":314,"name":"Porcupine's Revenge!","steam_id":76561199121615234,"connected_time":6033000000000,"state":"active","ping":55},{"user_id":360,"name":"69 odd goat","steam_id":76561198116908911,"connected_time":2106000000000,"state":"active","ping":58},{"user_id":339,"name":"Grebnedulgo The Elder","steam_id":76561199123285878,"connected_time":3317000000000,"state":"active","ping":62},{"user_id":363,"name":"pdriod12","steam_id":76561198801481520,"connected_time":1535000000000,"state":"active","ping":49},{"user_id":384,"name":"Victor Skull","steam_id":76561198352212864,"connected_time":138000000000,"state":"active","ping":44},{"user_id":308,"name":"Swifgz","steam_id":76561198162875756,"connected_time":6244000000000,"state":"active","ping":45},{"user_id":381,"name":"joe the baby grabber","steam_id":76561198285162538,"connected_time":313000000000,"state":"active","ping":49},{"user_id":364,"name":"fumblom","steam_id":76561199389283507,"connected_time":1535000000000,"state":"active","ping":60},{"user_id":299,"name":"Vivid Hut 64","steam_id":76561198170050059,"connected_time":7693000000000,"state":"active","ping":59},{"user_id":365,"name":"Underqualified Gunman","steam_id":76561198111061367,"connected_time":1521000000000,"state":"active","ping":87},{"user_id":379,"name":"Midlife Crisis Jotaro","steam_id":76561199023562280,"connected_time":374000000000,"state":"active","ping":75},{"user_id":385,"name":"reanimator","steam_id":76561198085830470,"connected_time":95000000000,"state":"active","ping":48},{"user_id":336,"name":"I am a Toaster","steam_id":76561199190216106,"connected_time":3643000000000,"state":"active","ping":95},{"user_id":377,"name":"Motorbung87","steam_id":76561198976821898,"connected_time":580000000000,"state":"active","ping":119},{"user_id":374,"name":"ð™´ ðš¡ ðšŒ ðšŽ ðš• ðš• \ufffd","steam_id":76561198011887958,"connected_time":979000000000,"state":"active","ping":55},{"user_id":378,"name":"LammyJams","steam_id":76561199038181549,"connected_time":446000000000,"state":"active","ping":70},{"user_id":382,"name":"aer","steam_id":76561198293502053,"connected_time":223000000000,"state":"active","ping":42},{"user_id":372,"name":"wads","steam_id":76561198873422077,"connected_time":1179000000000,"state":"active","ping":59},{"user_id":375,"name":"BasicPeaches","steam_id":76561198190890150,"connected_time":968000000000,"state":"active","ping":66},{"user_id":295,"name":"Mochi","steam_id":76561199151314140,"connected_time":8192000000000,"state":"active","ping":42},{"user_id":354,"name":"FreonAddict9x19","steam_id":76561198060010824,"connected_time":2884000000000,"state":"active","ping":70},{"user_id":371,"name":"Mr_Frosty","steam_id":76561199380389079,"connected_time":1450000000000,"state":"active","ping":107},{"user_id":337,"name":"Cool_Dude_909","steam_id":76561198313870988,"connected_time":3460000000000,"state":"active","ping":59}]},{"server_id":14,"name":"Uncletopia | New York City | 2 | All Maps","name_short":"nyc-2","host":"nyc-1.us.uncletopia.com","port":27025,"enabled":true,"region":"us-east","cc":"us","latitude":40.73061,"longitude":-73.93524,"reserved":0,"last_update":"0001-01-01T00:00:00Z","name_a2s":"Uncletopia | New York City | 2 | All Maps","protocol":17,"map":"pl_snowycoast","folder":"tf","game":"Team Fortress","app_id":440,"player_count":24,"max_players":24,"Bots":0,"server_type":"Dedicated","server_os":"Linux","password":true,"vac":true,"version":"7757534","steam_id":85568392924469994,"keywords":["nocrits","nodmgspread","payload","uncletopia"],"game_id":440,"stv_port":27026,"stv_name":"Uncletopia | New York City | 2 | All Maps | STV","players":[{"user_id":673,"name":"FunnyUsernameWow","steam_id":76561198324177635,"connected_time":3712000000000,"state":"active","ping":65},{"user_id":715,"name":"PSHH YOBA","steam_id":76561197999869136,"connected_time":625000000000,"state":"active","ping":157},{"user_id":717,"name":"Hoopla","steam_id":76561198327775508,"connected_time":437000000000,"state":"active","ping":43},{"user_id":718,"name":"lfty","steam_id":76561198283841707,"connected_time":387000000000,"state":"active","ping":48},{"user_id":725,"name":"Mara Roo","steam_id":76561198279341789,"connected_time":271000000000,"state":"active","ping":92},{"user_id":711,"name":"Lifial","steam_id":76561198271885819,"connected_time":1192000000000,"state":"active","ping":54},{"user_id":727,"name":"Joshy","steam_id":76561198061405421,"connected_time":88000000000,"state":"active","ping":70},{"user_id":636,"name":"C++","steam_id":76561198148724163,"connected_time":5825000000000,"state":"active","ping":117},{"user_id":692,"name":"Strangelove","steam_id":76561198353773611,"connected_time":2821000000000,"state":"active","ping":84},{"user_id":710,"name":"uhhhh","steam_id":76561199211193548,"connected_time":1250000000000,"state":"active","ping":63},{"user_id":722,"name":"Joy #savetf2","steam_id":76561198073690173,"connected_time":300000000000,"state":"active","ping":55},{"user_id":716,"name":"The Greendale Human Beings","steam_id":76561198055433422,"connected_time":502000000000,"state":"active","ping":70},{"user_id":679,"name":"RogueOstrich","steam_id":76561198246274348,"connected_time":3638000000000,"state":"active","ping":54},{"user_id":681,"name":"AbbyRoads","steam_id":76561198868564212,"connected_time":3557000000000,"state":"active","ping":59},{"user_id":714,"name":"Blueâ›§Melon","steam_id":76561197970926435,"connected_time":716000000000,"state":"active","ping":58},{"user_id":682,"name":"Waffle Wannabe","steam_id":76561198064510650,"connected_time":3488000000000,"state":"active","ping":41},{"user_id":704,"name":"boppetson","steam_id":76561198073529045,"connected_time":1817000000000,"state":"active","ping":51},{"user_id":723,"name":"nnobi","steam_id":76561198878729277,"connected_time":290000000000,"state":"active","ping":76},{"user_id":712,"name":"Sumuler","steam_id":76561199067107105,"connected_time":913000000000,"state":"active","ping":59},{"user_id":724,"name":"Sploonbabagoosecooties","steam_id":76561198139972201,"connected_time":284000000000,"state":"active","ping":129},{"user_id":696,"name":"Rent is Due","steam_id":76561198155872356,"connected_time":2295000000000,"state":"active","ping":37},{"user_id":726,"name":"JZ","steam_id":76561198377029198,"connected_time":240000000000,"state":"active","ping":72},{"user_id":713,"name":"Sakilla","steam_id":76561198025224152,"connected_time":761000000000,"state":"active","ping":39},{"user_id":709,"name":"we will always love you","steam_id":76561198354473513,"connected_time":1669000000000,"state":"active","ping":70}]},{"server_id":15,"name":"Uncletopia | New York City | 3 | Stopwatch Beta","name_short":"nyc-3","host":"nyc-1.us.uncletopia.com","port":27035,"enabled":true,"region":"us-east","cc":"us","latitude":40.73061,"longitude":-73.93524,"reserved":0,"last_update":"0001-01-01T00:00:00Z","name_a2s":"Uncletopia | New York City | 3 | Stopwatch Beta","protocol":17,"map":"koth_lakeside_final","folder":"tf","game":"Team Fortress","app_id":440,"player_count":1,"max_players":24,"Bots":0,"server_type":"Dedicated","server_os":"Linux","password":true,"vac":true,"version":"7757534","steam_id":85568392924742820,"keywords":["cp","nocrits","nodmgspread","uncletopia"],"game_id":440,"stv_port":27036,"stv_name":"Uncletopia | New York City | 3 | Stopwatch Beta | STV","players":[{"user_id":108,"name":"SENTRY_COP687","steam_id":76561199217344643,"connected_time":41000000000,"state":"active","ping":87}]},{"server_id":16,"name":"Uncletopia | New York City | 4 | Community","name_short":"nyc-4","host":"nyc-1.us.uncletopia.com","port":27045,"enabled":true,"region":"us-east","cc":"us","latitude":40.73061,"longitude":-73.93524,"reserved":0,"last_update":"0001-01-01T00:00:00Z","name_a2s":"Uncletopia | New York City | 4 | Community","protocol":17,"map":"workshop/cp_propaganda_b18.ugc1603743849","folder":"tf","game":"Team Fortress","app_id":440,"player_count":0,"max_players":24,"Bots":0,"server_type":"Dedicated","server_os":"Linux","password":true,"vac":true,"version":"7757534","steam_id":85568392924742821,"keywords":["cp","nocrits","nodmgspread","uncletopia"],"game_id":440,"stv_port":27046,"stv_name":"Uncletopia | New York City | 4 | Community | STV","players":null},{"server_id":142,"name":"Uncletopia | SÃ£o Paulo | 1 | All Maps","name_short":"sao-1","host":"sao-1.br.uncletopia.com","port":27015,"enabled":true,"region":"sa","cc":"br","latitude":-23.533773,"longitude":-46.62529,"reserved":0,"last_update":"0001-01-01T00:00:00Z","name_a2s":"Uncletopia | SÃ£o Paulo | 1 | All Maps","protocol":17,"map":"koth_cascade","folder":"tf","game":"Team Fortress","app_id":440,"player_count":0,"max_players":24,"Bots":0,"server_type":"Dedicated","server_os":"Linux","password":true,"vac":true,"version":"7757534","steam_id":85568392924469996,"keywords":["cp","nocrits","nodmgspread","uncletopia"],"game_id":440,"stv_port":27016,"stv_name":"Uncletopia | SÃ£o Paulo | 1 | All Maps | STV","players":null},{"server_id":143,"name":"Uncletopia | SÃ£o Paulo | 2 | All Maps","name_short":"sao-2","host":"sao-2.br.uncletopia.com","port":27015,"enabled":true,"region":"sa","cc":"br","latitude":-23.533773,"longitude":-46.62529,"reserved":0,"last_update":"0001-01-01T00:00:00Z","name_a2s":"Uncletopia | SÃ£o Paulo | 2 | All Maps","protocol":17,"map":"cp_altitude","folder":"tf","game":"Team Fortress","app_id":440,"player_count":18,"max_players":24,"Bots":0,"server_type":"Dedicated","server_os":"Linux","password":true,"vac":true,"version":"7757534","steam_id":85568392924485349,"keywords":["cp","nocrits","nodmgspread","uncletopia"],"game_id":440,"stv_port":27016,"stv_name":"Uncletopia | SÃ£o Paulo | 2 | All Maps | STV","players":[{"user_id":257,"name":"Becker23","steam_id":76561198048735075,"connected_time":381000000000,"state":"active","ping":44},{"user_id":258,"name":"cmjgamingOHHH YEA","steam_id":76561199124037552,"connected_time":369000000000,"state":"active","ping":158},{"user_id":148,"name":"LIPOTRAS","steam_id":76561198380600657,"connected_time":7432000000000,"state":"active","ping":164},{"user_id":197,"name":"[AH] hadinode","steam_id":76561199480235941,"connected_time":4068000000000,"state":"active","ping":45},{"user_id":259,"name":"VA7SY","steam_id":76561199138058569,"connected_time":267000000000,"state":"active","ping":232},{"user_id":263,"name":"MÃªs do Orgulho Zap","steam_id":76561198094296399,"connected_time":129000000000,"state":"active","ping":48},{"user_id":261,"name":"CollDragon","steam_id":76561198067534450,"connected_time":252000000000,"state":"active","ping":173},{"user_id":240,"name":"kaoru mitoma","steam_id":76561198143438576,"connected_time":1232000000000,"state":"active","ping":44},{"user_id":264,"name":"FoxInBox","steam_id":76561199201484882,"connected_time":59000000000,"state":"active","ping":310},{"user_id":198,"name":"Evanbrs","steam_id":76561198041508327,"connected_time":4015000000000,"state":"active","ping":75},{"user_id":243,"name":"rivers","steam_id":76561198447294478,"connected_time":1040000000000,"state":"active","ping":82},{"user_id":244,"name":"Sabot","steam_id":76561198176478934,"connected_time":1032000000000,"state":"active","ping":88},{"user_id":265,"name":"arthurtvr1","steam_id":76561198980379102,"connected_time":48000000000,"state":"active","ping":66},{"user_id":266,"name":"Mr.Deer","steam_id":76561198967106276,"connected_time":18000000000,"state":"spawning","ping":197},{"user_id":255,"name":"Werth","steam_id":76561199084693688,"connected_time":557000000000,"state":"active","ping":53},{"user_id":253,"name":"Consumidor de suco profissional","steam_id":76561198935892698,"connected_time":606000000000,"state":"active","ping":73},{"user_id":250,"name":"You saw nothing","steam_id":76561198362653634,"connected_time":792000000000,"state":"active","ping":53},{"user_id":254,"name":"demson","steam_id":76561199087663959,"connected_time":595000000000,"state":"active","ping":60}]},{"server_id":7,"name":"Uncletopia | Seattle | 1 | All Maps","name_short":"sea-1","host":"sea-1.us.uncletopia.com","port":27015,"enabled":true,"region":"us-west","cc":"us","latitude":47.608013,"longitude":-122.33517,"reserved":0,"last_update":"0001-01-01T00:00:00Z","name_a2s":"Uncletopia | Seattle | 1 | All Maps","protocol":17,"map":"pl_badwater","folder":"tf","game":"Team Fortress","app_id":440,"player_count":24,"max_players":24,"Bots":0,"server_type":"Dedicated","server_os":"Linux","password":true,"vac":true,"version":"7757534","steam_id":85568392924469997,"keywords":["nocrits","nodmgspread","payload","uncletopia"],"game_id":440,"stv_port":27016,"stv_name":"Uncletopia | Seattle | 1 | All Maps | STV","players":[{"user_id":269,"name":"Greskrendtregk","steam_id":76561197969553142,"connected_time":828000000000,"state":"active","ping":49},{"user_id":278,"name":"Quantum Rizzicist","steam_id":76561198085470745,"connected_time":163000000000,"state":"active","ping":66},{"user_id":257,"name":"cubecode","steam_id":76561198315944726,"connected_time":1683000000000,"state":"active","ping":90},{"user_id":270,"name":"North-West-","steam_id":76561198071295860,"connected_time":732000000000,"state":"active","ping":76},{"user_id":254,"name":"AER0.exe","steam_id":76561198062940197,"connected_time":1712000000000,"state":"active","ping":45},{"user_id":259,"name":"Cantaloaf","steam_id":76561198222164132,"connected_time":1623000000000,"state":"active","ping":141},{"user_id":164,"name":"tacofever","steam_id":76561198010966507,"connected_time":9979000000000,"state":"active","ping":90},{"user_id":232,"name":"blinkerton city","steam_id":76561198054270410,"connected_time":3849000000000,"state":"active","ping":58},{"user_id":271,"name":"THE_DARK_TRICKSTER","steam_id":76561198870649125,"connected_time":731000000000,"state":"active","ping":82},{"user_id":230,"name":"MerkZ","steam_id":76561198047620432,"connected_time":3876000000000,"state":"active","ping":73},{"user_id":249,"name":"Salmon","steam_id":76561198285883040,"connected_time":2496000000000,"state":"active","ping":57},{"user_id":253,"name":"litcherally in vents","steam_id":76561199169558959,"connected_time":1841000000000,"state":"active","ping":43},{"user_id":260,"name":"Yeetus","steam_id":76561199013158288,"connected_time":1617000000000,"state":"active","ping":70},{"user_id":261,"name":"Serene Salamander","steam_id":76561198001094770,"connected_time":1599000000000,"state":"active","ping":85},{"user_id":243,"name":"rat gets the cheese","steam_id":76561198031234032,"connected_time":3060000000000,"state":"active","ping":103},{"user_id":233,"name":"Fire_box41238","steam_id":76561199185673650,"connected_time":3842000000000,"state":"active","ping":54},{"user_id":231,"name":"The Super Mario Bros. Movie","steam_id":76561198871692156,"connected_time":3868000000000,"state":"active","ping":46},{"user_id":246,"name":"AmiableNebula","steam_id":76561198094306627,"connected_time":2974000000000,"state":"active","ping":75},{"user_id":251,"name":"Daz","steam_id":76561198041431938,"connected_time":2292000000000,"state":"active","ping":127},{"user_id":248,"name":"Tom CrÃºaich","steam_id":76561197999439911,"connected_time":2660000000000,"state":"active","ping":60},{"user_id":276,"name":"mooney","steam_id":76561199110622484,"connected_time":411000000000,"state":"active","ping":62},{"user_id":273,"name":"Thunder","steam_id":76561198795676044,"connected_time":707000000000,"state":"active","ping":74},{"user_id":263,"name":"\\sss","steam_id":76561198390768140,"connected_time":1580000000000,"state":"active","ping":124},{"user_id":264,"name":"Su1tCas3","steam_id":76561198035989471,"connected_time":1559000000000,"state":"active","ping":48}]},{"server_id":119,"name":"Uncletopia | Seattle | 2 | All Maps","name_short":"sea-2","host":"sea-1.us.uncletopia.com","port":27025,"enabled":true,"region":"us-west","cc":"us","latitude":47.608013,"longitude":-122.33517,"reserved":0,"last_update":"0001-01-01T00:00:00Z","name_a2s":"Uncletopia | Seattle | 2 | All Maps","protocol":17,"map":"pl_swiftwater_final1","folder":"tf","game":"Team Fortress","app_id":440,"player_count":24,"max_players":24,"Bots":0,"server_type":"Dedicated","server_os":"Linux","password":true,"vac":true,"version":"7757534","steam_id":85568392924469998,"keywords":["nocrits","nodmgspread","payload","uncletopia"],"game_id":440,"stv_port":27026,"stv_name":"Uncletopia | Seattle | 2 | All Maps | STV","players":[{"user_id":483,"name":"â™¥Lyraâ™¥","steam_id":76561198092853824,"connected_time":249000000000,"state":"active","ping":60},{"user_id":481,"name":"ã¨ã‚Šã‚ãˆãšã¾ã  ç§ã¯æŠ˜","steam_id":76561198068672882,"connected_time":479000000000,"state":"active","ping":69},{"user_id":475,"name":"Algibruh","steam_id":76561199221599415,"connected_time":827000000000,"state":"active","ping":46},{"user_id":409,"name":"joe rippa","steam_id":76561198170402666,"connected_time":6923000000000,"state":"active","ping":72},{"user_id":417,"name":"jon pickle water","steam_id":76561199036212135,"connected_time":6094000000000,"state":"active","ping":58},{"user_id":484,"name":"Berry Festive Vlad","steam_id":76561198149616270,"connected_time":245000000000,"state":"active","ping":90},{"user_id":466,"name":"Naffers","steam_id":76561198195957335,"connected_time":1418000000000,"state":"active","ping":44},{"user_id":403,"name":"Training Arc","steam_id":76561198038832034,"connected_time":7598000000000,"state":"active","ping":61},{"user_id":477,"name":"Y2K","steam_id":76561199191855486,"connected_time":787000000000,"state":"active","ping":49},{"user_id":467,"name":"Majestic","steam_id":76561198018990810,"connected_time":1411000000000,"state":"active","ping":132},{"user_id":478,"name":"Crystallixed","steam_id":76561198072263515,"connected_time":755000000000,"state":"active","ping":127},{"user_id":479,"name":"Dongus","steam_id":76561197979056451,"connected_time":689000000000,"state":"active","ping":45},{"user_id":482,"name":"exephur","steam_id":76561198135763234,"connected_time":277000000000,"state":"active","ping":66},{"user_id":462,"name":"[ibbâ„¢]Shadow20X6-ENGI","steam_id":76561198019292755,"connected_time":1782000000000,"state":"active","ping":79},{"user_id":471,"name":"Rusty","steam_id":76561198178868626,"connected_time":1361000000000,"state":"active","ping":62},{"user_id":480,"name":"COOL master_9","steam_id":76561198073041151,"connected_time":683000000000,"state":"active","ping":122},{"user_id":456,"name":"WaffleWithNoToppings","steam_id":76561199088280111,"connected_time":2210000000000,"state":"active","ping":46},{"user_id":485,"name":"Bubbamanme","steam_id":76561198119778504,"connected_time":229000000000,"state":"active","ping":61},{"user_id":487,"name":"MadVillain","steam_id":76561199251331156,"connected_time":57000000000,"state":"active","ping":96},{"user_id":433,"name":"Tibetan Pop Star","steam_id":76561198844903984,"connected_time":5295000000000,"state":"active","ping":86},{"user_id":486,"name":"Mitsuri's V-Taper","steam_id":76561198045209288,"connected_time":210000000000,"state":"active","ping":71},{"user_id":464,"name":"Theory-ZaZa","steam_id":76561198116419931,"connected_time":1762000000000,"state":"active","ping":66},{"user_id":447,"name":"nav","steam_id":76561198872608266,"connected_time":3160000000000,"state":"active","ping":134},{"user_id":463,"name":"Trash Boat","steam_id":76561198181586946,"connected_time":1768000000000,"state":"active","ping":88}]},{"server_id":406,"name":"Uncletopia | Seattle | 3 | Stopwatch Beta","name_short":"sea-3","host":"sea-1.us.uncletopia.com","port":27035,"enabled":true,"region":"us-west","cc":"us","latitude":47.608013,"longitude":-122.33517,"reserved":0,"last_update":"0001-01-01T00:00:00Z","name_a2s":"Uncletopia | Seattle | 3 | Stopwatch Beta","protocol":17,"map":"koth_lakeside_final","folder":"tf","game":"Team Fortress","app_id":440,"player_count":0,"max_players":24,"Bots":0,"server_type":"Dedicated","server_os":"Linux","password":true,"vac":true,"version":"7757534","steam_id":85568392924515217,"keywords":["cp","nocrits","nodmgspread","uncletopia"],"game_id":440,"stv_port":27036,"stv_name":"Uncletopia | Seattle | 3 | Stopwatch Beta | STV","players":null},{"server_id":17,"name":"Uncletopia | San Francisco | 1 | All Maps","name_short":"sfo-1","host":"sfo-1.us.uncletopia.com","port":27015,"enabled":true,"region":"us-west","cc":"us","latitude":37.77397,"longitude":-122.4313,"reserved":0,"last_update":"0001-01-01T00:00:00Z","name_a2s":"Uncletopia | San Francisco | 1 | All Maps","protocol":17,"map":"cp_mossrock","folder":"tf","game":"Team Fortress","app_id":440,"player_count":23,"max_players":24,"Bots":0,"server_type":"Dedicated","server_os":"Linux","password":true,"vac":true,"version":"7757534","steam_id":85568392924469999,"keywords":["cp","nocrits","nodmgspread","uncletopia"],"game_id":440,"stv_port":27016,"stv_name":"Uncletopia | San Francisco | 1 | All Maps | STV","players":[{"user_id":95,"name":"Phil Collins","steam_id":76561198068868644,"connected_time":9108000000000,"state":"active","ping":64},{"user_id":221,"name":"huiei","steam_id":76561198073763735,"connected_time":678000000000,"state":"active","ping":56},{"user_id":216,"name":"FunneGal","steam_id":76561198274006925,"connected_time":1252000000000,"state":"active","ping":50},{"user_id":202,"name":"Jewish Democrat","steam_id":76561198978422268,"connected_time":1735000000000,"state":"active","ping":131},{"user_id":168,"name":"selvhat","steam_id":76561198114225509,"connected_time":3711000000000,"state":"active","ping":60},{"user_id":166,"name":"ï¼³ï¼¬ï¼¶ï¼´ï¼£ï¼¨ï¼¡ï¼­ï¼°","steam_id":76561198883157736,"connected_time":3867000000000,"state":"active","ping":90},{"user_id":222,"name":"dlatgirp","steam_id":76561198417137724,"connected_time":673000000000,"state":"active","ping":43},{"user_id":176,"name":"Spaceman","steam_id":76561198349305249,"connected_time":3316000000000,"state":"active","ping":75},{"user_id":182,"name":"MyHeadHz","steam_id":76561198090654531,"connected_time":3144000000000,"state":"active","ping":74},{"user_id":226,"name":"\"racecar\" rufus palindrome","steam_id":76561198063153699,"connected_time":618000000000,"state":"active","ping":86},{"user_id":223,"name":"FiddyFoMike","steam_id":76561198057072581,"connected_time":657000000000,"state":"active","ping":48},{"user_id":162,"name":"BattleWriter","steam_id":76561198059618706,"connected_time":3959000000000,"state":"active","ping":88},{"user_id":229,"name":"Dani","steam_id":76561198348012378,"connected_time":377000000000,"state":"active","ping":125},{"user_id":231,"name":"L + Maidenless + Tarnished","steam_id":76561198978605490,"connected_time":195000000000,"state":"active","ping":103},{"user_id":209,"name":"alpharuby","steam_id":76561198051638462,"connected_time":1462000000000,"state":"active","ping":58},{"user_id":215,"name":"rbstat","steam_id":76561198050169034,"connected_time":1385000000000,"state":"active","ping":88},{"user_id":211,"name":"JIBA","steam_id":76561198141315991,"connected_time":1442000000000,"state":"active","ping":55},{"user_id":220,"name":"Mr.Frundles","steam_id":76561198134559026,"connected_time":901000000000,"state":"active","ping":78},{"user_id":230,"name":"Frogzilla","steam_id":76561198077657538,"connected_time":362000000000,"state":"active","ping":84},{"user_id":227,"name":"kym","steam_id":76561198340743816,"connected_time":592000000000,"state":"active","ping":60},{"user_id":218,"name":"The Lunch King","steam_id":76561198076737701,"connected_time":1232000000000,"state":"active","ping":72},{"user_id":228,"name":"The Champagne of Mayonnaise","steam_id":76561197961107982,"connected_time":565000000000,"state":"active","ping":103},{"user_id":194,"name":"miguelrodriguez2013","steam_id":76561198269253587,"connected_time":2471000000000,"state":"active","ping":50}]},{"server_id":18,"name":"Uncletopia | San Francisco | 2 | All Maps","name_short":"sfo-2","host":"sfo-1.us.uncletopia.com","port":27025,"enabled":true,"region":"us-west","cc":"us","latitude":37.77397,"longitude":-122.4313,"reserved":0,"last_update":"0001-01-01T00:00:00Z","name_a2s":"Uncletopia | San Francisco | 2 | All Maps","protocol":17,"map":"pl_badwater","folder":"tf","game":"Team Fortress","app_id":440,"player_count":24,"max_players":24,"Bots":0,"server_type":"Dedicated","server_os":"Linux","password":true,"vac":true,"version":"7757534","steam_id":85568392924470000,"keywords":["nocrits","nodmgspread","payload","uncletopia"],"game_id":440,"stv_port":27026,"stv_name":"Uncletopia | San Francisco | 2 | All Maps | STV","players":[{"user_id":229,"name":"azureglxy","steam_id":76561198861388315,"connected_time":865000000000,"state":"active","ping":49},{"user_id":169,"name":"Crazy Hungarian","steam_id":76561198025498172,"connected_time":4304000000000,"state":"active","ping":62},{"user_id":148,"name":"ChaoticAngel","steam_id":76561198293528217,"connected_time":5459000000000,"state":"active","ping":100},{"user_id":234,"name":"Johni3FireFly","steam_id":76561198089760607,"connected_time":789000000000,"state":"active","ping":66},{"user_id":223,"name":"MasterCrafter27","steam_id":76561198151035981,"connected_time":1262000000000,"state":"active","ping":67},{"user_id":218,"name":"omgitisme321","steam_id":76561198437173029,"connected_time":1427000000000,"state":"active","ping":61},{"user_id":231,"name":"Pneumo.","steam_id":76561197987911883,"connected_time":804000000000,"state":"active","ping":122},{"user_id":236,"name":"GVO. trouble!","steam_id":76561197996909425,"connected_time":704000000000,"state":"active","ping":48},{"user_id":210,"name":"King Sans","steam_id":76561198294198517,"connected_time":1923000000000,"state":"active","ping":104},{"user_id":192,"name":"awesomebrololo","steam_id":76561198374283489,"connected_time":3221000000000,"state":"active","ping":99},{"user_id":238,"name":"real worm","steam_id":76561199065645094,"connected_time":414000000000,"state":"active","ping":89},{"user_id":211,"name":"jackhillard83","steam_id":76561199057098390,"connected_time":1899000000000,"state":"active","ping":106},{"user_id":219,"name":"dirtbikedemon01","steam_id":76561198146210278,"connected_time":1418000000000,"state":"active","ping":62},{"user_id":240,"name":"parallax","steam_id":76561198004438881,"connected_time":190000000000,"state":"active","ping":60},{"user_id":202,"name":"Newt","steam_id":76561198842909288,"connected_time":2444000000000,"state":"active","ping":118},{"user_id":199,"name":"big ol' buford","steam_id":76561198290675957,"connected_time":2788000000000,"state":"active","ping":85},{"user_id":221,"name":"Bobby Ray","steam_id":76561198044131188,"connected_time":1397000000000,"state":"active","ping":74},{"user_id":181,"name":"John Smith","steam_id":76561198185776555,"connected_time":3847000000000,"state":"active","ping":54},{"user_id":224,"name":"Spytron 3000","steam_id":76561198067791086,"connected_time":1181000000000,"state":"active","ping":47},{"user_id":235,"name":"Star","steam_id":76561198150115757,"connected_time":778000000000,"state":"active","ping":135},{"user_id":226,"name":"FlabbyPants","steam_id":76561198106038512,"connected_time":968000000000,"state":"active","ping":56},{"user_id":176,"name":"sleepy","steam_id":76561198193621693,"connected_time":4101000000000,"state":"active","ping":49},{"user_id":155,"name":"Sheev Palpatine","steam_id":76561198252332430,"connected_time":5326000000000,"state":"active","ping":73},{"user_id":232,"name":"Arbitrated","steam_id":76561198119156865,"connected_time":804000000000,"state":"active","ping":126}]},{"server_id":19,"name":"Uncletopia | San Francisco | 3 | Stopwatch Beta","name_short":"sfo-3","host":"sfo-1.us.uncletopia.com","port":27035,"enabled":true,"region":"us-west","cc":"us","latitude":37.77397,"longitude":-122.4313,"reserved":0,"last_update":"0001-01-01T00:00:00Z","name_a2s":"Uncletopia | San Francisco | 3 | Stopwatch Beta","protocol":17,"map":"workshop/cp_reckoner_rc6.ugc674719999","folder":"tf","game":"Team Fortress","app_id":440,"player_count":1,"max_players":24,"Bots":0,"server_type":"Dedicated","server_os":"Linux","password":true,"vac":true,"version":"7757534","steam_id":85568392924742824,"keywords":["cp","nocrits","nodmgspread","uncletopia"],"game_id":440,"stv_port":27036,"stv_name":"Uncletopia | San Francisco | 3 | Stopwatch Beta | STV","players":[{"user_id":6,"name":"[RLG] Beastmode","steam_id":76561198057521354,"connected_time":26000000000,"state":"spawning","ping":284}]},{"server_id":20,"name":"Uncletopia | San Francisco | 4 | Community","name_short":"sfo-4","host":"sfo-1.us.uncletopia.com","port":27045,"enabled":true,"region":"us-west","cc":"us","latitude":37.77397,"longitude":-122.4313,"reserved":0,"last_update":"0001-01-01T00:00:00Z","name_a2s":"Uncletopia | San Francisco | 4 | Community","protocol":17,"map":"workshop/koth_product_final.ugc454272353","folder":"tf","game":"Team Fortress","app_id":440,"player_count":10,"max_players":24,"Bots":0,"server_type":"Dedicated","server_os":"Linux","password":true,"vac":true,"version":"7757534","steam_id":85568392924742826,"keywords":["cp","nocrits","nodmgspread","uncletopia"],"game_id":440,"stv_port":27046,"stv_name":"Uncletopia | San Francisco | 4 | Community | STV","players":[{"user_id":20,"name":"thdnick","steam_id":76561199229804461,"connected_time":1441000000000,"state":"active","ping":125},{"user_id":25,"name":"Buzz Buzz","steam_id":76561198294101501,"connected_time":967000000000,"state":"active","ping":91},{"user_id":23,"name":"johnman gooberguy","steam_id":76561199014859764,"connected_time":1063000000000,"state":"active","ping":58},{"user_id":24,"name":"NovaScotianDuckRetriever","steam_id":76561198061867269,"connected_time":1022000000000,"state":"active","ping":49},{"user_id":26,"name":"the stink","steam_id":76561199099203623,"connected_time":730000000000,"state":"active","ping":86},{"user_id":27,"name":"autumnal.messenger","steam_id":76561199345816635,"connected_time":234000000000,"state":"active","ping":66},{"user_id":28,"name":"The Cool Man","steam_id":76561198096420556,"connected_time":162000000000,"state":"active","ping":111},{"user_id":29,"name":"Ixcarsis","steam_id":76561198880674783,"connected_time":103000000000,"state":"active","ping":126},{"user_id":30,"name":"Danny Fentanyl","steam_id":76561197970791798,"connected_time":51000000000,"state":"active","ping":59},{"user_id":31,"name":"I dont wipe","steam_id":76561198825563040,"connected_time":18000000000,"state":"spawning","ping":95}]},{"server_id":141,"name":"Uncletopia | Sydney | 1 | All Maps","name_short":"syd-1","host":"syd-1.au.uncletopia.com","port":27015,"enabled":true,"region":"au","cc":"au","latitude":-33.865143,"longitude":151.2099,"reserved":0,"last_update":"0001-01-01T00:00:00Z","name_a2s":"Uncletopia | Sydney | 1 | All Maps","protocol":17,"map":"ctf_doublecross","folder":"tf","game":"Team Fortress","app_id":440,"player_count":6,"max_players":24,"Bots":0,"server_type":"Dedicated","server_os":"Linux","password":true,"vac":true,"version":"7757534","steam_id":85568392924470001,"keywords":["ctf","nocrits","nodmgspread","uncletopia"],"game_id":440,"stv_port":27016,"stv_name":"Uncletopia | Sydney | 1 | All Maps | STV","players":[{"user_id":38,"name":"Ishwhale_","steam_id":76561198048560069,"connected_time":248000000000,"state":"active","ping":196},{"user_id":35,"name":"cakey","steam_id":76561198173746761,"connected_time":1277000000000,"state":"active","ping":52},{"user_id":39,"name":"Little Tecca","steam_id":76561199173088960,"connected_time":100000000000,"state":"active","ping":81},{"user_id":40,"name":"Kremmen","steam_id":76561198051368641,"connected_time":88000000000,"state":"active","ping":70},{"user_id":26,"name":"squrrel","steam_id":76561198083429611,"connected_time":2145000000000,"state":"active","ping":68},{"user_id":25,"name":"agony","steam_id":76561198241303512,"connected_time":2400000000000,"state":"active","ping":49}]},{"server_id":123,"name":"Uncletopia | Sydney | 2 | All Maps","name_short":"syd-2","host":"syd-1.au.uncletopia.com","port":27025,"enabled":true,"region":"au","cc":"au","latitude":-33.865143,"longitude":151.2099,"reserved":0,"last_update":"0001-01-01T00:00:00Z","name_a2s":"Uncletopia | Sydney | 2 | All Maps","protocol":17,"map":"cp_process_final","folder":"tf","game":"Team Fortress","app_id":440,"player_count":0,"max_players":24,"Bots":0,"server_type":"Dedicated","server_os":"Linux","password":true,"vac":true,"version":"7757534","steam_id":85568392924470002,"keywords":["cp","nocrits","nodmgspread","uncletopia"],"game_id":440,"stv_port":27026,"stv_name":"Uncletopia | Sydney | 2 | All Maps | STV","players":null},{"server_id":395,"name":"Uncletopia | Sydney | 3 | All Maps","name_short":"syd-3","host":"syd-1.au.uncletopia.com","port":27035,"enabled":true,"region":"au","cc":"au","latitude":-33.865143,"longitude":151.2099,"reserved":0,"last_update":"0001-01-01T00:00:00Z","name_a2s":"Uncletopia | Sydney | 3 | All Maps","protocol":17,"map":"pl_swiftwater_final1","folder":"tf","game":"Team Fortress","app_id":440,"player_count":0,"max_players":24,"Bots":0,"server_type":"Dedicated","server_os":"Linux","password":true,"vac":true,"version":"7757534","steam_id":85568392925194467,"keywords":["nocrits","nodmgspread","payload","uncletopia"],"game_id":440,"stv_port":27036,"stv_name":"Uncletopia | Sydney | 3 | All Maps | STV","players":null},{"server_id":396,"name":"Uncletopia | Sydney | 4 | All Maps","name_short":"syd-4","host":"syd-1.au.uncletopia.com","port":27045,"enabled":true,"region":"au","cc":"au","latitude":-33.865143,"longitude":151.2099,"reserved":0,"last_update":"0001-01-01T00:00:00Z","name_a2s":"Uncletopia | Sydney | 4 | All Maps","protocol":17,"map":"koth_highpass","folder":"tf","game":"Team Fortress","app_id":440,"player_count":0,"max_players":24,"Bots":0,"server_type":"Dedicated","server_os":"Linux","password":true,"vac":true,"version":"7757534","steam_id":85568392925397958,"keywords":["cp","nocrits","nodmgspread","uncletopia"],"game_id":440,"stv_port":27046,"stv_name":"Uncletopia | Sydney | 4 | All Maps | STV","players":null},{"server_id":58,"name":"Uncletopia | Sydney | 5 | Stopwatch Beta","name_short":"syd-5","host":"syd-1.au.uncletopia.com","port":27055,"enabled":true,"region":"au","cc":"au","latitude":-33.865143,"longitude":151.2099,"reserved":0,"last_update":"0001-01-01T00:00:00Z","name_a2s":"Uncletopia | Sydney | 5 | Stopwatch Beta","protocol":17,"map":"workshop/cp_reckoner_rc6.ugc674719999","folder":"tf","game":"Team Fortress","app_id":440,"player_count":0,"max_players":24,"Bots":0,"server_type":"Dedicated","server_os":"Linux","password":true,"vac":true,"version":"7757534","steam_id":85568392925397959,"keywords":["cp","nocrits","nodmgspread","uncletopia"],"game_id":440,"stv_port":27056,"stv_name":"Uncletopia | Sydney | 5 | Stopwatch Beta | STV","players":null},{"server_id":59,"name":"Uncletopia | Sydney | 6 | Community","name_short":"syd-6","host":"syd-1.au.uncletopia.com","port":27065,"enabled":true,"region":"au","cc":"au","latitude":-33.865143,"longitude":151.2099,"reserved":0,"last_update":"0001-01-01T00:00:00Z","name_a2s":"Uncletopia | Sydney | 6 | Community","protocol":17,"map":"workshop/koth_ashville_final.ugc2130459942","folder":"tf","game":"Team Fortress","app_id":440,"player_count":0,"max_players":24,"Bots":0,"server_type":"Dedicated","server_os":"Linux","password":true,"vac":true,"version":"7757534","steam_id":85568392925397960,"keywords":["cp","nocrits","nodmgspread","uncletopia"],"game_id":440,"stv_port":27066,"stv_name":"Uncletopia | Sydney | 6 | Community | STV","players":null},{"server_id":49,"name":"Uncletopia | Warsaw | 1 | All Maps","name_short":"waw-1","host":"waw-1.pl.uncletopia.com","port":27015,"enabled":true,"region":"eu","cc":"pl","latitude":52.2297,"longitude":21.017532,"reserved":0,"last_update":"0001-01-01T00:00:00Z","name_a2s":"","protocol":0,"map":"","folder":"","game":"","app_id":0,"player_count":0,"max_players":0,"Bots":0,"server_type":"","server_os":"","password":false,"vac":false,"version":"","steam_id":0,"keywords":null,"game_id":0,"stv_port":0,"stv_name":"","players":null},{"server_id":50,"name":"Uncletopia | Warsaw | 2 | All Maps","name_short":"waw-2","host":"waw-1.pl.uncletopia.com","port":27025,"enabled":true,"region":"eu","cc":"pl","latitude":52.2297,"longitude":21.017532,"reserved":0,"last_update":"0001-01-01T00:00:00Z","name_a2s":"Uncletopia | Warsaw | 2 | All Maps","protocol":17,"map":"koth_viaduct","folder":"tf","game":"Team Fortress","app_id":440,"player_count":1,"max_players":24,"Bots":0,"server_type":"Dedicated","server_os":"Linux","password":true,"vac":true,"version":"7757534","steam_id":85568392925397851,"keywords":["cp","nocrits","nodmgspread","uncletopia"],"game_id":440,"stv_port":27026,"stv_name":"Uncletopia | Warsaw | 2 | All Maps | STV","players":[{"user_id":13,"name":"disc0rd.gg/FB6YuUvQQA","steam_id":76561199479947243,"connected_time":212000000000,"state":"active","ping":98}]},{"server_id":51,"name":"Uncletopia | Warsaw | 3 | All Maps","name_short":"waw-3","host":"waw-1.pl.uncletopia.com","port":27035,"enabled":true,"region":"eu","cc":"pl","latitude":52.2297,"longitude":21.017532,"reserved":0,"last_update":"0001-01-01T00:00:00Z","name_a2s":"Uncletopia | Warsaw | 3 | All Maps","protocol":17,"map":"koth_viaduct","folder":"tf","game":"Team Fortress","app_id":440,"player_count":0,"max_players":24,"Bots":0,"server_type":"Dedicated","server_os":"Linux","password":true,"vac":true,"version":"7757534","steam_id":85568392925397852,"keywords":["cp","nocrits","nodmgspread","uncletopia"],"game_id":440,"stv_port":27036,"stv_name":"Uncletopia | Warsaw | 3 | All Maps | STV","players":null},{"server_id":52,"name":"Uncletopia | Warsaw | 4 | All Maps","name_short":"waw-4","host":"waw-1.pl.uncletopia.com","port":27045,"enabled":true,"region":"eu","cc":"pl","latitude":52.2297,"longitude":21.017532,"reserved":0,"last_update":"0001-01-01T00:00:00Z","name_a2s":"Uncletopia | Warsaw | 4 | All Maps","protocol":17,"map":"koth_lakeside_final","folder":"tf","game":"Team Fortress","app_id":440,"player_count":0,"max_players":24,"Bots":0,"server_type":"Dedicated","server_os":"Linux","password":true,"vac":true,"version":"7757534","steam_id":85568392925397853,"keywords":["cp","nocrits","nodmgspread","uncletopia"],"game_id":440,"stv_port":27046,"stv_name":"Uncletopia | Warsaw | 4 | All Maps | STV","players":null},{"server_id":53,"name":"Uncletopia | Warsaw | 5 | Stopwatch Beta","name_short":"waw-5","host":"waw-1.pl.uncletopia.com","port":27055,"enabled":true,"region":"eu","cc":"pl","latitude":52.2297,"longitude":21.017532,"reserved":0,"last_update":"0001-01-01T00:00:00Z","name_a2s":"Uncletopia | Warsaw | 5 | Stopwatch Beta","protocol":17,"map":"pl_borneo","folder":"tf","game":"Team Fortress","app_id":440,"player_count":0,"max_players":24,"Bots":0,"server_type":"Dedicated","server_os":"Linux","password":true,"vac":true,"version":"7757534","steam_id":85568392925397854,"keywords":["nocrits","nodmgspread","payload","uncletopia"],"game_id":440,"stv_port":27056,"stv_name":"Uncletopia | Warsaw | 5 | Stopwatch Beta | STV","players":null},{"server_id":54,"name":"Uncletopia | Warsaw | 6 | Community","name_short":"waw-6","host":"waw-1.pl.uncletopia.com","port":27065,"enabled":true,"region":"eu","cc":"pl","latitude":52.2297,"longitude":21.017532,"reserved":0,"last_update":"0001-01-01T00:00:00Z","name_a2s":"Uncletopia | Warsaw | 6 | Community","protocol":17,"map":"koth_lakeside_final","folder":"tf","game":"Team Fortress","app_id":440,"player_count":0,"max_players":24,"Bots":0,"server_type":"Dedicated","server_os":"Linux","password":true,"vac":true,"version":"7757534","steam_id":85568392925397856,"keywords":["cp","nocrits","nodmgspread","uncletopia"],"game_id":440,"stv_port":27066,"stv_name":"Uncletopia | Warsaw | 6 | Community | STV","players":null}]}