{"status":true,"message":"","result":[{"server_id":9,"name":"Uncletopia | Atlanta | 1 | All Maps","name_short":"atl-1","host":"atl-1.us.uncletopia.com","port":27015,"enabled":true,"region":"us-east","cc":"us","latitude":33.753746,"longitude":-84.38633,"reserved":0,"last_update":"0001-01-01T00:00:00Z","name_a2s":"Uncletopia | Atlanta | 1 | All Maps","protocol":17,"map":"pl_upward","folder":"tf","game":"Team Fortress","app_id":440,"player_count":24,"max_players":24,"Bots":0,"server_type":"Dedicated","server_os":"Linux","password":true,"vac":true,"version":"7961495","steam_id":85568392924469982,"keywords":["nocrits","nodmgspread","payload","uncletopia"],"game_id":440,"stv_port":27016,"stv_name":"Uncletopia | Atlanta | 1 | All Maps | STV","players":[{"user_id":144,"name":"lu","steam_id":76561198080731872,"connected_time":156000000000,"state":"active","ping":71},{"user_id":134,"name":"sigma_turbine","steam_id":76561198243286196,"connected_time":670000000000,"state":"active","ping":88},{"user_id":132,"name":"HarryjusttHarry","steam_id":76561198982810452,"connected_time":707000000000,"state":"active","ping":78},{"user_id":133,"name":"Sprout","steam_id":76561198867133850,"connected_time":693000000000,"state":"active","ping":104},{"user_id":135,"name":"Mr. Fluffy Penguins","steam_id":76561198172538149,"connected_time":657000000000,"state":"active","ping":90},{"user_id":88,"name":"Night time Dan","steam_id":76561199022178492,"connected_time":2477000000000,"state":"active","ping":44},{"user_id":111,"name":"TheLonliestThelonius","steam_id":76561198097657243,"connected_time":1635000000000,"state":"active","ping":82},{"user_id":136,"name":"frank","steam_id":76561198137777483,"connected_time":622000000000,"state":"active","ping":83},{"user_id":128,"name":"DEPUTY PISS","steam_id":76561198174167381,"connected_time":1022000000000,"state":"active","ping":61},{"user_id":140,"name":"Ashes!","steam_id":76561197998475441,"connected_time":503000000000,"state":"active","ping":64},{"user_id":145,"name":"ATL1 | on my hunting trip","steam_id":76561198315341646,"connected_time":139000000000,"state":"active","ping":72},{"user_id":115,"name":"KhorneBread Ô∏ª„Éá ‰∏Ä","steam_id":76561198097069958,"connected_time":1518000000000,"state":"active","ping":81},{"user_id":108,"name":"blonkHead","steam_id":76561198280874836,"connected_time":1731000000000,"state":"active","ping":45},{"user_id":121,"name":"Bigworldguy","steam_id":76561198998378933,"connected_time":1321000000000,"state":"active","ping":144},{"user_id":112,"name":"Vlad","steam_id":76561198150626637,"connected_time":1616000000000,"state":"active","ping":57},{"user_id":122,"name":"tony","steam_id":76561199085242309,"connected_time":1257000000000,"state":"active","ping":111},{"user_id":142,"name":"miracles","steam_id":76561198297961039,"connected_time":372000000000,"state":"active","ping":65},{"user_id":119,"name":"marguerite","steam_id":76561198170873495,"connected_time":1434000000000,"state":"active","ping":51},{"user_id":123,"name":"turnip","steam_id":76561198144449489,"connected_time":1252000000000,"state":"active","ping":55},{"user_id":126,"name":"Lanky Kong","steam_id":76561198142455488,"connected_time":1228000000000,"state":"active","ping":60},{"user_id":143,"name":"double stack biggie bag","steam_id":76561198188967430,"connected_time":195000000000,"state":"active","ping":85},{"user_id":139,"name":"icecxld","steam_id":76561198079018805,"connected_time":533000000000,"state":"active","ping":91},{"user_id":129,"name":"thomasdee725???","steam_id":76561199189526173,"connected_time":722000000000,"state":"active","ping":74},{"user_id":127,"name":"b etween d","steam_id":76561198802099686,"connected_time":1201000000000,"state":"active","ping":136}]},{"server_id":104,"name":"Uncletopia | Atlanta | 2 | All Maps","name_short":"atl-2","host":"atl-1.us.uncletopia.com","port":27025,"enabled":true,"region":"us-east","cc":"us","latitude":33.753746,"longitude":-84.38633,"reserved":0,"last_update":"0001-01-01T00:00:00Z","name_a2s":"Uncletopia | Atlanta | 2 | All Maps","protocol":17,"map":"koth_viaduct","folder":"tf","game":"Team Fortress","app_id":440,"player_count":2,"max_players":24,"Bots":0,"server_type":"Dedicated","server_os":"Linux","password":true,"vac":true,"version":"7961495","steam_id":85568392924469983,"keywords":["cp","nocrits","nodmgspread","uncletopia"],"game_id":440,"stv_port":27026,"stv_name":"Uncletopia | Atlanta | 2 | All Maps | STV","players":[{"user_id":17,"name":"Oligamer3690","steam_id":76561198827869629,"connected_time":287000000000,"state":"active","ping":161},{"user_id":18,"name":"Pixelshoten","steam_id":76561199390447774,"connected_time":200000000000,"state":"active","ping":159}]},{"server_id":400,"name":"Uncletopia | Atlanta | 3 | Stopwatch","name_short":"atl-3","host":"atl-1.us.uncletopia.com","port":27035,"enabled":true,"region":"us-east","cc":"us","latitude":33.753746,"longitude":-84.38633,"reserved":0,"last_update":"0001-01-01T00:00:00Z","name_a2s":"Uncletopia | Atlanta | 3 | Stopwatch","protocol":17,"map":"cp_process_final","folder":"tf","game":"Team Fortress","app_id":440,"player_count":0,"max_players":24,"Bots":0,"server_type":"Dedicated","server_os":"Linux","password":true,"vac":true,"version":"7961495","steam_id":85568392924515187,"keywords":["cp","nocrits","nodmgspread","uncletopia"],"game_id":440,"stv_port":27036,"stv_name":"Uncletopia | Atlanta | 3 | Stopwatch | STV","players":null},{"server_id":401,"name":"Uncletopia | Atlanta | 4 | Community","name_short":"atl-4","host":"atl-1.us.uncletopia.com","port":27045,"enabled":true,"region":"us-east","cc":"us","latitude":33.753746,"longitude":-84.38633,"reserved":0,"last_update":"0001-01-01T00:00:00Z","name_a2s":"Uncletopia | Atlanta | 4 | Community","protocol":17,"map":"workshop/pl_phoenix_b4a.ugc2969509359","folder":"tf","game":"Team Fortress","app_id":440,"player_count":0,"max_players":24,"Bots":0,"server_type":"Dedicated","server_os":"Linux","password":true,"vac":true,"version":"7961495","steam_id":85568392924515188,"keywords":["nocrits","nodmgspread","payload","uncletopia"],"game_id":440,"stv_port":27046,"stv_name":"Uncletopia | Atlanta | 4 | Community | STV","players":null},{"server_id":2,"name":"Uncletopia | Chicago | 1 | All Maps","name_short":"chi-1","host":"chi-1.us.uncletopia.com","port":27015,"enabled":true,"region":"us-central","cc":"us","latitude":41.881832,"longitude":-87.62318,"reserved":0,"last_update":"0001-01-01T00:00:00Z","name_a2s":"Uncletopia | Chicago | 1 | All Maps","protocol":17,"map":"pl_badwater","folder":"tf","game":"Team Fortress","app_id":440,"player_count":24,"max_players":24,"Bots":0,"server_type":"Dedicated","server_os":"Linux","password":true,"vac":true,"version":"7961495","steam_id":85568392924469984,"keywords":["nocrits","nodmgspread","payload","uncletopia"],"game_id":440,"stv_port":27016,"stv_name":"Uncletopia | Chicago | 1 | All Maps | STV","players":[{"user_id":182,"name":"Perfume Department","steam_id":76561198128299594,"connected_time":1471000000000,"state":"active","ping":103},{"user_id":176,"name":"isniffgfuelm","steam_id":76561199473822063,"connected_time":1741000000000,"state":"active","ping":97},{"user_id":195,"name":"Sheev Palpatine","steam_id":76561198252332430,"connected_time":382000000000,"state":"active","ping":68},{"user_id":134,"name":"Battalion's Backup","steam_id":76561198066153777,"connected_time":5714000000000,"state":"active","ping":44},{"user_id":161,"name":"cookies","steam_id":76561198280864779,"connected_time":2904000000000,"state":"active","ping":65},{"user_id":180,"name":"Shady Businessman","steam_id":76561198143855968,"connected_time":1566000000000,"state":"active","ping":88},{"user_id":171,"name":"Steven","steam_id":76561198075526342,"connected_time":1962000000000,"state":"active","ping":60},{"user_id":188,"name":"Venom_Yankee","steam_id":76561198078146145,"connected_time":1359000000000,"state":"active","ping":70},{"user_id":192,"name":"vladimir.bezdek","steam_id":76561199475291614,"connected_time":640000000000,"state":"active","ping":175},{"user_id":190,"name":"carly","steam_id":76561198094118479,"connected_time":1063000000000,"state":"active","ping":100},{"user_id":164,"name":"Tommy Pickles (Very ____)","steam_id":76561198391261463,"connected_time":2877000000000,"state":"active","ping":70},{"user_id":177,"name":"Black_chestnut","steam_id":76561198155524915,"connected_time":1720000000000,"state":"active","ping":85},{"user_id":183,"name":"SomeRandomBetaFish","steam_id":76561198827731399,"connected_time":1454000000000,"state":"active","ping":114},{"user_id":184,"name":"kenny","steam_id":76561198045968341,"connected_time":1431000000000,"state":"active","ping":60},{"user_id":160,"name":"triangleman","steam_id":76561198972733542,"connected_time":2932000000000,"state":"active","ping":56},{"user_id":149,"name":"hearthian","steam_id":76561198113235260,"connected_time":4474000000000,"state":"active","ping":99},{"user_id":185,"name":"VixianUwU","steam_id":76561198948815060,"connected_time":1427000000000,"state":"active","ping":78},{"user_id":193,"name":"momlovie","steam_id":76561198843933742,"connected_time":551000000000,"state":"active","ping":72},{"user_id":178,"name":"you","steam_id":76561198017228729,"connected_time":1718000000000,"state":"active","ping":58},{"user_id":197,"name":"Jimbo","steam_id":76561198136560547,"connected_time":120000000000,"state":"active","ping":61},{"user_id":191,"name":"NeoN","steam_id":76561198117608366,"connected_time":873000000000,"state":"active","ping":58},{"user_id":144,"name":"Enemy goblin","steam_id":76561198045793516,"connected_time":5295000000000,"state":"active","ping":56},{"user_id":179,"name":"astrobob911","steam_id":76561199099110654,"connected_time":1705000000000,"state":"active","ping":74},{"user_id":198,"name":"Chuck Tingle","steam_id":76561198042801618,"connected_time":118000000000,"state":"active","ping":52}]},{"server_id":106,"name":"Uncletopia | Chicago | 2 | All Maps","name_short":"chi-2","host":"chi-1.us.uncletopia.com","port":27025,"enabled":true,"region":"us-central","cc":"us","latitude":41.881832,"longitude":-87.62318,"reserved":0,"last_update":"0001-01-01T00:00:00Z","name_a2s":"Uncletopia | Chicago | 2 | All Maps","protocol":17,"map":"pl_pier","folder":"tf","game":"Team Fortress","app_id":440,"player_count":24,"max_players":24,"Bots":0,"server_type":"Dedicated","server_os":"Linux","password":true,"vac":true,"version":"7961495","steam_id":85568392924469985,"keywords":["nocrits","nodmgspread","payload","uncletopia"],"game_id":440,"stv_port":27026,"stv_name":"Uncletopia | Chicago | 2 | All Maps | STV","players":[{"user_id":241,"name":"corntent","steam_id":76561198824847948,"connected_time":5421000000000,"state":"active","ping":59},{"user_id":318,"name":"MillerWhite","steam_id":76561198076060357,"connected_time":571000000000,"state":"active","ping":84},{"user_id":282,"name":"mz.maggie4","steam_id":76561198866614956,"connected_time":2814000000000,"state":"active","ping":92},{"user_id":291,"name":"0","steam_id":76561198178638591,"connected_time":1488000000000,"state":"active","ping":74},{"user_id":288,"name":"kiwiichie ‚Çç·ê¢·ê¢‚Çé","steam_id":76561198315449521,"connected_time":2135000000000,"state":"active","ping":92},{"user_id":285,"name":"SubZeroDestruction","steam_id":76561198145082209,"connected_time":2310000000000,"state":"active","ping":66},{"user_id":292,"name":"daemon","steam_id":76561198001541433,"connected_time":1393000000000,"state":"active","ping":60},{"user_id":214,"name":"divingmule","steam_id":76561197966679724,"connected_time":7312000000000,"state":"active","ping":72},{"user_id":283,"name":"Butthole Cafeteria","steam_id":76561197986078333,"connected_time":2769000000000,"state":"active","ping":88},{"user_id":256,"name":"t.tv/ibbKitty  ‚àë:3","steam_id":76561198110858518,"connected_time":4293000000000,"state":"active","ping":60},{"user_id":274,"name":"Gheeotine","steam_id":76561198010181698,"connected_time":3594000000000,"state":"active","ping":94},{"user_id":320,"name":"Rat Cycle","steam_id":76561198113364714,"connected_time":550000000000,"state":"active","ping":59},{"user_id":297,"name":"lapisbomb","steam_id":76561198140887217,"connected_time":1084000000000,"state":"active","ping":76},{"user_id":281,"name":"slep.py","steam_id":76561197988287144,"connected_time":2927000000000,"state":"active","ping":54},{"user_id":313,"name":"chen","steam_id":76561198064872330,"connected_time":633000000000,"state":"active","ping":74},{"user_id":304,"name":"MoiMoi","steam_id":76561198873850038,"connected_time":709000000000,"state":"active","ping":75},{"user_id":287,"name":"Carson","steam_id":76561198076771071,"connected_time":2191000000000,"state":"active","ping":50},{"user_id":275,"name":"Nathan","steam_id":76561198127924646,"connected_time":3439000000000,"state":"active","ping":86},{"user_id":228,"name":"crab","steam_id":76561199094011002,"connected_time":6407000000000,"state":"active","ping":52},{"user_id":278,"name":"airballer","steam_id":76561198165899125,"connected_time":3284000000000,"state":"active","ping":72},{"user_id":305,"name":"KIKI CURBSTOMP","steam_id":76561198262064871,"connected_time":704000000000,"state":"active","ping":54},{"user_id":289,"name":"broomstick","steam_id":76561198302171600,"connected_time":2022000000000,"state":"active","ping":82},{"user_id":300,"name":"Lmnop","steam_id":76561198038458838,"connected_time":969000000000,"state":"active","ping":60},{"user_id":328,"name":"Kid named download","steam_id":76561199192074448,"connected_time":266000000000,"state":"active","ping":73}]},{"server_id":402,"name":"Uncletopia | Chicago | 3 | All Maps","name_short":"chi-3","host":"chi-1.us.uncletopia.com","port":27035,"enabled":true,"region":"us-central","cc":"us","latitude":41.881832,"longitude":-87.62318,"reserved":0,"last_update":"0001-01-01T00:00:00Z","name_a2s":"Uncletopia | Chicago | 3 | All Maps","protocol":17,"map":"pl_badwater","folder":"tf","game":"Team Fortress","app_id":440,"player_count":24,"max_players":24,"Bots":0,"server_type":"Dedicated","server_os":"Linux","password":true,"vac":true,"version":"7961495","steam_id":85568392924515191,"keywords":["nocrits","nodmgspread","payload","uncletopia"],"game_id":440,"stv_port":27036,"stv_name":"Uncletopia | Chicago | 3 | All Maps | STV","players":[{"user_id":55,"name":"Quansen","steam_id":76561198151594550,"connected_time":3266000000000,"state":"active","ping":48},{"user_id":86,"name":"Lost Aracnid","steam_id":76561199012943912,"connected_time":1382000000000,"state":"active","ping":64},{"user_id":87,"name":"T√ñZI","steam_id":76561198045268695,"connected_time":1304000000000,"state":"active","ping":80},{"user_id":101,"name":"Xavibite","steam_id":76561198209380493,"connected_time":46000000000,"state":"active","ping":60},{"user_id":14,"name":"Fresh Lychee","steam_id":76561198045399559,"connected_time":4997000000000,"state":"active","ping":57},{"user_id":13,"name":"The World's Softest Sandwich","steam_id":76561198015577707,"connected_time":5239000000000,"state":"active","ping":82},{"user_id":95,"name":"Ta5K","steam_id":76561198939558155,"connected_time":591000000000,"state":"active","ping":45},{"user_id":92,"name":"totoro","steam_id":76561198210420871,"connected_time":930000000000,"state":"active","ping":45},{"user_id":58,"name":"Kartyac","steam_id":76561197991069005,"connected_time":3040000000000,"state":"active","ping":75},{"user_id":67,"name":"biden cart 15 dollars","steam_id":76561198253731826,"connected_time":2876000000000,"state":"active","ping":63},{"user_id":59,"name":"inshallah","steam_id":76561198165212575,"connected_time":3004000000000,"state":"active","ping":63},{"user_id":100,"name":"‚ù§ Ashleyyy ‚ù§","steam_id":76561198056428303,"connected_time":263000000000,"state":"active","ping":91},{"user_id":94,"name":"5k RPM","steam_id":76561198926416886,"connected_time":842000000000,"state":"active","ping":70},{"user_id":79,"name":"Deltaco","steam_id":76561198094572694,"connected_time":2215000000000,"state":"active","ping":115},{"user_id":83,"name":"Oopsie Daisy ‚ùã","steam_id":76561198042144492,"connected_time":2075000000000,"state":"active","ping":64},{"user_id":98,"name":"glade","steam_id":76561198077787480,"connected_time":335000000000,"state":"active","ping":71},{"user_id":66,"name":"Sappho of Lesbos","steam_id":76561198115931381,"connected_time":2879000000000,"state":"active","ping":71},{"user_id":96,"name":"[UNFAIR] H1gh0nSt34m","steam_id":76561198839068126,"connected_time":515000000000,"state":"active","ping":77},{"user_id":97,"name":"Pannington","steam_id":76561198138707710,"connected_time":354000000000,"state":"active","ping":69},{"user_id":90,"name":"Wounded","steam_id":76561199440954924,"connected_time":1045000000000,"state":"active","ping":135},{"user_id":81,"name":"glerb","steam_id":76561199485239672,"connected_time":2175000000000,"state":"active","ping":63},{"user_id":93,"name":"corned beef","steam_id":76561199366782761,"connected_time":897000000000,"state":"active","ping":158},{"user_id":85,"name":"MausWaffles","steam_id":76561198193160991,"connected_time":1837000000000,"state":"active","ping":82},{"user_id":43,"name":"menonamed","steam_id":76561198199564382,"connected_time":4306000000000,"state":"active","ping":77}]},{"server_id":403,"name":"Uncletopia | Chicago | 4 | All Maps","name_short":"chi-4","host":"chi-1.us.uncletopia.com","port":27045,"enabled":true,"region":"us-central","cc":"us","latitude":41.881832,"longitude":-87.62318,"reserved":0,"last_update":"0001-01-01T00:00:00Z","name_a2s":"Uncletopia | Chicago | 4 | All Maps","protocol":17,"map":"cp_process_final","folder":"tf","game":"Team Fortress","app_id":440,"player_count":19,"max_players":24,"Bots":0,"server_type":"Dedicated","server_os":"Linux","password":true,"vac":true,"version":"7961495","steam_id":85568392924515193,"keywords":["cp","nocrits","nodmgspread","uncletopia"],"game_id":440,"stv_port":27046,"stv_name":"Uncletopia | Chicago | 4 | All Maps | STV","players":[{"user_id":130,"name":"MrYadaization","steam_id":76561198050770818,"connected_time":1599000000000,"state":"spawning","ping":85},{"user_id":144,"name":"GIANT ISOPOD","steam_id":76561198073113902,"connected_time":36000000000,"state":"spawning","ping":62},{"user_id":143,"name":"777","steam_id":76561198277163301,"connected_time":70000000000,"state":"spawning","ping":71},{"user_id":129,"name":"Memoirist","steam_id":76561198026002842,"connected_time":1639000000000,"state":"spawning","ping":51},{"user_id":87,"name":"StudioMania (#SAVETF2)","steam_id":76561198211315795,"connected_time":3915000000000,"state":"spawning","ping":66},{"user_id":137,"name":"Branspes\\n","steam_id":76561198298364415,"connected_time":1352000000000,"state":"spawning","ping":111},{"user_id":139,"name":"shoot","steam_id":76561198170172583,"connected_time":632000000000,"state":"spawning","ping":72},{"user_id":132,"name":"Wife Enjoyer","steam_id":76561198044109761,"connected_time":1562000000000,"state":"spawning","ping":66},{"user_id":73,"name":"And her name is","steam_id":76561198136789464,"connected_time":5172000000000,"state":"spawning","ping":64},{"user_id":104,"name":"Blink","steam_id":76561197986181277,"connected_time":2831000000000,"state":"spawning","ping":49},{"user_id":19,"name":"Your Loyal Familiar","steam_id":76561198106476075,"connected_time":7256000000000,"state":"spawning","ping":79},{"user_id":142,"name":"lil' Wayne","steam_id":76561198050136796,"connected_time":265000000000,"state":"spawning","ping":82},{"user_id":42,"name":"Chelo Jengo","steam_id":76561198426191363,"connected_time":6876000000000,"state":"spawning","ping":71},{"user_id":122,"name":"Loyal's GF","steam_id":76561198055445036,"connected_time":2172000000000,"state":"spawning","ping":62},{"user_id":135,"name":"DaddyGalaxy","steam_id":76561198139697796,"connected_time":1503000000000,"state":"spawning","ping":81},{"user_id":86,"name":"ManicDepressionInATrenchCoat","steam_id":76561198131567365,"connected_time":3925000000000,"state":"spawning","ping":64},{"user_id":106,"name":"Augustus Gloop","steam_id":76561198145561348,"connected_time":2796000000000,"state":"spawning","ping":62},{"user_id":83,"name":"ThatGamingKiwi","steam_id":76561199170522237,"connected_time":4278000000000,"state":"spawning","ping":57},{"user_id":126,"name":"Prsm","steam_id":76561198053344995,"connected_time":1900000000000,"state":"spawning","ping":50}]},{"server_id":36,"name":"Uncletopia | Chicago | 5 | All Maps","name_short":"chi-5","host":"chi-2.us.uncletopia.com","port":27015,"enabled":true,"region":"us-central","cc":"us","latitude":41.881832,"longitude":-87.62318,"reserved":0,"last_update":"0001-01-01T00:00:00Z","name_a2s":"Uncletopia | Chicago | 5 | All Maps","protocol":17,"map":"koth_lakeside_final","folder":"tf","game":"Team Fortress","app_id":440,"player_count":4,"max_players":24,"Bots":0,"server_type":"Dedicated","server_os":"Linux","password":true,"vac":true,"version":"7961495","steam_id":85568392924866362,"keywords":["cp","nocrits","nodmgspread","uncletopia"],"game_id":440,"stv_port":27016,"stv_name":"Uncletopia | Chicago | 5 | All Maps | STV","players":[{"user_id":8,"name":"GrunerJunge","steam_id":76561199492836198,"connected_time":2455000000000,"state":"active","ping":70},{"user_id":17,"name":"gillmore.samuel","steam_id":76561198109742336,"connected_time":61000000000,"state":"active","ping":59},{"user_id":12,"name":"madmaxbossman","steam_id":76561198289666622,"connected_time":1053000000000,"state":"active","ping":56},{"user_id":15,"name":"Herman Bavinck","steam_id":76561197993190216,"connected_time":787000000000,"state":"active","ping":59}]},{"server_id":37,"name":"Uncletopia | Chicago | 6 | All Maps","name_short":"chi-6","host":"chi-2.us.uncletopia.com","port":27025,"enabled":true,"region":"us-central","cc":"us","latitude":41.881832,"longitude":-87.62318,"reserved":0,"last_update":"0001-01-01T00:00:00Z","name_a2s":"Uncletopia | Chicago | 6 | All Maps","protocol":17,"map":"koth_highpass","folder":"tf","game":"Team Fortress","app_id":440,"player_count":0,"max_players":24,"Bots":0,"server_type":"Dedicated","server_os":"Linux","password":true,"vac":true,"version":"7961495","steam_id":85568392924866363,"keywords":["cp","nocrits","nodmgspread","uncletopia"],"game_id":440,"stv_port":27026,"stv_name":"Uncletopia | Chicago | 6 | All Maps | STV","players":null},{"server_id":38,"name":"Uncletopia | Chicago | 7 | Stopwatch","name_short":"chi-7","host":"chi-2.us.uncletopia.com","port":27035,"enabled":true,"region":"us-central","cc":"us","latitude":41.881832,"longitude":-87.62318,"reserved":0,"last_update":"0001-01-01T00:00:00Z","name_a2s":"Uncletopia | Chicago | 7 | Stopwatch","protocol":17,"map":"workshop/koth_ashville_final.ugc2130459942","folder":"tf","game":"Team Fortress","app_id":440,"player_count":0,"max_players":24,"Bots":0,"server_type":"Dedicated","server_os":"Linux","password":true,"vac":true,"version":"7961495","steam_id":85568392924866364,"keywords":["cp","nocrits","nodmgspread","uncletopia"],"game_id":440,"stv_port":27036,"stv_name":"Uncletopia | Chicago | 7 | Stopwatch | STV","players":null},{"server_id":39,"name":"Uncletopia | Chicago | 8 | Community","name_short":"chi-8","host":"chi-2.us.uncletopia.com","port":27045,"enabled":true,"region":"us-central","cc":"us","latitude":41.881832,"longitude":-87.62318,"reserved":0,"last_update":"0001-01-01T00:00:00Z","name_a2s":"Uncletopia | Chicago | 8 | Community","protocol":17,"map":"workshop/cp_caldera_rc3.ugc2834196889","folder":"tf","game":"Team Fortress","app_id":440,"player_count":0,"max_players":24,"Bots":0,"server_type":"Dedicated","server_os":"Linux","password":true,"vac":true,"version":"7961495","steam_id":85568392924866365,"keywords":["cp","nocrits","nodmgspread","uncletopia"],"game_id":440,"stv_port":27046,"stv_name":"Uncletopia | Chicago | 8 | Community | STV","players":null},{"server_id":8,"name":"Uncletopia | Dallas | 1 | All Maps","name_short":"dal-1","host":"dal-1.us.uncletopia.com","port":27015,"enabled":true,"region":"us-central","cc":"us","latitude":32.779167,"longitude":-96.80889,"reserved":0,"last_update":"0001-01-01T00:00:00Z","name_a2s":"Uncletopia | Dallas | 1 | All Maps","protocol":17,"map":"cp_sunshine","folder":"tf","game":"Team Fortress","app_id":440,"player_count":24,"max_players":24,"Bots":0,"server_type":"Dedicated","server_os":"Linux","password":true,"vac":true,"version":"7961495","steam_id":85568392924469986,"keywords":["cp","nocrits","nodmgspread","uncletopia"],"game_id":440,"stv_port":27016,"stv_name":"Uncletopia | Dallas | 1 | All Maps | STV","players":[{"user_id":201,"name":"luigigario","steam_id":76561198881262416,"connected_time":2827000000000,"state":"active","ping":88},{"user_id":234,"name":"King","steam_id":76561198039763676,"connected_time":754000000000,"state":"active","ping":77},{"user_id":203,"name":"Motorol¬™","steam_id":76561198358119669,"connected_time":2700000000000,"state":"active","ping":126},{"user_id":176,"name":"a fuddruckers","steam_id":76561198092656099,"connected_time":4452000000000,"state":"active","ping":50},{"user_id":240,"name":"Duncan","steam_id":76561198042148095,"connected_time":249000000000,"state":"active","ping":87},{"user_id":219,"name":"Holden Caulfield","steam_id":76561198372579548,"connected_time":1380000000000,"state":"active","ping":99},{"user_id":100,"name":"DMM","steam_id":76561198065426171,"connected_time":10628000000000,"state":"active","ping":54},{"user_id":227,"name":"balls","steam_id":76561198125947844,"connected_time":1158000000000,"state":"active","ping":87},{"user_id":180,"name":"Mr. Hankey","steam_id":76561198872852200,"connected_time":4160000000000,"state":"active","ping":135},{"user_id":212,"name":"Pyrodia√ß","steam_id":76561198799616117,"connected_time":1995000000000,"state":"active","ping":68},{"user_id":239,"name":"canakblasteran","steam_id":76561199472518822,"connected_time":274000000000,"state":"active","ping":76},{"user_id":220,"name":"PREMIUM BART","steam_id":76561198173255559,"connected_time":1328000000000,"state":"active","ping":79},{"user_id":228,"name":"Harlow's Revolver","steam_id":76561198893285805,"connected_time":1154000000000,"state":"active","ping":79},{"user_id":236,"name":"ZILICON","steam_id":76561199044705592,"connected_time":651000000000,"state":"active","ping":110},{"user_id":241,"name":"pabbott123110","steam_id":76561199231739796,"connected_time":71000000000,"state":"active","ping":103},{"user_id":211,"name":"turdLdestroyer64","steam_id":76561198070854627,"connected_time":2421000000000,"state":"active","ping":83},{"user_id":222,"name":"pages","steam_id":76561198108685037,"connected_time":1312000000000,"state":"active","ping":60},{"user_id":238,"name":"kaimann_25","steam_id":76561198867926098,"connected_time":361000000000,"state":"active","ping":72},{"user_id":233,"name":"barker bill","steam_id":76561198018451994,"connected_time":877000000000,"state":"active","ping":55},{"user_id":237,"name":"Gooter","steam_id":76561198185268445,"connected_time":513000000000,"state":"active","ping":63},{"user_id":242,"name":"SPYCHECK ME","steam_id":76561198980994364,"connected_time":70000000000,"state":"active","ping":100},{"user_id":209,"name":"shield","steam_id":76561198976876859,"connected_time":2524000000000,"state":"active","ping":88},{"user_id":153,"name":"Rob","steam_id":76561199187786660,"connected_time":6120000000000,"state":"active","ping":54},{"user_id":215,"name":"pafijohn","steam_id":76561198002535190,"connected_time":1969000000000,"state":"active","ping":75}]},{"server_id":108,"name":"Uncletopia | Dallas | 2 | All Maps","name_short":"dal-2","host":"dal-1.us.uncletopia.com","port":27025,"enabled":true,"region":"us-central","cc":"us","latitude":32.779167,"longitude":-96.80889,"reserved":0,"last_update":"0001-01-01T00:00:00Z","name_a2s":"Uncletopia | Dallas | 2 | All Maps","protocol":17,"map":"pl_snowycoast","folder":"tf","game":"Team Fortress","app_id":440,"player_count":4,"max_players":24,"Bots":0,"server_type":"Dedicated","server_os":"Linux","password":true,"vac":true,"version":"7961495","steam_id":85568392924469988,"keywords":["nocrits","nodmgspread","payload","uncletopia"],"game_id":440,"stv_port":27026,"stv_name":"Uncletopia | Dallas | 2 | All Maps | STV","players":[{"user_id":8,"name":"purplerosie334","steam_id":76561199491020174,"connected_time":931000000000,"state":"active","ping":67},{"user_id":10,"name":"CALL OF DUTY BLACKOPPS","steam_id":76561198262422184,"connected_time":187000000000,"state":"active","ping":43},{"user_id":13,"name":"sofa king","steam_id":76561198353638591,"connected_time":143000000000,"state":"active","ping":66},{"user_id":12,"name":"i poop my pants","steam_id":76561199488347875,"connected_time":162000000000,"state":"active","ping":60}]},{"server_id":404,"name":"Uncletopia | Dallas | 3 | All Maps","name_short":"dal-3","host":"dal-1.us.uncletopia.com","port":27035,"enabled":true,"region":"us-central","cc":"us","latitude":32.779167,"longitude":-96.80889,"reserved":0,"last_update":"0001-01-01T00:00:00Z","name_a2s":"Uncletopia | Dallas | 3 | All Maps","protocol":17,"map":"koth_viaduct","folder":"tf","game":"Team Fortress","app_id":440,"player_count":24,"max_players":24,"Bots":0,"server_type":"Dedicated","server_os":"Linux","password":true,"vac":true,"version":"7961495","steam_id":85568392924515219,"keywords":["cp","nocrits","nodmgspread","uncletopia"],"game_id":440,"stv_port":27036,"stv_name":"Uncletopia | Dallas | 3 | All Maps | STV","players":[{"user_id":9,"name":"‚ô• Tomboy ‚ô•","steam_id":76561198069881436,"connected_time":11116000000000,"state":"active","ping":74},{"user_id":129,"name":"Fortune","steam_id":76561198346118738,"connected_time":651000000000,"state":"active","ping":99},{"user_id":134,"name":"Lil B (Tha Based/God)","steam_id":76561198133195238,"connected_time":424000000000,"state":"active","ping":91},{"user_id":130,"name":"EndurusPrime","steam_id":76561198799595277,"connected_time":596000000000,"state":"active","ping":63},{"user_id":137,"name":"Pussy Slambasket","steam_id":76561198093694322,"connected_time":315000000000,"state":"active","ping":75},{"user_id":135,"name":"Degree","steam_id":76561198059812393,"connected_time":363000000000,"state":"active","ping":90},{"user_id":91,"name":"nufyivuyda","steam_id":76561199499476489,"connected_time":3756000000000,"state":"active","ping":81},{"user_id":138,"name":"grape","steam_id":76561197993980328,"connected_time":308000000000,"state":"active","ping":132},{"user_id":139,"name":"Leo x.x","steam_id":76561198309760791,"connected_time":303000000000,"state":"active","ping":626},{"user_id":133,"name":"Peace Sells.....","steam_id":76561199013271968,"connected_time":469000000000,"state":"active","ping":60},{"user_id":131,"name":"La()VaJ()86","steam_id":76561198247547042,"connected_time":548000000000,"state":"active","ping":81},{"user_id":140,"name":"transfem atsuko kagari","steam_id":76561198217402847,"connected_time":300000000000,"state":"active","ping":90},{"user_id":141,"name":"Versuski","steam_id":76561198085193084,"connected_time":292000000000,"state":"active","ping":78},{"user_id":66,"name":"Certified Hood Classic","steam_id":76561199086159354,"connected_time":6016000000000,"state":"active","ping":60},{"user_id":145,"name":"TheFlyingHussar","steam_id":76561199388276949,"connected_time":87000000000,"state":"active","ping":99},{"user_id":101,"name":"Birby","steam_id":76561198884009768,"connected_time":3382000000000,"state":"active","ping":112},{"user_id":110,"name":"Catgirl Explise","steam_id":76561198044413891,"connected_time":2360000000000,"state":"active","ping":98},{"user_id":118,"name":"Whompert","steam_id":76561198042939624,"connected_time":1582000000000,"state":"active","ping":86},{"user_id":128,"name":"nicholas","steam_id":76561198058211873,"connected_time":866000000000,"state":"active","ping":61},{"user_id":146,"name":"ÔΩêÔΩíÔΩèÔΩÜÔΩÖ ÔΩâÔΩìÔΩÅ","steam_id":76561198106966849,"connected_time":86000000000,"state":"active","ping":123},{"user_id":132,"name":"Mix56374","steam_id":76561199093717909,"connected_time":548000000000,"state":"active","ping":91},{"user_id":144,"name":"uzr_n3m","steam_id":76561198799343084,"connected_time":241000000000,"state":"active","ping":85},{"user_id":43,"name":"Peluche Marisa","steam_id":76561199011452659,"connected_time":7859000000000,"state":"active","ping":113},{"user_id":120,"name":"Rearranging furniture","steam_id":76561199054971009,"connected_time":1169000000000,"state":"active","ping":56}]},{"server_id":405,"name":"Uncletopia | Dallas | 4 | Community","name_short":"dal-4","host":"dal-1.us.uncletopia.com","port":27045,"enabled":true,"region":"us-central","cc":"us","latitude":32.779167,"longitude":-96.80889,"reserved":0,"last_update":"0001-01-01T00:00:00Z","name_a2s":"Uncletopia | Dallas | 4 | Community","protocol":17,"map":"workshop/pl_vigil_rc10.ugc1266210012","folder":"tf","game":"Team Fortress","app_id":440,"player_count":0,"max_players":24,"Bots":0,"server_type":"Dedicated","server_os":"Linux","password":true,"vac":true,"version":"7961495","steam_id":85568392924515220,"keywords":["nocrits","nodmgspread","payload","uncletopia"],"game_id":440,"stv_port":27046,"stv_name":"Uncletopia | Dallas | 4 | Community | STV","players":null},{"server_id":5,"name":"Uncletopia | Frankfurt | 1 | All Maps","name_short":"frk-1","host":"frk-1.de.uncletopia.com","port":27015,"enabled":true,"region":"eu","cc":"de","latitude":50.110924,"longitude":8.682127,"reserved":0,"last_update":"0001-01-01T00:00:00Z","name_a2s":"Uncletopia | Frankfurt | 1 | All Maps","protocol":17,"map":"pl_frontier_final","folder":"tf","game":"Team Fortress","app_id":440,"player_count":23,"max_players":24,"Bots":0,"server_type":"Dedicated","server_os":"Linux","password":true,"vac":true,"version":"7961495","steam_id":85568392924469989,"keywords":["nocrits","nodmgspread","payload","uncletopia"],"game_id":440,"stv_port":27016,"stv_name":"Uncletopia | Frankfurt | 1 | All Maps | STV","players":[{"user_id":561,"name":"cheriberry","steam_id":76561198093577036,"connected_time":495000000000,"state":"active","ping":59},{"user_id":535,"name":"Gaus","steam_id":76561198131881705,"connected_time":2303000000000,"state":"active","ping":82},{"user_id":569,"name":"ok","steam_id":76561198320042443,"connected_time":272000000000,"state":"active","ping":95},{"user_id":536,"name":"–†–µ–î–∞–ù–æ–í–µ–¶ ^_^","steam_id":76561199032612973,"connected_time":2189000000000,"state":"active","ping":69},{"user_id":567,"name":"ChPerette üéÆ","steam_id":76561198060004887,"connected_time":399000000000,"state":"active","ping":45},{"user_id":543,"name":"Piox","steam_id":76561198125689157,"connected_time":2025000000000,"state":"active","ping":75},{"user_id":565,"name":"Mike","steam_id":76561198228455736,"connected_time":448000000000,"state":"active","ping":62},{"user_id":556,"name":"Chopperson_","steam_id":76561198873728497,"connected_time":643000000000,"state":"active","ping":109},{"user_id":493,"name":"bottomest g","steam_id":76561198138928548,"connected_time":4149000000000,"state":"active","ping":59},{"user_id":552,"name":"..","steam_id":76561198380752444,"connected_time":1207000000000,"state":"active","ping":70},{"user_id":478,"name":"Philosophos_Alpha","steam_id":76561198951264580,"connected_time":5568000000000,"state":"active","ping":102},{"user_id":568,"name":"LiterallyRyanGosling","steam_id":76561199017856691,"connected_time":378000000000,"state":"active","ping":60},{"user_id":530,"name":"Hatador","steam_id":76561198074501986,"connected_time":2974000000000,"state":"active","ping":46},{"user_id":551,"name":"Struix","steam_id":76561199413463591,"connected_time":1351000000000,"state":"active","ping":87},{"user_id":538,"name":"[DEU]zlx","steam_id":76561198197171519,"connected_time":2119000000000,"state":"active","ping":50},{"user_id":557,"name":"Juno","steam_id":76561198960480730,"connected_time":632000000000,"state":"active","ping":63},{"user_id":572,"name":"Garfailed The Dumbass","steam_id":76561198979140645,"connected_time":144000000000,"state":"active","ping":58},{"user_id":539,"name":"theVad333","steam_id":76561199273469746,"connected_time":2101000000000,"state":"active","ping":60},{"user_id":559,"name":"Carl","steam_id":76561198045638738,"connected_time":509000000000,"state":"active","ping":72},{"user_id":571,"name":"don't forget the h","steam_id":76561198101292843,"connected_time":182000000000,"state":"active","ping":54},{"user_id":573,"name":"Deez nuts","steam_id":76561199429562693,"connected_time":138000000000,"state":"active","ping":71},{"user_id":480,"name":"VolcanicArts","steam_id":76561198063453246,"connected_time":4938000000000,"state":"active","ping":60},{"user_id":519,"name":"Matt the Waffling-Iron","steam_id":76561198044066043,"connected_time":3338000000000,"state":"active","ping":90}]},{"server_id":110,"name":"Uncletopia | Frankfurt | 2 | All Maps","name_short":"frk-2","host":"frk-1.de.uncletopia.com","port":27025,"enabled":true,"region":"eu","cc":"de","latitude":50.110924,"longitude":8.682127,"reserved":0,"last_update":"0001-01-01T00:00:00Z","name_a2s":"Uncletopia | Frankfurt | 2 | All Maps","protocol":17,"map":"pl_thundermountain","folder":"tf","game":"Team Fortress","app_id":440,"player_count":24,"max_players":24,"Bots":0,"server_type":"Dedicated","server_os":"Linux","password":true,"vac":true,"version":"7961495","steam_id":85568392924469990,"keywords":["nocrits","nodmgspread","payload","uncletopia"],"game_id":440,"stv_port":27026,"stv_name":"Uncletopia | Frankfurt | 2 | All Maps | STV","players":[{"user_id":357,"name":"Lazor","steam_id":76561198310376869,"connected_time":2105000000000,"state":"active","ping":107},{"user_id":381,"name":"EtoGeek","steam_id":76561198020304242,"connected_time":848000000000,"state":"active","ping":65},{"user_id":361,"name":"do you remember poptropica?","steam_id":76561199025227085,"connected_time":1601000000000,"state":"active","ping":159},{"user_id":385,"name":"Sunduchek","steam_id":76561198067934157,"connected_time":551000000000,"state":"active","ping":126},{"user_id":371,"name":"Laitse","steam_id":76561198073247480,"connected_time":1152000000000,"state":"active","ping":100},{"user_id":362,"name":"TheBeardedM1G","steam_id":76561198040208946,"connected_time":1558000000000,"state":"active","ping":59},{"user_id":318,"name":"Leviticus Cornwall","steam_id":76561197993702685,"connected_time":4572000000000,"state":"active","ping":93},{"user_id":360,"name":"UltimateAura","steam_id":76561198338361324,"connected_time":1650000000000,"state":"active","ping":45},{"user_id":334,"name":"[P-roc] Cmm Bert","steam_id":76561198016658674,"connected_time":2740000000000,"state":"active","ping":69},{"user_id":383,"name":"panda","steam_id":76561199042470246,"connected_time":673000000000,"state":"active","ping":46},{"user_id":363,"name":"Storm's Foreshadow","steam_id":76561198098462526,"connected_time":1550000000000,"state":"active","ping":57},{"user_id":340,"name":"[P-roc] Lovely","steam_id":76561198074361075,"connected_time":2643000000000,"state":"active","ping":61},{"user_id":314,"name":"Miku.Hatsune.2007","steam_id":76561198199687607,"connected_time":4769000000000,"state":"active","ping":69},{"user_id":369,"name":"Smebiulack","steam_id":76561197982409664,"connected_time":1165000000000,"state":"active","ping":69},{"user_id":364,"name":"Yoshikage Kira","steam_id":76561198326041272,"connected_time":1531000000000,"state":"active","ping":76},{"user_id":330,"name":"papa Sloath","steam_id":76561198046382160,"connected_time":3702000000000,"state":"active","ping":62},{"user_id":342,"name":"Jotun","steam_id":76561199015161498,"connected_time":2631000000000,"state":"active","ping":94},{"user_id":376,"name":"Skyrider of Spaceways","steam_id":76561197991678236,"connected_time":1071000000000,"state":"active","ping":134},{"user_id":382,"name":"NESS","steam_id":76561197995225318,"connected_time":835000000000,"state":"active","ping":59},{"user_id":387,"name":"2(-)13 lft","steam_id":76561198068108772,"connected_time":271000000000,"state":"active","ping":59},{"user_id":386,"name":"KALACH","steam_id":76561198028664460,"connected_time":482000000000,"state":"active","ping":74},{"user_id":377,"name":"camperboy","steam_id":76561198138410890,"connected_time":1069000000000,"state":"active","ping":56},{"user_id":384,"name":"monsterISfun","steam_id":76561198121734867,"connected_time":609000000000,"state":"active","ping":69},{"user_id":353,"name":"kelm","steam_id":76561198027166144,"connected_time":2415000000000,"state":"active","ping":80}]},{"server_id":308,"name":"Uncletopia | Frankfurt | 3 | All Maps","name_short":"frk-3","host":"frk-1.de.uncletopia.com","port":27035,"enabled":true,"region":"eu","cc":"de","latitude":50.110924,"longitude":8.682127,"reserved":0,"last_update":"0001-01-01T00:00:00Z","name_a2s":"Uncletopia | Frankfurt | 3 | All Maps","protocol":17,"map":"cp_snakewater_final1","folder":"tf","game":"Team Fortress","app_id":440,"player_count":24,"max_players":24,"Bots":0,"server_type":"Dedicated","server_os":"Linux","password":true,"vac":true,"version":"7961495","steam_id":85568392924504274,"keywords":["cp","nocrits","nodmgspread","uncletopia"],"game_id":440,"stv_port":27036,"stv_name":"Uncletopia | Frankfurt | 3 | All Maps | STV","players":[{"user_id":258,"name":"corpse eater","steam_id":76561198401523966,"connected_time":931000000000,"state":"active","ping":88},{"user_id":249,"name":"Schwerer Panzersp√§hwagen","steam_id":76561199062437546,"connected_time":1159000000000,"state":"active","ping":50},{"user_id":260,"name":"deflox","steam_id":76561198087450635,"connected_time":826000000000,"state":"active","ping":49},{"user_id":204,"name":"Monkey","steam_id":76561199008411791,"connected_time":3795000000000,"state":"active","ping":52},{"user_id":266,"name":"I.C. Wiener","steam_id":76561197999912254,"connected_time":642000000000,"state":"active","ping":81},{"user_id":261,"name":"BTU_GiperNinja","steam_id":76561198888074280,"connected_time":792000000000,"state":"active","ping":81},{"user_id":242,"name":"Piss Man","steam_id":76561199079493666,"connected_time":1563000000000,"state":"active","ping":76},{"user_id":267,"name":"VW Golf MK2 GTI","steam_id":76561199250808808,"connected_time":565000000000,"state":"active","ping":75},{"user_id":254,"name":"Superiumentarius","steam_id":76561198081642249,"connected_time":1015000000000,"state":"active","ping":45},{"user_id":268,"name":"Child Abuser","steam_id":76561198145359722,"connected_time":558000000000,"state":"active","ping":92},{"user_id":243,"name":"bid","steam_id":76561198083863043,"connected_time":1559000000000,"state":"active","ping":60},{"user_id":255,"name":"FoOzTV","steam_id":76561197998636728,"connected_time":1000000000000,"state":"active","ping":60},{"user_id":246,"name":"‚ìÖ‚ìÅ‚ìà | Jules","steam_id":76561198060878531,"connected_time":1354000000000,"state":"active","ping":54},{"user_id":256,"name":"SK√öTER","steam_id":76561199262157623,"connected_time":993000000000,"state":"active","ping":68},{"user_id":259,"name":"DVS","steam_id":76561198062909843,"connected_time":928000000000,"state":"active","ping":49},{"user_id":263,"name":"PlasticVoid","steam_id":76561197997870306,"connected_time":782000000000,"state":"active","ping":45},{"user_id":270,"name":"Soerlssoelss√∂en","steam_id":76561197993060585,"connected_time":524000000000,"state":"active","ping":68},{"user_id":245,"name":"ok","steam_id":76561198044451693,"connected_time":1530000000000,"state":"active","ping":105},{"user_id":273,"name":"Mr.killer","steam_id":76561198290584189,"connected_time":306000000000,"state":"active","ping":97},{"user_id":275,"name":"Young Sheldon","steam_id":76561199013233409,"connected_time":64000000000,"state":"active","ping":76},{"user_id":274,"name":"meriones","steam_id":76561198034234373,"connected_time":196000000000,"state":"active","ping":56},{"user_id":238,"name":"walter","steam_id":76561198021950957,"connected_time":2168000000000,"state":"active","ping":68},{"user_id":271,"name":"I LOVE THE BISON","steam_id":76561199265289808,"connected_time":509000000000,"state":"active","ping":119},{"user_id":190,"name":"jeff","steam_id":76561198272815746,"connected_time":4500000000000,"state":"active","ping":55}]},{"server_id":309,"name":"Uncletopia | Frankfurt | 4 | All Maps","name_short":"frk-4","host":"frk-1.de.uncletopia.com","port":27045,"enabled":true,"region":"eu","cc":"de","latitude":50.110924,"longitude":8.682127,"reserved":0,"last_update":"0001-01-01T00:00:00Z","name_a2s":"Uncletopia | Frankfurt | 4 | All Maps","protocol":17,"map":"pl_badwater","folder":"tf","game":"Team Fortress","app_id":440,"player_count":23,"max_players":24,"Bots":0,"server_type":"Dedicated","server_os":"Linux","password":true,"vac":true,"version":"7961495","steam_id":85568392924504275,"keywords":["nocrits","nodmgspread","payload","uncletopia"],"game_id":440,"stv_port":27046,"stv_name":"Uncletopia | Frankfurt | 4 | All Maps | STV","players":[{"user_id":301,"name":"robsan","steam_id":76561198137375391,"connected_time":446000000000,"state":"active","ping":90},{"user_id":246,"name":"Natsuki","steam_id":76561198986191491,"connected_time":4707000000000,"state":"active","ping":60},{"user_id":307,"name":"HayLeX","steam_id":76561198130997343,"connected_time":125000000000,"state":"active","ping":88},{"user_id":233,"name":"The spit taster","steam_id":76561198338129578,"connected_time":6074000000000,"state":"active","ping":56},{"user_id":299,"name":"xSamyaza","steam_id":76561198058447257,"connected_time":475000000000,"state":"active","ping":56},{"user_id":240,"name":"Finnish Farmer","steam_id":76561198205366043,"connected_time":4838000000000,"state":"active","ping":87},{"user_id":306,"name":"Rexzuz_","steam_id":76561198106148347,"connected_time":208000000000,"state":"active","ping":86},{"user_id":287,"name":"Bagel","steam_id":76561198167747447,"connected_time":2178000000000,"state":"active","ping":146},{"user_id":302,"name":"hoe","steam_id":76561198078902326,"connected_time":431000000000,"state":"active","ping":57},{"user_id":296,"name":"Karabast","steam_id":76561198041208332,"connected_time":654000000000,"state":"active","ping":61},{"user_id":308,"name":"Remen_devil","steam_id":76561198087483009,"connected_time":12000000000,"state":"active","ping":44},{"user_id":289,"name":"ChesseKnight","steam_id":76561198102476339,"connected_time":2088000000000,"state":"active","ping":64},{"user_id":277,"name":"‚ôÇ Necronomico ‚ôÇ","steam_id":76561198079272212,"connected_time":3207000000000,"state":"active","ping":78},{"user_id":269,"name":"OH NO UNO","steam_id":76561198031845464,"connected_time":4009000000000,"state":"active","ping":63},{"user_id":282,"name":"luma","steam_id":76561198081649669,"connected_time":2542000000000,"state":"active","ping":65},{"user_id":303,"name":"typomen","steam_id":76561198405351951,"connected_time":429000000000,"state":"active","ping":95},{"user_id":279,"name":"Mate4","steam_id":76561198312176715,"connected_time":2864000000000,"state":"active","ping":69},{"user_id":275,"name":"_3tHeR_","steam_id":76561199109870743,"connected_time":3262000000000,"state":"active","ping":53},{"user_id":285,"name":"Tututerok","steam_id":76561198150325060,"connected_time":2254000000000,"state":"active","ping":93},{"user_id":273,"name":"pyrofightermag","steam_id":76561198089228732,"connected_time":3710000000000,"state":"active","ping":60},{"user_id":305,"name":"smell_my_cheese","steam_id":76561198008517427,"connected_time":264000000000,"state":"active","ping":54},{"user_id":261,"name":"Thundercracker__","steam_id":76561199163505476,"connected_time":4210000000000,"state":"active","ping":71},{"user_id":304,"name":"‚®Ç","steam_id":76561198087800030,"connected_time":411000000000,"state":"active","ping":47}]},{"server_id":310,"name":"Uncletopia | Frankfurt | 5 | All Maps","name_short":"frk-5","host":"frk-1.de.uncletopia.com","port":27055,"enabled":true,"region":"eu","cc":"de","latitude":50.110924,"longitude":8.682127,"reserved":0,"last_update":"0001-01-01T00:00:00Z","name_a2s":"Uncletopia | Frankfurt | 5 | All Maps","protocol":17,"map":"pl_barnblitz","folder":"tf","game":"Team Fortress","app_id":440,"player_count":21,"max_players":24,"Bots":0,"server_type":"Dedicated","server_os":"Linux","password":true,"vac":true,"version":"7961495","steam_id":85568392924504277,"keywords":["nocrits","nodmgspread","payload","uncletopia"],"game_id":440,"stv_port":27056,"stv_name":"Uncletopia | Frankfurt | 5 | All Maps | STV","players":[{"user_id":538,"name":"Adamkarz","steam_id":76561198796428403,"connected_time":1829000000000,"state":"active","ping":91},{"user_id":564,"name":"DribSitoop","steam_id":76561198020597104,"connected_time":131000000000,"state":"active","ping":63},{"user_id":565,"name":"Lucky Number 13","steam_id":76561198043951279,"connected_time":90000000000,"state":"active","ping":90},{"user_id":557,"name":"Trash Compactor","steam_id":76561199383047989,"connected_time":899000000000,"state":"active","ping":83},{"user_id":566,"name":"Arc","steam_id":76561198805049375,"connected_time":86000000000,"state":"active","ping":60},{"user_id":522,"name":"VIN WEASEL","steam_id":76561198014387066,"connected_time":2976000000000,"state":"active","ping":52},{"user_id":559,"name":"Pabs :D","steam_id":76561198000016962,"connected_time":658000000000,"state":"active","ping":52},{"user_id":560,"name":"murderwow","steam_id":76561198024566944,"connected_time":501000000000,"state":"active","ping":98},{"user_id":563,"name":"below average medic player","steam_id":76561199095822539,"connected_time":192000000000,"state":"active","ping":80},{"user_id":561,"name":"The flying Drunksman","steam_id":76561198966358094,"connected_time":296000000000,"state":"active","ping":45},{"user_id":498,"name":"Rayco","steam_id":76561198048013129,"connected_time":4257000000000,"state":"active","ping":66},{"user_id":552,"name":"Asocial","steam_id":76561198328594578,"connected_time":1134000000000,"state":"active","ping":95},{"user_id":567,"name":"Ozzie","steam_id":76561197992915315,"connected_time":67000000000,"state":"active","ping":60},{"user_id":568,"name":"Ve stylu","steam_id":76561198218257120,"connected_time":59000000000,"state":"active","ping":60},{"user_id":553,"name":"Saucisse","steam_id":76561198119955969,"connected_time":1124000000000,"state":"active","ping":56},{"user_id":535,"name":"Nox Equites","steam_id":76561198115438449,"connected_time":2127000000000,"state":"active","ping":87},{"user_id":556,"name":"Fuvuk","steam_id":76561198044458593,"connected_time":967000000000,"state":"active","ping":87},{"user_id":546,"name":"Vlad","steam_id":76561198048605526,"connected_time":1217000000000,"state":"active","ping":80},{"user_id":544,"name":"rob","steam_id":76561198122211848,"connected_time":1451000000000,"state":"active","ping":87},{"user_id":548,"name":"Hoovy :]","steam_id":76561198418767816,"connected_time":1199000000000,"state":"active","ping":89},{"user_id":525,"name":"Labracababrador","steam_id":76561198255280285,"connected_time":2941000000000,"state":"active","ping":82}]},{"server_id":311,"name":"Uncletopia | Frankfurt | 6 | All Maps","name_short":"frk-6","host":"frk-1.de.uncletopia.com","port":27065,"enabled":true,"region":"eu","cc":"de","latitude":50.110924,"longitude":8.682127,"reserved":0,"last_update":"0001-01-01T00:00:00Z","name_a2s":"Uncletopia | Frankfurt | 6 | All Maps","protocol":17,"map":"cp_sunshine","folder":"tf","game":"Team Fortress","app_id":440,"player_count":19,"max_players":24,"Bots":0,"server_type":"Dedicated","server_os":"Linux","password":true,"vac":true,"version":"7961495","steam_id":85568392924504278,"keywords":["cp","nocrits","nodmgspread","uncletopia"],"game_id":440,"stv_port":27066,"stv_name":"Uncletopia | Frankfurt | 6 | All Maps | STV","players":[{"user_id":359,"name":"Professional PP Rater","steam_id":76561198393134915,"connected_time":1450000000000,"state":"active","ping":67},{"user_id":340,"name":"slobber","steam_id":76561198372639514,"connected_time":2122000000000,"state":"active","ping":65},{"user_id":379,"name":"khhhhg","steam_id":76561198882704996,"connected_time":621000000000,"state":"active","ping":76},{"user_id":374,"name":"skull issue","steam_id":76561198343328308,"connected_time":713000000000,"state":"active","ping":60},{"user_id":324,"name":"sam_","steam_id":76561198814734120,"connected_time":3018000000000,"state":"active","ping":125},{"user_id":387,"name":"chidory41","steam_id":76561199404844130,"connected_time":26000000000,"state":"active","ping":68},{"user_id":375,"name":"Raymus","steam_id":76561198021330407,"connected_time":705000000000,"state":"active","ping":45},{"user_id":330,"name":"K.V. #RemoveRandomCrits","steam_id":76561197994832993,"connected_time":2408000000000,"state":"active","ping":75},{"user_id":335,"name":"Hlinkaaaaa | G6G [‚áÑ]","steam_id":76561198848779070,"connected_time":2321000000000,"state":"active","ping":135},{"user_id":371,"name":"iforwood.if","steam_id":76561198314347332,"connected_time":792000000000,"state":"active","ping":62},{"user_id":376,"name":"tealoverr.190","steam_id":76561199028497703,"connected_time":699000000000,"state":"active","ping":136},{"user_id":388,"name":"GunGuy","steam_id":76561198124510978,"connected_time":1000000000,"state":"spawning","ping":42},{"user_id":377,"name":"Purrplehaze","steam_id":76561198297604298,"connected_time":665000000000,"state":"active","ping":59},{"user_id":381,"name":"Hubert","steam_id":76561198057722639,"connected_time":395000000000,"state":"active","ping":65},{"user_id":382,"name":"That hamster has been dead for ","steam_id":76561198346638308,"connected_time":387000000000,"state":"active","ping":54},{"user_id":351,"name":"Bob Marley Faruk","steam_id":76561198403624627,"connected_time":1923000000000,"state":"active","ping":96},{"user_id":356,"name":"0iO","steam_id":76561198093526408,"connected_time":1560000000000,"state":"active","ping":60},{"user_id":354,"name":"oGod","steam_id":76561198971536843,"connected_time":1694000000000,"state":"active","ping":69},{"user_id":362,"name":"gart","steam_id":76561198203394358,"connected_time":1420000000000,"state":"active","ping":98}]},{"server_id":23,"name":"Uncletopia | Frankfurt | 7 | Stopwatch","name_short":"frk-7","host":"frk-1.de.uncletopia.com","port":27075,"enabled":true,"region":"eu","cc":"de","latitude":50.110924,"longitude":8.682127,"reserved":0,"last_update":"0001-01-01T00:00:00Z","name_a2s":"Uncletopia | Frankfurt | 7 | Stopwatch","protocol":17,"map":"workshop/koth_clearcut_b15.ugc2107050255","folder":"tf","game":"Team Fortress","app_id":440,"player_count":0,"max_players":24,"Bots":0,"server_type":"Dedicated","server_os":"Linux","password":true,"vac":true,"version":"7961495","steam_id":85568392924742827,"keywords":["cp","nocrits","nodmgspread","uncletopia"],"game_id":440,"stv_port":27076,"stv_name":"Uncletopia | Frankfurt | 7 | Stopwatch | STV","players":null},{"server_id":24,"name":"Uncletopia | Frankfurt | 8 | Community","name_short":"frk-8","host":"frk-1.de.uncletopia.com","port":27085,"enabled":true,"region":"eu","cc":"de","latitude":50.110924,"longitude":8.682127,"reserved":0,"last_update":"0001-01-01T00:00:00Z","name_a2s":"Uncletopia | Frankfurt | 8 | Community","protocol":17,"map":"workshop/pl_barnblitz_pro7.ugc582280235","folder":"tf","game":"Team Fortress","app_id":440,"player_count":0,"max_players":24,"Bots":0,"server_type":"Dedicated","server_os":"Linux","password":true,"vac":true,"version":"7961495","steam_id":85568392924742828,"keywords":["nocrits","nodmgspread","payload","uncletopia"],"game_id":440,"stv_port":27086,"stv_name":"Uncletopia | Frankfurt | 8 | Community | STV","players":null},{"server_id":202,"name":"Uncletopia | Hong Kong | 1 | All Maps","name_short":"hgk-1","host":"hgk-1.hk.uncletopia.com","port":27015,"enabled":true,"region":"asia","cc":"hk","latitude":22.302711,"longitude":114.177216,"reserved":0,"last_update":"0001-01-01T00:00:00Z","name_a2s":"Uncletopia | Hong Kong | 1 | All Maps","protocol":17,"map":"koth_cascade","folder":"tf","game":"Team Fortress","app_id":440,"player_count":0,"max_players":24,"Bots":0,"server_type":"Dedicated","server_os":"Linux","password":true,"vac":true,"version":"7961495","steam_id":85568392924494504,"keywords":["cp","nocrits","nodmgspread","uncletopia"],"game_id":440,"stv_port":27016,"stv_name":"Uncletopia | Hong Kong | 1 | All Maps | STV","players":null},{"server_id":1,"name":"Uncletopia | Los Angeles | 1 | All Maps","name_short":"lax-1","host":"lax-1.us.uncletopia.com","port":27015,"enabled":true,"region":"us-west","cc":"us","latitude":33.94279,"longitude":-118.41004,"reserved":0,"last_update":"0001-01-01T00:00:00Z","name_a2s":"Uncletopia | Los Angeles | 1 | All Maps","protocol":17,"map":"koth_lakeside_final","folder":"tf","game":"Team Fortress","app_id":440,"player_count":0,"max_players":24,"Bots":0,"server_type":"Dedicated","server_os":"Linux","password":true,"vac":true,"version":"7961495","steam_id":85568392924469991,"keywords":["cp","nocrits","nodmgspread","uncletopia"],"game_id":440,"stv_port":27016,"stv_name":"Uncletopia | Los Angeles | 1 | All Maps | STV","players":null},{"server_id":112,"name":"Uncletopia | Los Angeles | 2 | All Maps","name_short":"lax-2","host":"lax-1.us.uncletopia.com","port":27025,"enabled":true,"region":"us-west","cc":"us","latitude":33.94279,"longitude":-118.41004,"reserved":0,"last_update":"0001-01-01T00:00:00Z","name_a2s":"Uncletopia | Los Angeles | 2 | All Maps","protocol":17,"map":"koth_lazarus","folder":"tf","game":"Team Fortress","app_id":440,"player_count":0,"max_players":24,"Bots":0,"server_type":"Dedicated","server_os":"Linux","password":true,"vac":true,"version":"7961495","steam_id":85568392924469992,"keywords":["cp","nocrits","nodmgspread","uncletopia"],"game_id":440,"stv_port":27026,"stv_name":"Uncletopia | Los Angeles | 2 | All Maps | STV","players":null},{"server_id":324,"name":"Uncletopia | Los Angeles | 3 | All Maps","name_short":"lax-3","host":"lax-1.us.uncletopia.com","port":27035,"enabled":true,"region":"us-west","cc":"us","latitude":33.94279,"longitude":-118.41004,"reserved":0,"last_update":"0001-01-01T00:00:00Z","name_a2s":"Uncletopia | Los Angeles | 3 | All Maps","protocol":17,"map":"pl_snowycoast","folder":"tf","game":"Team Fortress","app_id":440,"player_count":19,"max_players":24,"Bots":0,"server_type":"Dedicated","server_os":"Linux","password":true,"vac":true,"version":"7961495","steam_id":85568392924510198,"keywords":["nocrits","nodmgspread","payload","uncletopia"],"game_id":440,"stv_port":27036,"stv_name":"Uncletopia | Los Angeles | 3 | All Maps | STV","players":[{"user_id":193,"name":"An00bis","steam_id":76561198044084508,"connected_time":31000000000,"state":"active","ping":48},{"user_id":192,"name":"Delta","steam_id":76561198201114381,"connected_time":40000000000,"state":"active","ping":209},{"user_id":195,"name":"Greskrendtregk","steam_id":76561197969553142,"connected_time":8000000000,"state":"active","ping":109},{"user_id":196,"name":"choi","steam_id":76561198053669887,"connected_time":3000000000,"state":"spawning","ping":49},{"user_id":187,"name":"OrangeShoes","steam_id":76561197971249940,"connected_time":553000000000,"state":"active","ping":109},{"user_id":182,"name":"klevmeister","steam_id":76561198799106535,"connected_time":673000000000,"state":"active","ping":92},{"user_id":173,"name":"I just did a \"Gaming\"","steam_id":76561198153836761,"connected_time":834000000000,"state":"active","ping":56},{"user_id":165,"name":"Why Me...","steam_id":76561199124019937,"connected_time":987000000000,"state":"active","ping":72},{"user_id":146,"name":"AilurosMajor88","steam_id":76561198350900640,"connected_time":2344000000000,"state":"active","ping":81},{"user_id":183,"name":"Cambonieboo","steam_id":76561198139174433,"connected_time":669000000000,"state":"active","ping":59},{"user_id":174,"name":"esoobac","steam_id":76561198010370396,"connected_time":825000000000,"state":"active","ping":75},{"user_id":140,"name":"Barack Obama Gaming","steam_id":76561198129242016,"connected_time":2804000000000,"state":"active","ping":74},{"user_id":166,"name":"the fundraiser","steam_id":76561198841016072,"connected_time":948000000000,"state":"active","ping":81},{"user_id":188,"name":"Krispy","steam_id":76561198127005410,"connected_time":550000000000,"state":"active","ping":45},{"user_id":149,"name":"milk","steam_id":76561198053410877,"connected_time":2313000000000,"state":"active","ping":53},{"user_id":177,"name":"Rowmaster","steam_id":76561198271659574,"connected_time":801000000000,"state":"active","ping":71},{"user_id":178,"name":"airbudetc","steam_id":76561199125415611,"connected_time":785000000000,"state":"active","ping":66},{"user_id":158,"name":"Pork Belly","steam_id":76561198053003142,"connected_time":1871000000000,"state":"active","ping":53},{"user_id":191,"name":"tomandjerry085","steam_id":76561198800789071,"connected_time":353000000000,"state":"active","ping":57}]},{"server_id":25,"name":"Uncletopia | Los Angeles | 4 | Stopwatch","name_short":"lax-4","host":"lax-1.us.uncletopia.com","port":27045,"enabled":true,"region":"us-west","cc":"us","latitude":33.94279,"longitude":-118.41004,"reserved":0,"last_update":"0001-01-01T00:00:00Z","name_a2s":"Uncletopia | Los Angeles | 4 | Stopwatch","protocol":17,"map":"workshop/koth_product_final.ugc454272353","folder":"tf","game":"Team Fortress","app_id":440,"player_count":0,"max_players":24,"Bots":0,"server_type":"Dedicated","server_os":"Linux","password":true,"vac":true,"version":"7961495","steam_id":85568392924510199,"keywords":["cp","nocrits","nodmgspread","uncletopia"],"game_id":440,"stv_port":27046,"stv_name":"Uncletopia | Los Angeles | 4 | Stopwatch | STV","players":null},{"server_id":11,"name":"Uncletopia | London | 1 | All Maps","name_short":"lon-1","host":"lon-1.uk.uncletopia.com","port":27015,"enabled":true,"region":"eu","cc":"gb","latitude":51.509865,"longitude":-0.118092,"reserved":0,"last_update":"0001-01-01T00:00:00Z","name_a2s":"Uncletopia | London | 1 | All Maps","protocol":17,"map":"cp_steel","folder":"tf","game":"Team Fortress","app_id":440,"player_count":24,"max_players":24,"Bots":0,"server_type":"Dedicated","server_os":"Linux","password":true,"vac":true,"version":"7961495","steam_id":85568392924367362,"keywords":["cp","nocrits","nodmgspread","uncletopia"],"game_id":440,"stv_port":27016,"stv_name":"Uncletopia | London | 1 | All Maps | STV","players":[{"user_id":516,"name":"ber.","steam_id":76561197993892057,"connected_time":2542000000000,"state":"active","ping":90},{"user_id":517,"name":"(MAC) [BN] Crazyking","steam_id":76561198001668616,"connected_time":2534000000000,"state":"active","ping":61},{"user_id":505,"name":"gibb (heLP HELP HELP)","steam_id":76561198074097655,"connected_time":3406000000000,"state":"active","ping":60},{"user_id":490,"name":"BriLLz","steam_id":76561198142440806,"connected_time":4571000000000,"state":"active","ping":73},{"user_id":518,"name":"The_Jaystone","steam_id":76561198126280691,"connected_time":2501000000000,"state":"active","ping":34},{"user_id":522,"name":"ein","steam_id":76561198152162834,"connected_time":2278000000000,"state":"active","ping":103},{"user_id":492,"name":"t.tv/whimsybun","steam_id":76561198878171763,"connected_time":4451000000000,"state":"active","ping":53},{"user_id":539,"name":"Lyra","steam_id":76561198190583242,"connected_time":311000000000,"state":"active","ping":88},{"user_id":465,"name":"hmscole09","steam_id":76561198811362788,"connected_time":6136000000000,"state":"active","ping":55},{"user_id":467,"name":"simpleaspossible","steam_id":76561198044827000,"connected_time":6090000000000,"state":"active","ping":44},{"user_id":527,"name":"flappi","steam_id":76561198072892783,"connected_time":1568000000000,"state":"active","ping":61},{"user_id":526,"name":"nudjura","steam_id":76561198281986139,"connected_time":1853000000000,"state":"active","ping":48},{"user_id":507,"name":"Laru","steam_id":76561197998838438,"connected_time":3234000000000,"state":"active","ping":86},{"user_id":530,"name":"Smokio","steam_id":76561198069650580,"connected_time":1449000000000,"state":"active","ping":90},{"user_id":515,"name":"Jam","steam_id":76561198090409013,"connected_time":2551000000000,"state":"active","ping":82},{"user_id":510,"name":"Purple Soup :D","steam_id":76561198985100366,"connected_time":2578000000000,"state":"active","ping":84},{"user_id":532,"name":"MEDiUM","steam_id":76561198112328561,"connected_time":1117000000000,"state":"active","ping":85},{"user_id":537,"name":"Hardlight","steam_id":76561198128064834,"connected_time":340000000000,"state":"active","ping":73},{"user_id":513,"name":"Son Goku","steam_id":76561199383437138,"connected_time":2562000000000,"state":"active","ping":135},{"user_id":523,"name":"Demicore","steam_id":76561197976922136,"connected_time":2207000000000,"state":"active","ping":69},{"user_id":540,"name":"mertefe","steam_id":76561199237126613,"connected_time":259000000000,"state":"active","ping":110},{"user_id":475,"name":"slippin jimmy","steam_id":76561198090788590,"connected_time":5957000000000,"state":"active","ping":43},{"user_id":536,"name":"sm0ke","steam_id":76561198198977226,"connected_time":712000000000,"state":"active","ping":75},{"user_id":514,"name":"teddy","steam_id":76561198007436837,"connected_time":2562000000000,"state":"active","ping":45}]},{"server_id":114,"name":"Uncletopia | London | 2 | All Maps","name_short":"lon-2","host":"lon-1.uk.uncletopia.com","port":27025,"enabled":true,"region":"eu","cc":"gb","latitude":51.509865,"longitude":-0.118092,"reserved":0,"last_update":"0001-01-01T00:00:00Z","name_a2s":"Uncletopia | London | 2 | All Maps","protocol":17,"map":"koth_sawmill","folder":"tf","game":"Team Fortress","app_id":440,"player_count":21,"max_players":24,"Bots":0,"server_type":"Dedicated","server_os":"Linux","password":true,"vac":true,"version":"7961495","steam_id":85568392924470941,"keywords":["cp","nocrits","nodmgspread","uncletopia"],"game_id":440,"stv_port":27026,"stv_name":"Uncletopia | London | 2 | All Maps | STV","players":[{"user_id":248,"name":"m.morhac123","steam_id":76561199202883261,"connected_time":475000000000,"state":"active","ping":65},{"user_id":227,"name":"TSx* Osa__PL","steam_id":76561198027016799,"connected_time":1857000000000,"state":"active","ping":76},{"user_id":249,"name":"Inky (She)","steam_id":76561198334042273,"connected_time":473000000000,"state":"active","ping":51},{"user_id":250,"name":"kornetov.vitalya","steam_id":76561199286034833,"connected_time":346000000000,"state":"active","ping":97},{"user_id":254,"name":"everywhere at the end of tf2","steam_id":76561198136163720,"connected_time":30000000000,"state":"active","ping":62},{"user_id":207,"name":"The legendery balls","steam_id":76561199139344747,"connected_time":3414000000000,"state":"active","ping":100},{"user_id":199,"name":"Artakir","steam_id":76561198291746440,"connected_time":3824000000000,"state":"active","ping":84},{"user_id":208,"name":"lordd2647","steam_id":76561199433534405,"connected_time":3414000000000,"state":"active","ping":68},{"user_id":255,"name":"Scourge","steam_id":76561199499987707,"connected_time":22000000000,"state":"active","ping":72},{"user_id":256,"name":"soil.dirt.earth","steam_id":76561198014377623,"connected_time":9000000000,"state":"active","ping":39},{"user_id":228,"name":"TSx* {Demon-Angel}","steam_id":76561198151486463,"connected_time":1839000000000,"state":"active","ping":86},{"user_id":229,"name":"Balls","steam_id":76561198086400484,"connected_time":1819000000000,"state":"active","ping":59},{"user_id":252,"name":"Taska","steam_id":76561198807325888,"connected_time":196000000000,"state":"active","ping":94},{"user_id":240,"name":"Tavish","steam_id":76561197971486686,"connected_time":1453000000000,"state":"active","ping":45},{"user_id":217,"name":"Skelet","steam_id":76561198051685232,"connected_time":3045000000000,"state":"active","ping":45},{"user_id":244,"name":"orange","steam_id":76561198153181940,"connected_time":1166000000000,"state":"active","ping":55},{"user_id":238,"name":"TSx* EmperoT","steam_id":76561198018656942,"connected_time":1560000000000,"state":"active","ping":90},{"user_id":233,"name":"TSx* Bargal","steam_id":76561198040266872,"connected_time":1717000000000,"state":"active","ping":83},{"user_id":251,"name":"Epickario","steam_id":76561199068338969,"connected_time":286000000000,"state":"active","ping":53},{"user_id":201,"name":"LILY-CHAN","steam_id":76561198035085893,"connected_time":3797000000000,"state":"active","ping":94},{"user_id":246,"name":"stickurr","steam_id":76561198089536805,"connected_time":766000000000,"state":"active","ping":42}]},{"server_id":320,"name":"Uncletopia | London | 3 | All Maps","name_short":"lon-3","host":"lon-1.uk.uncletopia.com","port":27035,"enabled":true,"region":"eu","cc":"gb","latitude":51.509865,"longitude":-0.118092,"reserved":0,"last_update":"0001-01-01T00:00:00Z","name_a2s":"Uncletopia | London | 3 | All Maps","protocol":17,"map":"pl_borneo","folder":"tf","game":"Team Fortress","app_id":440,"player_count":24,"max_players":24,"Bots":0,"server_type":"Dedicated","server_os":"Linux","password":true,"vac":true,"version":"7961495","steam_id":85568392924510192,"keywords":["nocrits","nodmgspread","payload","uncletopia"],"game_id":440,"stv_port":27036,"stv_name":"Uncletopia | London | 3 | All Maps | STV","players":[{"user_id":621,"name":"snayke","steam_id":76561198077822932,"connected_time":527000000000,"state":"active","ping":72},{"user_id":620,"name":"I sell exotic parrots","steam_id":76561199192434258,"connected_time":553000000000,"state":"active","ping":90},{"user_id":624,"name":"Dispenser(Dispenser)","steam_id":76561199211831658,"connected_time":473000000000,"state":"active","ping":55},{"user_id":597,"name":"Hotdogs","steam_id":76561199112737347,"connected_time":1996000000000,"state":"active","ping":66},{"user_id":612,"name":"Dan Dan the Furious","steam_id":76561198091032527,"connected_time":1570000000000,"state":"active","ping":49},{"user_id":576,"name":"–∫—Å—é—à–∞","steam_id":76561199149307190,"connected_time":3380000000000,"state":"active","ping":80},{"user_id":599,"name":"Sir Crust","steam_id":76561199122077146,"connected_time":1988000000000,"state":"active","ping":57},{"user_id":615,"name":"Bronchius Bonehead","steam_id":76561198133961416,"connected_time":1433000000000,"state":"active","ping":45},{"user_id":613,"name":"sin","steam_id":76561198193416785,"connected_time":1478000000000,"state":"active","ping":42},{"user_id":562,"name":"cheese_man_","steam_id":76561198086617728,"connected_time":4053000000000,"state":"active","ping":61},{"user_id":618,"name":"Techpriest Mosk","steam_id":76561198808788406,"connected_time":1022000000000,"state":"active","ping":93},{"user_id":570,"name":"night.s","steam_id":76561198326287823,"connected_time":3792000000000,"state":"active","ping":72},{"user_id":623,"name":"Silver","steam_id":76561198175238807,"connected_time":512000000000,"state":"active","ping":51},{"user_id":582,"name":"Indomitable Truck-sama","steam_id":76561198826861582,"connected_time":3092000000000,"state":"active","ping":59},{"user_id":617,"name":"Tort","steam_id":76561198329646769,"connected_time":1173000000000,"state":"active","ping":56},{"user_id":611,"name":"Falafel","steam_id":76561198043344845,"connected_time":1714000000000,"state":"active","ping":55},{"user_id":543,"name":"Personano","steam_id":76561198994355577,"connected_time":4814000000000,"state":"active","ping":46},{"user_id":605,"name":"Weeb exterminator","steam_id":76561198078964973,"connected_time":1884000000000,"state":"active","ping":76},{"user_id":606,"name":"Gbus","steam_id":76561198072335838,"connected_time":1884000000000,"state":"active","ping":56},{"user_id":574,"name":"giclure :;","steam_id":76561197986362828,"connected_time":3417000000000,"state":"active","ping":78},{"user_id":607,"name":"BadFemboy","steam_id":76561198072320671,"connected_time":1857000000000,"state":"active","ping":35},{"user_id":608,"name":"bigger chungus","steam_id":76561198122814249,"connected_time":1853000000000,"state":"active","ping":45},{"user_id":619,"name":"Ling-Ling","steam_id":76561197989253579,"connected_time":848000000000,"state":"active","ping":73},{"user_id":626,"name":"Snowingle","steam_id":76561199222526482,"connected_time":142000000000,"state":"active","ping":92}]},{"server_id":321,"name":"Uncletopia | London | 4 | All Maps","name_short":"lon-4","host":"lon-1.uk.uncletopia.com","port":27045,"enabled":true,"region":"eu","cc":"gb","latitude":51.509865,"longitude":-0.118092,"reserved":0,"last_update":"0001-01-01T00:00:00Z","name_a2s":"Uncletopia | London | 4 | All Maps","protocol":17,"map":"cp_process_final","folder":"tf","game":"Team Fortress","app_id":440,"player_count":0,"max_players":24,"Bots":0,"server_type":"Dedicated","server_os":"Linux","password":true,"vac":true,"version":"7961495","steam_id":85568392924510193,"keywords":["cp","nocrits","nodmgspread","uncletopia"],"game_id":440,"stv_port":27046,"stv_name":"Uncletopia | London | 4 | All Maps | STV","players":null},{"server_id":21,"name":"Uncletopia | London | 5 | All Maps","name_short":"lon-5","host":"lon-1.uk.uncletopia.com","port":27055,"enabled":true,"region":"eu","cc":"gb","latitude":51.509865,"longitude":-0.118092,"reserved":0,"last_update":"0001-01-01T00:00:00Z","name_a2s":"Uncletopia | London | 5 | All Maps","protocol":17,"map":"cp_sunshine","folder":"tf","game":"Team Fortress","app_id":440,"player_count":22,"max_players":24,"Bots":0,"server_type":"Dedicated","server_os":"Linux","password":true,"vac":true,"version":"7961495","steam_id":85568392924742829,"keywords":["cp","nocrits","nodmgspread","uncletopia"],"game_id":440,"stv_port":27056,"stv_name":"Uncletopia | London | 5 | All Maps | STV","players":[{"user_id":433,"name":"Bobirulez","steam_id":76561198009125458,"connected_time":4546000000000,"state":"connecting","ping":88},{"user_id":458,"name":"hasky","steam_id":76561197986052798,"connected_time":2063000000000,"state":"connecting","ping":76},{"user_id":424,"name":"I am on the TF2 Scoreboard...","steam_id":76561198043850884,"connected_time":5414000000000,"state":"connecting","ping":49},{"user_id":443,"name":"cinny","steam_id":76561198832112629,"connected_time":4064000000000,"state":"connecting","ping":115},{"user_id":391,"name":"Edsuedi","steam_id":76561198074722832,"connected_time":7916000000000,"state":"connecting","ping":85},{"user_id":460,"name":"crit hit!","steam_id":76561198112693639,"connected_time":1785000000000,"state":"spawning","ping":50},{"user_id":463,"name":"heavy sings (real)","steam_id":76561199023804405,"connected_time":1667000000000,"state":"connecting","ping":92},{"user_id":469,"name":"niandits","steam_id":76561198419798900,"connected_time":96000000000,"state":"connecting","ping":463},{"user_id":423,"name":"Bajas","steam_id":76561198179339326,"connected_time":5452000000000,"state":"connecting","ping":102},{"user_id":390,"name":"RAT BASTARD","steam_id":76561199195985387,"connected_time":7934000000000,"state":"connecting","ping":119},{"user_id":471,"name":"Wandering Thyme","steam_id":76561198289245081,"connected_time":35000000000,"state":"connecting","ping":84},{"user_id":466,"name":"Nithle","steam_id":76561198025372740,"connected_time":939000000000,"state":"connecting","ping":41},{"user_id":411,"name":"medick","steam_id":76561199380849468,"connected_time":6991000000000,"state":"spawning","ping":83},{"user_id":456,"name":"I Love Filtered Water","steam_id":76561198016042113,"connected_time":2283000000000,"state":"connecting","ping":98},{"user_id":462,"name":"generic alias","steam_id":76561198271607226,"connected_time":1692000000000,"state":"connecting","ping":93},{"user_id":373,"name":"TranvesTito","steam_id":76561198140034262,"connected_time":8959000000000,"state":"connecting","ping":83},{"user_id":468,"name":"Amy2Cute","steam_id":76561198291015553,"connected_time":537000000000,"state":"connecting","ping":56},{"user_id":436,"name":"Solymr ibn Wali Barad","steam_id":76561198044008976,"connected_time":4483000000000,"state":"spawning","ping":71},{"user_id":464,"name":"etc","steam_id":76561197998394797,"connected_time":1128000000000,"state":"connecting","ping":77},{"user_id":450,"name":"Fat Pigeon","steam_id":76561198817940142,"connected_time":3044000000000,"state":"connecting","ping":61},{"user_id":438,"name":"Blar","steam_id":76561198042438229,"connected_time":4379000000000,"state":"connecting","ping":72}]},{"server_id":22,"name":"Uncletopia | London | 6 | All Maps","name_short":"lon-6","host":"lon-1.uk.uncletopia.com","port":27065,"enabled":true,"region":"eu","cc":"gb","latitude":51.509865,"longitude":-0.118092,"reserved":0,"last_update":"0001-01-01T00:00:00Z","name_a2s":"Uncletopia | London | 6 | All Maps","protocol":17,"map":"pl_pier","folder":"tf","game":"Team Fortress","app_id":440,"player_count":23,"max_players":24,"Bots":0,"server_type":"Dedicated","server_os":"Linux","password":true,"vac":true,"version":"7961495","steam_id":85568392924742830,"keywords":["nocrits","nodmgspread","payload","uncletopia"],"game_id":440,"stv_port":27066,"stv_name":"Uncletopia | London | 6 | All Maps | STV","players":[{"user_id":192,"name":"Toca","steam_id":76561198039582547,"connected_time":213000000000,"state":"active","ping":61},{"user_id":193,"name":"Gillusion","steam_id":76561198138818087,"connected_time":195000000000,"state":"active","ping":45},{"user_id":169,"name":"gitlitwitit","steam_id":76561197980019054,"connected_time":1238000000000,"state":"active","ping":62},{"user_id":156,"name":"Mizobau","steam_id":76561198965211894,"connected_time":1576000000000,"state":"active","ping":54},{"user_id":157,"name":"Milo","steam_id":76561198196027434,"connected_time":1501000000000,"state":"active","ping":59},{"user_id":159,"name":"KEYMASTER","steam_id":76561199053214638,"connected_time":1485000000000,"state":"active","ping":56},{"user_id":166,"name":"armadillo","steam_id":76561198324656652,"connected_time":1414000000000,"state":"active","ping":52},{"user_id":160,"name":"GG riser","steam_id":76561198279621400,"connected_time":1485000000000,"state":"active","ping":94},{"user_id":161,"name":"kluri","steam_id":76561198084518962,"connected_time":1481000000000,"state":"active","ping":75},{"user_id":188,"name":"Stuid","steam_id":76561199427506542,"connected_time":355000000000,"state":"active","ping":81},{"user_id":163,"name":"Warrior555MainsGanon","steam_id":76561198388627786,"connected_time":1476000000000,"state":"active","ping":67},{"user_id":165,"name":"Dani√´l","steam_id":76561198996312923,"connected_time":1447000000000,"state":"active","ping":48},{"user_id":198,"name":"Akis—è–Ω","steam_id":76561198078706435,"connected_time":132000000000,"state":"active","ping":82},{"user_id":189,"name":"SissifiedBlackGuy","steam_id":76561199509261527,"connected_time":326000000000,"state":"active","ping":112},{"user_id":200,"name":"chloeb","steam_id":76561198418335426,"connected_time":25000000000,"state":"spawning","ping":49},{"user_id":170,"name":"Thehold","steam_id":76561198246776640,"connected_time":1226000000000,"state":"active","ping":109},{"user_id":184,"name":"Mr. Hunts","steam_id":76561197981910397,"connected_time":635000000000,"state":"active","ping":66},{"user_id":197,"name":"femboy swaggot","steam_id":76561199509191236,"connected_time":137000000000,"state":"active","ping":154},{"user_id":195,"name":"fl1p","steam_id":76561198148565659,"connected_time":174000000000,"state":"active","ping":75},{"user_id":185,"name":"Big Mean Muther Hubbard","steam_id":76561199223016965,"connected_time":594000000000,"state":"active","ping":41},{"user_id":186,"name":"Hero + Rico","steam_id":76561198023844754,"connected_time":575000000000,"state":"active","ping":63},{"user_id":199,"name":"vurtun","steam_id":76561198857395274,"connected_time":128000000000,"state":"active","ping":58},{"user_id":180,"name":"wavelength","steam_id":76561198154677956,"connected_time":806000000000,"state":"active","ping":84}]},{"server_id":40,"name":"Uncletopia | London | 7 | Stopwatch","name_short":"lon-7","host":"lon-1.uk.uncletopia.com","port":27075,"enabled":true,"region":"eu","cc":"gb","latitude":51.509865,"longitude":-0.118092,"reserved":0,"last_update":"0001-01-01T00:00:00Z","name_a2s":"Uncletopia | London | 7 | Stopwatch","protocol":17,"map":"cp_granary","folder":"tf","game":"Team Fortress","app_id":440,"player_count":0,"max_players":24,"Bots":0,"server_type":"Dedicated","server_os":"Linux","password":true,"vac":true,"version":"7961495","steam_id":85568392924964314,"keywords":["cp","nocrits","nodmgspread","uncletopia"],"game_id":440,"stv_port":27076,"stv_name":"Uncletopia | London | 7 | Stopwatch | STV","players":null},{"server_id":41,"name":"Uncletopia | London | 8 | Community","name_short":"lon-8","host":"lon-1.uk.uncletopia.com","port":27085,"enabled":true,"region":"eu","cc":"gb","latitude":51.509865,"longitude":-0.118092,"reserved":0,"last_update":"0001-01-01T00:00:00Z","name_a2s":"Uncletopia | London | 8 | Community","protocol":17,"map":"workshop/rd_asteroid_redux_b1.ugc2154902912","folder":"tf","game":"Team Fortress","app_id":440,"player_count":0,"max_players":24,"Bots":0,"server_type":"Dedicated","server_os":"Linux","password":true,"vac":true,"version":"7961495","steam_id":85568392924964315,"keywords":["beta","nocrits","nodmgspread","rd","uncletopia"],"game_id":440,"stv_port":27086,"stv_name":"Uncletopia | London | 8 | Community | STV","players":null},{"server_id":300,"name":"Uncletopia | Montr√©al | 1 | One Thousand Uncles","name_short":"mtl-1","host":"mtl-1.ca.uncletopia.com","port":27015,"enabled":true,"region":"us-east","cc":"ca","latitude":45.50889,"longitude":-73.56167,"reserved":0,"last_update":"0001-01-01T00:00:00Z","name_a2s":"Uncletopia | Montr√©al | 1 | One Thousand Uncles","protocol":17,"map":"pl_thundermountain","folder":"tf","game":"Team Fortress","app_id":440,"player_count":30,"max_players":32,"Bots":20,"server_type":"Dedicated","server_os":"Linux","password":true,"vac":true,"version":"7961495","steam_id":85568392924500087,"keywords":["alltalk","bots","danepve","increased_maxplayers","norespawntime","payload","uncletopia"],"game_id":440,"stv_port":0,"stv_name":"","players":[{"user_id":156,"name":"puffy","steam_id":76561198411347037,"connected_time":5590000000000,"state":"active","ping":59},{"user_id":172,"name":"Linkal_","steam_id":76561199122836553,"connected_time":1324000000000,"state":"active","ping":131},{"user_id":169,"name":"Femboy Gaming","steam_id":76561199382783363,"connected_time":2614000000000,"state":"active","ping":92},{"user_id":170,"name":"Ak","steam_id":76561199333659458,"connected_time":2609000000000,"state":"active","ping":105},{"user_id":174,"name":"Canadianwarrior","steam_id":76561198994799113,"connected_time":1181000000000,"state":"active","ping":76},{"user_id":164,"name":"St. Arnold of Soissons","steam_id":76561197974133892,"connected_time":3713000000000,"state":"active","ping":69},{"user_id":166,"name":"meme_lad21","steam_id":76561199229567068,"connected_time":3503000000000,"state":"active","ping":93},{"user_id":176,"name":"Krabiukas","steam_id":76561198190664759,"connected_time":911000000000,"state":"active","ping":144},{"user_id":177,"name":"üå∏O L I V I Aüå∏","steam_id":76561198321854032,"connected_time":769000000000,"state":"active","ping":84},{"user_id":178,"name":"LeFunnyMan","steam_id":76561199081645289,"connected_time":645000000000,"state":"active","ping":85}]},{"server_id":301,"name":"Uncletopia | Montr√©al | 2 | One Thousand Uncles","name_short":"mtl-2","host":"mtl-1.ca.uncletopia.com","port":27025,"enabled":true,"region":"us-east","cc":"ca","latitude":45.50889,"longitude":-73.56167,"reserved":0,"last_update":"0001-01-01T00:00:00Z","name_a2s":"Uncletopia | Montr√©al | 2 | One Thousand Uncles","protocol":17,"map":"cp_mossrock","folder":"tf","game":"Team Fortress","app_id":440,"player_count":0,"max_players":32,"Bots":0,"server_type":"Dedicated","server_os":"Linux","password":true,"vac":true,"version":"7961495","steam_id":85568392924500088,"keywords":["alltalk","cp","danepve","increased_maxplayers","norespawntime","uncletopia"],"game_id":440,"stv_port":0,"stv_name":"","players":null},{"server_id":302,"name":"Uncletopia | Montr√©al | 3 | One Thousand Uncles","name_short":"mtl-3","host":"mtl-1.ca.uncletopia.com","port":27035,"enabled":true,"region":"us-east","cc":"ca","latitude":45.50889,"longitude":-73.56167,"reserved":0,"last_update":"0001-01-01T00:00:00Z","name_a2s":"Uncletopia | Montr√©al | 3 | One Thousand Uncles","protocol":17,"map":"pl_pier","folder":"tf","game":"Team Fortress","app_id":440,"player_count":0,"max_players":32,"Bots":0,"server_type":"Dedicated","server_os":"Linux","password":true,"vac":true,"version":"7961495","steam_id":85568392924500089,"keywords":["alltalk","danepve","increased_maxplayers","norespawntime","payload","uncletopia"],"game_id":440,"stv_port":0,"stv_name":"","players":null},{"server_id":13,"name":"Uncletopia | New York City | 1 | All Maps","name_short":"nyc-1","host":"nyc-1.us.uncletopia.com","port":27015,"enabled":true,"region":"us-east","cc":"us","latitude":40.73061,"longitude":-73.93524,"reserved":0,"last_update":"0001-01-01T00:00:00Z","name_a2s":"Uncletopia | New York City | 1 | All Maps","protocol":17,"map":"pl_snowycoast","folder":"tf","game":"Team Fortress","app_id":440,"player_count":23,"max_players":24,"Bots":0,"server_type":"Dedicated","server_os":"Linux","password":true,"vac":true,"version":"7961495","steam_id":85568392924469993,"keywords":["nocrits","nodmgspread","payload","uncletopia"],"game_id":440,"stv_port":27016,"stv_name":"Uncletopia | New York City | 1 | All Maps | STV","players":[{"user_id":285,"name":"TransSatanic, Artist Arc","steam_id":76561198080212467,"connected_time":693000000000,"state":"active","ping":93},{"user_id":290,"name":"Nixon Me, Dixon Me","steam_id":76561198126519537,"connected_time":543000000000,"state":"active","ping":55},{"user_id":287,"name":"melon soda","steam_id":76561198066748230,"connected_time":665000000000,"state":"active","ping":53},{"user_id":280,"name":"Mikael_01","steam_id":76561199080253129,"connected_time":834000000000,"state":"active","ping":168},{"user_id":269,"name":"King","steam_id":76561198444100295,"connected_time":1943000000000,"state":"active","ping":180},{"user_id":296,"name":"G4BHUB","steam_id":76561199151564991,"connected_time":297000000000,"state":"active","ping":67},{"user_id":298,"name":"TOTALLY HARDCORE","steam_id":76561198842311643,"connected_time":265000000000,"state":"active","ping":86},{"user_id":295,"name":"Dr. Silk","steam_id":76561198331488181,"connected_time":314000000000,"state":"active","ping":72},{"user_id":291,"name":"Nixon's the One","steam_id":76561198046688278,"connected_time":538000000000,"state":"active","ping":83},{"user_id":275,"name":"non professional nouns.","steam_id":76561198294013916,"connected_time":1358000000000,"state":"active","ping":45},{"user_id":250,"name":"Reflector","steam_id":76561198078999855,"connected_time":3397000000000,"state":"active","ping":84},{"user_id":302,"name":"HI_THERE","steam_id":76561198436389409,"connected_time":93000000000,"state":"active","ping":58},{"user_id":288,"name":"VoldyTheMoldy","steam_id":76561198845502915,"connected_time":634000000000,"state":"active","ping":54},{"user_id":303,"name":"Herb","steam_id":76561198330311949,"connected_time":6000000000,"state":"spawning","ping":59},{"user_id":289,"name":"vvichael","steam_id":76561198238148528,"connected_time":592000000000,"state":"active","ping":55},{"user_id":292,"name":"comet sooicidy","steam_id":76561198025173479,"connected_time":480000000000,"state":"active","ping":77},{"user_id":263,"name":"cyrus!","steam_id":76561198344500089,"connected_time":2175000000000,"state":"active","ping":63},{"user_id":300,"name":"Klitz Penischmidt(DRUNK)","steam_id":76561198050582941,"connected_time":189000000000,"state":"active","ping":70},{"user_id":265,"name":"samingames1234","steam_id":76561198394112052,"connected_time":2078000000000,"state":"active","ping":59},{"user_id":301,"name":"Rat Queen Emily","steam_id":76561198232446788,"connected_time":187000000000,"state":"active","ping":61},{"user_id":272,"name":"Flare rust mode","steam_id":76561198048291891,"connected_time":1907000000000,"state":"active","ping":57},{"user_id":273,"name":"Just A Dum Human","steam_id":76561198802442860,"connected_time":1902000000000,"state":"active","ping":148},{"user_id":215,"name":"the keebler","steam_id":76561199486326945,"connected_time":6463000000000,"state":"active","ping":70}]},{"server_id":14,"name":"Uncletopia | New York City | 2 | All Maps","name_short":"nyc-2","host":"nyc-1.us.uncletopia.com","port":27025,"enabled":true,"region":"us-east","cc":"us","latitude":40.73061,"longitude":-73.93524,"reserved":0,"last_update":"0001-01-01T00:00:00Z","name_a2s":"Uncletopia | New York City | 2 | All Maps","protocol":17,"map":"pl_thundermountain","folder":"tf","game":"Team Fortress","app_id":440,"player_count":24,"max_players":24,"Bots":0,"server_type":"Dedicated","server_os":"Linux","password":true,"vac":true,"version":"7961495","steam_id":85568392924469994,"keywords":["nocrits","nodmgspread","payload","uncletopia"],"game_id":440,"stv_port":27026,"stv_name":"Uncletopia | New York City | 2 | All Maps | STV","players":[{"user_id":237,"name":"defund teachers salaries","steam_id":76561199107134575,"connected_time":3002000000000,"state":"active","ping":94},{"user_id":245,"name":"emotional suppport e-cigarette","steam_id":76561198172120615,"connected_time":2728000000000,"state":"active","ping":40},{"user_id":204,"name":"Pixeled","steam_id":76561198088917077,"connected_time":4595000000000,"state":"active","ping":91},{"user_id":231,"name":"Slime Rancher 2 Enjoyer","steam_id":76561199171272762,"connected_time":3200000000000,"state":"active","ping":69},{"user_id":262,"name":"Nick","steam_id":76561198056346810,"connected_time":1526000000000,"state":"active","ping":65},{"user_id":233,"name":"Timmy The Tyrant","steam_id":76561199156409732,"connected_time":3103000000000,"state":"active","ping":110},{"user_id":270,"name":"Vin","steam_id":76561198043601929,"connected_time":560000000000,"state":"active","ping":130},{"user_id":258,"name":"Officer_Party","steam_id":76561199013077337,"connected_time":2024000000000,"state":"active","ping":109},{"user_id":278,"name":"TheTankerofCaptins","steam_id":76561198276150712,"connected_time":219000000000,"state":"active","ping":82},{"user_id":225,"name":"..!","steam_id":76561198882483441,"connected_time":3714000000000,"state":"active","ping":67},{"user_id":281,"name":"Teamfortressfunnymomments#5","steam_id":76561198971629959,"connected_time":50000000000,"state":"active","ping":149},{"user_id":223,"name":"Chord","steam_id":76561198110874021,"connected_time":3856000000000,"state":"active","ping":71},{"user_id":194,"name":"Xx_gam3rberg_xX","steam_id":76561199035781025,"connected_time":4979000000000,"state":"active","ping":54},{"user_id":279,"name":"Eblizard","steam_id":76561198111481965,"connected_time":156000000000,"state":"active","ping":78},{"user_id":280,"name":"aidenldavid14","steam_id":76561199161290448,"connected_time":145000000000,"state":"spawning","ping":186},{"user_id":273,"name":"Legit_Jaxer","steam_id":76561198172234053,"connected_time":489000000000,"state":"active","ping":129},{"user_id":274,"name":"KT","steam_id":76561198159614832,"connected_time":463000000000,"state":"active","ping":124},{"user_id":267,"name":"dadgummit","steam_id":76561198005806915,"connected_time":1209000000000,"state":"active","ping":68},{"user_id":264,"name":"YOU WHAT?!","steam_id":76561198418679471,"connected_time":1504000000000,"state":"active","ping":57},{"user_id":275,"name":"alcovenant","steam_id":76561198066247487,"connected_time":399000000000,"state":"active","ping":47},{"user_id":249,"name":"Vince Offer","steam_id":76561198991008825,"connected_time":2462000000000,"state":"active","ping":72},{"user_id":276,"name":"Oni","steam_id":76561198112066584,"connected_time":366000000000,"state":"active","ping":79},{"user_id":277,"name":"SGA","steam_id":76561198832172648,"connected_time":323000000000,"state":"active","ping":41},{"user_id":253,"name":"Menace to Sobriety","steam_id":76561198245103000,"connected_time":2318000000000,"state":"active","ping":53}]},{"server_id":15,"name":"Uncletopia | New York City | 3 | Stopwatch","name_short":"nyc-3","host":"nyc-1.us.uncletopia.com","port":27035,"enabled":true,"region":"us-east","cc":"us","latitude":40.73061,"longitude":-73.93524,"reserved":0,"last_update":"0001-01-01T00:00:00Z","name_a2s":"Uncletopia | New York City | 3 | Stopwatch","protocol":17,"map":"pl_upward","folder":"tf","game":"Team Fortress","app_id":440,"player_count":0,"max_players":24,"Bots":0,"server_type":"Dedicated","server_os":"Linux","password":true,"vac":true,"version":"7961495","steam_id":85568392924742820,"keywords":["nocrits","nodmgspread","payload","uncletopia"],"game_id":440,"stv_port":27036,"stv_name":"Uncletopia | New York City | 3 | Stopwatch | STV","players":null},{"server_id":16,"name":"Uncletopia | New York City | 4 | Community","name_short":"nyc-4","host":"nyc-1.us.uncletopia.com","port":27045,"enabled":true,"region":"us-east","cc":"us","latitude":40.73061,"longitude":-73.93524,"reserved":0,"last_update":"0001-01-01T00:00:00Z","name_a2s":"Uncletopia | New York City | 4 | Community","protocol":17,"map":"workshop/pl_shoreleave_rc2.ugc1238849347","folder":"tf","game":"Team Fortress","app_id":440,"player_count":0,"max_players":24,"Bots":0,"server_type":"Dedicated","server_os":"Linux","password":true,"vac":true,"version":"7961495","steam_id":85568392924742821,"keywords":["nocrits","nodmgspread","payload","uncletopia"],"game_id":440,"stv_port":27046,"stv_name":"Uncletopia | New York City | 4 | Community | STV","players":null},{"server_id":142,"name":"Uncletopia | S√£o Paulo | 1 | All Maps","name_short":"sao-1","host":"sao-1.br.uncletopia.com","port":27015,"enabled":true,"region":"sa","cc":"br","latitude":-23.533773,"longitude":-46.62529,"reserved":0,"last_update":"0001-01-01T00:00:00Z","name_a2s":"Uncletopia | S√£o Paulo | 1 | All Maps","protocol":17,"map":"koth_viaduct","folder":"tf","game":"Team Fortress","app_id":440,"player_count":6,"max_players":24,"Bots":0,"server_type":"Dedicated","server_os":"Linux","password":true,"vac":true,"version":"7961495","steam_id":85568392924469996,"keywords":["cp","nocrits","nodmgspread","uncletopia"],"game_id":440,"stv_port":27016,"stv_name":"Uncletopia | S√£o Paulo | 1 | All Maps | STV","players":[{"user_id":64,"name":"eles pegaram minha maconha","steam_id":76561199359501901,"connected_time":1555000000000,"state":"active","ping":32},{"user_id":66,"name":"opapa4733","steam_id":76561199490378877,"connected_time":1101000000000,"state":"active","ping":76},{"user_id":67,"name":"where did you go","steam_id":76561198075144814,"connected_time":973000000000,"state":"active","ping":55},{"user_id":69,"name":"cezar","steam_id":76561198426484905,"connected_time":196000000000,"state":"active","ping":50},{"user_id":70,"name":"Apollyon Delta","steam_id":76561198354828595,"connected_time":176000000000,"state":"active","ping":50}]},{"server_id":143,"name":"Uncletopia | S√£o Paulo | 2 | Community","name_short":"sao-2","host":"sao-2.br.uncletopia.com","port":27015,"enabled":true,"region":"sa","cc":"br","latitude":-23.533773,"longitude":-46.62529,"reserved":0,"last_update":"0001-01-01T00:00:00Z","name_a2s":"Uncletopia | S√£o Paulo | 2 | Community","protocol":17,"map":"workshop/koth_slaughter_rc1.ugc1712845210","folder":"tf","game":"Team Fortress","app_id":440,"player_count":0,"max_players":24,"Bots":0,"server_type":"Dedicated","server_os":"Linux","password":true,"vac":true,"version":"7961495","steam_id":85568392924485349,"keywords":["cp","nocrits","nodmgspread","uncletopia"],"game_id":440,"stv_port":27016,"stv_name":"Uncletopia | S√£o Paulo | 2 | Community | STV","players":null},{"server_id":7,"name":"Uncletopia | Seattle | 1 | All Maps","name_short":"sea-1","host":"sea-1.us.uncletopia.com","port":27015,"enabled":true,"region":"us-west","cc":"us","latitude":47.608013,"longitude":-122.33517,"reserved":0,"last_update":"0001-01-01T00:00:00Z","name_a2s":"Uncletopia | Seattle | 1 | All Maps","protocol":17,"map":"pl_badwater","folder":"tf","game":"Team Fortress","app_id":440,"player_count":14,"max_players":24,"Bots":0,"server_type":"Dedicated","server_os":"Linux","password":true,"vac":true,"version":"7961495","steam_id":85568392924469997,"keywords":["nocrits","nodmgspread","payload","uncletopia"],"game_id":440,"stv_port":27016,"stv_name":"Uncletopia | Seattle | 1 | All Maps | STV","players":[{"user_id":23,"name":"DrBurpDerp","steam_id":76561199204298474,"connected_time":1281000000000,"state":"active","ping":77},{"user_id":40,"name":"TheChosenOne","steam_id":76561199087866267,"connected_time":40000000000,"state":"active","ping":76},{"user_id":26,"name":"Kawaiiestboi","steam_id":76561198182178703,"connected_time":886000000000,"state":"active","ping":48},{"user_id":27,"name":"Sailor","steam_id":76561199081983517,"connected_time":547000000000,"state":"active","ping":82},{"user_id":28,"name":"Hazel :3","steam_id":76561199247095754,"connected_time":482000000000,"state":"active","ping":69},{"user_id":29,"name":"Costco Executive Member","steam_id":76561197996284353,"connected_time":475000000000,"state":"active","ping":71},{"user_id":33,"name":"ocean Backwards","steam_id":76561199246614260,"connected_time":248000000000,"state":"active","ping":58},{"user_id":32,"name":"[TrC] Dackstrus","steam_id":76561197973518509,"connected_time":356000000000,"state":"active","ping":50},{"user_id":34,"name":"East","steam_id":76561197973050453,"connected_time":188000000000,"state":"active","ping":43},{"user_id":41,"name":"jer","steam_id":76561198148235230,"connected_time":21000000000,"state":"active","ping":86},{"user_id":36,"name":"PhD Flopper","steam_id":76561198961051809,"connected_time":138000000000,"state":"active","ping":94},{"user_id":37,"name":"Pie Eater 9000","steam_id":76561198003791564,"connected_time":129000000000,"state":"active","ping":124},{"user_id":38,"name":"fish","steam_id":76561198401800919,"connected_time":117000000000,"state":"active","ping":104},{"user_id":39,"name":"SmiteSight","steam_id":76561199122315920,"connected_time":108000000000,"state":"active","ping":63}]},{"server_id":119,"name":"Uncletopia | Seattle | 2 | All Maps","name_short":"sea-2","host":"sea-1.us.uncletopia.com","port":27025,"enabled":true,"region":"us-west","cc":"us","latitude":47.608013,"longitude":-122.33517,"reserved":0,"last_update":"0001-01-01T00:00:00Z","name_a2s":"Uncletopia | Seattle | 2 | All Maps","protocol":17,"map":"cp_mountainlab","folder":"tf","game":"Team Fortress","app_id":440,"player_count":0,"max_players":24,"Bots":0,"server_type":"Dedicated","server_os":"Linux","password":true,"vac":true,"version":"7961495","steam_id":85568392924469998,"keywords":["cp","nocrits","nodmgspread","uncletopia"],"game_id":440,"stv_port":27026,"stv_name":"Uncletopia | Seattle | 2 | All Maps | STV","players":null},{"server_id":406,"name":"Uncletopia | Seattle | 3 | Stopwatch","name_short":"sea-3","host":"sea-1.us.uncletopia.com","port":27035,"enabled":true,"region":"us-west","cc":"us","latitude":47.608013,"longitude":-122.33517,"reserved":0,"last_update":"0001-01-01T00:00:00Z","name_a2s":"Uncletopia | Seattle | 3 | Stopwatch","protocol":17,"map":"cp_gullywash_final1","folder":"tf","game":"Team Fortress","app_id":440,"player_count":0,"max_players":24,"Bots":0,"server_type":"Dedicated","server_os":"Linux","password":true,"vac":true,"version":"7961495","steam_id":85568392924515217,"keywords":["cp","nocrits","nodmgspread","uncletopia"],"game_id":440,"stv_port":27036,"stv_name":"Uncletopia | Seattle | 3 | Stopwatch | STV","players":null},{"server_id":17,"name":"Uncletopia | San Francisco | 1 | All Maps","name_short":"sfo-1","host":"sfo-1.us.uncletopia.com","port":27015,"enabled":true,"region":"us-west","cc":"us","latitude":37.77397,"longitude":-122.4313,"reserved":0,"last_update":"0001-01-01T00:00:00Z","name_a2s":"Uncletopia | San Francisco | 1 | All Maps","protocol":17,"map":"pl_pier","folder":"tf","game":"Team Fortress","app_id":440,"player_count":0,"max_players":24,"Bots":0,"server_type":"Dedicated","server_os":"Linux","password":true,"vac":true,"version":"7961495","steam_id":85568392924469999,"keywords":["nocrits","nodmgspread","payload","uncletopia"],"game_id":440,"stv_port":27016,"stv_name":"Uncletopia | San Francisco | 1 | All Maps | STV","players":null},{"server_id":18,"name":"Uncletopia | San Francisco | 2 | All Maps","name_short":"sfo-2","host":"sfo-1.us.uncletopia.com","port":27025,"enabled":true,"region":"us-west","cc":"us","latitude":37.77397,"longitude":-122.4313,"reserved":0,"last_update":"0001-01-01T00:00:00Z","name_a2s":"Uncletopia | San Francisco | 2 | All Maps","protocol":17,"map":"pl_hoodoo_final","folder":"tf","game":"Team Fortress","app_id":440,"player_count":0,"max_players":24,"Bots":0,"server_type":"Dedicated","server_os":"Linux","password":true,"vac":true,"version":"7961495","steam_id":85568392924470000,"keywords":["nocrits","nodmgspread","payload","uncletopia"],"game_id":440,"stv_port":27026,"stv_name":"Uncletopia | San Francisco | 2 | All Maps | STV","players":null},{"server_id":19,"name":"Uncletopia | San Francisco | 3 | Stopwatch","name_short":"sfo-3","host":"sfo-1.us.uncletopia.com","port":27035,"enabled":true,"region":"us-west","cc":"us","latitude":37.77397,"longitude":-122.4313,"reserved":0,"last_update":"0001-01-01T00:00:00Z","name_a2s":"Uncletopia | San Francisco | 3 | Stopwatch","protocol":17,"map":"workshop/koth_clearcut_b15.ugc2107050255","folder":"tf","game":"Team Fortress","app_id":440,"player_count":0,"max_players":24,"Bots":0,"server_type":"Dedicated","server_os":"Linux","password":true,"vac":true,"version":"7961495","steam_id":85568392924742824,"keywords":["cp","nocrits","nodmgspread","uncletopia"],"game_id":440,"stv_port":27036,"stv_name":"Uncletopia | San Francisco | 3 | Stopwatch | STV","players":null},{"server_id":20,"name":"Uncletopia | San Francisco | 4 | Community","name_short":"sfo-4","host":"sfo-1.us.uncletopia.com","port":27045,"enabled":true,"region":"us-west","cc":"us","latitude":37.77397,"longitude":-122.4313,"reserved":0,"last_update":"0001-01-01T00:00:00Z","name_a2s":"Uncletopia | San Francisco | 4 | Community","protocol":17,"map":"workshop/pl_vigil_rc10.ugc1266210012","folder":"tf","game":"Team Fortress","app_id":440,"player_count":0,"max_players":24,"Bots":0,"server_type":"Dedicated","server_os":"Linux","password":true,"vac":true,"version":"7961495","steam_id":85568392924742826,"keywords":["nocrits","nodmgspread","payload","uncletopia"],"game_id":440,"stv_port":27046,"stv_name":"Uncletopia | San Francisco | 4 | Community | STV","players":null},{"server_id":141,"name":"Uncletopia | Sydney | 1 | All Maps","name_short":"syd-1","host":"syd-1.au.uncletopia.com","port":27015,"enabled":true,"region":"au","cc":"au","latitude":-33.865143,"longitude":151.2099,"reserved":0,"last_update":"0001-01-01T00:00:00Z","name_a2s":"Uncletopia | Sydney | 1 | All Maps","protocol":17,"map":"cp_altitude","folder":"tf","game":"Team Fortress","app_id":440,"player_count":0,"max_players":24,"Bots":0,"server_type":"Dedicated","server_os":"Linux","password":true,"vac":true,"version":"7961495","steam_id":85568392924470001,"keywords":["cp","nocrits","nodmgspread","uncletopia"],"game_id":440,"stv_port":27016,"stv_name":"Uncletopia | Sydney | 1 | All Maps | STV","players":null},{"server_id":123,"name":"Uncletopia | Sydney | 2 | All Maps","name_short":"syd-2","host":"syd-1.au.uncletopia.com","port":27025,"enabled":true,"region":"au","cc":"au","latitude":-33.865143,"longitude":151.2099,"reserved":0,"last_update":"0001-01-01T00:00:00Z","name_a2s":"Uncletopia | Sydney | 2 | All Maps","protocol":17,"map":"pl_swiftwater_final1","folder":"tf","game":"Team Fortress","app_id":440,"player_count":0,"max_players":24,"Bots":0,"server_type":"Dedicated","server_os":"Linux","password":true,"vac":true,"version":"7961495","steam_id":85568392924470002,"keywords":["nocrits","nodmgspread","payload","uncletopia"],"game_id":440,"stv_port":27026,"stv_name":"Uncletopia | Sydney | 2 | All Maps | STV","players":null},{"server_id":395,"name":"Uncletopia | Sydney | 3 | All Maps","name_short":"syd-3","host":"syd-1.au.uncletopia.com","port":27035,"enabled":true,"region":"au","cc":"au","latitude":-33.865143,"longitude":151.2099,"reserved":0,"last_update":"0001-01-01T00:00:00Z","name_a2s":"Uncletopia | Sydney | 3 | All Maps","protocol":17,"map":"koth_highpass","folder":"tf","game":"Team Fortress","app_id":440,"player_count":0,"max_players":24,"Bots":0,"server_type":"Dedicated","server_os":"Linux","password":true,"vac":true,"version":"7961495","steam_id":85568392925194467,"keywords":["cp","nocrits","nodmgspread","uncletopia"],"game_id":440,"stv_port":27036,"stv_name":"Uncletopia | Sydney | 3 | All Maps | STV","players":null},{"server_id":396,"name":"Uncletopia | Sydney | 4 | All Maps","name_short":"syd-4","host":"syd-1.au.uncletopia.com","port":27045,"enabled":true,"region":"au","cc":"au","latitude":-33.865143,"longitude":151.2099,"reserved":0,"last_update":"0001-01-01T00:00:00Z","name_a2s":"Uncletopia | Sydney | 4 | All Maps","protocol":17,"map":"koth_cascade","folder":"tf","game":"Team Fortress","app_id":440,"player_count":0,"max_players":24,"Bots":0,"server_type":"Dedicated","server_os":"Linux","password":true,"vac":true,"version":"7961495","steam_id":85568392925397958,"keywords":["cp","nocrits","nodmgspread","uncletopia"],"game_id":440,"stv_port":27046,"stv_name":"Uncletopia | Sydney | 4 | All Maps | STV","players":null},{"server_id":58,"name":"Uncletopia | Sydney | 5 | Stopwatch","name_short":"syd-5","host":"syd-1.au.uncletopia.com","port":27055,"enabled":true,"region":"au","cc":"au","latitude":-33.865143,"longitude":151.2099,"reserved":0,"last_update":"0001-01-01T00:00:00Z","name_a2s":"Uncletopia | Sydney | 5 | Stopwatch","protocol":17,"map":"workshop/koth_product_final.ugc454272353","folder":"tf","game":"Team Fortress","app_id":440,"player_count":0,"max_players":24,"Bots":0,"server_type":"Dedicated","server_os":"Linux","password":true,"vac":true,"version":"7961495","steam_id":85568392925397959,"keywords":["cp","nocrits","nodmgspread","uncletopia"],"game_id":440,"stv_port":27056,"stv_name":"Uncletopia | Sydney | 5 | Stopwatch | STV","players":null},{"server_id":59,"name":"Uncletopia | Sydney | 6 | Community","name_short":"syd-6","host":"syd-1.au.uncletopia.com","port":27065,"enabled":true,"region":"au","cc":"au","latitude":-33.865143,"longitude":151.2099,"reserved":0,"last_update":"0001-01-01T00:00:00Z","name_a2s":"Uncletopia | Sydney | 6 | Community","protocol":17,"map":"workshop/cp_mannbase_rc2a.ugc1900737467","folder":"tf","game":"Team Fortress","app_id":440,"player_count":0,"max_players":24,"Bots":0,"server_type":"Dedicated","server_os":"Linux","password":true,"vac":true,"version":"7961495","steam_id":85568392925397960,"keywords":["cp","nocrits","nodmgspread","uncletopia"],"game_id":440,"stv_port":27066,"stv_name":"Uncletopia | Sydney | 6 | Community | STV","players":null},{"server_id":49,"name":"Uncletopia | Warsaw | 1 | One Thousand Uncles","name_short":"waw-1","host":"waw-1.pl.uncletopia.com","port":27015,"enabled":true,"region":"eu","cc":"pl","latitude":52.2297,"longitude":21.017532,"reserved":0,"last_update":"0001-01-01T00:00:00Z","name_a2s":"Uncletopia | Warsaw | 1 | One Thousand Uncles","protocol":17,"map":"cp_dustbowl","folder":"tf","game":"Team Fortress","app_id":440,"player_count":28,"max_players":32,"Bots":20,"server_type":"Dedicated","server_os":"Linux","password":true,"vac":true,"version":"7961495","steam_id":85568392925397850,"keywords":["alltalk","bots","cp","danepve","increased_maxplayers","norespawntime","uncletopia"],"game_id":440,"stv_port":0,"stv_name":"","players":[{"user_id":337,"name":"PuPuruPuruPumPu","steam_id":76561198391950490,"connected_time":2157000000000,"state":"active","ping":99},{"user_id":359,"name":"DarthDanny","steam_id":76561197997718926,"connected_time":1225000000000,"state":"active","ping":124},{"user_id":368,"name":"Sissel GT","steam_id":76561198798757458,"connected_time":173000000000,"state":"active","ping":83},{"user_id":361,"name":"sokoltd31","steam_id":76561199481892547,"connected_time":790000000000,"state":"active","ping":176},{"user_id":362,"name":"soorenaRaiden","steam_id":76561199476318021,"connected_time":748000000000,"state":"active","ping":160},{"user_id":369,"name":"barman4you","steam_id":76561198315922012,"connected_time":145000000000,"state":"active","ping":56},{"user_id":365,"name":"Valoxi","steam_id":76561197995042938,"connected_time":336000000000,"state":"active","ping":82},{"user_id":370,"name":"Pat Redway","steam_id":76561198032922508,"connected_time":137000000000,"state":"active","ping":107}]},{"server_id":50,"name":"Uncletopia | Warsaw | 2 | One Thousand Uncles","name_short":"waw-2","host":"waw-1.pl.uncletopia.com","port":27025,"enabled":true,"region":"eu","cc":"pl","latitude":52.2297,"longitude":21.017532,"reserved":0,"last_update":"0001-01-01T00:00:00Z","name_a2s":"Uncletopia | Warsaw | 2 | One Thousand Uncles","protocol":17,"map":"cp_dustbowl","folder":"tf","game":"Team Fortress","app_id":440,"player_count":25,"max_players":32,"Bots":20,"server_type":"Dedicated","server_os":"Linux","password":true,"vac":true,"version":"7961495","steam_id":85568392925397851,"keywords":["alltalk","bots","cp","danepve","increased_maxplayers","norespawntime","uncletopia"],"game_id":440,"stv_port":0,"stv_name":"","players":[{"user_id":552,"name":"MichaelScopic","steam_id":76561198440602177,"connected_time":2365000000000,"state":"active","ping":206},{"user_id":582,"name":"durzymurzyn","steam_id":76561199084680369,"connected_time":194000000000,"state":"active","ping":44},{"user_id":581,"name":"Sonic2013 üáµüá±üá∫üá¶","steam_id":76561198110541962,"connected_time":635000000000,"state":"active","ping":64},{"user_id":579,"name":"John Noob","steam_id":76561197999170026,"connected_time":1467000000000,"state":"active","ping":109},{"user_id":531,"name":"[A.M.U] KrS","steam_id":76561198051858911,"connected_time":2691000000000,"state":"active","ping":61}]},{"server_id":51,"name":"Uncletopia | Warsaw | 3 | All Maps","name_short":"waw-3","host":"waw-1.pl.uncletopia.com","port":27035,"enabled":true,"region":"eu","cc":"pl","latitude":52.2297,"longitude":21.017532,"reserved":0,"last_update":"0001-01-01T00:00:00Z","name_a2s":"Uncletopia | Warsaw | 3 | All Maps","protocol":17,"map":"koth_viaduct","folder":"tf","game":"Team Fortress","app_id":440,"player_count":0,"max_players":24,"Bots":0,"server_type":"Dedicated","server_os":"Linux","password":true,"vac":true,"version":"7961495","steam_id":85568392925397852,"keywords":["cp","nocrits","nodmgspread","uncletopia"],"game_id":440,"stv_port":27036,"stv_name":"Uncletopia | Warsaw | 3 | All Maps | STV","players":null},{"server_id":52,"name":"Uncletopia | Warsaw | 4 | All Maps","name_short":"waw-4","host":"waw-1.pl.uncletopia.com","port":27045,"enabled":true,"region":"eu","cc":"pl","latitude":52.2297,"longitude":21.017532,"reserved":0,"last_update":"0001-01-01T00:00:00Z","name_a2s":"Uncletopia | Warsaw | 4 | All Maps","protocol":17,"map":"cp_foundry","folder":"tf","game":"Team Fortress","app_id":440,"player_count":0,"max_players":24,"Bots":0,"server_type":"Dedicated","server_os":"Linux","password":true,"vac":true,"version":"7961495","steam_id":85568392925397853,"keywords":["cp","nocrits","nodmgspread","uncletopia"],"game_id":440,"stv_port":27046,"stv_name":"Uncletopia | Warsaw | 4 | All Maps | STV","players":null},{"server_id":53,"name":"Uncletopia | Warsaw | 5 | Stopwatch","name_short":"waw-5","host":"waw-1.pl.uncletopia.com","port":27055,"enabled":true,"region":"eu","cc":"pl","latitude":52.2297,"longitude":21.017532,"reserved":0,"last_update":"0001-01-01T00:00:00Z","name_a2s":"Uncletopia | Warsaw | 5 | Stopwatch","protocol":17,"map":"workshop/koth_product_final.ugc454272353","folder":"tf","game":"Team Fortress","app_id":440,"player_count":0,"max_players":24,"Bots":0,"server_type":"Dedicated","server_os":"Linux","password":true,"vac":true,"version":"7961495","steam_id":85568392925397854,"keywords":["cp","nocrits","nodmgspread","uncletopia"],"game_id":440,"stv_port":27056,"stv_name":"Uncletopia | Warsaw | 5 | Stopwatch | STV","players":null},{"server_id":54,"name":"Uncletopia | Warsaw | 6 | Community","name_short":"waw-6","host":"waw-1.pl.uncletopia.com","port":27065,"enabled":true,"region":"eu","cc":"pl","latitude":52.2297,"longitude":21.017532,"reserved":0,"last_update":"0001-01-01T00:00:00Z","name_a2s":"Uncletopia | Warsaw | 6 | Community","protocol":17,"map":"workshop/cp_fulgur_rc2a.ugc2068252300","folder":"tf","game":"Team Fortress","app_id":440,"player_count":0,"max_players":24,"Bots":0,"server_type":"Dedicated","server_os":"Linux","password":true,"vac":true,"version":"7961495","steam_id":85568392925397856,"keywords":["cp","nocrits","nodmgspread","uncletopia"],"game_id":440,"stv_port":27066,"stv_name":"Uncletopia | Warsaw | 6 | Community | STV","players":null}]}