{"status":true,"message":"","result":[{"server_id":9,"name":"Uncletopia | Atlanta | 1 | All Maps","name_short":"atl-1","host":"atl-1.us.uncletopia.com","port":27015,"enabled":true,"region":"us-east","cc":"us","latitude":33.753746,"longitude":-84.38633,"reserved":0,"last_update":"0001-01-01T00:00:00Z","name_a2s":"Uncletopia | Atlanta | 1 | All Maps","protocol":17,"map":"cp_snakewater_final1","folder":"tf","game":"Team Fortress","app_id":440,"player_count":24,"max_players":24,"Bots":0,"server_type":"Dedicated","server_os":"Linux","password":true,"vac":true,"version":"7757534","steam_id":85568392924469982,"keywords":["cp","nocrits","nodmgspread","uncletopia"],"game_id":440,"stv_port":27016,"stv_name":"Uncletopia | Atlanta | 1 | All Maps | STV","players":[{"user_id":126,"name":"Ninty","steam_id":76561199364725776,"connected_time":2046000000000,"state":"active","ping":68},{"user_id":122,"name":"crack crisis","steam_id":76561198332519926,"connected_time":2191000000000,"state":"active","ping":61},{"user_id":134,"name":"The Pope","steam_id":76561198313560302,"connected_time":1210000000000,"state":"active","ping":44},{"user_id":123,"name":"5'2 in real life","steam_id":76561198103496593,"connected_time":2134000000000,"state":"active","ping":49},{"user_id":135,"name":"Towns","steam_id":76561198984662863,"connected_time":854000000000,"state":"active","ping":58},{"user_id":108,"name":"HATEWORK.","steam_id":76561198286792807,"connected_time":3421000000000,"state":"active","ping":82},{"user_id":127,"name":"Ejaculation Zach","steam_id":76561198203765200,"connected_time":2041000000000,"state":"active","ping":80},{"user_id":136,"name":"ATL1 | Pango","steam_id":76561198069811545,"connected_time":653000000000,"state":"active","ping":45},{"user_id":124,"name":"melancholy","steam_id":76561198024301465,"connected_time":2131000000000,"state":"active","ping":43},{"user_id":71,"name":"Kiso 火","steam_id":76561198141026844,"connected_time":6646000000000,"state":"active","ping":119},{"user_id":142,"name":"Liinde","steam_id":76561198140837602,"connected_time":302000000000,"state":"active","ping":85},{"user_id":119,"name":"Ziath","steam_id":76561198094009164,"connected_time":2290000000000,"state":"active","ping":67},{"user_id":129,"name":"Kraul","steam_id":76561198043682060,"connected_time":2027000000000,"state":"active","ping":90},{"user_id":96,"name":"wire-guided","steam_id":76561198055407168,"connected_time":4602000000000,"state":"active","ping":53},{"user_id":116,"name":"Lilith","steam_id":76561198125102885,"connected_time":2525000000000,"state":"active","ping":65},{"user_id":141,"name":"DatBlodGud","steam_id":76561198867897841,"connected_time":377000000000,"state":"active","ping":82},{"user_id":145,"name":"bink","steam_id":76561198110934401,"connected_time":111000000000,"state":"active","ping":61},{"user_id":40,"name":"Real?","steam_id":76561198873307741,"connected_time":8444000000000,"state":"active","ping":73},{"user_id":146,"name":"BiggFoot","steam_id":76561197998605599,"connected_time":110000000000,"state":"active","ping":85},{"user_id":143,"name":"Eosson","steam_id":76561198108642113,"connected_time":281000000000,"state":"active","ping":76},{"user_id":101,"name":"Cat_Soldier #KillTF2#KillSaveTF","steam_id":76561198799974610,"connected_time":4050000000000,"state":"active","ping":50},{"user_id":55,"name":"Korshal","steam_id":76561198819036121,"connected_time":7599000000000,"state":"active","ping":65},{"user_id":53,"name":"Pennis the Menace","steam_id":76561198254878037,"connected_time":7972000000000,"state":"active","ping":86},{"user_id":144,"name":"Dartel","steam_id":76561197963977254,"connected_time":275000000000,"state":"active","ping":79}]},{"server_id":104,"name":"Uncletopia | Atlanta | 2 | All Maps","name_short":"atl-2","host":"atl-1.us.uncletopia.com","port":27025,"enabled":true,"region":"us-east","cc":"us","latitude":33.753746,"longitude":-84.38633,"reserved":0,"last_update":"0001-01-01T00:00:00Z","name_a2s":"Uncletopia | Atlanta | 2 | All Maps","protocol":17,"map":"koth_highpass","folder":"tf","game":"Team Fortress","app_id":440,"player_count":1,"max_players":24,"Bots":0,"server_type":"Dedicated","server_os":"Linux","password":true,"vac":true,"version":"7757534","steam_id":85568392924469983,"keywords":["cp","nocrits","nodmgspread","uncletopia"],"game_id":440,"stv_port":27026,"stv_name":"Uncletopia | Atlanta | 2 | All Maps | STV","players":[{"user_id":17,"name":"abomination","steam_id":76561198167974713,"connected_time":187000000000,"state":"active","ping":51}]},{"server_id":400,"name":"Uncletopia | Atlanta | 3 | Community","name_short":"atl-3","host":"atl-1.us.uncletopia.com","port":27035,"enabled":true,"region":"us-east","cc":"us","latitude":33.753746,"longitude":-84.38633,"reserved":0,"last_update":"0001-01-01T00:00:00Z","name_a2s":"Uncletopia | Atlanta | 3 | Community","protocol":17,"map":"workshop/koth_ashville_final.ugc2130459942","folder":"tf","game":"Team Fortress","app_id":440,"player_count":0,"max_players":24,"Bots":0,"server_type":"Dedicated","server_os":"Linux","password":true,"vac":true,"version":"7757534","steam_id":85568392924515187,"keywords":["cp","nocrits","nodmgspread","uncletopia"],"game_id":440,"stv_port":27036,"stv_name":"Uncletopia | Atlanta | 3 | Community | STV","players":null},{"server_id":401,"name":"Uncletopia | Atlanta | 4 | No Payload","name_short":"atl-4","host":"atl-1.us.uncletopia.com","port":27045,"enabled":true,"region":"us-east","cc":"us","latitude":33.753746,"longitude":-84.38633,"reserved":0,"last_update":"0001-01-01T00:00:00Z","name_a2s":"","protocol":0,"map":"","folder":"","game":"","app_id":0,"player_count":0,"max_players":0,"Bots":0,"server_type":"","server_os":"","password":false,"vac":false,"version":"","steam_id":0,"keywords":null,"game_id":0,"stv_port":0,"stv_name":"","players":null},{"server_id":2,"name":"Uncletopia | Chicago | 1 | All Maps","name_short":"chi-1","host":"chi-1.us.uncletopia.com","port":27015,"enabled":true,"region":"us-central","cc":"us","latitude":41.881832,"longitude":-87.62318,"reserved":0,"last_update":"0001-01-01T00:00:00Z","name_a2s":"Uncletopia | Chicago | 1 | All Maps","protocol":17,"map":"pl_snowycoast","folder":"tf","game":"Team Fortress","app_id":440,"player_count":24,"max_players":24,"Bots":0,"server_type":"Dedicated","server_os":"Linux","password":true,"vac":true,"version":"7757534","steam_id":85568392924469984,"keywords":["nocrits","nodmgspread","payload","uncletopia"],"game_id":440,"stv_port":27016,"stv_name":"Uncletopia | Chicago | 1 | All Maps | STV","players":[{"user_id":228,"name":"ṽ⧉ ☮Pro☯","steam_id":76561198000173889,"connected_time":5069000000000,"state":"active","ping":65},{"user_id":282,"name":"ThatOneKnight","steam_id":76561198388583650,"connected_time":1976000000000,"state":"active","ping":54},{"user_id":304,"name":"swift","steam_id":76561198190461447,"connected_time":88000000000,"state":"active","ping":44},{"user_id":292,"name":"MeatShield 2000","steam_id":76561199375192850,"connected_time":1009000000000,"state":"active","ping":79},{"user_id":302,"name":"p i n e ↟ ↟","steam_id":76561198058199952,"connected_time":94000000000,"state":"active","ping":82},{"user_id":305,"name":"shadow elite","steam_id":76561198165212575,"connected_time":83000000000,"state":"active","ping":65},{"user_id":294,"name":"he drove a series ten cadillac","steam_id":76561198142756572,"connected_time":985000000000,"state":"active","ping":60},{"user_id":283,"name":"Fluffeline","steam_id":76561198352909489,"connected_time":1974000000000,"state":"active","ping":142},{"user_id":284,"name":"Jackie_Lope","steam_id":76561198048297412,"connected_time":1962000000000,"state":"active","ping":47},{"user_id":299,"name":"god approaches","steam_id":76561198081617990,"connected_time":460000000000,"state":"active","ping":99},{"user_id":277,"name":"Doublebagel47","steam_id":76561198832021744,"connected_time":2319000000000,"state":"active","ping":74},{"user_id":298,"name":"Salad","steam_id":76561198842089895,"connected_time":882000000000,"state":"active","ping":63},{"user_id":290,"name":"raidlps","steam_id":76561199208003679,"connected_time":1454000000000,"state":"active","ping":83},{"user_id":244,"name":"William Wallace","steam_id":76561199343316814,"connected_time":3974000000000,"state":"active","ping":71},{"user_id":237,"name":"JestinJester","steam_id":76561198411846094,"connected_time":4099000000000,"state":"active","ping":71},{"user_id":289,"name":"RadioactiveOilyOafs","steam_id":76561198041901197,"connected_time":1584000000000,"state":"active","ping":74},{"user_id":258,"name":"KooKooKachue","steam_id":76561198391195262,"connected_time":3319000000000,"state":"active","ping":87},{"user_id":297,"name":"the headphones you lost","steam_id":76561199201098634,"connected_time":952000000000,"state":"active","ping":60},{"user_id":288,"name":"Elefanté","steam_id":76561198258765900,"connected_time":1657000000000,"state":"active","ping":88},{"user_id":248,"name":"花の派手な鼻","steam_id":76561198042735130,"connected_time":3914000000000,"state":"active","ping":114},{"user_id":301,"name":"IDontExist","steam_id":76561198411870808,"connected_time":118000000000,"state":"active","ping":45},{"user_id":291,"name":"DillZZ","steam_id":76561199067883507,"connected_time":1043000000000,"state":"active","ping":76},{"user_id":279,"name":"Omni","steam_id":76561198035774007,"connected_time":2307000000000,"state":"active","ping":80},{"user_id":281,"name":"CeigeBirb","steam_id":76561198068538473,"connected_time":2032000000000,"state":"active","ping":75}]},{"server_id":106,"name":"Uncletopia | Chicago | 2 | All Maps","name_short":"chi-2","host":"chi-1.us.uncletopia.com","port":27025,"enabled":true,"region":"us-central","cc":"us","latitude":41.881832,"longitude":-87.62318,"reserved":0,"last_update":"0001-01-01T00:00:00Z","name_a2s":"Uncletopia | Chicago | 2 | All Maps","protocol":17,"map":"pl_frontier_final","folder":"tf","game":"Team Fortress","app_id":440,"player_count":19,"max_players":24,"Bots":0,"server_type":"Dedicated","server_os":"Linux","password":true,"vac":true,"version":"7757534","steam_id":85568392924469985,"keywords":["cp","nocrits","nodmgspread","uncletopia"],"game_id":440,"stv_port":27026,"stv_name":"Uncletopia | Chicago | 2 | All Maps | STV","players":[{"user_id":234,"name":"Kito","steam_id":76561198394383213,"connected_time":1265000000000,"state":"connecting","ping":111},{"user_id":244,"name":"Dabbledornk","steam_id":76561198065241300,"connected_time":11000000000,"state":"connecting","ping":90},{"user_id":168,"name":"Snivy64","steam_id":76561198423445376,"connected_time":6089000000000,"state":"connecting","ping":114},{"user_id":225,"name":"F_L I AM THE BEST","steam_id":76561198233988068,"connected_time":1893000000000,"state":"connecting","ping":71},{"user_id":233,"name":"Goombah","steam_id":76561198052094599,"connected_time":1623000000000,"state":"connecting","ping":74},{"user_id":243,"name":"nat","steam_id":76561198865090309,"connected_time":14000000000,"state":"connecting","ping":91},{"user_id":208,"name":"ᵖᵃᵖᵃ Lox","steam_id":76561198069393071,"connected_time":3220000000000,"state":"connecting","ping":89},{"user_id":171,"name":"Saikou!!!","steam_id":76561198044045406,"connected_time":5986000000000,"state":"connecting","ping":99},{"user_id":228,"name":"Hex Obscurial","steam_id":76561199069454985,"connected_time":1868000000000,"state":"connecting","ping":92},{"user_id":235,"name":"polaris","steam_id":76561198212481737,"connected_time":1156000000000,"state":"connecting","ping":61},{"user_id":238,"name":"tragic | swiftyservers.com","steam_id":76561198024043469,"connected_time":183000000000,"state":"connecting","ping":89},{"user_id":240,"name":"ThatRudeDuck","steam_id":76561199087894599,"connected_time":28000000000,"state":"connecting","ping":66},{"user_id":185,"name":"LeTimeLord","steam_id":76561198352871346,"connected_time":5087000000000,"state":"connecting","ping":74},{"user_id":241,"name":"Legit_Jaxer","steam_id":76561198172234053,"connected_time":24000000000,"state":"connecting","ping":169},{"user_id":239,"name":"Luna","steam_id":76561198131342156,"connected_time":183000000000,"state":"connecting","ping":0},{"user_id":215,"name":"Drachma","steam_id":76561198007310514,"connected_time":2943000000000,"state":"connecting","ping":70}]},{"server_id":402,"name":"Uncletopia | Chicago | 3 | All Maps","name_short":"chi-3","host":"chi-1.us.uncletopia.com","port":27035,"enabled":true,"region":"us-central","cc":"us","latitude":41.881832,"longitude":-87.62318,"reserved":0,"last_update":"0001-01-01T00:00:00Z","name_a2s":"Uncletopia | Chicago | 3 | All Maps","protocol":17,"map":"koth_viaduct","folder":"tf","game":"Team Fortress","app_id":440,"player_count":0,"max_players":24,"Bots":0,"server_type":"Dedicated","server_os":"Linux","password":true,"vac":true,"version":"7757534","steam_id":85568392924515191,"keywords":["cp","nocrits","nodmgspread","uncletopia"],"game_id":440,"stv_port":27036,"stv_name":"Uncletopia | Chicago | 3 | All Maps | STV","players":null},{"server_id":403,"name":"Uncletopia | Chicago | 4 | All Maps","name_short":"chi-4","host":"chi-1.us.uncletopia.com","port":27045,"enabled":true,"region":"us-central","cc":"us","latitude":41.881832,"longitude":-87.62318,"reserved":0,"last_update":"0001-01-01T00:00:00Z","name_a2s":"Uncletopia | Chicago | 4 | All Maps","protocol":17,"map":"pl_borneo","folder":"tf","game":"Team Fortress","app_id":440,"player_count":23,"max_players":24,"Bots":0,"server_type":"Dedicated","server_os":"Linux","password":true,"vac":true,"version":"7757534","steam_id":85568392924515193,"keywords":["nocrits","nodmgspread","payload","uncletopia"],"game_id":440,"stv_port":27046,"stv_name":"Uncletopia | Chicago | 4 | All Maps | STV","players":[{"user_id":156,"name":"Leveller","steam_id":76561198157718060,"connected_time":751000000000,"state":"active","ping":78},{"user_id":165,"name":"Glowing5KY","steam_id":76561198850434905,"connected_time":526000000000,"state":"active","ping":128},{"user_id":153,"name":"Ulrich Stern","steam_id":76561198101739682,"connected_time":761000000000,"state":"active","ping":78},{"user_id":170,"name":"I AM THE BADDEST OF THEM ALL","steam_id":76561198190323610,"connected_time":246000000000,"state":"active","ping":81},{"user_id":154,"name":"Waffle Wannabe","steam_id":76561198064510650,"connected_time":758000000000,"state":"active","ping":54},{"user_id":168,"name":"Trusty","steam_id":76561198035444237,"connected_time":349000000000,"state":"active","ping":63},{"user_id":166,"name":"Thequirka","steam_id":76561198968058652,"connected_time":476000000000,"state":"active","ping":93},{"user_id":147,"name":"Certified BigMan","steam_id":76561198095544632,"connected_time":1705000000000,"state":"active","ping":59},{"user_id":152,"name":"Kthatsit77","steam_id":76561199175000489,"connected_time":980000000000,"state":"active","ping":114},{"user_id":160,"name":"chode","steam_id":76561198079476547,"connected_time":670000000000,"state":"active","ping":67},{"user_id":157,"name":"Cuttle's Fish","steam_id":76561198280483257,"connected_time":749000000000,"state":"active","ping":59},{"user_id":164,"name":"Dreamy \u003c3","steam_id":76561198129908521,"connected_time":563000000000,"state":"active","ping":74},{"user_id":138,"name":"potatotomato","steam_id":76561199092769902,"connected_time":2309000000000,"state":"active","ping":81},{"user_id":171,"name":"Fiendish Frog","steam_id":76561198029478821,"connected_time":126000000000,"state":"active","ping":66},{"user_id":172,"name":"Zenabie","steam_id":76561198088372680,"connected_time":88000000000,"state":"active","ping":85},{"user_id":146,"name":"Walmus","steam_id":76561198111416393,"connected_time":1740000000000,"state":"active","ping":93},{"user_id":173,"name":"Try Gardening","steam_id":76561198120311340,"connected_time":33000000000,"state":"spawning","ping":46},{"user_id":150,"name":"Neo Kojiro","steam_id":76561198000967076,"connected_time":1227000000000,"state":"active","ping":72},{"user_id":162,"name":"JaminDamin","steam_id":76561199465916540,"connected_time":652000000000,"state":"active","ping":80},{"user_id":163,"name":"Tomaash","steam_id":76561198115542042,"connected_time":631000000000,"state":"active","ping":139},{"user_id":174,"name":"Prime Rizziler","steam_id":76561199100612353,"connected_time":20000000000,"state":"active","ping":56},{"user_id":167,"name":"dreguen","steam_id":76561199471148663,"connected_time":413000000000,"state":"active","ping":70},{"user_id":119,"name":"titan","steam_id":76561198197388678,"connected_time":3931000000000,"state":"active","ping":90}]},{"server_id":36,"name":"Uncletopia | Chicago | 5 | All Maps","name_short":"chi-5","host":"chi-2.us.uncletopia.com","port":27015,"enabled":true,"region":"us-central","cc":"us","latitude":41.881832,"longitude":-87.62318,"reserved":0,"last_update":"0001-01-01T00:00:00Z","name_a2s":"Uncletopia | Chicago | 5 | All Maps","protocol":17,"map":"koth_cascade","folder":"tf","game":"Team Fortress","app_id":440,"player_count":0,"max_players":24,"Bots":0,"server_type":"Dedicated","server_os":"Linux","password":true,"vac":true,"version":"7757534","steam_id":85568392924866362,"keywords":["cp","nocrits","nodmgspread","uncletopia"],"game_id":440,"stv_port":27016,"stv_name":"Uncletopia | Chicago | 5 | All Maps | STV","players":null},{"server_id":37,"name":"Uncletopia | Chicago | 6 | All Maps","name_short":"chi-6","host":"chi-2.us.uncletopia.com","port":27025,"enabled":true,"region":"us-central","cc":"us","latitude":41.881832,"longitude":-87.62318,"reserved":0,"last_update":"0001-01-01T00:00:00Z","name_a2s":"Uncletopia | Chicago | 6 | All Maps","protocol":17,"map":"cp_snakewater_final1","folder":"tf","game":"Team Fortress","app_id":440,"player_count":0,"max_players":24,"Bots":0,"server_type":"Dedicated","server_os":"Linux","password":true,"vac":true,"version":"7757534","steam_id":85568392924866363,"keywords":["cp","nocrits","nodmgspread","uncletopia"],"game_id":440,"stv_port":27026,"stv_name":"Uncletopia | Chicago | 6 | All Maps | STV","players":null},{"server_id":38,"name":"Uncletopia | Chicago | 7 | Stopwatch Beta","name_short":"chi-7","host":"chi-2.us.uncletopia.com","port":27035,"enabled":true,"region":"us-central","cc":"us","latitude":41.881832,"longitude":-87.62318,"reserved":0,"last_update":"0001-01-01T00:00:00Z","name_a2s":"Uncletopia | Chicago | 7 | Stopwatch Beta","protocol":17,"map":"pl_barnblitz","folder":"tf","game":"Team Fortress","app_id":440,"player_count":0,"max_players":24,"Bots":0,"server_type":"Dedicated","server_os":"Linux","password":true,"vac":true,"version":"7757534","steam_id":85568392924866364,"keywords":["nocrits","nodmgspread","payload","uncletopia"],"game_id":440,"stv_port":27036,"stv_name":"Uncletopia | Chicago | 7 | Stopwatch Beta | STV","players":null},{"server_id":39,"name":"Uncletopia | Chicago | 8 | Community","name_short":"chi-8","host":"chi-2.us.uncletopia.com","port":27045,"enabled":true,"region":"us-central","cc":"us","latitude":41.881832,"longitude":-87.62318,"reserved":0,"last_update":"0001-01-01T00:00:00Z","name_a2s":"Uncletopia | Chicago | 8 | Community","protocol":17,"map":"koth_cascade","folder":"tf","game":"Team Fortress","app_id":440,"player_count":1,"max_players":24,"Bots":0,"server_type":"Dedicated","server_os":"Linux","password":true,"vac":true,"version":"7757534","steam_id":85568392924866365,"keywords":["cp","nocrits","nodmgspread","uncletopia"],"game_id":440,"stv_port":27046,"stv_name":"Uncletopia | Chicago | 8 | Community | STV","players":[{"user_id":3,"name":"DotBozo","steam_id":76561199131091835,"connected_time":30000000000,"state":"active","ping":51}]},{"server_id":8,"name":"Uncletopia | Dallas | 1 | All Maps","name_short":"dal-1","host":"dal-1.us.uncletopia.com","port":27015,"enabled":true,"region":"us-central","cc":"us","latitude":32.779167,"longitude":-96.80889,"reserved":0,"last_update":"0001-01-01T00:00:00Z","name_a2s":"Uncletopia | Dallas | 1 | All Maps","protocol":17,"map":"cp_dustbowl","folder":"tf","game":"Team Fortress","app_id":440,"player_count":20,"max_players":24,"Bots":0,"server_type":"Dedicated","server_os":"Linux","password":true,"vac":true,"version":"7757534","steam_id":85568392924469986,"keywords":["nocrits","nodmgspread","payload","uncletopia"],"game_id":440,"stv_port":27016,"stv_name":"Uncletopia | Dallas | 1 | All Maps | STV","players":[{"user_id":166,"name":"Neo Noire","steam_id":76561198222930860,"connected_time":1182000000000,"state":"connecting","ping":90},{"user_id":154,"name":"Indigolake","steam_id":76561198202215807,"connected_time":2763000000000,"state":"connecting","ping":107},{"user_id":130,"name":"Tyler\u0026Fingers","steam_id":76561198085154485,"connected_time":4624000000000,"state":"connecting","ping":91},{"user_id":167,"name":"BurnN8or101","steam_id":76561198132668224,"connected_time":1181000000000,"state":"connecting","ping":82},{"user_id":153,"name":"floppy muppet","steam_id":76561198003076261,"connected_time":2920000000000,"state":"connecting","ping":102},{"user_id":137,"name":"LerN","steam_id":76561198083463877,"connected_time":4305000000000,"state":"connecting","ping":91},{"user_id":174,"name":"Nebula","steam_id":76561198795878862,"connected_time":541000000000,"state":"connecting","ping":92},{"user_id":151,"name":"TheRkey","steam_id":76561198989187114,"connected_time":3245000000000,"state":"connecting","ping":116},{"user_id":173,"name":"The Potato Romancer","steam_id":76561198204197648,"connected_time":626000000000,"state":"connecting","ping":103},{"user_id":152,"name":"Festive Bastard","steam_id":76561198094512904,"connected_time":3228000000000,"state":"connecting","ping":82},{"user_id":161,"name":"Thor engineer is a bloody spy!","steam_id":76561198384098648,"connected_time":2309000000000,"state":"connecting","ping":132},{"user_id":156,"name":"kris the deer","steam_id":76561198170928310,"connected_time":2711000000000,"state":"connecting","ping":122},{"user_id":134,"name":"Matsuringo","steam_id":76561197993790862,"connected_time":4547000000000,"state":"connecting","ping":125},{"user_id":175,"name":"DiabetesMan","steam_id":76561198075668940,"connected_time":25000000000,"state":"connecting","ping":91},{"user_id":143,"name":"your local forecast","steam_id":76561198042243083,"connected_time":4078000000000,"state":"connecting","ping":99},{"user_id":160,"name":"the smiling zombie","steam_id":76561199246231090,"connected_time":2340000000000,"state":"connecting","ping":88},{"user_id":138,"name":"Ryo31337","steam_id":76561198063083553,"connected_time":4220000000000,"state":"connecting","ping":74},{"user_id":169,"name":"The Notorious RBG","steam_id":76561198014275148,"connected_time":1128000000000,"state":"connecting","ping":103},{"user_id":171,"name":"Captain Cracker","steam_id":76561198834400665,"connected_time":1067000000000,"state":"connecting","ping":97}]},{"server_id":108,"name":"Uncletopia | Dallas | 2 | All Maps","name_short":"dal-2","host":"dal-1.us.uncletopia.com","port":27025,"enabled":true,"region":"us-central","cc":"us","latitude":32.779167,"longitude":-96.80889,"reserved":0,"last_update":"0001-01-01T00:00:00Z","name_a2s":"Uncletopia | Dallas | 2 | All Maps","protocol":17,"map":"koth_cascade","folder":"tf","game":"Team Fortress","app_id":440,"player_count":0,"max_players":24,"Bots":0,"server_type":"Dedicated","server_os":"Linux","password":true,"vac":true,"version":"7757534","steam_id":85568392924469988,"keywords":["cp","nocrits","nodmgspread","uncletopia"],"game_id":440,"stv_port":27026,"stv_name":"Uncletopia | Dallas | 2 | All Maps | STV","players":null},{"server_id":5,"name":"Uncletopia | Frankfurt | 1 | All Maps","name_short":"frk-1","host":"frk-1.de.uncletopia.com","port":27015,"enabled":true,"region":"eu","cc":"de","latitude":50.110924,"longitude":8.682127,"reserved":0,"last_update":"0001-01-01T00:00:00Z","name_a2s":"Uncletopia | Frankfurt | 1 | All Maps","protocol":17,"map":"koth_highpass","folder":"tf","game":"Team Fortress","app_id":440,"player_count":3,"max_players":24,"Bots":0,"server_type":"Dedicated","server_os":"Linux","password":true,"vac":true,"version":"7757534","steam_id":85568392924469989,"keywords":["cp","nocrits","nodmgspread","uncletopia"],"game_id":440,"stv_port":27016,"stv_name":"Uncletopia | Frankfurt | 1 | All Maps | STV","players":[{"user_id":27,"name":"the feesh lord","steam_id":76561199135673902,"connected_time":2110000000000,"state":"active","ping":93},{"user_id":28,"name":"Atray","steam_id":76561199028541854,"connected_time":2091000000000,"state":"active","ping":116},{"user_id":30,"name":"the gamer","steam_id":76561198445810164,"connected_time":1534000000000,"state":"active","ping":64}]},{"server_id":110,"name":"Uncletopia | Frankfurt | 2 | All Maps","name_short":"frk-2","host":"frk-1.de.uncletopia.com","port":27025,"enabled":true,"region":"eu","cc":"de","latitude":50.110924,"longitude":8.682127,"reserved":0,"last_update":"0001-01-01T00:00:00Z","name_a2s":"Uncletopia | Frankfurt | 2 | All Maps","protocol":17,"map":"cp_snakewater_final1","folder":"tf","game":"Team Fortress","app_id":440,"player_count":22,"max_players":24,"Bots":0,"server_type":"Dedicated","server_os":"Linux","password":true,"vac":true,"version":"7757534","steam_id":85568392924469990,"keywords":["cp","nocrits","nodmgspread","uncletopia"],"game_id":440,"stv_port":27026,"stv_name":"Uncletopia | Frankfurt | 2 | All Maps | STV","players":[{"user_id":240,"name":"Farmercy","steam_id":76561198000038039,"connected_time":748000000000,"state":"active","ping":59},{"user_id":208,"name":"Unga-chan sleep for 3 moons.","steam_id":76561198295305088,"connected_time":3743000000000,"state":"active","ping":57},{"user_id":257,"name":"Andy","steam_id":76561198046918834,"connected_time":214000000000,"state":"active","ping":71},{"user_id":246,"name":"✪Kritz","steam_id":76561198110226775,"connected_time":524000000000,"state":"active","ping":69},{"user_id":241,"name":"CarBombEnthusiast","steam_id":76561199448185434,"connected_time":714000000000,"state":"active","ping":68},{"user_id":258,"name":"Potato","steam_id":76561198883934935,"connected_time":176000000000,"state":"active","ping":103},{"user_id":215,"name":"Chainfire","steam_id":76561198120774329,"connected_time":3484000000000,"state":"active","ping":126},{"user_id":227,"name":"finbar","steam_id":76561198056812396,"connected_time":2619000000000,"state":"active","ping":87},{"user_id":245,"name":"Josh","steam_id":76561198274546904,"connected_time":570000000000,"state":"active","ping":142},{"user_id":155,"name":"New","steam_id":76561198402195911,"connected_time":5992000000000,"state":"active","ping":115},{"user_id":141,"name":"zdX","steam_id":76561198163735277,"connected_time":7486000000000,"state":"active","ping":50},{"user_id":247,"name":"Gerald","steam_id":76561198400746168,"connected_time":497000000000,"state":"active","ping":89},{"user_id":196,"name":"GuSkand","steam_id":76561198043775605,"connected_time":3956000000000,"state":"active","ping":77},{"user_id":232,"name":"Vitamin Weee","steam_id":76561199183937747,"connected_time":1737000000000,"state":"active","ping":82},{"user_id":249,"name":"Daga","steam_id":76561198055450219,"connected_time":453000000000,"state":"active","ping":54},{"user_id":252,"name":"Kanye’s therapist","steam_id":76561198855665947,"connected_time":388000000000,"state":"active","ping":149},{"user_id":239,"name":"jill valentine","steam_id":76561198075068529,"connected_time":841000000000,"state":"active","ping":60},{"user_id":254,"name":"multiflex","steam_id":76561198049639319,"connected_time":320000000000,"state":"active","ping":71},{"user_id":224,"name":"Rosenmontag","steam_id":76561198079477964,"connected_time":3044000000000,"state":"active","ping":45},{"user_id":259,"name":"f.","steam_id":76561199041640689,"connected_time":138000000000,"state":"active","ping":88},{"user_id":255,"name":"sex havin'","steam_id":76561198169857427,"connected_time":274000000000,"state":"active","ping":78},{"user_id":256,"name":"d00bie","steam_id":76561198025295218,"connected_time":260000000000,"state":"active","ping":64}]},{"server_id":308,"name":"Uncletopia | Frankfurt | 3 | All Maps","name_short":"frk-3","host":"frk-1.de.uncletopia.com","port":27035,"enabled":true,"region":"eu","cc":"de","latitude":50.110924,"longitude":8.682127,"reserved":0,"last_update":"0001-01-01T00:00:00Z","name_a2s":"Uncletopia | Frankfurt | 3 | All Maps","protocol":17,"map":"pl_barnblitz","folder":"tf","game":"Team Fortress","app_id":440,"player_count":23,"max_players":24,"Bots":0,"server_type":"Dedicated","server_os":"Linux","password":true,"vac":true,"version":"7757534","steam_id":85568392924504274,"keywords":["nocrits","nodmgspread","payload","uncletopia"],"game_id":440,"stv_port":27036,"stv_name":"Uncletopia | Frankfurt | 3 | All Maps | STV","players":[{"user_id":95,"name":"Chocofrolik","steam_id":76561198454779847,"connected_time":383000000000,"state":"active","ping":73},{"user_id":85,"name":"yiabayrak","steam_id":76561198241873438,"connected_time":621000000000,"state":"active","ping":75},{"user_id":89,"name":"Pixie","steam_id":76561198044038797,"connected_time":460000000000,"state":"active","ping":83},{"user_id":90,"name":"davlevan","steam_id":76561198090848620,"connected_time":451000000000,"state":"active","ping":79},{"user_id":66,"name":"Coffee","steam_id":76561198129564179,"connected_time":1265000000000,"state":"active","ping":74},{"user_id":43,"name":"Kaujuc™","steam_id":76561198059702273,"connected_time":2734000000000,"state":"active","ping":57},{"user_id":81,"name":"Akker","steam_id":76561199000630792,"connected_time":717000000000,"state":"active","ping":50},{"user_id":33,"name":"Balls","steam_id":76561198086400484,"connected_time":3001000000000,"state":"active","ping":82},{"user_id":68,"name":"roblan11","steam_id":76561198066839258,"connected_time":1181000000000,"state":"active","ping":46},{"user_id":75,"name":"Dzan50","steam_id":76561198059758591,"connected_time":921000000000,"state":"active","ping":83},{"user_id":97,"name":"Dooble donk man look at me donk","steam_id":76561198225523596,"connected_time":372000000000,"state":"active","ping":68},{"user_id":70,"name":"applez","steam_id":76561198252942184,"connected_time":1099000000000,"state":"active","ping":111},{"user_id":91,"name":"foergel","steam_id":76561197996542195,"connected_time":448000000000,"state":"active","ping":68},{"user_id":103,"name":"JohnnyGoGo","steam_id":76561198133594386,"connected_time":73000000000,"state":"active","ping":82},{"user_id":92,"name":"FWDTRKR","steam_id":76561198060369427,"connected_time":426000000000,"state":"active","ping":132},{"user_id":98,"name":"Mr.TEA","steam_id":76561198014381591,"connected_time":359000000000,"state":"active","ping":66},{"user_id":104,"name":"Toebeans","steam_id":76561198049890080,"connected_time":23000000000,"state":"active","ping":48},{"user_id":59,"name":"w0rm","steam_id":76561197981402363,"connected_time":1459000000000,"state":"active","ping":58},{"user_id":88,"name":"(1)Coffee","steam_id":76561199077316448,"connected_time":533000000000,"state":"active","ping":66},{"user_id":101,"name":"Xriasp","steam_id":76561198104721321,"connected_time":289000000000,"state":"active","ping":74},{"user_id":102,"name":"ːmissingː","steam_id":76561198080541279,"connected_time":281000000000,"state":"active","ping":87},{"user_id":55,"name":"KnusprigeKloake","steam_id":76561198051422734,"connected_time":1884000000000,"state":"active","ping":44},{"user_id":79,"name":"Blossom the cat eater","steam_id":76561198870873962,"connected_time":849000000000,"state":"active","ping":56}]},{"server_id":309,"name":"Uncletopia | Frankfurt | 4 | All Maps","name_short":"frk-4","host":"frk-1.de.uncletopia.com","port":27045,"enabled":true,"region":"eu","cc":"de","latitude":50.110924,"longitude":8.682127,"reserved":0,"last_update":"0001-01-01T00:00:00Z","name_a2s":"Uncletopia | Frankfurt | 4 | All Maps","protocol":17,"map":"koth_viaduct","folder":"tf","game":"Team Fortress","app_id":440,"player_count":4,"max_players":24,"Bots":0,"server_type":"Dedicated","server_os":"Linux","password":true,"vac":true,"version":"7757534","steam_id":85568392924504275,"keywords":["cp","nocrits","nodmgspread","uncletopia"],"game_id":440,"stv_port":27046,"stv_name":"Uncletopia | Frankfurt | 4 | All Maps | STV","players":[{"user_id":12,"name":"Delab Le Fou","steam_id":76561198846356572,"connected_time":923000000000,"state":"active","ping":148},{"user_id":13,"name":"abdelmajeedmowafaq","steam_id":76561199470606396,"connected_time":867000000000,"state":"active","ping":117},{"user_id":14,"name":"MtnDew","steam_id":76561199100059743,"connected_time":528000000000,"state":"active","ping":98},{"user_id":15,"name":"Malik794","steam_id":76561198967164437,"connected_time":47000000000,"state":"active","ping":104}]},{"server_id":310,"name":"Uncletopia | Frankfurt | 5 | All Maps","name_short":"frk-5","host":"frk-1.de.uncletopia.com","port":27055,"enabled":true,"region":"eu","cc":"de","latitude":50.110924,"longitude":8.682127,"reserved":0,"last_update":"0001-01-01T00:00:00Z","name_a2s":"Uncletopia | Frankfurt | 5 | All Maps","protocol":17,"map":"pl_borneo","folder":"tf","game":"Team Fortress","app_id":440,"player_count":24,"max_players":24,"Bots":0,"server_type":"Dedicated","server_os":"Linux","password":true,"vac":true,"version":"7757534","steam_id":85568392924504277,"keywords":["nocrits","nodmgspread","payload","uncletopia"],"game_id":440,"stv_port":27056,"stv_name":"Uncletopia | Frankfurt | 5 | All Maps | STV","players":[{"user_id":309,"name":"eduardo","steam_id":76561198014491925,"connected_time":2494000000000,"state":"active","ping":77},{"user_id":364,"name":"antlionguard","steam_id":76561198072747143,"connected_time":503000000000,"state":"active","ping":88},{"user_id":371,"name":"SaltyCupcakes","steam_id":76561198256386417,"connected_time":258000000000,"state":"active","ping":59},{"user_id":372,"name":"Komputer1310","steam_id":76561198870066614,"connected_time":104000000000,"state":"active","ping":69},{"user_id":354,"name":"Mr. Hunts","steam_id":76561197981910397,"connected_time":895000000000,"state":"active","ping":73},{"user_id":363,"name":"Valentine","steam_id":76561198121343565,"connected_time":516000000000,"state":"active","ping":56},{"user_id":313,"name":"HOT LOIS","steam_id":76561198302623594,"connected_time":2434000000000,"state":"active","ping":92},{"user_id":370,"name":"SCRAMMMBLED","steam_id":76561197998307746,"connected_time":413000000000,"state":"active","ping":66},{"user_id":366,"name":"BOZZO","steam_id":76561198044210844,"connected_time":484000000000,"state":"active","ping":71},{"user_id":319,"name":"Vezage","steam_id":76561198064916164,"connected_time":2109000000000,"state":"active","ping":79},{"user_id":320,"name":"Flostro","steam_id":76561198259793697,"connected_time":2094000000000,"state":"active","ping":72},{"user_id":355,"name":"usia","steam_id":76561198120406679,"connected_time":862000000000,"state":"active","ping":90},{"user_id":351,"name":"Noob_with_source","steam_id":76561198870362103,"connected_time":1059000000000,"state":"active","ping":69},{"user_id":326,"name":"Ork","steam_id":76561197968575924,"connected_time":1785000000000,"state":"active","ping":71},{"user_id":369,"name":"[No Class]","steam_id":76561199019412162,"connected_time":423000000000,"state":"active","ping":67},{"user_id":360,"name":"After8","steam_id":76561198090750865,"connected_time":644000000000,"state":"active","ping":70},{"user_id":368,"name":"Gorlyscho","steam_id":76561198398371080,"connected_time":442000000000,"state":"active","ping":92},{"user_id":367,"name":"S3R1K","steam_id":76561197998883586,"connected_time":452000000000,"state":"active","ping":145},{"user_id":331,"name":"Fran","steam_id":76561199070516960,"connected_time":1689000000000,"state":"active","ping":68},{"user_id":334,"name":"Alpha_Mick","steam_id":76561199041804991,"connected_time":1657000000000,"state":"active","ping":42},{"user_id":340,"name":"Deckard","steam_id":76561198004704647,"connected_time":1512000000000,"state":"active","ping":83},{"user_id":333,"name":"k","steam_id":76561198429046379,"connected_time":1674000000000,"state":"active","ping":51},{"user_id":336,"name":"DrunkHungarian","steam_id":76561198853346540,"connected_time":1650000000000,"state":"active","ping":54},{"user_id":337,"name":"Kogu8ek #savetf2","steam_id":76561198107387766,"connected_time":1601000000000,"state":"active","ping":51}]},{"server_id":311,"name":"Uncletopia | Frankfurt | 6 | All Maps","name_short":"frk-6","host":"frk-1.de.uncletopia.com","port":27065,"enabled":true,"region":"eu","cc":"de","latitude":50.110924,"longitude":8.682127,"reserved":0,"last_update":"0001-01-01T00:00:00Z","name_a2s":"Uncletopia | Frankfurt | 6 | All Maps","protocol":17,"map":"cp_sunshine","folder":"tf","game":"Team Fortress","app_id":440,"player_count":0,"max_players":24,"Bots":0,"server_type":"Dedicated","server_os":"Linux","password":true,"vac":true,"version":"7757534","steam_id":85568392924504278,"keywords":["cp","nocrits","nodmgspread","uncletopia"],"game_id":440,"stv_port":27066,"stv_name":"Uncletopia | Frankfurt | 6 | All Maps | STV","players":null},{"server_id":23,"name":"Uncletopia | Frankfurt | 7 | Stopwatch Beta","name_short":"frk-7","host":"frk-1.de.uncletopia.com","port":27075,"enabled":true,"region":"eu","cc":"de","latitude":50.110924,"longitude":8.682127,"reserved":0,"last_update":"0001-01-01T00:00:00Z","name_a2s":"Uncletopia | Frankfurt | 7 | Stopwatch Beta","protocol":17,"map":"workshop/pl_summercoast_rc8e.ugc1761528829","folder":"tf","game":"Team Fortress","app_id":440,"player_count":0,"max_players":24,"Bots":0,"server_type":"Dedicated","server_os":"Linux","password":true,"vac":true,"version":"7757534","steam_id":85568392924742827,"keywords":["nocrits","nodmgspread","payload","uncletopia"],"game_id":440,"stv_port":27076,"stv_name":"Uncletopia | Frankfurt | 7 | Stopwatch Beta | STV","players":null},{"server_id":24,"name":"Uncletopia | Frankfurt | 8 | Community","name_short":"frk-8","host":"frk-1.de.uncletopia.com","port":27085,"enabled":true,"region":"eu","cc":"de","latitude":50.110924,"longitude":8.682127,"reserved":0,"last_update":"0001-01-01T00:00:00Z","name_a2s":"Uncletopia | Frankfurt | 8 | Community","protocol":17,"map":"koth_lakeside_final","folder":"tf","game":"Team Fortress","app_id":440,"player_count":0,"max_players":24,"Bots":0,"server_type":"Dedicated","server_os":"Linux","password":true,"vac":true,"version":"7757534","steam_id":85568392924742828,"keywords":["cp","nocrits","nodmgspread","uncletopia"],"game_id":440,"stv_port":27086,"stv_name":"Uncletopia | Frankfurt | 8 | Community | STV","players":null},{"server_id":202,"name":"Uncletopia | Hong Kong | 1 | All Maps","name_short":"hgk-1","host":"hgk-1.hk.uncletopia.com","port":27015,"enabled":true,"region":"asia","cc":"hk","latitude":22.302711,"longitude":114.177216,"reserved":0,"last_update":"0001-01-01T00:00:00Z","name_a2s":"Uncletopia | Hong Kong | 1 | All Maps","protocol":17,"map":"plr_hightower","folder":"tf","game":"Team Fortress","app_id":440,"player_count":0,"max_players":24,"Bots":0,"server_type":"Dedicated","server_os":"Linux","password":true,"vac":true,"version":"7757534","steam_id":85568392924494504,"keywords":["nocrits","nodmgspread","payload","uncletopia"],"game_id":440,"stv_port":27016,"stv_name":"Uncletopia | Hong Kong | 1 | All Maps | STV","players":null},{"server_id":1,"name":"Uncletopia | Los Angeles | 1 | All Maps","name_short":"lax-1","host":"lax-1.us.uncletopia.com","port":27015,"enabled":true,"region":"us-west","cc":"us","latitude":33.94279,"longitude":-118.41004,"reserved":0,"last_update":"0001-01-01T00:00:00Z","name_a2s":"Uncletopia | Los Angeles | 1 | All Maps","protocol":17,"map":"koth_lakeside_final","folder":"tf","game":"Team Fortress","app_id":440,"player_count":1,"max_players":24,"Bots":0,"server_type":"Dedicated","server_os":"Linux","password":true,"vac":true,"version":"7757534","steam_id":85568392924469991,"keywords":["cp","nocrits","nodmgspread","uncletopia"],"game_id":440,"stv_port":27016,"stv_name":"Uncletopia | Los Angeles | 1 | All Maps | STV","players":[{"user_id":7,"name":"Nibotshooter","steam_id":76561199284825579,"connected_time":147000000000,"state":"active","ping":65}]},{"server_id":112,"name":"Uncletopia | Los Angeles | 2 | All Maps","name_short":"lax-2","host":"lax-1.us.uncletopia.com","port":27025,"enabled":true,"region":"us-west","cc":"us","latitude":33.94279,"longitude":-118.41004,"reserved":0,"last_update":"0001-01-01T00:00:00Z","name_a2s":"Uncletopia | Los Angeles | 2 | All Maps","protocol":17,"map":"cp_fastlane","folder":"tf","game":"Team Fortress","app_id":440,"player_count":20,"max_players":24,"Bots":0,"server_type":"Dedicated","server_os":"Linux","password":true,"vac":true,"version":"7757534","steam_id":85568392924469992,"keywords":["cp","nocrits","nodmgspread","uncletopia"],"game_id":440,"stv_port":27026,"stv_name":"Uncletopia | Los Angeles | 2 | All Maps | STV","players":[{"user_id":221,"name":"john","steam_id":76561198850447852,"connected_time":1942000000000,"state":"active","ping":129},{"user_id":208,"name":"128gb sd card","steam_id":76561198043636749,"connected_time":2465000000000,"state":"active","ping":110},{"user_id":238,"name":"2004 Ford Mustang Cobra","steam_id":76561198813586588,"connected_time":15000000000,"state":"active","ping":59},{"user_id":231,"name":"Avem","steam_id":76561198058763710,"connected_time":886000000000,"state":"active","ping":105},{"user_id":237,"name":"AmyPercent","steam_id":76561198071896932,"connected_time":36000000000,"state":"active","ping":74},{"user_id":202,"name":"old birb man","steam_id":76561199410269097,"connected_time":2746000000000,"state":"active","ping":134},{"user_id":223,"name":"daniel_5000","steam_id":76561199029189825,"connected_time":1901000000000,"state":"spawning","ping":110},{"user_id":236,"name":"Hernandez$","steam_id":76561198019324588,"connected_time":121000000000,"state":"spawning","ping":51},{"user_id":228,"name":"Literal Vampire Potbelly Goblin","steam_id":76561197970527356,"connected_time":1264000000000,"state":"active","ping":123},{"user_id":150,"name":"TRiCkStaB!","steam_id":76561198405516708,"connected_time":5427000000000,"state":"active","ping":220},{"user_id":200,"name":"Imitation Caucasian","steam_id":76561198320536166,"connected_time":2874000000000,"state":"active","ping":64},{"user_id":196,"name":"Niceguy72","steam_id":76561198201157723,"connected_time":3552000000000,"state":"active","ping":100},{"user_id":235,"name":"parmajohn pizza","steam_id":76561198063880315,"connected_time":233000000000,"state":"active","ping":80},{"user_id":215,"name":"Surgicalsubset","steam_id":76561198983418107,"connected_time":2331000000000,"state":"spawning","ping":370},{"user_id":229,"name":"Grecks","steam_id":76561198154766165,"connected_time":1048000000000,"state":"active","ping":209},{"user_id":234,"name":"PLak-PlaK","steam_id":76561198115688122,"connected_time":569000000000,"state":"active","ping":170},{"user_id":177,"name":"A Shiny Meat Bicycle","steam_id":76561198358757709,"connected_time":4229000000000,"state":"active","ping":140},{"user_id":212,"name":"YellowBABE","steam_id":76561198805259721,"connected_time":2395000000000,"state":"spawning","ping":116},{"user_id":213,"name":"Peter Griffin","steam_id":76561199447133506,"connected_time":2360000000000,"state":"active","ping":306},{"user_id":230,"name":"D K","steam_id":76561199040749437,"connected_time":1048000000000,"state":"active","ping":85}]},{"server_id":324,"name":"Uncletopia | Los Angeles | 3 | All Maps","name_short":"lax-3","host":"lax-1.us.uncletopia.com","port":27035,"enabled":true,"region":"us-west","cc":"us","latitude":33.94279,"longitude":-118.41004,"reserved":0,"last_update":"0001-01-01T00:00:00Z","name_a2s":"Uncletopia | Los Angeles | 3 | All Maps","protocol":17,"map":"pl_barnblitz","folder":"tf","game":"Team Fortress","app_id":440,"player_count":0,"max_players":24,"Bots":0,"server_type":"Dedicated","server_os":"Linux","password":true,"vac":true,"version":"7757534","steam_id":85568392924510198,"keywords":["nocrits","nodmgspread","payload","uncletopia"],"game_id":440,"stv_port":27036,"stv_name":"Uncletopia | Los Angeles | 3 | All Maps | STV","players":null},{"server_id":25,"name":"Uncletopia | Los Angeles | 4 | Stopwatch Beta","name_short":"lax-4","host":"lax-1.us.uncletopia.com","port":27045,"enabled":true,"region":"us-west","cc":"us","latitude":33.94279,"longitude":-118.41004,"reserved":0,"last_update":"0001-01-01T00:00:00Z","name_a2s":"Uncletopia | Los Angeles | 4 | Stopwatch Beta","protocol":17,"map":"pl_swiftwater_final1","folder":"tf","game":"Team Fortress","app_id":440,"player_count":0,"max_players":24,"Bots":0,"server_type":"Dedicated","server_os":"Linux","password":true,"vac":true,"version":"7757534","steam_id":85568392924510199,"keywords":["nocrits","nodmgspread","payload","uncletopia"],"game_id":440,"stv_port":27046,"stv_name":"Uncletopia | Los Angeles | 4 | Stopwatch Beta | STV","players":null},{"server_id":11,"name":"Uncletopia | London | 1 | All Maps","name_short":"lon-1","host":"lon-1.uk.uncletopia.com","port":27015,"enabled":true,"region":"eu","cc":"gb","latitude":51.509865,"longitude":-0.118092,"reserved":0,"last_update":"0001-01-01T00:00:00Z","name_a2s":"Uncletopia | London | 1 | All Maps","protocol":17,"map":"cp_steel","folder":"tf","game":"Team Fortress","app_id":440,"player_count":20,"max_players":24,"Bots":0,"server_type":"Dedicated","server_os":"Linux","password":true,"vac":true,"version":"7757534","steam_id":85568392924367362,"keywords":["cp","nocrits","nodmgspread","uncletopia"],"game_id":440,"stv_port":27016,"stv_name":"Uncletopia | London | 1 | All Maps | STV","players":[{"user_id":416,"name":"I am inside your mother","steam_id":76561198173218318,"connected_time":5593000000000,"state":"active","ping":44},{"user_id":477,"name":"JOHN GAMING (depressed)","steam_id":76561199085822219,"connected_time":1658000000000,"state":"active","ping":89},{"user_id":417,"name":"poliakov.noam","steam_id":76561199259322961,"connected_time":5578000000000,"state":"active","ping":105},{"user_id":491,"name":"Lucan","steam_id":76561198219195135,"connected_time":384000000000,"state":"active","ping":50},{"user_id":474,"name":"Скряга Мак Дак","steam_id":76561198274366137,"connected_time":1741000000000,"state":"active","ping":115},{"user_id":507,"name":"Soph","steam_id":76561198131688853,"connected_time":47000000000,"state":"active","ping":45},{"user_id":500,"name":"joseph","steam_id":76561198099132493,"connected_time":281000000000,"state":"active","ping":60},{"user_id":435,"name":"ciliorkun18","steam_id":76561198228942500,"connected_time":4810000000000,"state":"active","ping":89},{"user_id":496,"name":"Bird On Your Window","steam_id":76561198081933130,"connected_time":302000000000,"state":"active","ping":59},{"user_id":447,"name":"neJ","steam_id":76561198003397488,"connected_time":4360000000000,"state":"active","ping":74},{"user_id":456,"name":"on1on (julienned)","steam_id":76561197995304137,"connected_time":3625000000000,"state":"active","ping":72},{"user_id":495,"name":"Swayfire","steam_id":76561198071586356,"connected_time":315000000000,"state":"active","ping":50},{"user_id":503,"name":"Healix","steam_id":76561198130270161,"connected_time":243000000000,"state":"active","ping":60},{"user_id":498,"name":"brain aneurysm gaming","steam_id":76561198081559669,"connected_time":292000000000,"state":"active","ping":89},{"user_id":478,"name":"Woa","steam_id":76561198345683201,"connected_time":1657000000000,"state":"active","ping":53},{"user_id":442,"name":"Kapitan Polska","steam_id":76561197968069413,"connected_time":4653000000000,"state":"active","ping":81},{"user_id":480,"name":"Wyro","steam_id":76561199176835169,"connected_time":1374000000000,"state":"active","ping":53},{"user_id":505,"name":"j","steam_id":76561198299474630,"connected_time":218000000000,"state":"active","ping":58},{"user_id":427,"name":"Slim3rs","steam_id":76561199088010585,"connected_time":5289000000000,"state":"active","ping":171},{"user_id":506,"name":"_D4VID","steam_id":76561198163317060,"connected_time":185000000000,"state":"active","ping":51}]},{"server_id":114,"name":"Uncletopia | London | 2 | All Maps","name_short":"lon-2","host":"lon-1.uk.uncletopia.com","port":27025,"enabled":true,"region":"eu","cc":"gb","latitude":51.509865,"longitude":-0.118092,"reserved":0,"last_update":"0001-01-01T00:00:00Z","name_a2s":"Uncletopia | London | 2 | All Maps","protocol":17,"map":"pl_snowycoast","folder":"tf","game":"Team Fortress","app_id":440,"player_count":20,"max_players":24,"Bots":0,"server_type":"Dedicated","server_os":"Linux","password":true,"vac":true,"version":"7757534","steam_id":85568392924470941,"keywords":["nocrits","nodmgspread","payload","uncletopia"],"game_id":440,"stv_port":27026,"stv_name":"Uncletopia | London | 2 | All Maps | STV","players":[{"user_id":561,"name":"wtabs","steam_id":76561198831766743,"connected_time":246000000000,"state":"active","ping":75},{"user_id":554,"name":"Optimizator 50","steam_id":76561198039631442,"connected_time":651000000000,"state":"active","ping":87},{"user_id":557,"name":"Uncle Terry","steam_id":76561198396415736,"connected_time":365000000000,"state":"active","ping":49},{"user_id":562,"name":"Akiron","steam_id":76561199267799044,"connected_time":244000000000,"state":"active","ping":96},{"user_id":534,"name":"night.s","steam_id":76561198326287823,"connected_time":1426000000000,"state":"active","ping":87},{"user_id":547,"name":"twitch.tv/vision515","steam_id":76561198065293729,"connected_time":991000000000,"state":"active","ping":164},{"user_id":550,"name":"Concrete Slab","steam_id":76561198149804064,"connected_time":798000000000,"state":"active","ping":53},{"user_id":559,"name":"Qpangfire","steam_id":76561198094354139,"connected_time":331000000000,"state":"active","ping":46},{"user_id":544,"name":"get drunk, take space","steam_id":76561198413545609,"connected_time":1162000000000,"state":"active","ping":45},{"user_id":479,"name":"YuraGreek","steam_id":76561198050182252,"connected_time":5410000000000,"state":"active","ping":84},{"user_id":556,"name":"Jinx my beloved","steam_id":76561198819986745,"connected_time":414000000000,"state":"active","ping":102},{"user_id":513,"name":"Jag är ett anka","steam_id":76561198059978438,"connected_time":2301000000000,"state":"active","ping":78},{"user_id":563,"name":"micnea","steam_id":76561199069974587,"connected_time":92000000000,"state":"active","ping":87},{"user_id":493,"name":"Emily","steam_id":76561198393596975,"connected_time":4418000000000,"state":"active","ping":53},{"user_id":545,"name":"Civil Melon","steam_id":76561198988309618,"connected_time":1093000000000,"state":"active","ping":89},{"user_id":564,"name":"JAMES \"JIM\" COURIER","steam_id":76561198847048146,"connected_time":29000000000,"state":"active","ping":60},{"user_id":542,"name":"Johan","steam_id":76561199380849468,"connected_time":1253000000000,"state":"active","ping":60},{"user_id":480,"name":"LivEssense","steam_id":76561198052476979,"connected_time":5277000000000,"state":"active","ping":83},{"user_id":496,"name":"It's a me Malario","steam_id":76561198176546013,"connected_time":4240000000000,"state":"active","ping":47},{"user_id":422,"name":"F.K. fan","steam_id":76561198032359132,"connected_time":10062000000000,"state":"active","ping":45}]},{"server_id":320,"name":"Uncletopia | London | 3 | All Maps","name_short":"lon-3","host":"lon-1.uk.uncletopia.com","port":27035,"enabled":true,"region":"eu","cc":"gb","latitude":51.509865,"longitude":-0.118092,"reserved":0,"last_update":"0001-01-01T00:00:00Z","name_a2s":"Uncletopia | London | 3 | All Maps","protocol":17,"map":"pl_pier","folder":"tf","game":"Team Fortress","app_id":440,"player_count":22,"max_players":24,"Bots":0,"server_type":"Dedicated","server_os":"Linux","password":true,"vac":true,"version":"7757534","steam_id":85568392924510192,"keywords":["nocrits","nodmgspread","payload","uncletopia"],"game_id":440,"stv_port":27036,"stv_name":"Uncletopia | London | 3 | All Maps | STV","players":[{"user_id":275,"name":"Storm's Foreshadow","steam_id":76561198098462526,"connected_time":1156000000000,"state":"active","ping":74},{"user_id":293,"name":"JetpackHamster","steam_id":76561198332390022,"connected_time":341000000000,"state":"active","ping":129},{"user_id":299,"name":"[dopijus]","steam_id":76561198943009513,"connected_time":81000000000,"state":"active","ping":100},{"user_id":294,"name":"KittenLord147","steam_id":76561198378333507,"connected_time":330000000000,"state":"active","ping":163},{"user_id":295,"name":"iamhereforgaming","steam_id":76561199372555988,"connected_time":295000000000,"state":"active","ping":89},{"user_id":296,"name":"hipster_doofus","steam_id":76561197970902697,"connected_time":282000000000,"state":"active","ping":55},{"user_id":204,"name":"no_name.dll","steam_id":76561199011969062,"connected_time":5157000000000,"state":"active","ping":90},{"user_id":297,"name":"maxeatpie","steam_id":76561198438294875,"connected_time":250000000000,"state":"active","ping":123},{"user_id":290,"name":"Roger Slippers","steam_id":76561198188642265,"connected_time":480000000000,"state":"active","ping":52},{"user_id":273,"name":"socaramel","steam_id":76561197984480336,"connected_time":1296000000000,"state":"active","ping":75},{"user_id":291,"name":"feed and seed","steam_id":76561199088046420,"connected_time":479000000000,"state":"active","ping":54},{"user_id":277,"name":"bANji","steam_id":76561198108898161,"connected_time":1064000000000,"state":"active","ping":45},{"user_id":178,"name":"Anonymous47007","steam_id":76561199005211417,"connected_time":7171000000000,"state":"active","ping":85},{"user_id":213,"name":"rein","steam_id":76561198067856323,"connected_time":4287000000000,"state":"active","ping":90},{"user_id":287,"name":"Wardruna96","steam_id":76561199057083828,"connected_time":743000000000,"state":"active","ping":77},{"user_id":279,"name":"Kilo","steam_id":76561198044989162,"connected_time":1022000000000,"state":"active","ping":62},{"user_id":263,"name":"HawkBear","steam_id":76561198046062963,"connected_time":1762000000000,"state":"active","ping":150},{"user_id":280,"name":"Weeb exterminator","steam_id":76561198078964973,"connected_time":1022000000000,"state":"active","ping":75},{"user_id":298,"name":"Mug Wump","steam_id":76561198353201957,"connected_time":229000000000,"state":"active","ping":145},{"user_id":282,"name":"X45Y","steam_id":76561198112534025,"connected_time":984000000000,"state":"active","ping":50},{"user_id":283,"name":"Largo","steam_id":76561198844368927,"connected_time":962000000000,"state":"active","ping":68},{"user_id":301,"name":"Smack Dadde","steam_id":76561198137863947,"connected_time":22000000000,"state":"active","ping":86}]},{"server_id":321,"name":"Uncletopia | London | 4 | All Maps","name_short":"lon-4","host":"lon-1.uk.uncletopia.com","port":27045,"enabled":true,"region":"eu","cc":"gb","latitude":51.509865,"longitude":-0.118092,"reserved":0,"last_update":"0001-01-01T00:00:00Z","name_a2s":"Uncletopia | London | 4 | All Maps","protocol":17,"map":"pl_badwater","folder":"tf","game":"Team Fortress","app_id":440,"player_count":14,"max_players":24,"Bots":0,"server_type":"Dedicated","server_os":"Linux","password":true,"vac":true,"version":"7757534","steam_id":85568392924510193,"keywords":["nocrits","nodmgspread","payload","uncletopia"],"game_id":440,"stv_port":27046,"stv_name":"Uncletopia | London | 4 | All Maps | STV","players":[{"user_id":103,"name":"SHADOW WIZARD MONEY GANG","steam_id":76561198179324075,"connected_time":1961000000000,"state":"active","ping":66},{"user_id":120,"name":"TryX","steam_id":76561199356781475,"connected_time":67000000000,"state":"active","ping":130},{"user_id":113,"name":"Saken","steam_id":76561198049075295,"connected_time":686000000000,"state":"active","ping":63},{"user_id":68,"name":"cropping","steam_id":76561198026586456,"connected_time":4051000000000,"state":"active","ping":56},{"user_id":121,"name":"alex","steam_id":76561197995857448,"connected_time":62000000000,"state":"active","ping":135},{"user_id":24,"name":"lark","steam_id":76561198091724522,"connected_time":7124000000000,"state":"active","ping":56},{"user_id":66,"name":"player","steam_id":76561198054474684,"connected_time":4281000000000,"state":"active","ping":80},{"user_id":114,"name":"Zank Frappa","steam_id":76561199227624104,"connected_time":679000000000,"state":"active","ping":66},{"user_id":118,"name":"doodgie","steam_id":76561198264934115,"connected_time":337000000000,"state":"active","ping":38},{"user_id":110,"name":"KLAMA  ❤","steam_id":76561198351549661,"connected_time":867000000000,"state":"active","ping":65},{"user_id":90,"name":"lore","steam_id":76561198120984188,"connected_time":2665000000000,"state":"active","ping":62},{"user_id":98,"name":"fallingpencil","steam_id":76561199230233148,"connected_time":2395000000000,"state":"active","ping":61},{"user_id":87,"name":"[T]aKer","steam_id":76561198001778013,"connected_time":2930000000000,"state":"active","ping":107},{"user_id":107,"name":"plazma","steam_id":76561198886594048,"connected_time":1168000000000,"state":"active","ping":114}]},{"server_id":21,"name":"Uncletopia | London | 5 | All Maps","name_short":"lon-5","host":"lon-1.uk.uncletopia.com","port":27055,"enabled":true,"region":"eu","cc":"gb","latitude":51.509865,"longitude":-0.118092,"reserved":0,"last_update":"0001-01-01T00:00:00Z","name_a2s":"Uncletopia | London | 5 | All Maps","protocol":17,"map":"pl_swiftwater_final1","folder":"tf","game":"Team Fortress","app_id":440,"player_count":24,"max_players":24,"Bots":0,"server_type":"Dedicated","server_os":"Linux","password":true,"vac":true,"version":"7757534","steam_id":85568392924742829,"keywords":["nocrits","nodmgspread","payload","uncletopia"],"game_id":440,"stv_port":27056,"stv_name":"Uncletopia | London | 5 | All Maps | STV","players":[{"user_id":295,"name":"iattwink","steam_id":76561198963378933,"connected_time":868000000000,"state":"active","ping":43},{"user_id":296,"name":"static","steam_id":76561198836825741,"connected_time":857000000000,"state":"active","ping":44},{"user_id":259,"name":"2Fort Goblin","steam_id":76561198878206817,"connected_time":4724000000000,"state":"active","ping":70},{"user_id":282,"name":"The Existent One","steam_id":76561198249214344,"connected_time":2010000000000,"state":"active","ping":39},{"user_id":306,"name":"Maranhadas","steam_id":76561198152856761,"connected_time":189000000000,"state":"active","ping":148},{"user_id":262,"name":"onion knight","steam_id":76561198328543549,"connected_time":4699000000000,"state":"active","ping":92},{"user_id":272,"name":"LSKi","steam_id":76561198215470228,"connected_time":3708000000000,"state":"active","ping":55},{"user_id":274,"name":"Over here saw bones","steam_id":76561198320506848,"connected_time":2970000000000,"state":"active","ping":31},{"user_id":293,"name":"{dogs}კობა77koba77[ASS]","steam_id":76561198154218182,"connected_time":950000000000,"state":"active","ping":38},{"user_id":294,"name":"Codex","steam_id":76561198068748584,"connected_time":945000000000,"state":"active","ping":47},{"user_id":284,"name":"Mr Lidl","steam_id":76561198426522902,"connected_time":1744000000000,"state":"active","ping":54},{"user_id":269,"name":"Dog ?","steam_id":76561198347020945,"connected_time":3890000000000,"state":"active","ping":90},{"user_id":297,"name":"n174","steam_id":76561199465285458,"connected_time":808000000000,"state":"active","ping":63},{"user_id":277,"name":"DrLuciferWinchester","steam_id":76561198261849661,"connected_time":2243000000000,"state":"active","ping":82},{"user_id":298,"name":"yusef","steam_id":76561198108481078,"connected_time":802000000000,"state":"active","ping":99},{"user_id":304,"name":"Ziemniaczki z koperkiem","steam_id":76561198829123464,"connected_time":247000000000,"state":"active","ping":88},{"user_id":299,"name":"mud","steam_id":76561198141497461,"connected_time":771000000000,"state":"active","ping":72},{"user_id":302,"name":"Daoloth, Render of the Veils","steam_id":76561198115106008,"connected_time":661000000000,"state":"active","ping":44},{"user_id":300,"name":"Fat Pigeon","steam_id":76561198817940142,"connected_time":764000000000,"state":"active","ping":46},{"user_id":221,"name":"Egor Pomidor","steam_id":76561199175688390,"connected_time":7417000000000,"state":"active","ping":85},{"user_id":307,"name":"usernamesrhard","steam_id":76561198182956827,"connected_time":170000000000,"state":"active","ping":70},{"user_id":308,"name":"⩩✞ _SneKerz ⩩✞","steam_id":76561198141259011,"connected_time":168000000000,"state":"active","ping":76},{"user_id":283,"name":"Zerfesh","steam_id":76561198117534358,"connected_time":1804000000000,"state":"active","ping":95},{"user_id":230,"name":"sareena","steam_id":76561198810194062,"connected_time":6339000000000,"state":"active","ping":74}]},{"server_id":22,"name":"Uncletopia | London | 6 | All Maps","name_short":"lon-6","host":"lon-1.uk.uncletopia.com","port":27065,"enabled":true,"region":"eu","cc":"gb","latitude":51.509865,"longitude":-0.118092,"reserved":0,"last_update":"0001-01-01T00:00:00Z","name_a2s":"Uncletopia | London | 6 | All Maps","protocol":17,"map":"koth_viaduct","folder":"tf","game":"Team Fortress","app_id":440,"player_count":24,"max_players":24,"Bots":0,"server_type":"Dedicated","server_os":"Linux","password":true,"vac":true,"version":"7757534","steam_id":85568392924742830,"keywords":["cp","nocrits","nodmgspread","uncletopia"],"game_id":440,"stv_port":27066,"stv_name":"Uncletopia | London | 6 | All Maps | STV","players":[{"user_id":14,"name":"Lord_Azrael","steam_id":76561199123402707,"connected_time":544000000000,"state":"active","ping":47},{"user_id":15,"name":"luft","steam_id":76561198114404178,"connected_time":521000000000,"state":"active","ping":61},{"user_id":16,"name":"BoltSive","steam_id":76561199084631869,"connected_time":521000000000,"state":"active","ping":56},{"user_id":39,"name":"Norfen Red","steam_id":76561198023610108,"connected_time":346000000000,"state":"active","ping":34},{"user_id":18,"name":"Hoxton","steam_id":76561198129209505,"connected_time":503000000000,"state":"active","ping":73},{"user_id":24,"name":"Mirage","steam_id":76561199013190566,"connected_time":489000000000,"state":"active","ping":49},{"user_id":20,"name":"Scp Red","steam_id":76561198857302726,"connected_time":500000000000,"state":"active","ping":65},{"user_id":49,"name":"kotamine","steam_id":76561198068907991,"connected_time":43000000000,"state":"active","ping":77},{"user_id":22,"name":"Zwacky civilnetworks.net","steam_id":76561198144233123,"connected_time":494000000000,"state":"active","ping":122},{"user_id":23,"name":"Acey","steam_id":76561198114457284,"connected_time":490000000000,"state":"active","ping":75},{"user_id":26,"name":"Zulutron civilnetworks.net","steam_id":76561199169607968,"connected_time":474000000000,"state":"active","ping":46},{"user_id":27,"name":"\u003ecivilnetworks.ney\u003cFahAD","steam_id":76561198146828831,"connected_time":469000000000,"state":"active","ping":164},{"user_id":28,"name":"!Trying to have fun!","steam_id":76561198151370212,"connected_time":467000000000,"state":"active","ping":73},{"user_id":29,"name":"Salasken CivilGamers.com","steam_id":76561199389216856,"connected_time":459000000000,"state":"active","ping":138},{"user_id":37,"name":"Helyo","steam_id":76561198407141066,"connected_time":379000000000,"state":"active","ping":82},{"user_id":31,"name":"Johnson J. Marauder","steam_id":76561198834581897,"connected_time":450000000000,"state":"active","ping":85},{"user_id":33,"name":"fontorax","steam_id":76561198450249013,"connected_time":424000000000,"state":"active","ping":87},{"user_id":34,"name":"Archangel | CivilNetworks.net","steam_id":76561198132236975,"connected_time":420000000000,"state":"active","ping":59},{"user_id":35,"name":"JustADutch","steam_id":76561198873164912,"connected_time":414000000000,"state":"active","ping":66},{"user_id":36,"name":"Snow","steam_id":76561198245882572,"connected_time":388000000000,"state":"active","ping":53},{"user_id":47,"name":"John Nuts","steam_id":76561199079951047,"connected_time":124000000000,"state":"active","ping":92},{"user_id":48,"name":"LANGERS","steam_id":76561198046966693,"connected_time":123000000000,"state":"active","ping":48},{"user_id":41,"name":":D","steam_id":76561198304902462,"connected_time":337000000000,"state":"active","ping":61},{"user_id":43,"name":"BobTF2EASY.COM","steam_id":76561198395938434,"connected_time":319000000000,"state":"active","ping":76}]},{"server_id":40,"name":"Uncletopia | London | 7 | No Payload","name_short":"lon-7","host":"lon-1.uk.uncletopia.com","port":27075,"enabled":true,"region":"eu","cc":"gb","latitude":51.509865,"longitude":-0.118092,"reserved":0,"last_update":"0001-01-01T00:00:00Z","name_a2s":"Uncletopia | London | 7 | No Payload","protocol":17,"map":"koth_lakeside_final","folder":"tf","game":"Team Fortress","app_id":440,"player_count":0,"max_players":24,"Bots":0,"server_type":"Dedicated","server_os":"Linux","password":true,"vac":true,"version":"7757534","steam_id":85568392924964314,"keywords":["cp","nocrits","nodmgspread","uncletopia"],"game_id":440,"stv_port":27076,"stv_name":"Uncletopia | London | 7 | No Payload | STV","players":null},{"server_id":41,"name":"Uncletopia | London | 8 | Community","name_short":"lon-8","host":"lon-1.uk.uncletopia.com","port":27085,"enabled":true,"region":"eu","cc":"gb","latitude":51.509865,"longitude":-0.118092,"reserved":0,"last_update":"0001-01-01T00:00:00Z","name_a2s":"Uncletopia | London | 8 | Community","protocol":17,"map":"workshop/cp_bruhstbowl_b5.ugc2878604990","folder":"tf","game":"Team Fortress","app_id":440,"player_count":0,"max_players":24,"Bots":0,"server_type":"Dedicated","server_os":"Linux","password":true,"vac":true,"version":"7757534","steam_id":85568392924964315,"keywords":["cp","nocrits","nodmgspread","uncletopia"],"game_id":440,"stv_port":27086,"stv_name":"Uncletopia | London | 8 | Community | STV","players":null},{"server_id":300,"name":"Uncletopia | Montréal | 1 | All Maps","name_short":"mtl-1","host":"mtl-1.ca.uncletopia.com","port":27015,"enabled":true,"region":"us-east","cc":"ca","latitude":45.50889,"longitude":-73.56167,"reserved":0,"last_update":"0001-01-01T00:00:00Z","name_a2s":"Uncletopia | Montréal | 1 | All Maps","protocol":17,"map":"pl_barnblitz","folder":"tf","game":"Team Fortress","app_id":440,"player_count":0,"max_players":24,"Bots":0,"server_type":"Dedicated","server_os":"Linux","password":true,"vac":true,"version":"7757534","steam_id":85568392924500087,"keywords":["nocrits","nodmgspread","payload","uncletopia"],"game_id":440,"stv_port":27016,"stv_name":"Uncletopia | Montréal | 1 | All Maps | STV","players":null},{"server_id":301,"name":"Uncletopia | Montréal | 2 | All Maps","name_short":"mtl-2","host":"mtl-1.ca.uncletopia.com","port":27025,"enabled":true,"region":"us-east","cc":"ca","latitude":45.50889,"longitude":-73.56167,"reserved":0,"last_update":"0001-01-01T00:00:00Z","name_a2s":"Uncletopia | Montréal | 2 | All Maps","protocol":17,"map":"pl_snowycoast","folder":"tf","game":"Team Fortress","app_id":440,"player_count":0,"max_players":24,"Bots":0,"server_type":"Dedicated","server_os":"Linux","password":true,"vac":true,"version":"7757534","steam_id":85568392924500088,"keywords":["nocrits","nodmgspread","payload","uncletopia"],"game_id":440,"stv_port":27026,"stv_name":"Uncletopia | Montréal | 2 | All Maps | STV","players":null},{"server_id":302,"name":"Uncletopia | Montréal | 3 | All Maps","name_short":"mtl-3","host":"mtl-1.ca.uncletopia.com","port":27035,"enabled":true,"region":"us-east","cc":"ca","latitude":45.50889,"longitude":-73.56167,"reserved":0,"last_update":"0001-01-01T00:00:00Z","name_a2s":"Uncletopia | Montréal | 3 | All Maps","protocol":17,"map":"pl_swiftwater_final1","folder":"tf","game":"Team Fortress","app_id":440,"player_count":0,"max_players":24,"Bots":0,"server_type":"Dedicated","server_os":"Linux","password":true,"vac":true,"version":"7757534","steam_id":85568392924500089,"keywords":["nocrits","nodmgspread","payload","uncletopia"],"game_id":440,"stv_port":27036,"stv_name":"Uncletopia | Montréal | 3 | All Maps | STV","players":null},{"server_id":303,"name":"Uncletopia | Montréal | 4 | No Payload","name_short":"mtl-4","host":"mtl-1.ca.uncletopia.com","port":27045,"enabled":true,"region":"us-east","cc":"ca","latitude":45.50889,"longitude":-73.56167,"reserved":0,"last_update":"0001-01-01T00:00:00Z","name_a2s":"Uncletopia | Montréal | 4 | No Payload","protocol":17,"map":"pl_pier","folder":"tf","game":"Team Fortress","app_id":440,"player_count":0,"max_players":24,"Bots":0,"server_type":"Dedicated","server_os":"Linux","password":true,"vac":true,"version":"7757534","steam_id":85568392924500090,"keywords":["nocrits","nodmgspread","payload","uncletopia"],"game_id":440,"stv_port":27046,"stv_name":"Uncletopia | Montréal | 4 | No Payload | STV","players":null},{"server_id":13,"name":"Uncletopia | New York City | 1 | All Maps","name_short":"nyc-1","host":"nyc-1.us.uncletopia.com","port":27015,"enabled":true,"region":"us-east","cc":"us","latitude":40.73061,"longitude":-73.93524,"reserved":0,"last_update":"0001-01-01T00:00:00Z","name_a2s":"Uncletopia | New York City | 1 | All Maps","protocol":17,"map":"koth_viaduct","folder":"tf","game":"Team Fortress","app_id":440,"player_count":7,"max_players":24,"Bots":0,"server_type":"Dedicated","server_os":"Linux","password":true,"vac":true,"version":"7757534","steam_id":85568392924469993,"keywords":["cp","nocrits","nodmgspread","uncletopia"],"game_id":440,"stv_port":27016,"stv_name":"Uncletopia | New York City | 1 | All Maps | STV","players":[{"user_id":15,"name":"Fart Smella","steam_id":76561198419066993,"connected_time":977000000000,"state":"active","ping":117},{"user_id":16,"name":"THE LOATHSOME DUNG EATER","steam_id":76561198805375543,"connected_time":955000000000,"state":"active","ping":116},{"user_id":17,"name":"༘ ⋆˚🎧Caffeine☕*˖°","steam_id":76561199259309294,"connected_time":828000000000,"state":"active","ping":78},{"user_id":18,"name":"Belmore","steam_id":76561198009355231,"connected_time":800000000000,"state":"active","ping":125},{"user_id":23,"name":"Deborp","steam_id":76561198118868430,"connected_time":133000000000,"state":"active","ping":78},{"user_id":20,"name":"SuperFresh","steam_id":76561198200723198,"connected_time":643000000000,"state":"active","ping":57},{"user_id":25,"name":"CVD^2","steam_id":76561198292833237,"connected_time":22000000000,"state":"active","ping":84}]},{"server_id":14,"name":"Uncletopia | New York City | 2 | All Maps","name_short":"nyc-2","host":"nyc-1.us.uncletopia.com","port":27025,"enabled":true,"region":"us-east","cc":"us","latitude":40.73061,"longitude":-73.93524,"reserved":0,"last_update":"0001-01-01T00:00:00Z","name_a2s":"Uncletopia | New York City | 2 | All Maps","protocol":17,"map":"pl_snowycoast","folder":"tf","game":"Team Fortress","app_id":440,"player_count":21,"max_players":24,"Bots":0,"server_type":"Dedicated","server_os":"Linux","password":true,"vac":true,"version":"7757534","steam_id":85568392924469994,"keywords":["nocrits","nodmgspread","payload","uncletopia"],"game_id":440,"stv_port":27026,"stv_name":"Uncletopia | New York City | 2 | All Maps | STV","players":[{"user_id":229,"name":"rjsly","steam_id":76561198036573271,"connected_time":276000000000,"state":"active","ping":54},{"user_id":209,"name":"Father Cocoa","steam_id":76561199023002514,"connected_time":2598000000000,"state":"active","ping":81},{"user_id":230,"name":"xen","steam_id":76561198048568188,"connected_time":189000000000,"state":"active","ping":53},{"user_id":213,"name":"Timothy Grunclebottoms","steam_id":76561198871450477,"connected_time":1481000000000,"state":"active","ping":62},{"user_id":211,"name":"Sinstar","steam_id":76561199050174626,"connected_time":2342000000000,"state":"active","ping":78},{"user_id":216,"name":"glitch","steam_id":76561197979495589,"connected_time":1464000000000,"state":"active","ping":48},{"user_id":225,"name":"power_YAMBO","steam_id":76561198067068690,"connected_time":775000000000,"state":"active","ping":40},{"user_id":189,"name":"scotchTape_sero™","steam_id":76561198865210316,"connected_time":3053000000000,"state":"active","ping":70},{"user_id":228,"name":"mineblast99","steam_id":76561199065648954,"connected_time":386000000000,"state":"active","ping":82},{"user_id":191,"name":"PrettyFresh","steam_id":76561198295080210,"connected_time":2996000000000,"state":"active","ping":60},{"user_id":222,"name":"Candy Sparkles","steam_id":76561198126871264,"connected_time":992000000000,"state":"active","ping":75},{"user_id":193,"name":"dreamySylph","steam_id":76561199000573308,"connected_time":2981000000000,"state":"active","ping":72},{"user_id":220,"name":"Smidvargh","steam_id":76561198121298631,"connected_time":1252000000000,"state":"active","ping":82},{"user_id":226,"name":"Graybard","steam_id":76561198045100497,"connected_time":715000000000,"state":"active","ping":71},{"user_id":221,"name":"enotown","steam_id":76561198109901138,"connected_time":1198000000000,"state":"active","ping":59},{"user_id":217,"name":"Defiant Statement.","steam_id":76561199101373436,"connected_time":1458000000000,"state":"active","ping":61},{"user_id":223,"name":"tydogzilla","steam_id":76561198054254518,"connected_time":951000000000,"state":"active","ping":44},{"user_id":201,"name":"HeisenBurger","steam_id":76561198040632080,"connected_time":2884000000000,"state":"active","ping":62},{"user_id":202,"name":"seraph","steam_id":76561198077902438,"connected_time":2879000000000,"state":"active","ping":73},{"user_id":203,"name":"Grify","steam_id":76561198012292317,"connected_time":2868000000000,"state":"active","ping":87},{"user_id":204,"name":"whip bone grew shrooms","steam_id":76561198338482937,"connected_time":2860000000000,"state":"active","ping":74}]},{"server_id":15,"name":"Uncletopia | New York City | 3 | Stopwatch Beta","name_short":"nyc-3","host":"nyc-1.us.uncletopia.com","port":27035,"enabled":true,"region":"us-east","cc":"us","latitude":40.73061,"longitude":-73.93524,"reserved":0,"last_update":"0001-01-01T00:00:00Z","name_a2s":"Uncletopia | New York City | 3 | Stopwatch Beta","protocol":17,"map":"workshop/pl_barnblitz_pro7.ugc582280235","folder":"tf","game":"Team Fortress","app_id":440,"player_count":0,"max_players":24,"Bots":0,"server_type":"Dedicated","server_os":"Linux","password":true,"vac":true,"version":"7757534","steam_id":85568392924742820,"keywords":["nocrits","nodmgspread","payload","uncletopia"],"game_id":440,"stv_port":27036,"stv_name":"Uncletopia | New York City | 3 | Stopwatch Beta | STV","players":null},{"server_id":16,"name":"Uncletopia | New York City | 4 | Community","name_short":"nyc-4","host":"nyc-1.us.uncletopia.com","port":27045,"enabled":true,"region":"us-east","cc":"us","latitude":40.73061,"longitude":-73.93524,"reserved":0,"last_update":"0001-01-01T00:00:00Z","name_a2s":"Uncletopia | New York City | 4 | Community","protocol":17,"map":"workshop/koth_trenchfoot_b1a.ugc731436616","folder":"tf","game":"Team Fortress","app_id":440,"player_count":0,"max_players":24,"Bots":0,"server_type":"Dedicated","server_os":"Linux","password":true,"vac":true,"version":"7757534","steam_id":85568392924742821,"keywords":["cp","nocrits","nodmgspread","uncletopia"],"game_id":440,"stv_port":27046,"stv_name":"Uncletopia | New York City | 4 | Community | STV","players":null},{"server_id":142,"name":"Uncletopia | São Paulo | 1 | All Maps","name_short":"sao-1","host":"sao-1.br.uncletopia.com","port":27015,"enabled":true,"region":"sa","cc":"br","latitude":-23.533773,"longitude":-46.62529,"reserved":0,"last_update":"0001-01-01T00:00:00Z","name_a2s":"Uncletopia | São Paulo | 1 | All Maps","protocol":17,"map":"pl_upward","folder":"tf","game":"Team Fortress","app_id":440,"player_count":2,"max_players":24,"Bots":0,"server_type":"Dedicated","server_os":"Linux","password":true,"vac":true,"version":"7757534","steam_id":85568392924469996,"keywords":["nocrits","nodmgspread","payload","uncletopia"],"game_id":440,"stv_port":27016,"stv_name":"Uncletopia | São Paulo | 1 | All Maps | STV","players":[{"user_id":12,"name":"Kakaroto 286","steam_id":76561199006539437,"connected_time":2574000000000,"state":"active","ping":58},{"user_id":11,"name":"wacky woohoo pizza man","steam_id":76561198865594419,"connected_time":2662000000000,"state":"active","ping":45}]},{"server_id":143,"name":"Uncletopia | São Paulo | 2 | All Maps","name_short":"sao-2","host":"sao-2.br.uncletopia.com","port":27015,"enabled":true,"region":"sa","cc":"br","latitude":-23.533773,"longitude":-46.62529,"reserved":0,"last_update":"0001-01-01T00:00:00Z","name_a2s":"Uncletopia | São Paulo | 2 | All Maps","protocol":17,"map":"pl_frontier_final","folder":"tf","game":"Team Fortress","app_id":440,"player_count":0,"max_players":24,"Bots":0,"server_type":"Dedicated","server_os":"Linux","password":true,"vac":true,"version":"7757534","steam_id":85568392924485349,"keywords":["nocrits","nodmgspread","payload","uncletopia"],"game_id":440,"stv_port":27016,"stv_name":"Uncletopia | São Paulo | 2 | All Maps | STV","players":null},{"server_id":7,"name":"Uncletopia | Seattle | 1 | All Maps","name_short":"sea-1","host":"sea-1.us.uncletopia.com","port":27015,"enabled":true,"region":"us-west","cc":"us","latitude":47.608013,"longitude":-122.33517,"reserved":0,"last_update":"0001-01-01T00:00:00Z","name_a2s":"Uncletopia | Seattle | 1 | All Maps","protocol":17,"map":"pl_snowycoast","folder":"tf","game":"Team Fortress","app_id":440,"player_count":24,"max_players":24,"Bots":0,"server_type":"Dedicated","server_os":"Linux","password":true,"vac":true,"version":"7757534","steam_id":85568392924469997,"keywords":["nocrits","nodmgspread","payload","uncletopia"],"game_id":440,"stv_port":27016,"stv_name":"Uncletopia | Seattle | 1 | All Maps | STV","players":[{"user_id":252,"name":"Lolxdloldx","steam_id":76561198136887125,"connected_time":1178000000000,"state":"active","ping":96},{"user_id":259,"name":"wizorb","steam_id":76561198002172674,"connected_time":843000000000,"state":"active","ping":84},{"user_id":238,"name":"Daddy Topps","steam_id":76561198203594332,"connected_time":2004000000000,"state":"active","ping":45},{"user_id":247,"name":"Combustionaut","steam_id":76561198164877813,"connected_time":1293000000000,"state":"active","ping":46},{"user_id":183,"name":"Tom","steam_id":76561198070630154,"connected_time":4916000000000,"state":"active","ping":75},{"user_id":152,"name":"my monitor is off","steam_id":76561198074499537,"connected_time":6317000000000,"state":"active","ping":95},{"user_id":239,"name":"Drew","steam_id":76561198058893405,"connected_time":2002000000000,"state":"active","ping":88},{"user_id":240,"name":"rustyorion","steam_id":76561198439186347,"connected_time":1968000000000,"state":"active","ping":52},{"user_id":246,"name":"Frank","steam_id":76561198428759980,"connected_time":1297000000000,"state":"active","ping":31},{"user_id":219,"name":"catparty","steam_id":76561198209197824,"connected_time":2609000000000,"state":"active","ping":56},{"user_id":265,"name":"Keamy","steam_id":76561199471434875,"connected_time":131000000000,"state":"active","ping":40},{"user_id":258,"name":"Nightlygalad","steam_id":76561198170693990,"connected_time":911000000000,"state":"active","ping":75},{"user_id":243,"name":"PheebsyDeebsy","steam_id":76561198101509436,"connected_time":1508000000000,"state":"active","ping":62},{"user_id":253,"name":"Grunt","steam_id":76561198200758903,"connected_time":1133000000000,"state":"active","ping":80},{"user_id":221,"name":"[TrC] Dackstrus","steam_id":76561197973518509,"connected_time":2523000000000,"state":"active","ping":53},{"user_id":266,"name":"twitch.tv/ladyloki_ch","steam_id":76561198280150602,"connected_time":122000000000,"state":"active","ping":57},{"user_id":208,"name":"chanoc","steam_id":76561198026734746,"connected_time":3667000000000,"state":"active","ping":69},{"user_id":251,"name":"Reposas","steam_id":76561198058803197,"connected_time":1189000000000,"state":"active","ping":106},{"user_id":254,"name":"Mignyanne :3","steam_id":76561198048754056,"connected_time":1094000000000,"state":"active","ping":65},{"user_id":162,"name":"M.L.JEW","steam_id":76561198997375055,"connected_time":5937000000000,"state":"active","ping":122},{"user_id":264,"name":"FedSmoker","steam_id":76561198255854081,"connected_time":455000000000,"state":"active","ping":65},{"user_id":256,"name":"Wizowd","steam_id":76561198167702261,"connected_time":946000000000,"state":"active","ping":75},{"user_id":242,"name":"°Creamy Gilligan","steam_id":76561198001569384,"connected_time":1775000000000,"state":"active","ping":121},{"user_id":262,"name":"Daz","steam_id":76561198041431938,"connected_time":631000000000,"state":"active","ping":121}]},{"server_id":119,"name":"Uncletopia | Seattle | 2 | All Maps","name_short":"sea-2","host":"sea-1.us.uncletopia.com","port":27025,"enabled":true,"region":"us-west","cc":"us","latitude":47.608013,"longitude":-122.33517,"reserved":0,"last_update":"0001-01-01T00:00:00Z","name_a2s":"Uncletopia | Seattle | 2 | All Maps","protocol":17,"map":"pl_frontier_final","folder":"tf","game":"Team Fortress","app_id":440,"player_count":2,"max_players":24,"Bots":0,"server_type":"Dedicated","server_os":"Linux","password":true,"vac":true,"version":"7757534","steam_id":85568392924469998,"keywords":["nocrits","nodmgspread","payload","uncletopia"],"game_id":440,"stv_port":27026,"stv_name":"Uncletopia | Seattle | 2 | All Maps | STV","players":[{"user_id":6,"name":"laggy mcstab","steam_id":76561198106379962,"connected_time":162000000000,"state":"active","ping":48},{"user_id":7,"name":"benji","steam_id":76561198084417967,"connected_time":109000000000,"state":"active","ping":61}]},{"server_id":406,"name":"Uncletopia | Seattle | 3 | Stopwatch Beta","name_short":"sea-3","host":"sea-1.us.uncletopia.com","port":27035,"enabled":true,"region":"us-west","cc":"us","latitude":47.608013,"longitude":-122.33517,"reserved":0,"last_update":"0001-01-01T00:00:00Z","name_a2s":"Uncletopia | Seattle | 3 | Stopwatch Beta","protocol":17,"map":"cp_dustbowl","folder":"tf","game":"Team Fortress","app_id":440,"player_count":0,"max_players":24,"Bots":0,"server_type":"Dedicated","server_os":"Linux","password":true,"vac":true,"version":"7757534","steam_id":85568392924515217,"keywords":["cp","nocrits","nodmgspread","uncletopia"],"game_id":440,"stv_port":27036,"stv_name":"Uncletopia | Seattle | 3 | Stopwatch Beta | STV","players":null},{"server_id":17,"name":"Uncletopia | San Francisco | 1 | All Maps","name_short":"sfo-1","host":"sfo-1.us.uncletopia.com","port":27015,"enabled":true,"region":"us-west","cc":"us","latitude":37.77397,"longitude":-122.4313,"reserved":0,"last_update":"0001-01-01T00:00:00Z","name_a2s":"Uncletopia | San Francisco | 1 | All Maps","protocol":17,"map":"pl_upward","folder":"tf","game":"Team Fortress","app_id":440,"player_count":0,"max_players":24,"Bots":0,"server_type":"Dedicated","server_os":"Linux","password":true,"vac":true,"version":"7757534","steam_id":85568392924469999,"keywords":["nocrits","nodmgspread","payload","uncletopia"],"game_id":440,"stv_port":27016,"stv_name":"Uncletopia | San Francisco | 1 | All Maps | STV","players":null},{"server_id":18,"name":"Uncletopia | San Francisco | 2 | All Maps","name_short":"sfo-2","host":"sfo-1.us.uncletopia.com","port":27025,"enabled":true,"region":"us-west","cc":"us","latitude":37.77397,"longitude":-122.4313,"reserved":0,"last_update":"0001-01-01T00:00:00Z","name_a2s":"Uncletopia | San Francisco | 2 | All Maps","protocol":17,"map":"koth_highpass","folder":"tf","game":"Team Fortress","app_id":440,"player_count":0,"max_players":24,"Bots":0,"server_type":"Dedicated","server_os":"Linux","password":true,"vac":true,"version":"7757534","steam_id":85568392924470000,"keywords":["cp","nocrits","nodmgspread","uncletopia"],"game_id":440,"stv_port":27026,"stv_name":"Uncletopia | San Francisco | 2 | All Maps | STV","players":null},{"server_id":19,"name":"Uncletopia | San Francisco | 3 | Stopwatch Beta","name_short":"sfo-3","host":"sfo-1.us.uncletopia.com","port":27035,"enabled":true,"region":"us-west","cc":"us","latitude":37.77397,"longitude":-122.4313,"reserved":0,"last_update":"0001-01-01T00:00:00Z","name_a2s":"Uncletopia | San Francisco | 3 | Stopwatch Beta","protocol":17,"map":"koth_lakeside_final","folder":"tf","game":"Team Fortress","app_id":440,"player_count":0,"max_players":24,"Bots":0,"server_type":"Dedicated","server_os":"Linux","password":true,"vac":true,"version":"7757534","steam_id":85568392924742824,"keywords":["cp","nocrits","nodmgspread","uncletopia"],"game_id":440,"stv_port":27036,"stv_name":"Uncletopia | San Francisco | 3 | Stopwatch Beta | STV","players":null},{"server_id":20,"name":"Uncletopia | San Francisco | 4 | Community","name_short":"sfo-4","host":"sfo-1.us.uncletopia.com","port":27045,"enabled":true,"region":"us-west","cc":"us","latitude":37.77397,"longitude":-122.4313,"reserved":0,"last_update":"0001-01-01T00:00:00Z","name_a2s":"Uncletopia | San Francisco | 4 | Community","protocol":17,"map":"workshop/cp_mannbase_rc2a.ugc1900737467","folder":"tf","game":"Team Fortress","app_id":440,"player_count":0,"max_players":24,"Bots":0,"server_type":"Dedicated","server_os":"Linux","password":true,"vac":true,"version":"7757534","steam_id":85568392924742826,"keywords":["cp","nocrits","nodmgspread","uncletopia"],"game_id":440,"stv_port":27046,"stv_name":"Uncletopia | San Francisco | 4 | Community | STV","players":null},{"server_id":141,"name":"Uncletopia | Sydney | 1 | All Maps","name_short":"syd-1","host":"syd-1.au.uncletopia.com","port":27015,"enabled":true,"region":"au","cc":"au","latitude":-33.865143,"longitude":151.2099,"reserved":0,"last_update":"0001-01-01T00:00:00Z","name_a2s":"Uncletopia | Sydney | 1 | All Maps","protocol":17,"map":"pl_barnblitz","folder":"tf","game":"Team Fortress","app_id":440,"player_count":0,"max_players":24,"Bots":0,"server_type":"Dedicated","server_os":"Linux","password":true,"vac":true,"version":"7757534","steam_id":85568392924470001,"keywords":["nocrits","nodmgspread","payload","uncletopia"],"game_id":440,"stv_port":27016,"stv_name":"Uncletopia | Sydney | 1 | All Maps | STV","players":null},{"server_id":123,"name":"Uncletopia | Sydney | 2 | All Maps","name_short":"syd-2","host":"syd-1.au.uncletopia.com","port":27025,"enabled":true,"region":"au","cc":"au","latitude":-33.865143,"longitude":151.2099,"reserved":0,"last_update":"0001-01-01T00:00:00Z","name_a2s":"Uncletopia | Sydney | 2 | All Maps","protocol":17,"map":"cp_snakewater_final1","folder":"tf","game":"Team Fortress","app_id":440,"player_count":0,"max_players":24,"Bots":0,"server_type":"Dedicated","server_os":"Linux","password":true,"vac":true,"version":"7757534","steam_id":85568392924470002,"keywords":["cp","nocrits","nodmgspread","uncletopia"],"game_id":440,"stv_port":27026,"stv_name":"Uncletopia | Sydney | 2 | All Maps | STV","players":null},{"server_id":395,"name":"Uncletopia | Sydney | 3 | All Maps","name_short":"syd-3","host":"syd-1.au.uncletopia.com","port":27035,"enabled":true,"region":"au","cc":"au","latitude":-33.865143,"longitude":151.2099,"reserved":0,"last_update":"0001-01-01T00:00:00Z","name_a2s":"Uncletopia | Sydney | 3 | All Maps","protocol":17,"map":"koth_lakeside_final","folder":"tf","game":"Team Fortress","app_id":440,"player_count":0,"max_players":24,"Bots":0,"server_type":"Dedicated","server_os":"Linux","password":true,"vac":true,"version":"7757534","steam_id":85568392925194467,"keywords":["cp","nocrits","nodmgspread","uncletopia"],"game_id":440,"stv_port":27036,"stv_name":"Uncletopia | Sydney | 3 | All Maps | STV","players":null},{"server_id":396,"name":"Uncletopia | Sydney | 4 | All Maps","name_short":"syd-4","host":"syd-1.au.uncletopia.com","port":27045,"enabled":true,"region":"au","cc":"au","latitude":-33.865143,"longitude":151.2099,"reserved":0,"last_update":"0001-01-01T00:00:00Z","name_a2s":"Uncletopia | Sydney | 4 | All Maps","protocol":17,"map":"cp_altitude","folder":"tf","game":"Team Fortress","app_id":440,"player_count":0,"max_players":24,"Bots":0,"server_type":"Dedicated","server_os":"Linux","password":true,"vac":true,"version":"7757534","steam_id":85568392925397958,"keywords":["cp","nocrits","nodmgspread","uncletopia"],"game_id":440,"stv_port":27046,"stv_name":"Uncletopia | Sydney | 4 | All Maps | STV","players":null},{"server_id":58,"name":"Uncletopia | Sydney | 5 | Stopwatch Beta","name_short":"syd-5","host":"syd-1.au.uncletopia.com","port":27055,"enabled":true,"region":"au","cc":"au","latitude":-33.865143,"longitude":151.2099,"reserved":0,"last_update":"0001-01-01T00:00:00Z","name_a2s":"Uncletopia | Sydney | 5 | Stopwatch Beta","protocol":17,"map":"koth_cascade","folder":"tf","game":"Team Fortress","app_id":440,"player_count":0,"max_players":24,"Bots":0,"server_type":"Dedicated","server_os":"Linux","password":true,"vac":true,"version":"7757534","steam_id":85568392925397959,"keywords":["cp","nocrits","nodmgspread","uncletopia"],"game_id":440,"stv_port":27056,"stv_name":"Uncletopia | Sydney | 5 | Stopwatch Beta | STV","players":null},{"server_id":59,"name":"Uncletopia | Sydney | 6 | Community","name_short":"syd-6","host":"syd-1.au.uncletopia.com","port":27065,"enabled":true,"region":"au","cc":"au","latitude":-33.865143,"longitude":151.2099,"reserved":0,"last_update":"0001-01-01T00:00:00Z","name_a2s":"Uncletopia | Sydney | 6 | Community","protocol":17,"map":"workshop/pl_divulgence_b4b.ugc2884808746","folder":"tf","game":"Team Fortress","app_id":440,"player_count":0,"max_players":24,"Bots":0,"server_type":"Dedicated","server_os":"Linux","password":true,"vac":true,"version":"7757534","steam_id":85568392925397960,"keywords":["nocrits","nodmgspread","payload","uncletopia"],"game_id":440,"stv_port":27066,"stv_name":"Uncletopia | Sydney | 6 | Community | STV","players":null},{"server_id":49,"name":"Uncletopia | Warsaw | 1 | All Maps","name_short":"waw-1","host":"waw-1.pl.uncletopia.com","port":27015,"enabled":true,"region":"eu","cc":"pl","latitude":52.2297,"longitude":21.017532,"reserved":0,"last_update":"0001-01-01T00:00:00Z","name_a2s":"","protocol":0,"map":"","folder":"","game":"","app_id":0,"player_count":0,"max_players":0,"Bots":0,"server_type":"","server_os":"","password":false,"vac":false,"version":"","steam_id":0,"keywords":null,"game_id":0,"stv_port":0,"stv_name":"","players":null},{"server_id":50,"name":"Uncletopia | Warsaw | 2 | All Maps","name_short":"waw-2","host":"waw-1.pl.uncletopia.com","port":27025,"enabled":true,"region":"eu","cc":"pl","latitude":52.2297,"longitude":21.017532,"reserved":0,"last_update":"0001-01-01T00:00:00Z","name_a2s":"Uncletopia | Warsaw | 2 | All Maps","protocol":17,"map":"koth_viaduct","folder":"tf","game":"Team Fortress","app_id":440,"player_count":0,"max_players":24,"Bots":0,"server_type":"Dedicated","server_os":"Linux","password":true,"vac":true,"version":"7757534","steam_id":85568392925397851,"keywords":["cp","nocrits","nodmgspread","uncletopia"],"game_id":440,"stv_port":27026,"stv_name":"Uncletopia | Warsaw | 2 | All Maps | STV","players":null},{"server_id":51,"name":"Uncletopia | Warsaw | 3 | All Maps","name_short":"waw-3","host":"waw-1.pl.uncletopia.com","port":27035,"enabled":true,"region":"eu","cc":"pl","latitude":52.2297,"longitude":21.017532,"reserved":0,"last_update":"0001-01-01T00:00:00Z","name_a2s":"Uncletopia | Warsaw | 3 | All Maps","protocol":17,"map":"cp_dustbowl","folder":"tf","game":"Team Fortress","app_id":440,"player_count":0,"max_players":24,"Bots":0,"server_type":"Dedicated","server_os":"Linux","password":true,"vac":true,"version":"7757534","steam_id":85568392925397852,"keywords":["cp","nocrits","nodmgspread","uncletopia"],"game_id":440,"stv_port":27036,"stv_name":"Uncletopia | Warsaw | 3 | All Maps | STV","players":null},{"server_id":52,"name":"Uncletopia | Warsaw | 4 | All Maps","name_short":"waw-4","host":"waw-1.pl.uncletopia.com","port":27045,"enabled":true,"region":"eu","cc":"pl","latitude":52.2297,"longitude":21.017532,"reserved":0,"last_update":"0001-01-01T00:00:00Z","name_a2s":"Uncletopia | Warsaw | 4 | All Maps","protocol":17,"map":"koth_lakeside_final","folder":"tf","game":"Team Fortress","app_id":440,"player_count":0,"max_players":24,"Bots":0,"server_type":"Dedicated","server_os":"Linux","password":true,"vac":true,"version":"7757534","steam_id":85568392925397853,"keywords":["cp","nocrits","nodmgspread","uncletopia"],"game_id":440,"stv_port":27046,"stv_name":"Uncletopia | Warsaw | 4 | All Maps | STV","players":null},{"server_id":53,"name":"Uncletopia | Warsaw | 5 | Stopwatch Beta","name_short":"waw-5","host":"waw-1.pl.uncletopia.com","port":27055,"enabled":true,"region":"eu","cc":"pl","latitude":52.2297,"longitude":21.017532,"reserved":0,"last_update":"0001-01-01T00:00:00Z","name_a2s":"Uncletopia | Warsaw | 5 | Stopwatch Beta","protocol":17,"map":"pl_borneo","folder":"tf","game":"Team Fortress","app_id":440,"player_count":0,"max_players":24,"Bots":0,"server_type":"Dedicated","server_os":"Linux","password":true,"vac":true,"version":"7757534","steam_id":85568392925397854,"keywords":["nocrits","nodmgspread","payload","uncletopia"],"game_id":440,"stv_port":27056,"stv_name":"Uncletopia | Warsaw | 5 | Stopwatch Beta | STV","players":null},{"server_id":54,"name":"Uncletopia | Warsaw | 6 | Community","name_short":"waw-6","host":"waw-1.pl.uncletopia.com","port":27065,"enabled":true,"region":"eu","cc":"pl","latitude":52.2297,"longitude":21.017532,"reserved":0,"last_update":"0001-01-01T00:00:00Z","name_a2s":"Uncletopia | Warsaw | 6 | Community","protocol":17,"map":"koth_lakeside_final","folder":"tf","game":"Team Fortress","app_id":440,"player_count":0,"max_players":24,"Bots":0,"server_type":"Dedicated","server_os":"Linux","password":true,"vac":true,"version":"7757534","steam_id":85568392925397856,"keywords":["cp","nocrits","nodmgspread","uncletopia"],"game_id":440,"stv_port":27066,"stv_name":"Uncletopia | Warsaw | 6 | Community | STV","players":null}]}