{"status":true,"message":"","result":[{"server_id":9,"name":"Uncletopia | Atlanta | 1 | All Maps","name_short":"atl-1","host":"atl-1.us.uncletopia.com","port":27015,"enabled":true,"region":"us-east","cc":"us","latitude":33.753746,"longitude":-84.38633,"reserved":0,"last_update":"0001-01-01T00:00:00Z","name_a2s":"Uncletopia | Atlanta | 1 | All Maps","protocol":17,"map":"pl_pier","folder":"tf","game":"Team Fortress","app_id":440,"player_count":24,"max_players":24,"Bots":0,"server_type":"Dedicated","server_os":"Linux","password":true,"vac":true,"version":"7961495","steam_id":85568392924469982,"keywords":["nocrits","nodmgspread","payload","uncletopia"],"game_id":440,"stv_port":27016,"stv_name":"Uncletopia | Atlanta | 1 | All Maps | STV","players":[{"user_id":71,"name":"Dude","steam_id":76561199058616824,"connected_time":148000000000,"state":"active","ping":82},{"user_id":64,"name":"Bobletoob","steam_id":76561199184464900,"connected_time":563000000000,"state":"active","ping":108},{"user_id":58,"name":"Xavibite","steam_id":76561198209380493,"connected_time":803000000000,"state":"active","ping":68},{"user_id":8,"name":"Winzinf","steam_id":76561198026152232,"connected_time":4442000000000,"state":"active","ping":61},{"user_id":56,"name":"Armstrong Dicksmasher™","steam_id":76561198020925352,"connected_time":820000000000,"state":"active","ping":84},{"user_id":69,"name":"joyeuxnoelle","steam_id":76561198062423120,"connected_time":359000000000,"state":"active","ping":65},{"user_id":57,"name":"Maestro","steam_id":76561198157325020,"connected_time":815000000000,"state":"active","ping":60},{"user_id":14,"name":"KrashBoomBang","steam_id":76561199002978777,"connected_time":3726000000000,"state":"active","ping":72},{"user_id":49,"name":"Du_Laitborer","steam_id":76561198197209646,"connected_time":1518000000000,"state":"active","ping":62},{"user_id":65,"name":"orks is da best","steam_id":76561199039152146,"connected_time":548000000000,"state":"active","ping":80},{"user_id":17,"name":"Blackwing","steam_id":76561198225732032,"connected_time":3586000000000,"state":"active","ping":51},{"user_id":66,"name":"sansa musa","steam_id":76561198163723555,"connected_time":486000000000,"state":"active","ping":74},{"user_id":70,"name":"Singular Rooster","steam_id":76561197983872657,"connected_time":202000000000,"state":"active","ping":53},{"user_id":50,"name":"Uncle Leo From Seinfeld (Real)","steam_id":76561199102009679,"connected_time":1508000000000,"state":"active","ping":85},{"user_id":67,"name":"Hulkster","steam_id":76561198278156353,"connected_time":470000000000,"state":"active","ping":116},{"user_id":26,"name":"totoro","steam_id":76561198210420871,"connected_time":3342000000000,"state":"active","ping":66},{"user_id":33,"name":"Hel1oHiBye","steam_id":76561199101173899,"connected_time":3008000000000,"state":"active","ping":106},{"user_id":59,"name":"normal","steam_id":76561198133712839,"connected_time":789000000000,"state":"active","ping":63},{"user_id":60,"name":"lurid","steam_id":76561199134999203,"connected_time":786000000000,"state":"active","ping":60},{"user_id":41,"name":"Ok-Par","steam_id":76561199221067945,"connected_time":2348000000000,"state":"active","ping":73},{"user_id":61,"name":"Praxeas Busybody","steam_id":76561198035618952,"connected_time":706000000000,"state":"active","ping":51},{"user_id":68,"name":"skullface","steam_id":76561198353704776,"connected_time":460000000000,"state":"active","ping":60},{"user_id":38,"name":"Yeetachu","steam_id":76561199477430076,"connected_time":2489000000000,"state":"active","ping":62},{"user_id":53,"name":"cheesebro","steam_id":76561198002072852,"connected_time":1467000000000,"state":"active","ping":109}]},{"server_id":104,"name":"Uncletopia | Atlanta | 2 | All Maps","name_short":"atl-2","host":"atl-1.us.uncletopia.com","port":27025,"enabled":true,"region":"us-east","cc":"us","latitude":33.753746,"longitude":-84.38633,"reserved":0,"last_update":"0001-01-01T00:00:00Z","name_a2s":"Uncletopia | Atlanta | 2 | All Maps","protocol":17,"map":"koth_viaduct","folder":"tf","game":"Team Fortress","app_id":440,"player_count":24,"max_players":24,"Bots":0,"server_type":"Dedicated","server_os":"Linux","password":true,"vac":true,"version":"7961495","steam_id":85568392924469983,"keywords":["cp","nocrits","nodmgspread","uncletopia"],"game_id":440,"stv_port":27026,"stv_name":"Uncletopia | Atlanta | 2 | All Maps | STV","players":[{"user_id":22,"name":"biel","steam_id":76561199063153084,"connected_time":1018000000000,"state":"active","ping":185},{"user_id":28,"name":"showblown","steam_id":76561199211861730,"connected_time":520000000000,"state":"active","ping":99},{"user_id":9,"name":"chiswola","steam_id":76561198046920142,"connected_time":2064000000000,"state":"active","ping":88},{"user_id":34,"name":"Ginger Jesus","steam_id":76561198052386458,"connected_time":217000000000,"state":"active","ping":63},{"user_id":32,"name":"Dr. Bobo","steam_id":76561198271696761,"connected_time":424000000000,"state":"active","ping":65},{"user_id":41,"name":"CIIN","steam_id":76561198059601531,"connected_time":46000000000,"state":"active","ping":129},{"user_id":16,"name":"Sydney [bot killer]","steam_id":76561198873792876,"connected_time":1390000000000,"state":"active","ping":76},{"user_id":14,"name":"Jrock","steam_id":76561198045715996,"connected_time":1740000000000,"state":"active","ping":87},{"user_id":15,"name":"Zero Tech","steam_id":76561199257316028,"connected_time":1739000000000,"state":"active","ping":67},{"user_id":17,"name":"POPcornPlay89 | blw.tf","steam_id":76561198837437794,"connected_time":1379000000000,"state":"active","ping":98},{"user_id":18,"name":"Oxygen User","steam_id":76561199111975528,"connected_time":1313000000000,"state":"active","ping":60},{"user_id":29,"name":"Ranch Style Beans","steam_id":76561198126791566,"connected_time":493000000000,"state":"active","ping":80},{"user_id":38,"name":"IM@S! Kael","steam_id":76561197971968764,"connected_time":177000000000,"state":"active","ping":70},{"user_id":21,"name":"Stolas ♥","steam_id":76561198835430280,"connected_time":1279000000000,"state":"active","ping":70},{"user_id":25,"name":"MaxTheRetroGuy","steam_id":76561198845344731,"connected_time":770000000000,"state":"active","ping":74},{"user_id":30,"name":"malice","steam_id":76561198208849751,"connected_time":445000000000,"state":"active","ping":66},{"user_id":27,"name":"Shmiel","steam_id":76561198175734166,"connected_time":672000000000,"state":"active","ping":64},{"user_id":35,"name":"name420","steam_id":76561198129374525,"connected_time":195000000000,"state":"active","ping":56},{"user_id":33,"name":"mister slippery","steam_id":76561198057076267,"connected_time":393000000000,"state":"active","ping":74},{"user_id":36,"name":"The_atom_bomb","steam_id":76561198139944683,"connected_time":179000000000,"state":"active","ping":73},{"user_id":37,"name":"antomas lake","steam_id":76561198319995689,"connected_time":178000000000,"state":"active","ping":99},{"user_id":39,"name":"The Convention","steam_id":76561198445006943,"connected_time":116000000000,"state":"active","ping":86},{"user_id":40,"name":"non_ai","steam_id":76561198270951938,"connected_time":110000000000,"state":"active","ping":64},{"user_id":42,"name":"snugglebug","steam_id":76561199489391928,"connected_time":45000000000,"state":"active","ping":71}]},{"server_id":400,"name":"Uncletopia | Atlanta | 3 | Stopwatch","name_short":"atl-3","host":"atl-1.us.uncletopia.com","port":27035,"enabled":true,"region":"us-east","cc":"us","latitude":33.753746,"longitude":-84.38633,"reserved":0,"last_update":"0001-01-01T00:00:00Z","name_a2s":"Uncletopia | Atlanta | 3 | Stopwatch","protocol":17,"map":"workshop/pl_badwater_pro_v12.ugc2142942074","folder":"tf","game":"Team Fortress","app_id":440,"player_count":0,"max_players":24,"Bots":0,"server_type":"Dedicated","server_os":"Linux","password":true,"vac":true,"version":"7961495","steam_id":85568392924515187,"keywords":["nocrits","nodmgspread","payload","uncletopia"],"game_id":440,"stv_port":27036,"stv_name":"Uncletopia | Atlanta | 3 | Stopwatch | STV","players":null},{"server_id":401,"name":"Uncletopia | Atlanta | 4 | Community","name_short":"atl-4","host":"atl-1.us.uncletopia.com","port":27045,"enabled":true,"region":"us-east","cc":"us","latitude":33.753746,"longitude":-84.38633,"reserved":0,"last_update":"0001-01-01T00:00:00Z","name_a2s":"Uncletopia | Atlanta | 4 | Community","protocol":17,"map":"workshop/pl_phoenix_b4a.ugc2969509359","folder":"tf","game":"Team Fortress","app_id":440,"player_count":0,"max_players":24,"Bots":0,"server_type":"Dedicated","server_os":"Linux","password":true,"vac":true,"version":"7961495","steam_id":85568392924515188,"keywords":["nocrits","nodmgspread","payload","uncletopia"],"game_id":440,"stv_port":27046,"stv_name":"Uncletopia | Atlanta | 4 | Community | STV","players":null},{"server_id":2,"name":"Uncletopia | Chicago | 1 | All Maps","name_short":"chi-1","host":"chi-1.us.uncletopia.com","port":27015,"enabled":true,"region":"us-central","cc":"us","latitude":41.881832,"longitude":-87.62318,"reserved":0,"last_update":"0001-01-01T00:00:00Z","name_a2s":"Uncletopia | Chicago | 1 | All Maps","protocol":17,"map":"pl_swiftwater_final1","folder":"tf","game":"Team Fortress","app_id":440,"player_count":24,"max_players":24,"Bots":0,"server_type":"Dedicated","server_os":"Linux","password":true,"vac":true,"version":"7961495","steam_id":85568392924469984,"keywords":["nocrits","nodmgspread","payload","uncletopia"],"game_id":440,"stv_port":27016,"stv_name":"Uncletopia | Chicago | 1 | All Maps | STV","players":[{"user_id":149,"name":"Bonk","steam_id":76561198138107407,"connected_time":768000000000,"state":"active","ping":66},{"user_id":75,"name":"Dr.Zarann","steam_id":76561198163952958,"connected_time":6356000000000,"state":"active","ping":101},{"user_id":130,"name":"Farmer2145","steam_id":76561198217084115,"connected_time":2364000000000,"state":"active","ping":71},{"user_id":151,"name":"capybara","steam_id":76561198798828328,"connected_time":618000000000,"state":"active","ping":48},{"user_id":123,"name":"Shark In Awe","steam_id":76561198032663494,"connected_time":2826000000000,"state":"active","ping":69},{"user_id":128,"name":"rat eater","steam_id":76561199216874750,"connected_time":2638000000000,"state":"active","ping":57},{"user_id":154,"name":"War on Drugs Fighter","steam_id":76561198103211035,"connected_time":244000000000,"state":"active","ping":52},{"user_id":152,"name":"Leaper Tech","steam_id":76561198956681340,"connected_time":493000000000,"state":"active","ping":139},{"user_id":139,"name":"ThatGamingKiwi","steam_id":76561199170522237,"connected_time":1643000000000,"state":"active","ping":77},{"user_id":155,"name":"Comrade","steam_id":76561199056721863,"connected_time":227000000000,"state":"active","ping":82},{"user_id":158,"name":"Mr. Luggy","steam_id":76561198072723392,"connected_time":167000000000,"state":"active","ping":92},{"user_id":136,"name":"Zozbieta","steam_id":76561198010336265,"connected_time":2160000000000,"state":"active","ping":85},{"user_id":140,"name":"Tony Pizza","steam_id":76561198276513608,"connected_time":1591000000000,"state":"active","ping":177},{"user_id":157,"name":"Pixler544","steam_id":76561198240575132,"connected_time":189000000000,"state":"active","ping":69},{"user_id":145,"name":"Raz","steam_id":76561198002426150,"connected_time":1114000000000,"state":"active","ping":75},{"user_id":137,"name":"Jellypeen","steam_id":76561198034158810,"connected_time":1740000000000,"state":"active","ping":52},{"user_id":153,"name":"XtraCrums","steam_id":76561199230212648,"connected_time":470000000000,"state":"active","ping":80},{"user_id":129,"name":"Jon Allen","steam_id":76561199014634984,"connected_time":2530000000000,"state":"active","ping":116},{"user_id":39,"name":"daemon","steam_id":76561198001541433,"connected_time":8626000000000,"state":"active","ping":59},{"user_id":141,"name":"gmaay","steam_id":76561199104911185,"connected_time":1540000000000,"state":"active","ping":67},{"user_id":156,"name":"Teamfortressfunnymomments#5","steam_id":76561198971629959,"connected_time":204000000000,"state":"active","ping":143},{"user_id":84,"name":"HarryjusttHarry","steam_id":76561198982810452,"connected_time":5631000000000,"state":"active","ping":78},{"user_id":135,"name":"Seducktive","steam_id":76561198003267177,"connected_time":2327000000000,"state":"active","ping":86},{"user_id":107,"name":"freyja","steam_id":76561198249206656,"connected_time":4580000000000,"state":"active","ping":61}]},{"server_id":106,"name":"Uncletopia | Chicago | 2 | All Maps","name_short":"chi-2","host":"chi-1.us.uncletopia.com","port":27025,"enabled":true,"region":"us-central","cc":"us","latitude":41.881832,"longitude":-87.62318,"reserved":0,"last_update":"0001-01-01T00:00:00Z","name_a2s":"Uncletopia | Chicago | 2 | All Maps","protocol":17,"map":"koth_harvest_final","folder":"tf","game":"Team Fortress","app_id":440,"player_count":1,"max_players":24,"Bots":0,"server_type":"Dedicated","server_os":"Linux","password":true,"vac":true,"version":"7961495","steam_id":85568392924469985,"keywords":["cp","nocrits","nodmgspread","uncletopia"],"game_id":440,"stv_port":27026,"stv_name":"Uncletopia | Chicago | 2 | All Maps | STV","players":[{"user_id":12,"name":"MagicCraftMaster","steam_id":76561198179156615,"connected_time":74000000000,"state":"active","ping":73}]},{"server_id":402,"name":"Uncletopia | Chicago | 3 | All Maps","name_short":"chi-3","host":"chi-1.us.uncletopia.com","port":27035,"enabled":true,"region":"us-central","cc":"us","latitude":41.881832,"longitude":-87.62318,"reserved":0,"last_update":"0001-01-01T00:00:00Z","name_a2s":"Uncletopia | Chicago | 3 | All Maps","protocol":17,"map":"cp_steel","folder":"tf","game":"Team Fortress","app_id":440,"player_count":2,"max_players":24,"Bots":0,"server_type":"Dedicated","server_os":"Linux","password":true,"vac":true,"version":"7961495","steam_id":85568392924515191,"keywords":["cp","nocrits","nodmgspread","uncletopia"],"game_id":440,"stv_port":27036,"stv_name":"Uncletopia | Chicago | 3 | All Maps | STV","players":[{"user_id":3,"name":"doamgeo468","steam_id":76561199485287045,"connected_time":1465000000000,"state":"active","ping":65},{"user_id":4,"name":"cpg","steam_id":76561198853515541,"connected_time":1361000000000,"state":"active","ping":65}]},{"server_id":403,"name":"Uncletopia | Chicago | 4 | All Maps","name_short":"chi-4","host":"chi-1.us.uncletopia.com","port":27045,"enabled":true,"region":"us-central","cc":"us","latitude":41.881832,"longitude":-87.62318,"reserved":0,"last_update":"0001-01-01T00:00:00Z","name_a2s":"Uncletopia | Chicago | 4 | All Maps","protocol":17,"map":"pl_badwater","folder":"tf","game":"Team Fortress","app_id":440,"player_count":24,"max_players":24,"Bots":0,"server_type":"Dedicated","server_os":"Linux","password":true,"vac":true,"version":"7961495","steam_id":85568392924515193,"keywords":["nocrits","nodmgspread","payload","uncletopia"],"game_id":440,"stv_port":27046,"stv_name":"Uncletopia | Chicago | 4 | All Maps | STV","players":[{"user_id":8,"name":"8o8","steam_id":76561198996923332,"connected_time":2715000000000,"state":"active","ping":86},{"user_id":33,"name":"Jimbo Jones","steam_id":76561198031493107,"connected_time":910000000000,"state":"active","ping":80},{"user_id":18,"name":"bleach65","steam_id":76561198115270571,"connected_time":1877000000000,"state":"active","ping":80},{"user_id":11,"name":"artemisjackson2","steam_id":76561199094686268,"connected_time":2619000000000,"state":"active","ping":74},{"user_id":19,"name":"eyes on the prize","steam_id":76561198184076165,"connected_time":1800000000000,"state":"active","ping":153},{"user_id":22,"name":"Grop Noise","steam_id":76561198145445403,"connected_time":1441000000000,"state":"active","ping":51},{"user_id":14,"name":"King Blaze","steam_id":76561198327492856,"connected_time":2376000000000,"state":"active","ping":55},{"user_id":35,"name":"Espresso_Depresso","steam_id":76561198396290407,"connected_time":761000000000,"state":"active","ping":61},{"user_id":21,"name":"TOBY!!!","steam_id":76561199380822531,"connected_time":1729000000000,"state":"active","ping":51},{"user_id":37,"name":"meme_lad21","steam_id":76561199229567068,"connected_time":613000000000,"state":"active","ping":77},{"user_id":28,"name":"Bramble","steam_id":76561198040179901,"connected_time":1097000000000,"state":"active","ping":59},{"user_id":30,"name":"Satchamo","steam_id":76561198012968239,"connected_time":1088000000000,"state":"active","ping":74},{"user_id":32,"name":"William Lovett","steam_id":76561197991063996,"connected_time":972000000000,"state":"active","ping":46},{"user_id":34,"name":"DigitalTheAlchemist","steam_id":76561198380873323,"connected_time":853000000000,"state":"active","ping":45},{"user_id":36,"name":"what the freak","steam_id":76561198080754727,"connected_time":736000000000,"state":"active","ping":90},{"user_id":38,"name":"bcizzo","steam_id":76561197994399953,"connected_time":602000000000,"state":"active","ping":97},{"user_id":43,"name":"Rouslen","steam_id":76561198258136676,"connected_time":499000000000,"state":"active","ping":149},{"user_id":40,"name":"Starkiller","steam_id":76561198101643120,"connected_time":588000000000,"state":"active","ping":107},{"user_id":41,"name":"Menacing","steam_id":76561198009093788,"connected_time":586000000000,"state":"active","ping":65},{"user_id":42,"name":"meow","steam_id":76561199027265733,"connected_time":579000000000,"state":"active","ping":74},{"user_id":44,"name":"Chris P. Bacon","steam_id":76561198000851038,"connected_time":482000000000,"state":"active","ping":84},{"user_id":45,"name":"das forscher","steam_id":76561197981952334,"connected_time":460000000000,"state":"active","ping":62},{"user_id":46,"name":"creal","steam_id":76561198127116199,"connected_time":363000000000,"state":"active","ping":56},{"user_id":48,"name":"totally nuts","steam_id":76561198072856511,"connected_time":129000000000,"state":"active","ping":82}]},{"server_id":36,"name":"Uncletopia | Chicago | 5 | All Maps","name_short":"chi-5","host":"chi-2.us.uncletopia.com","port":27015,"enabled":true,"region":"us-central","cc":"us","latitude":41.881832,"longitude":-87.62318,"reserved":0,"last_update":"0001-01-01T00:00:00Z","name_a2s":"Uncletopia | Chicago | 5 | All Maps","protocol":17,"map":"cp_mercenarypark","folder":"tf","game":"Team Fortress","app_id":440,"player_count":0,"max_players":24,"Bots":0,"server_type":"Dedicated","server_os":"Linux","password":true,"vac":true,"version":"7961495","steam_id":85568392924866362,"keywords":["cp","nocrits","nodmgspread","uncletopia"],"game_id":440,"stv_port":27016,"stv_name":"Uncletopia | Chicago | 5 | All Maps | STV","players":null},{"server_id":37,"name":"Uncletopia | Chicago | 6 | All Maps","name_short":"chi-6","host":"chi-2.us.uncletopia.com","port":27025,"enabled":true,"region":"us-central","cc":"us","latitude":41.881832,"longitude":-87.62318,"reserved":0,"last_update":"0001-01-01T00:00:00Z","name_a2s":"Uncletopia | Chicago | 6 | All Maps","protocol":17,"map":"pl_swiftwater_final1","folder":"tf","game":"Team Fortress","app_id":440,"player_count":0,"max_players":24,"Bots":0,"server_type":"Dedicated","server_os":"Linux","password":true,"vac":true,"version":"7961495","steam_id":85568392924866363,"keywords":["nocrits","nodmgspread","payload","uncletopia"],"game_id":440,"stv_port":27026,"stv_name":"Uncletopia | Chicago | 6 | All Maps | STV","players":null},{"server_id":38,"name":"Uncletopia | Chicago | 7 | Stopwatch","name_short":"chi-7","host":"chi-2.us.uncletopia.com","port":27035,"enabled":true,"region":"us-central","cc":"us","latitude":41.881832,"longitude":-87.62318,"reserved":0,"last_update":"0001-01-01T00:00:00Z","name_a2s":"Uncletopia | Chicago | 7 | Stopwatch","protocol":17,"map":"workshop/pl_summercoast_rc8e.ugc1761528829","folder":"tf","game":"Team Fortress","app_id":440,"player_count":0,"max_players":24,"Bots":0,"server_type":"Dedicated","server_os":"Linux","password":true,"vac":true,"version":"7961495","steam_id":85568392924866364,"keywords":["nocrits","nodmgspread","payload","uncletopia"],"game_id":440,"stv_port":27036,"stv_name":"Uncletopia | Chicago | 7 | Stopwatch | STV","players":null},{"server_id":39,"name":"Uncletopia | Chicago | 8 | Community","name_short":"chi-8","host":"chi-2.us.uncletopia.com","port":27045,"enabled":true,"region":"us-central","cc":"us","latitude":41.881832,"longitude":-87.62318,"reserved":0,"last_update":"0001-01-01T00:00:00Z","name_a2s":"Uncletopia | Chicago | 8 | Community","protocol":17,"map":"workshop/cp_caldera_rc3.ugc2834196889","folder":"tf","game":"Team Fortress","app_id":440,"player_count":0,"max_players":24,"Bots":0,"server_type":"Dedicated","server_os":"Linux","password":true,"vac":true,"version":"7961495","steam_id":85568392924866365,"keywords":["cp","nocrits","nodmgspread","uncletopia"],"game_id":440,"stv_port":27046,"stv_name":"Uncletopia | Chicago | 8 | Community | STV","players":null},{"server_id":8,"name":"Uncletopia | Dallas | 1 | All Maps","name_short":"dal-1","host":"dal-1.us.uncletopia.com","port":27015,"enabled":true,"region":"us-central","cc":"us","latitude":32.779167,"longitude":-96.80889,"reserved":0,"last_update":"0001-01-01T00:00:00Z","name_a2s":"Uncletopia | Dallas | 1 | All Maps","protocol":17,"map":"pl_rumford_event","folder":"tf","game":"Team Fortress","app_id":440,"player_count":0,"max_players":24,"Bots":0,"server_type":"Dedicated","server_os":"Linux","password":true,"vac":true,"version":"7961495","steam_id":85568392924469986,"keywords":["nocrits","nodmgspread","payload","uncletopia"],"game_id":440,"stv_port":27016,"stv_name":"Uncletopia | Dallas | 1 | All Maps | STV","players":null},{"server_id":108,"name":"Uncletopia | Dallas | 2 | All Maps","name_short":"dal-2","host":"dal-1.us.uncletopia.com","port":27025,"enabled":true,"region":"us-central","cc":"us","latitude":32.779167,"longitude":-96.80889,"reserved":0,"last_update":"0001-01-01T00:00:00Z","name_a2s":"Uncletopia | Dallas | 2 | All Maps","protocol":17,"map":"cp_freight_final1","folder":"tf","game":"Team Fortress","app_id":440,"player_count":0,"max_players":24,"Bots":0,"server_type":"Dedicated","server_os":"Linux","password":true,"vac":true,"version":"7961495","steam_id":85568392924469988,"keywords":["cp","nocrits","nodmgspread","uncletopia"],"game_id":440,"stv_port":27026,"stv_name":"Uncletopia | Dallas | 2 | All Maps | STV","players":null},{"server_id":404,"name":"Uncletopia | Dallas | 3 | All Maps","name_short":"dal-3","host":"dal-1.us.uncletopia.com","port":27035,"enabled":true,"region":"us-central","cc":"us","latitude":32.779167,"longitude":-96.80889,"reserved":0,"last_update":"0001-01-01T00:00:00Z","name_a2s":"Uncletopia | Dallas | 3 | All Maps","protocol":17,"map":"pl_pier","folder":"tf","game":"Team Fortress","app_id":440,"player_count":23,"max_players":24,"Bots":0,"server_type":"Dedicated","server_os":"Linux","password":true,"vac":true,"version":"7961495","steam_id":85568392924515219,"keywords":["nocrits","nodmgspread","payload","uncletopia"],"game_id":440,"stv_port":27036,"stv_name":"Uncletopia | Dallas | 3 | All Maps | STV","players":[{"user_id":5,"name":"Chilling, Bing","steam_id":76561198140651185,"connected_time":7444000000000,"state":"active","ping":52},{"user_id":41,"name":"orange cat","steam_id":76561198060748016,"connected_time":1877000000000,"state":"active","ping":97},{"user_id":42,"name":"Miku","steam_id":76561198272562810,"connected_time":1877000000000,"state":"active","ping":94},{"user_id":58,"name":"That one gamer boy","steam_id":76561199166485004,"connected_time":821000000000,"state":"active","ping":48},{"user_id":20,"name":"Robin","steam_id":76561198988673485,"connected_time":3042000000000,"state":"active","ping":82},{"user_id":43,"name":"Joe Biden","steam_id":76561198151426128,"connected_time":1870000000000,"state":"active","ping":80},{"user_id":59,"name":"Mr. Disguised Fox","steam_id":76561199210444026,"connected_time":782000000000,"state":"active","ping":96},{"user_id":60,"name":"my mom","steam_id":76561199225201569,"connected_time":779000000000,"state":"active","ping":77},{"user_id":63,"name":"firetamer2","steam_id":76561198040886980,"connected_time":329000000000,"state":"active","ping":83},{"user_id":66,"name":"Boring","steam_id":76561198827219701,"connected_time":253000000000,"state":"active","ping":178},{"user_id":64,"name":"reis","steam_id":76561199232952016,"connected_time":327000000000,"state":"active","ping":180},{"user_id":56,"name":"Toripollo","steam_id":76561198251665862,"connected_time":1058000000000,"state":"active","ping":105},{"user_id":34,"name":"felon","steam_id":76561199100342013,"connected_time":2040000000000,"state":"active","ping":79},{"user_id":35,"name":"cumgoblin","steam_id":76561198113270138,"connected_time":2031000000000,"state":"active","ping":46},{"user_id":62,"name":"need a freak sink cleaner","steam_id":76561198140679751,"connected_time":700000000000,"state":"active","ping":44},{"user_id":65,"name":"Gingy","steam_id":76561198024301169,"connected_time":283000000000,"state":"active","ping":86},{"user_id":38,"name":"blobb","steam_id":76561198950448488,"connected_time":1995000000000,"state":"active","ping":76},{"user_id":39,"name":"YOU WHAT?!","steam_id":76561198418679471,"connected_time":1947000000000,"state":"active","ping":60},{"user_id":40,"name":"averde602","steam_id":76561198178858222,"connected_time":1922000000000,"state":"active","ping":80},{"user_id":67,"name":"slowdance","steam_id":76561198097427947,"connected_time":162000000000,"state":"active","ping":127},{"user_id":47,"name":"Sylvain","steam_id":76561198113385271,"connected_time":1791000000000,"state":"active","ping":80},{"user_id":52,"name":"The Zoidberg Medic","steam_id":76561197994285087,"connected_time":1235000000000,"state":"active","ping":82},{"user_id":54,"name":"Type Three Dabeetus","steam_id":76561198062710038,"connected_time":1110000000000,"state":"active","ping":81}]},{"server_id":405,"name":"Uncletopia | Dallas | 4 | Community","name_short":"dal-4","host":"dal-1.us.uncletopia.com","port":27045,"enabled":true,"region":"us-central","cc":"us","latitude":32.779167,"longitude":-96.80889,"reserved":0,"last_update":"0001-01-01T00:00:00Z","name_a2s":"Uncletopia | Dallas | 4 | Community","protocol":17,"map":"workshop/cp_croissant_final.ugc458840209","folder":"tf","game":"Team Fortress","app_id":440,"player_count":0,"max_players":24,"Bots":0,"server_type":"Dedicated","server_os":"Linux","password":true,"vac":true,"version":"7961495","steam_id":85568392924515220,"keywords":["cp","nocrits","nodmgspread","uncletopia"],"game_id":440,"stv_port":27046,"stv_name":"Uncletopia | Dallas | 4 | Community | STV","players":null},{"server_id":5,"name":"Uncletopia | Frankfurt | 1 | All Maps","name_short":"frk-1","host":"frk-1.de.uncletopia.com","port":27015,"enabled":true,"region":"eu","cc":"de","latitude":50.110924,"longitude":8.682127,"reserved":0,"last_update":"0001-01-01T00:00:00Z","name_a2s":"Uncletopia | Frankfurt | 1 | All Maps","protocol":17,"map":"pl_snowycoast","folder":"tf","game":"Team Fortress","app_id":440,"player_count":24,"max_players":24,"Bots":0,"server_type":"Dedicated","server_os":"Linux","password":true,"vac":true,"version":"7961495","steam_id":85568392924469989,"keywords":["nocrits","nodmgspread","payload","uncletopia"],"game_id":440,"stv_port":27016,"stv_name":"Uncletopia | Frankfurt | 1 | All Maps | STV","players":[{"user_id":154,"name":"Skeletros","steam_id":76561198130969152,"connected_time":5512000000000,"state":"active","ping":131},{"user_id":120,"name":"XPullaHiiri","steam_id":76561198031652375,"connected_time":7821000000000,"state":"active","ping":89},{"user_id":142,"name":"nori","steam_id":76561198099077097,"connected_time":5959000000000,"state":"active","ping":87},{"user_id":177,"name":"DoKo_O","steam_id":76561198028025069,"connected_time":3586000000000,"state":"active","ping":52},{"user_id":206,"name":"404nonamefound","steam_id":76561198354682115,"connected_time":1051000000000,"state":"active","ping":53},{"user_id":203,"name":"Uganda Warrior","steam_id":76561198120502313,"connected_time":1277000000000,"state":"active","ping":55},{"user_id":188,"name":"Chen","steam_id":76561198440363619,"connected_time":2152000000000,"state":"active","ping":53},{"user_id":175,"name":"Höyler","steam_id":76561198082177314,"connected_time":3653000000000,"state":"active","ping":75},{"user_id":198,"name":"kenzou","steam_id":76561199180054996,"connected_time":1654000000000,"state":"active","ping":69},{"user_id":184,"name":"LOBZIK","steam_id":76561198114830120,"connected_time":3271000000000,"state":"active","ping":77},{"user_id":202,"name":"snayke","steam_id":76561198077822932,"connected_time":1457000000000,"state":"active","ping":60},{"user_id":209,"name":"Hoff","steam_id":76561198138540938,"connected_time":794000000000,"state":"active","ping":68},{"user_id":186,"name":"Veirū Viseris","steam_id":76561197989857176,"connected_time":2332000000000,"state":"active","ping":77},{"user_id":211,"name":"\u003cGNGWD\u003e the scringly dingly","steam_id":76561198192179174,"connected_time":674000000000,"state":"active","ping":117},{"user_id":173,"name":"Franz_","steam_id":76561199167103120,"connected_time":3992000000000,"state":"active","ping":55},{"user_id":212,"name":"oGod","steam_id":76561198971536843,"connected_time":536000000000,"state":"active","ping":70},{"user_id":200,"name":"walluu","steam_id":76561198121830870,"connected_time":1592000000000,"state":"active","ping":63},{"user_id":158,"name":"Gordon Birdman","steam_id":76561198013382324,"connected_time":5283000000000,"state":"active","ping":63},{"user_id":216,"name":"Amin","steam_id":76561199212272501,"connected_time":213000000000,"state":"active","ping":161},{"user_id":210,"name":"Frankus McSpankus","steam_id":76561198945408096,"connected_time":791000000000,"state":"active","ping":156},{"user_id":194,"name":"Anti-Capitalist Weapon","steam_id":76561198143526071,"connected_time":1925000000000,"state":"active","ping":71},{"user_id":205,"name":"Accident","steam_id":76561198115160396,"connected_time":1145000000000,"state":"active","ping":75},{"user_id":208,"name":"yodel","steam_id":76561198138777659,"connected_time":986000000000,"state":"active","ping":65},{"user_id":195,"name":"Ve stylu","steam_id":76561198218257120,"connected_time":1922000000000,"state":"active","ping":74}]},{"server_id":110,"name":"Uncletopia | Frankfurt | 2 | All Maps","name_short":"frk-2","host":"frk-1.de.uncletopia.com","port":27025,"enabled":true,"region":"eu","cc":"de","latitude":50.110924,"longitude":8.682127,"reserved":0,"last_update":"0001-01-01T00:00:00Z","name_a2s":"Uncletopia | Frankfurt | 2 | All Maps","protocol":17,"map":"pl_barnblitz","folder":"tf","game":"Team Fortress","app_id":440,"player_count":24,"max_players":24,"Bots":0,"server_type":"Dedicated","server_os":"Linux","password":true,"vac":true,"version":"7961495","steam_id":85568392924469990,"keywords":["nocrits","nodmgspread","payload","uncletopia"],"game_id":440,"stv_port":27026,"stv_name":"Uncletopia | Frankfurt | 2 | All Maps | STV","players":[{"user_id":104,"name":"BΣNZOIC","steam_id":76561198875665995,"connected_time":1135000000000,"state":"active","ping":76},{"user_id":90,"name":"ShiftingMind","steam_id":76561198448975127,"connected_time":2275000000000,"state":"active","ping":92},{"user_id":73,"name":"Grok_Squat","steam_id":76561198007713940,"connected_time":3329000000000,"state":"active","ping":71},{"user_id":116,"name":"ShiroReal","steam_id":76561198433951684,"connected_time":90000000000,"state":"active","ping":49},{"user_id":112,"name":"BitSpenser","steam_id":76561198001377076,"connected_time":645000000000,"state":"active","ping":68},{"user_id":117,"name":"wavelength","steam_id":76561198154677956,"connected_time":72000000000,"state":"active","ping":57},{"user_id":118,"name":"naavki.webM","steam_id":76561198255260602,"connected_time":58000000000,"state":"active","ping":56},{"user_id":113,"name":"⨂","steam_id":76561198087800030,"connected_time":619000000000,"state":"active","ping":46},{"user_id":119,"name":"Il_Craparo(IT)","steam_id":76561198072963882,"connected_time":48000000000,"state":"active","ping":60},{"user_id":106,"name":"Janner","steam_id":76561198127045282,"connected_time":1127000000000,"state":"active","ping":55},{"user_id":110,"name":"HarveyGames","steam_id":76561198355794253,"connected_time":884000000000,"state":"active","ping":115},{"user_id":61,"name":"Arigato Gozaimasu!","steam_id":76561198052342856,"connected_time":4184000000000,"state":"active","ping":75},{"user_id":102,"name":"baronne","steam_id":76561198262910410,"connected_time":1166000000000,"state":"active","ping":92},{"user_id":105,"name":"andeddk","steam_id":76561198261869475,"connected_time":1131000000000,"state":"active","ping":84},{"user_id":120,"name":"Rodia","steam_id":76561197968293161,"connected_time":25000000000,"state":"active","ping":60},{"user_id":103,"name":"gronk","steam_id":76561198806422317,"connected_time":1159000000000,"state":"active","ping":56},{"user_id":107,"name":"Friendly","steam_id":76561198081388322,"connected_time":1033000000000,"state":"active","ping":145},{"user_id":121,"name":"else1","steam_id":76561197996558319,"connected_time":4000000000,"state":"spawning","ping":74},{"user_id":115,"name":"Staffy","steam_id":76561198859722036,"connected_time":200000000000,"state":"active","ping":107},{"user_id":108,"name":"shapeshifter","steam_id":76561198052898368,"connected_time":1015000000000,"state":"active","ping":73},{"user_id":109,"name":"Sebbe","steam_id":76561198105465619,"connected_time":991000000000,"state":"active","ping":89},{"user_id":55,"name":"steck","steam_id":76561197973948113,"connected_time":4492000000000,"state":"active","ping":45},{"user_id":89,"name":"hasansaeedifar","steam_id":76561198974563618,"connected_time":2453000000000,"state":"active","ping":158},{"user_id":111,"name":"salmonander","steam_id":76561198104577052,"connected_time":828000000000,"state":"active","ping":104}]},{"server_id":308,"name":"Uncletopia | Frankfurt | 3 | All Maps","name_short":"frk-3","host":"frk-1.de.uncletopia.com","port":27035,"enabled":true,"region":"eu","cc":"de","latitude":50.110924,"longitude":8.682127,"reserved":0,"last_update":"0001-01-01T00:00:00Z","name_a2s":"Uncletopia | Frankfurt | 3 | All Maps","protocol":17,"map":"koth_lakeside_final","folder":"tf","game":"Team Fortress","app_id":440,"player_count":23,"max_players":24,"Bots":0,"server_type":"Dedicated","server_os":"Linux","password":true,"vac":true,"version":"7961495","steam_id":85568392924504274,"keywords":["cp","nocrits","nodmgspread","uncletopia"],"game_id":440,"stv_port":27036,"stv_name":"Uncletopia | Frankfurt | 3 | All Maps | STV","players":[{"user_id":13,"name":"Mozzaza","steam_id":76561198156316111,"connected_time":2377000000000,"state":"active","ping":225},{"user_id":12,"name":"kid named ringfinger","steam_id":76561198159100379,"connected_time":2604000000000,"state":"active","ping":58},{"user_id":14,"name":"Graham (dog)","steam_id":76561198062668942,"connected_time":1875000000000,"state":"active","ping":46},{"user_id":15,"name":"Moth boy","steam_id":76561198422779449,"connected_time":1769000000000,"state":"active","ping":57},{"user_id":16,"name":"Errordood","steam_id":76561198263263692,"connected_time":1768000000000,"state":"active","ping":63},{"user_id":18,"name":"ThellanM","steam_id":76561199014222387,"connected_time":704000000000,"state":"active","ping":71},{"user_id":19,"name":"dexter","steam_id":76561198937297906,"connected_time":691000000000,"state":"active","ping":96},{"user_id":20,"name":"Jemixz","steam_id":76561198075766516,"connected_time":674000000000,"state":"active","ping":62},{"user_id":22,"name":"mexswall","steam_id":76561198075748245,"connected_time":574000000000,"state":"active","ping":54},{"user_id":33,"name":"Shrimpeee","steam_id":76561199012689768,"connected_time":190000000000,"state":"active","ping":72},{"user_id":34,"name":"breadbear \u003c3","steam_id":76561198036895007,"connected_time":181000000000,"state":"active","ping":77},{"user_id":25,"name":"Amon Gus","steam_id":76561199094540960,"connected_time":416000000000,"state":"active","ping":52},{"user_id":27,"name":"lumikko","steam_id":76561198112012468,"connected_time":356000000000,"state":"active","ping":90},{"user_id":29,"name":"rons3n","steam_id":76561197993631294,"connected_time":328000000000,"state":"active","ping":56},{"user_id":30,"name":"[ITA]Stioppen","steam_id":76561198177658715,"connected_time":250000000000,"state":"active","ping":149},{"user_id":31,"name":"Gayass","steam_id":76561198288695867,"connected_time":242000000000,"state":"active","ping":75},{"user_id":32,"name":"Volt","steam_id":76561198237074532,"connected_time":240000000000,"state":"active","ping":108},{"user_id":35,"name":"only1indigo","steam_id":76561198380193071,"connected_time":173000000000,"state":"active","ping":61},{"user_id":36,"name":"NoName","steam_id":76561198108612230,"connected_time":171000000000,"state":"active","ping":87},{"user_id":38,"name":"lugi","steam_id":76561198026903673,"connected_time":134000000000,"state":"active","ping":58},{"user_id":39,"name":"literallyjasonx","steam_id":76561198835895387,"connected_time":121000000000,"state":"active","ping":77},{"user_id":40,"name":"tired","steam_id":76561198046838168,"connected_time":121000000000,"state":"active","ping":47},{"user_id":41,"name":"LevaStepa","steam_id":76561198837897176,"connected_time":97000000000,"state":"active","ping":124}]},{"server_id":309,"name":"Uncletopia | Frankfurt | 4 | All Maps","name_short":"frk-4","host":"frk-1.de.uncletopia.com","port":27045,"enabled":true,"region":"eu","cc":"de","latitude":50.110924,"longitude":8.682127,"reserved":0,"last_update":"0001-01-01T00:00:00Z","name_a2s":"Uncletopia | Frankfurt | 4 | All Maps","protocol":17,"map":"pl_frontier_final","folder":"tf","game":"Team Fortress","app_id":440,"player_count":24,"max_players":24,"Bots":0,"server_type":"Dedicated","server_os":"Linux","password":true,"vac":true,"version":"7961495","steam_id":85568392924504275,"keywords":["nocrits","nodmgspread","payload","uncletopia"],"game_id":440,"stv_port":27046,"stv_name":"Uncletopia | Frankfurt | 4 | All Maps | STV","players":[{"user_id":146,"name":".l.","steam_id":76561198343328308,"connected_time":660000000000,"state":"active","ping":45},{"user_id":158,"name":"AI | Davidoscki","steam_id":76561198129166046,"connected_time":455000000000,"state":"active","ping":81},{"user_id":147,"name":"CHarteneq","steam_id":76561198864628434,"connected_time":655000000000,"state":"active","ping":75},{"user_id":125,"name":"General Solemani from TF2","steam_id":76561198261001389,"connected_time":2224000000000,"state":"active","ping":46},{"user_id":167,"name":"Gator","steam_id":76561198065624683,"connected_time":40000000000,"state":"active","ping":83},{"user_id":162,"name":"boy23","steam_id":76561199475322713,"connected_time":200000000000,"state":"active","ping":67},{"user_id":135,"name":"jonas","steam_id":76561198883559477,"connected_time":1556000000000,"state":"active","ping":63},{"user_id":155,"name":"Efic360","steam_id":76561198863389620,"connected_time":537000000000,"state":"active","ping":60},{"user_id":150,"name":"Wolfy","steam_id":76561198077232111,"connected_time":580000000000,"state":"active","ping":59},{"user_id":126,"name":"Hussain_144","steam_id":76561198346029208,"connected_time":2220000000000,"state":"active","ping":175},{"user_id":151,"name":"skai","steam_id":76561198184881255,"connected_time":572000000000,"state":"active","ping":70},{"user_id":74,"name":"anders McFlanders","steam_id":76561198022811995,"connected_time":5948000000000,"state":"active","ping":58},{"user_id":153,"name":"halo_66","steam_id":76561198085471286,"connected_time":548000000000,"state":"active","ping":65},{"user_id":154,"name":"poovy","steam_id":76561198334992772,"connected_time":543000000000,"state":"active","ping":95},{"user_id":54,"name":"I-I","steam_id":76561198267969436,"connected_time":7549000000000,"state":"active","ping":59},{"user_id":164,"name":"dumo dumo","steam_id":76561198346638308,"connected_time":151000000000,"state":"active","ping":50},{"user_id":114,"name":"FLAKEZ4REAL","steam_id":76561197978361391,"connected_time":2867000000000,"state":"active","ping":52},{"user_id":161,"name":"I harass for feet pics","steam_id":76561198173218318,"connected_time":257000000000,"state":"active","ping":50},{"user_id":115,"name":"ZANNABLUKE","steam_id":76561198013534336,"connected_time":2795000000000,"state":"active","ping":57},{"user_id":165,"name":"Célério","steam_id":76561198088253576,"connected_time":124000000000,"state":"active","ping":55},{"user_id":139,"name":"888888888","steam_id":76561198163081194,"connected_time":1413000000000,"state":"active","ping":60},{"user_id":142,"name":"Saihtama","steam_id":76561198067497192,"connected_time":1094000000000,"state":"active","ping":89},{"user_id":159,"name":"nordstream bomber","steam_id":76561199401283123,"connected_time":455000000000,"state":"active","ping":60},{"user_id":160,"name":"y0stErCix","steam_id":76561198219698192,"connected_time":453000000000,"state":"active","ping":62}]},{"server_id":310,"name":"Uncletopia | Frankfurt | 5 | All Maps","name_short":"frk-5","host":"frk-1.de.uncletopia.com","port":27055,"enabled":true,"region":"eu","cc":"de","latitude":50.110924,"longitude":8.682127,"reserved":0,"last_update":"0001-01-01T00:00:00Z","name_a2s":"Uncletopia | Frankfurt | 5 | All Maps","protocol":17,"map":"cp_altitude","folder":"tf","game":"Team Fortress","app_id":440,"player_count":8,"max_players":24,"Bots":0,"server_type":"Dedicated","server_os":"Linux","password":true,"vac":true,"version":"7961495","steam_id":85568392924504277,"keywords":["cp","nocrits","nodmgspread","uncletopia"],"game_id":440,"stv_port":27056,"stv_name":"Uncletopia | Frankfurt | 5 | All Maps | STV","players":[{"user_id":232,"name":"Spinach Loving Elkman Steve","steam_id":76561198861519418,"connected_time":142000000000,"state":"active","ping":126},{"user_id":212,"name":"help","steam_id":76561199056338917,"connected_time":1621000000000,"state":"active","ping":164},{"user_id":195,"name":"❤ [HoneyBe_] ❤","steam_id":76561198288930154,"connected_time":3228000000000,"state":"active","ping":60},{"user_id":226,"name":"Caliban","steam_id":76561197999696839,"connected_time":731000000000,"state":"active","ping":92},{"user_id":199,"name":"Rocket Queen's consort","steam_id":76561198092995429,"connected_time":2882000000000,"state":"active","ping":134},{"user_id":219,"name":"JohnTraveltime","steam_id":76561199244281754,"connected_time":1244000000000,"state":"active","ping":61},{"user_id":211,"name":"Zephyr","steam_id":76561199116936359,"connected_time":1696000000000,"state":"active","ping":67},{"user_id":223,"name":"HumorlessButton","steam_id":76561198170128638,"connected_time":1202000000000,"state":"active","ping":54}]},{"server_id":311,"name":"Uncletopia | Frankfurt | 6 | All Maps","name_short":"frk-6","host":"frk-1.de.uncletopia.com","port":27065,"enabled":true,"region":"eu","cc":"de","latitude":50.110924,"longitude":8.682127,"reserved":0,"last_update":"0001-01-01T00:00:00Z","name_a2s":"Uncletopia | Frankfurt | 6 | All Maps","protocol":17,"map":"pl_thundermountain","folder":"tf","game":"Team Fortress","app_id":440,"player_count":24,"max_players":24,"Bots":0,"server_type":"Dedicated","server_os":"Linux","password":true,"vac":true,"version":"7961495","steam_id":85568392924504278,"keywords":["nocrits","nodmgspread","payload","uncletopia"],"game_id":440,"stv_port":27066,"stv_name":"Uncletopia | Frankfurt | 6 | All Maps | STV","players":[{"user_id":218,"name":"medick","steam_id":76561199380849468,"connected_time":2482000000000,"state":"active","ping":82},{"user_id":190,"name":"galaxy","steam_id":76561198164819022,"connected_time":4089000000000,"state":"active","ping":45},{"user_id":191,"name":"Dicartal","steam_id":76561198295793592,"connected_time":4042000000000,"state":"active","ping":126},{"user_id":192,"name":"GG","steam_id":76561198260569123,"connected_time":3997000000000,"state":"active","ping":131},{"user_id":216,"name":"Sebab","steam_id":76561198122706821,"connected_time":2557000000000,"state":"active","ping":51},{"user_id":262,"name":"mr. TF","steam_id":76561199125002431,"connected_time":308000000000,"state":"active","ping":72},{"user_id":263,"name":"red texan","steam_id":76561199193957264,"connected_time":286000000000,"state":"active","ping":44},{"user_id":264,"name":"Dr.Time_Consuming","steam_id":76561199238207915,"connected_time":271000000000,"state":"active","ping":71},{"user_id":259,"name":",","steam_id":76561198347020945,"connected_time":676000000000,"state":"active","ping":77},{"user_id":227,"name":"Spurt","steam_id":76561198078523852,"connected_time":2356000000000,"state":"active","ping":59},{"user_id":266,"name":"Supercoxylac","steam_id":76561198376300138,"connected_time":174000000000,"state":"active","ping":73},{"user_id":232,"name":"Penis Contortionist","steam_id":76561198073663784,"connected_time":2294000000000,"state":"active","ping":48},{"user_id":260,"name":"Mike","steam_id":76561198228455736,"connected_time":644000000000,"state":"active","ping":64},{"user_id":252,"name":"Endi","steam_id":76561198914938199,"connected_time":1313000000000,"state":"active","ping":89},{"user_id":225,"name":"Sir Warock","steam_id":76561198180468693,"connected_time":2371000000000,"state":"active","ping":84},{"user_id":267,"name":"star_wheatley","steam_id":76561199160267373,"connected_time":63000000000,"state":"active","ping":68},{"user_id":261,"name":"go play rimworld","steam_id":76561199397932924,"connected_time":356000000000,"state":"active","ping":66},{"user_id":254,"name":"Irme","steam_id":76561198161590299,"connected_time":1105000000000,"state":"active","ping":75},{"user_id":230,"name":"i am the rat","steam_id":76561199491122698,"connected_time":2328000000000,"state":"active","ping":108},{"user_id":258,"name":"Poule De Combat","steam_id":76561198002108430,"connected_time":835000000000,"state":"active","ping":66},{"user_id":233,"name":"Blackchantingrows","steam_id":76561198972312498,"connected_time":2282000000000,"state":"active","ping":71},{"user_id":251,"name":"Megafrox","steam_id":76561199091818724,"connected_time":1345000000000,"state":"active","ping":120},{"user_id":237,"name":"Spinya","steam_id":76561198086653667,"connected_time":2163000000000,"state":"active","ping":71},{"user_id":255,"name":"God is serb","steam_id":76561198966246028,"connected_time":1012000000000,"state":"active","ping":87}]},{"server_id":23,"name":"Uncletopia | Frankfurt | 7 | Stopwatch","name_short":"frk-7","host":"frk-1.de.uncletopia.com","port":27075,"enabled":true,"region":"eu","cc":"de","latitude":50.110924,"longitude":8.682127,"reserved":0,"last_update":"0001-01-01T00:00:00Z","name_a2s":"Uncletopia | Frankfurt | 7 | Stopwatch","protocol":17,"map":"cp_metalworks","folder":"tf","game":"Team Fortress","app_id":440,"player_count":0,"max_players":24,"Bots":0,"server_type":"Dedicated","server_os":"Linux","password":true,"vac":true,"version":"7961495","steam_id":85568392924742827,"keywords":["cp","nocrits","nodmgspread","uncletopia"],"game_id":440,"stv_port":27076,"stv_name":"Uncletopia | Frankfurt | 7 | Stopwatch | STV","players":null},{"server_id":24,"name":"Uncletopia | Frankfurt | 8 | Community","name_short":"frk-8","host":"frk-1.de.uncletopia.com","port":27085,"enabled":true,"region":"eu","cc":"de","latitude":50.110924,"longitude":8.682127,"reserved":0,"last_update":"0001-01-01T00:00:00Z","name_a2s":"Uncletopia | Frankfurt | 8 | Community","protocol":17,"map":"workshop/cp_indulge.ugc528106646","folder":"tf","game":"Team Fortress","app_id":440,"player_count":3,"max_players":24,"Bots":0,"server_type":"Dedicated","server_os":"Linux","password":true,"vac":true,"version":"7961495","steam_id":85568392924742828,"keywords":["cp","nocrits","nodmgspread","uncletopia"],"game_id":440,"stv_port":27086,"stv_name":"Uncletopia | Frankfurt | 8 | Community | STV","players":[{"user_id":11,"name":"Alpharius","steam_id":76561198403059034,"connected_time":3597000000000,"state":"active","ping":68},{"user_id":12,"name":"W a y n e e","steam_id":76561198248290806,"connected_time":3404000000000,"state":"active","ping":83},{"user_id":15,"name":"VillagerKing2","steam_id":76561198992914638,"connected_time":1065000000000,"state":"active","ping":89}]},{"server_id":202,"name":"Uncletopia | Hong Kong | 1 | All Maps","name_short":"hgk-1","host":"hgk-1.hk.uncletopia.com","port":27015,"enabled":true,"region":"asia","cc":"hk","latitude":22.302711,"longitude":114.177216,"reserved":0,"last_update":"0001-01-01T00:00:00Z","name_a2s":"Uncletopia | Hong Kong | 1 | All Maps","protocol":17,"map":"pl_borneo","folder":"tf","game":"Team Fortress","app_id":440,"player_count":10,"max_players":24,"Bots":0,"server_type":"Dedicated","server_os":"Linux","password":true,"vac":true,"version":"7961495","steam_id":85568392924494504,"keywords":["nocrits","nodmgspread","payload","uncletopia"],"game_id":440,"stv_port":27016,"stv_name":"Uncletopia | Hong Kong | 1 | All Maps | STV","players":[{"user_id":145,"name":"Duckzilla","steam_id":76561199223984880,"connected_time":1727000000000,"state":"active","ping":68},{"user_id":157,"name":"mentlegen","steam_id":76561199217256681,"connected_time":764000000000,"state":"active","ping":168},{"user_id":139,"name":"beepis","steam_id":76561198965473654,"connected_time":2214000000000,"state":"active","ping":71},{"user_id":158,"name":"arjunjiji.2006","steam_id":76561199381905256,"connected_time":715000000000,"state":"active","ping":171},{"user_id":137,"name":"screaming sniper","steam_id":76561199085568674,"connected_time":2274000000000,"state":"active","ping":62},{"user_id":144,"name":"yveth","steam_id":76561198320532821,"connected_time":1969000000000,"state":"active","ping":65},{"user_id":159,"name":"Onyx_Cn","steam_id":76561199503723004,"connected_time":705000000000,"state":"active","ping":165},{"user_id":161,"name":"tomato","steam_id":76561198378829574,"connected_time":536000000000,"state":"active","ping":57},{"user_id":120,"name":"Skyler White yo","steam_id":76561198895193247,"connected_time":4697000000000,"state":"active","ping":71},{"user_id":135,"name":"母の肉団子@hao123.com","steam_id":76561198069561896,"connected_time":2473000000000,"state":"active","ping":30}]},{"server_id":1,"name":"Uncletopia | Los Angeles | 1 | All Maps","name_short":"lax-1","host":"lax-1.us.uncletopia.com","port":27015,"enabled":true,"region":"us-west","cc":"us","latitude":33.94279,"longitude":-118.41004,"reserved":0,"last_update":"0001-01-01T00:00:00Z","name_a2s":"Uncletopia | Los Angeles | 1 | All Maps","protocol":17,"map":"koth_lakeside_final","folder":"tf","game":"Team Fortress","app_id":440,"player_count":0,"max_players":24,"Bots":0,"server_type":"Dedicated","server_os":"Linux","password":true,"vac":true,"version":"7961495","steam_id":85568392924469991,"keywords":["cp","nocrits","nodmgspread","uncletopia"],"game_id":440,"stv_port":27016,"stv_name":"Uncletopia | Los Angeles | 1 | All Maps | STV","players":null},{"server_id":112,"name":"Uncletopia | Los Angeles | 2 | All Maps","name_short":"lax-2","host":"lax-1.us.uncletopia.com","port":27025,"enabled":true,"region":"us-west","cc":"us","latitude":33.94279,"longitude":-118.41004,"reserved":0,"last_update":"0001-01-01T00:00:00Z","name_a2s":"Uncletopia | Los Angeles | 2 | All Maps","protocol":17,"map":"koth_lazarus","folder":"tf","game":"Team Fortress","app_id":440,"player_count":0,"max_players":24,"Bots":0,"server_type":"Dedicated","server_os":"Linux","password":true,"vac":true,"version":"7961495","steam_id":85568392924469992,"keywords":["cp","nocrits","nodmgspread","uncletopia"],"game_id":440,"stv_port":27026,"stv_name":"Uncletopia | Los Angeles | 2 | All Maps | STV","players":null},{"server_id":324,"name":"Uncletopia | Los Angeles | 3 | All Maps","name_short":"lax-3","host":"lax-1.us.uncletopia.com","port":27035,"enabled":true,"region":"us-west","cc":"us","latitude":33.94279,"longitude":-118.41004,"reserved":0,"last_update":"0001-01-01T00:00:00Z","name_a2s":"Uncletopia | Los Angeles | 3 | All Maps","protocol":17,"map":"pl_frontier_final","folder":"tf","game":"Team Fortress","app_id":440,"player_count":0,"max_players":24,"Bots":0,"server_type":"Dedicated","server_os":"Linux","password":true,"vac":true,"version":"7961495","steam_id":85568392924510198,"keywords":["nocrits","nodmgspread","payload","uncletopia"],"game_id":440,"stv_port":27036,"stv_name":"Uncletopia | Los Angeles | 3 | All Maps | STV","players":null},{"server_id":25,"name":"Uncletopia | Los Angeles | 4 | Stopwatch","name_short":"lax-4","host":"lax-1.us.uncletopia.com","port":27045,"enabled":true,"region":"us-west","cc":"us","latitude":33.94279,"longitude":-118.41004,"reserved":0,"last_update":"0001-01-01T00:00:00Z","name_a2s":"Uncletopia | Los Angeles | 4 | Stopwatch","protocol":17,"map":"workshop/koth_bagel_rc6.ugc2514036946","folder":"tf","game":"Team Fortress","app_id":440,"player_count":0,"max_players":24,"Bots":0,"server_type":"Dedicated","server_os":"Linux","password":true,"vac":true,"version":"7961495","steam_id":85568392924510199,"keywords":["cp","nocrits","nodmgspread","uncletopia"],"game_id":440,"stv_port":27046,"stv_name":"Uncletopia | Los Angeles | 4 | Stopwatch | STV","players":null},{"server_id":11,"name":"Uncletopia | London | 1 | All Maps","name_short":"lon-1","host":"lon-1.uk.uncletopia.com","port":27015,"enabled":true,"region":"eu","cc":"gb","latitude":51.509865,"longitude":-0.118092,"reserved":0,"last_update":"0001-01-01T00:00:00Z","name_a2s":"Uncletopia | London | 1 | All Maps","protocol":17,"map":"pl_upward","folder":"tf","game":"Team Fortress","app_id":440,"player_count":24,"max_players":24,"Bots":0,"server_type":"Dedicated","server_os":"Linux","password":true,"vac":true,"version":"7961495","steam_id":85568392924367362,"keywords":["nocrits","nodmgspread","payload","uncletopia"],"game_id":440,"stv_port":27016,"stv_name":"Uncletopia | London | 1 | All Maps | STV","players":[{"user_id":214,"name":"Pyrolander","steam_id":76561198050785450,"connected_time":1820000000000,"state":"active","ping":45},{"user_id":244,"name":"Pimpin' \u0026 Blimpin'","steam_id":76561198326776107,"connected_time":109000000000,"state":"active","ping":95},{"user_id":235,"name":"yeldad","steam_id":76561198447264153,"connected_time":768000000000,"state":"active","ping":128},{"user_id":216,"name":"dim","steam_id":76561198381310350,"connected_time":1617000000000,"state":"active","ping":74},{"user_id":245,"name":"hitbox criminal","steam_id":76561198079277466,"connected_time":74000000000,"state":"active","ping":60},{"user_id":238,"name":"generic alias","steam_id":76561198271607226,"connected_time":554000000000,"state":"active","ping":92},{"user_id":188,"name":"emer","steam_id":76561198001420975,"connected_time":3058000000000,"state":"active","ping":102},{"user_id":239,"name":"RubyTheUnicorn","steam_id":76561198091772218,"connected_time":463000000000,"state":"active","ping":61},{"user_id":237,"name":"Maldom","steam_id":76561198000687053,"connected_time":590000000000,"state":"active","ping":51},{"user_id":222,"name":"dafydd","steam_id":76561198052200325,"connected_time":1349000000000,"state":"active","ping":89},{"user_id":229,"name":"Tomato","steam_id":76561199124472513,"connected_time":901000000000,"state":"active","ping":132},{"user_id":175,"name":"teddy","steam_id":76561198007436837,"connected_time":4267000000000,"state":"active","ping":60},{"user_id":110,"name":"soil.dirt.earth","steam_id":76561198014377623,"connected_time":8641000000000,"state":"active","ping":31},{"user_id":220,"name":"ashley","steam_id":76561198448551449,"connected_time":1377000000000,"state":"active","ping":33},{"user_id":210,"name":"Mea","steam_id":76561198353496134,"connected_time":2208000000000,"state":"active","ping":52},{"user_id":47,"name":"Anri Okita's Massive Milkers","steam_id":76561199186352720,"connected_time":13957000000000,"state":"active","ping":55},{"user_id":230,"name":"alfus","steam_id":76561198071003109,"connected_time":899000000000,"state":"active","ping":60},{"user_id":240,"name":"♡ Birdy but sick :( ♡","steam_id":76561198139632682,"connected_time":140000000000,"state":"active","ping":79},{"user_id":213,"name":"Gorgeous George","steam_id":76561198144256544,"connected_time":2095000000000,"state":"active","ping":57},{"user_id":202,"name":"JGV","steam_id":76561198094654971,"connected_time":2880000000000,"state":"active","ping":98},{"user_id":246,"name":"E2-E4","steam_id":76561198184990375,"connected_time":36000000000,"state":"spawning","ping":120},{"user_id":218,"name":"The Subway Scientist","steam_id":76561198193757646,"connected_time":1472000000000,"state":"active","ping":45},{"user_id":233,"name":"Dixon","steam_id":76561199080013642,"connected_time":881000000000,"state":"active","ping":77},{"user_id":221,"name":"AFriendlyRacoon2","steam_id":76561198128231464,"connected_time":1377000000000,"state":"active","ping":56}]},{"server_id":114,"name":"Uncletopia | London | 2 | All Maps","name_short":"lon-2","host":"lon-1.uk.uncletopia.com","port":27025,"enabled":true,"region":"eu","cc":"gb","latitude":51.509865,"longitude":-0.118092,"reserved":0,"last_update":"0001-01-01T00:00:00Z","name_a2s":"Uncletopia | London | 2 | All Maps","protocol":17,"map":"pl_snowycoast","folder":"tf","game":"Team Fortress","app_id":440,"player_count":0,"max_players":24,"Bots":0,"server_type":"Dedicated","server_os":"Linux","password":true,"vac":true,"version":"7961495","steam_id":85568392924470941,"keywords":["nocrits","nodmgspread","payload","uncletopia"],"game_id":440,"stv_port":27026,"stv_name":"Uncletopia | London | 2 | All Maps | STV","players":null},{"server_id":320,"name":"Uncletopia | London | 3 | All Maps","name_short":"lon-3","host":"lon-1.uk.uncletopia.com","port":27035,"enabled":true,"region":"eu","cc":"gb","latitude":51.509865,"longitude":-0.118092,"reserved":0,"last_update":"0001-01-01T00:00:00Z","name_a2s":"Uncletopia | London | 3 | All Maps","protocol":17,"map":"cp_sunshine","folder":"tf","game":"Team Fortress","app_id":440,"player_count":24,"max_players":24,"Bots":0,"server_type":"Dedicated","server_os":"Linux","password":true,"vac":true,"version":"7961495","steam_id":85568392924510192,"keywords":["cp","nocrits","nodmgspread","uncletopia"],"game_id":440,"stv_port":27036,"stv_name":"Uncletopia | London | 3 | All Maps | STV","players":[{"user_id":224,"name":"agent chubo","steam_id":76561199029137789,"connected_time":2074000000000,"state":"active","ping":154},{"user_id":242,"name":"Jack O'Neill","steam_id":76561198024268584,"connected_time":1188000000000,"state":"active","ping":71},{"user_id":232,"name":"Royal Puker","steam_id":76561198039978105,"connected_time":1587000000000,"state":"active","ping":60},{"user_id":233,"name":"pengp068","steam_id":76561198879358103,"connected_time":1573000000000,"state":"active","ping":43},{"user_id":243,"name":"ⓅⓁⓈ | Pink Panther","steam_id":76561198046434381,"connected_time":948000000000,"state":"active","ping":47},{"user_id":247,"name":"Jesus","steam_id":76561199106262610,"connected_time":238000000000,"state":"active","ping":60},{"user_id":75,"name":"s a i","steam_id":76561197970379754,"connected_time":12909000000000,"state":"active","ping":60},{"user_id":227,"name":"daily reminder to drink water","steam_id":76561198246573044,"connected_time":1851000000000,"state":"active","ping":96},{"user_id":158,"name":"I failed by DBS check","steam_id":76561198136239861,"connected_time":7583000000000,"state":"active","ping":45},{"user_id":246,"name":"The Slopper","steam_id":76561198062887395,"connected_time":451000000000,"state":"active","ping":96},{"user_id":193,"name":"natinoot","steam_id":76561198212005117,"connected_time":5309000000000,"state":"active","ping":75},{"user_id":241,"name":"Jam","steam_id":76561198090409013,"connected_time":1212000000000,"state":"active","ping":78},{"user_id":231,"name":"Koroshy","steam_id":76561198104002221,"connected_time":1614000000000,"state":"active","ping":47},{"user_id":237,"name":"Dispenser(Dispenser)","steam_id":76561199211831658,"connected_time":1408000000000,"state":"active","ping":62},{"user_id":245,"name":"Ullr","steam_id":76561198140547483,"connected_time":699000000000,"state":"active","ping":44},{"user_id":202,"name":"Mury","steam_id":76561198069743049,"connected_time":4709000000000,"state":"active","ping":128},{"user_id":226,"name":"Hot Beverage Enjoyer","steam_id":76561198060638325,"connected_time":1915000000000,"state":"active","ping":50},{"user_id":212,"name":"Berdly","steam_id":76561199029872533,"connected_time":2954000000000,"state":"active","ping":53},{"user_id":213,"name":"0pelkenobi","steam_id":76561199155185736,"connected_time":2932000000000,"state":"active","ping":81},{"user_id":214,"name":"[UM-monster","steam_id":76561198085098243,"connected_time":2917000000000,"state":"active","ping":116},{"user_id":239,"name":"moseley519","steam_id":76561198045485374,"connected_time":1383000000000,"state":"active","ping":47},{"user_id":191,"name":"fy","steam_id":76561198315371425,"connected_time":5495000000000,"state":"active","ping":54},{"user_id":240,"name":"Michael","steam_id":76561198003146906,"connected_time":1344000000000,"state":"active","ping":45},{"user_id":177,"name":"my cat","steam_id":76561198348686648,"connected_time":6313000000000,"state":"active","ping":43}]},{"server_id":321,"name":"Uncletopia | London | 4 | All Maps","name_short":"lon-4","host":"lon-1.uk.uncletopia.com","port":27045,"enabled":true,"region":"eu","cc":"gb","latitude":51.509865,"longitude":-0.118092,"reserved":0,"last_update":"0001-01-01T00:00:00Z","name_a2s":"Uncletopia | London | 4 | All Maps","protocol":17,"map":"cp_snakewater_final1","folder":"tf","game":"Team Fortress","app_id":440,"player_count":20,"max_players":24,"Bots":0,"server_type":"Dedicated","server_os":"Linux","password":true,"vac":true,"version":"7961495","steam_id":85568392924510193,"keywords":["cp","nocrits","nodmgspread","uncletopia"],"game_id":440,"stv_port":27046,"stv_name":"Uncletopia | London | 4 | All Maps | STV","players":[{"user_id":210,"name":"Jagel","steam_id":76561198054944725,"connected_time":2878000000000,"state":"active","ping":60},{"user_id":212,"name":"pfear","steam_id":76561197999207328,"connected_time":2838000000000,"state":"active","ping":89},{"user_id":233,"name":"Rusted","steam_id":76561198310605286,"connected_time":1826000000000,"state":"active","ping":71},{"user_id":234,"name":"Machine Elf","steam_id":76561198274465755,"connected_time":1789000000000,"state":"active","ping":41},{"user_id":243,"name":"Big Mean Muther Hubbard","steam_id":76561199223016965,"connected_time":1115000000000,"state":"active","ping":50},{"user_id":218,"name":"snowball","steam_id":76561198026525289,"connected_time":2762000000000,"state":"active","ping":88},{"user_id":186,"name":"waitrose gaming","steam_id":76561198011450253,"connected_time":4943000000000,"state":"active","ping":50},{"user_id":235,"name":"Storm's Foreshadow","steam_id":76561198098462526,"connected_time":1782000000000,"state":"active","ping":76},{"user_id":83,"name":"Warrior555MainsGanon","steam_id":76561198388627786,"connected_time":10778000000000,"state":"active","ping":60},{"user_id":208,"name":"SissifiedBlackGuy","steam_id":76561199509261527,"connected_time":3053000000000,"state":"active","ping":121},{"user_id":228,"name":"joachym","steam_id":76561198428579761,"connected_time":2268000000000,"state":"active","ping":99},{"user_id":248,"name":"hbdie_","steam_id":76561198109996675,"connected_time":71000000000,"state":"active","ping":26},{"user_id":236,"name":"housing crisis#savetf2","steam_id":76561198119984382,"connected_time":1752000000000,"state":"active","ping":51},{"user_id":237,"name":"Some Portuguese Bean","steam_id":76561198031930035,"connected_time":1745000000000,"state":"active","ping":63},{"user_id":238,"name":"Stellar Fox","steam_id":76561198236985244,"connected_time":1726000000000,"state":"active","ping":75},{"user_id":221,"name":"GrosFumiste","steam_id":76561198850134909,"connected_time":2667000000000,"state":"active","ping":45},{"user_id":192,"name":"John Noob","steam_id":76561197999170026,"connected_time":4283000000000,"state":"active","ping":69},{"user_id":244,"name":"benjaminsfortress1i7","steam_id":76561199297010083,"connected_time":963000000000,"state":"active","ping":76},{"user_id":242,"name":"Paint","steam_id":76561198166823873,"connected_time":1215000000000,"state":"active","ping":45},{"user_id":245,"name":"Pozdaddy","steam_id":76561199500132317,"connected_time":836000000000,"state":"active","ping":182}]},{"server_id":21,"name":"Uncletopia | London | 5 | All Maps","name_short":"lon-5","host":"lon-1.uk.uncletopia.com","port":27055,"enabled":true,"region":"eu","cc":"gb","latitude":51.509865,"longitude":-0.118092,"reserved":0,"last_update":"0001-01-01T00:00:00Z","name_a2s":"Uncletopia | London | 5 | All Maps","protocol":17,"map":"koth_suijin","folder":"tf","game":"Team Fortress","app_id":440,"player_count":0,"max_players":24,"Bots":0,"server_type":"Dedicated","server_os":"Linux","password":true,"vac":true,"version":"7961495","steam_id":85568392924742829,"keywords":["cp","nocrits","nodmgspread","uncletopia"],"game_id":440,"stv_port":27056,"stv_name":"Uncletopia | London | 5 | All Maps | STV","players":null},{"server_id":22,"name":"Uncletopia | London | 6 | All Maps","name_short":"lon-6","host":"lon-1.uk.uncletopia.com","port":27065,"enabled":true,"region":"eu","cc":"gb","latitude":51.509865,"longitude":-0.118092,"reserved":0,"last_update":"0001-01-01T00:00:00Z","name_a2s":"Uncletopia | London | 6 | All Maps","protocol":17,"map":"cp_altitude","folder":"tf","game":"Team Fortress","app_id":440,"player_count":0,"max_players":24,"Bots":0,"server_type":"Dedicated","server_os":"Linux","password":true,"vac":true,"version":"7961495","steam_id":85568392924742830,"keywords":["cp","nocrits","nodmgspread","uncletopia"],"game_id":440,"stv_port":27066,"stv_name":"Uncletopia | London | 6 | All Maps | STV","players":null},{"server_id":40,"name":"Uncletopia | London | 7 | Stopwatch","name_short":"lon-7","host":"lon-1.uk.uncletopia.com","port":27075,"enabled":true,"region":"eu","cc":"gb","latitude":51.509865,"longitude":-0.118092,"reserved":0,"last_update":"0001-01-01T00:00:00Z","name_a2s":"Uncletopia | London | 7 | Stopwatch","protocol":17,"map":"pl_upward","folder":"tf","game":"Team Fortress","app_id":440,"player_count":0,"max_players":24,"Bots":0,"server_type":"Dedicated","server_os":"Linux","password":true,"vac":true,"version":"7961495","steam_id":85568392924964314,"keywords":["nocrits","nodmgspread","payload","uncletopia"],"game_id":440,"stv_port":27076,"stv_name":"Uncletopia | London | 7 | Stopwatch | STV","players":null},{"server_id":41,"name":"Uncletopia | London | 8 | Community","name_short":"lon-8","host":"lon-1.uk.uncletopia.com","port":27085,"enabled":true,"region":"eu","cc":"gb","latitude":51.509865,"longitude":-0.118092,"reserved":0,"last_update":"0001-01-01T00:00:00Z","name_a2s":"Uncletopia | London | 8 | Community","protocol":17,"map":"workshop/cp_propaganda_b18.ugc1603743849","folder":"tf","game":"Team Fortress","app_id":440,"player_count":0,"max_players":24,"Bots":0,"server_type":"Dedicated","server_os":"Linux","password":true,"vac":true,"version":"7961495","steam_id":85568392924964315,"keywords":["cp","nocrits","nodmgspread","uncletopia"],"game_id":440,"stv_port":27086,"stv_name":"Uncletopia | London | 8 | Community | STV","players":null},{"server_id":300,"name":"Uncletopia | Montréal | 1 | One Thousand Uncles","name_short":"mtl-1","host":"mtl-1.ca.uncletopia.com","port":27015,"enabled":true,"region":"us-east","cc":"ca","latitude":45.50889,"longitude":-73.56167,"reserved":0,"last_update":"0001-01-01T00:00:00Z","name_a2s":"Uncletopia | Montréal | 1 | One Thousand Uncles","protocol":17,"map":"pl_barnblitz","folder":"tf","game":"Team Fortress","app_id":440,"player_count":0,"max_players":32,"Bots":0,"server_type":"Dedicated","server_os":"Linux","password":true,"vac":true,"version":"7961495","steam_id":85568392924500087,"keywords":["alltalk","danepve","increased_maxplayers","norespawntime","payload","uncletopia"],"game_id":440,"stv_port":0,"stv_name":"","players":null},{"server_id":301,"name":"Uncletopia | Montréal | 2 | One Thousand Uncles","name_short":"mtl-2","host":"mtl-1.ca.uncletopia.com","port":27025,"enabled":true,"region":"us-east","cc":"ca","latitude":45.50889,"longitude":-73.56167,"reserved":0,"last_update":"0001-01-01T00:00:00Z","name_a2s":"Uncletopia | Montréal | 2 | One Thousand Uncles","protocol":17,"map":"cp_mossrock","folder":"tf","game":"Team Fortress","app_id":440,"player_count":0,"max_players":32,"Bots":0,"server_type":"Dedicated","server_os":"Linux","password":true,"vac":true,"version":"7961495","steam_id":85568392924500088,"keywords":["alltalk","cp","danepve","increased_maxplayers","norespawntime","uncletopia"],"game_id":440,"stv_port":0,"stv_name":"","players":null},{"server_id":302,"name":"Uncletopia | Montréal | 3 | One Thousand Uncles","name_short":"mtl-3","host":"mtl-1.ca.uncletopia.com","port":27035,"enabled":true,"region":"us-east","cc":"ca","latitude":45.50889,"longitude":-73.56167,"reserved":0,"last_update":"0001-01-01T00:00:00Z","name_a2s":"Uncletopia | Montréal | 3 | One Thousand Uncles","protocol":17,"map":"cp_dustbowl","folder":"tf","game":"Team Fortress","app_id":440,"player_count":0,"max_players":32,"Bots":0,"server_type":"Dedicated","server_os":"Linux","password":true,"vac":true,"version":"7961495","steam_id":85568392924500089,"keywords":["alltalk","cp","danepve","increased_maxplayers","norespawntime","uncletopia"],"game_id":440,"stv_port":0,"stv_name":"","players":null},{"server_id":13,"name":"Uncletopia | New York City | 1 | All Maps","name_short":"nyc-1","host":"nyc-1.us.uncletopia.com","port":27015,"enabled":true,"region":"us-east","cc":"us","latitude":40.73061,"longitude":-73.93524,"reserved":0,"last_update":"0001-01-01T00:00:00Z","name_a2s":"Uncletopia | New York City | 1 | All Maps","protocol":17,"map":"pl_upward","folder":"tf","game":"Team Fortress","app_id":440,"player_count":23,"max_players":24,"Bots":0,"server_type":"Dedicated","server_os":"Linux","password":true,"vac":true,"version":"7961495","steam_id":85568392924469993,"keywords":["nocrits","nodmgspread","payload","uncletopia"],"game_id":440,"stv_port":27016,"stv_name":"Uncletopia | New York City | 1 | All Maps | STV","players":[{"user_id":208,"name":"The Fairy Love Sniper","steam_id":76561198049358645,"connected_time":2554000000000,"state":"active","ping":105},{"user_id":218,"name":"HansBanans","steam_id":76561198167894050,"connected_time":893000000000,"state":"active","ping":84},{"user_id":209,"name":"get scrongled, idiot","steam_id":76561198115874625,"connected_time":2545000000000,"state":"active","ping":53},{"user_id":194,"name":"Karrot","steam_id":76561198058970903,"connected_time":2913000000000,"state":"active","ping":84},{"user_id":221,"name":"jg125","steam_id":76561198824953530,"connected_time":162000000000,"state":"active","ping":176},{"user_id":199,"name":"Memoirist","steam_id":76561198026002842,"connected_time":2780000000000,"state":"active","ping":60},{"user_id":149,"name":"Snoopy","steam_id":76561198273735974,"connected_time":5109000000000,"state":"active","ping":128},{"user_id":210,"name":"leesh","steam_id":76561198079603938,"connected_time":2540000000000,"state":"active","ping":64},{"user_id":222,"name":"IdkProlly","steam_id":76561198269212968,"connected_time":160000000000,"state":"active","ping":42},{"user_id":145,"name":"B.","steam_id":76561198040445907,"connected_time":5352000000000,"state":"active","ping":78},{"user_id":224,"name":"Puppywarlord","steam_id":76561198244560960,"connected_time":103000000000,"state":"active","ping":94},{"user_id":223,"name":"Fernando Alonso","steam_id":76561198066822788,"connected_time":147000000000,"state":"active","ping":61},{"user_id":211,"name":"ya ya breathe","steam_id":76561198075858067,"connected_time":2521000000000,"state":"active","ping":45},{"user_id":216,"name":"SpaceSanctum","steam_id":76561198805242305,"connected_time":1976000000000,"state":"active","ping":44},{"user_id":176,"name":"Pinkie Pie","steam_id":76561198957996236,"connected_time":4138000000000,"state":"active","ping":72},{"user_id":228,"name":"clio","steam_id":76561198141700569,"connected_time":32000000000,"state":"active","ping":45},{"user_id":182,"name":"Rhutebeer","steam_id":76561198018302761,"connected_time":3793000000000,"state":"active","ping":115},{"user_id":217,"name":"Marcusatomz","steam_id":76561198079169629,"connected_time":1880000000000,"state":"active","ping":71},{"user_id":212,"name":"Hunto","steam_id":76561198328052562,"connected_time":2477000000000,"state":"active","ping":93},{"user_id":225,"name":"Xavi","steam_id":76561198337783795,"connected_time":68000000000,"state":"active","ping":52},{"user_id":229,"name":"Rue","steam_id":76561198013135993,"connected_time":3000000000,"state":"spawning","ping":57},{"user_id":74,"name":"A Rhino with Coronavirus","steam_id":76561197999451366,"connected_time":10245000000000,"state":"active","ping":73},{"user_id":227,"name":"Tethered","steam_id":76561199237582239,"connected_time":56000000000,"state":"active","ping":88}]},{"server_id":14,"name":"Uncletopia | New York City | 2 | All Maps","name_short":"nyc-2","host":"nyc-1.us.uncletopia.com","port":27025,"enabled":true,"region":"us-east","cc":"us","latitude":40.73061,"longitude":-73.93524,"reserved":0,"last_update":"0001-01-01T00:00:00Z","name_a2s":"Uncletopia | New York City | 2 | All Maps","protocol":17,"map":"koth_highpass","folder":"tf","game":"Team Fortress","app_id":440,"player_count":0,"max_players":24,"Bots":0,"server_type":"Dedicated","server_os":"Linux","password":true,"vac":true,"version":"7961495","steam_id":85568392924469994,"keywords":["cp","nocrits","nodmgspread","uncletopia"],"game_id":440,"stv_port":27026,"stv_name":"Uncletopia | New York City | 2 | All Maps | STV","players":null},{"server_id":15,"name":"Uncletopia | New York City | 3 | Stopwatch","name_short":"nyc-3","host":"nyc-1.us.uncletopia.com","port":27035,"enabled":true,"region":"us-east","cc":"us","latitude":40.73061,"longitude":-73.93524,"reserved":0,"last_update":"0001-01-01T00:00:00Z","name_a2s":"Uncletopia | New York City | 3 | Stopwatch","protocol":17,"map":"workshop/cp_reckoner_rc6.ugc674719999","folder":"tf","game":"Team Fortress","app_id":440,"player_count":0,"max_players":24,"Bots":0,"server_type":"Dedicated","server_os":"Linux","password":true,"vac":true,"version":"7961495","steam_id":85568392924742820,"keywords":["cp","nocrits","nodmgspread","uncletopia"],"game_id":440,"stv_port":27036,"stv_name":"Uncletopia | New York City | 3 | Stopwatch | STV","players":null},{"server_id":16,"name":"Uncletopia | New York City | 4 | Community","name_short":"nyc-4","host":"nyc-1.us.uncletopia.com","port":27045,"enabled":true,"region":"us-east","cc":"us","latitude":40.73061,"longitude":-73.93524,"reserved":0,"last_update":"0001-01-01T00:00:00Z","name_a2s":"Uncletopia | New York City | 4 | Community","protocol":17,"map":"workshop/cp_reckoner_rc6.ugc674719999","folder":"tf","game":"Team Fortress","app_id":440,"player_count":0,"max_players":24,"Bots":0,"server_type":"Dedicated","server_os":"Linux","password":true,"vac":true,"version":"7961495","steam_id":85568392924742821,"keywords":["cp","nocrits","nodmgspread","uncletopia"],"game_id":440,"stv_port":27046,"stv_name":"Uncletopia | New York City | 4 | Community | STV","players":null},{"server_id":142,"name":"Uncletopia | São Paulo | 1 | All Maps","name_short":"sao-1","host":"sao-1.br.uncletopia.com","port":27015,"enabled":true,"region":"sa","cc":"br","latitude":-23.533773,"longitude":-46.62529,"reserved":0,"last_update":"0001-01-01T00:00:00Z","name_a2s":"Uncletopia | São Paulo | 1 | All Maps","protocol":17,"map":"pl_borneo","folder":"tf","game":"Team Fortress","app_id":440,"player_count":3,"max_players":24,"Bots":0,"server_type":"Dedicated","server_os":"Linux","password":true,"vac":true,"version":"7961495","steam_id":85568392924469996,"keywords":["nocrits","nodmgspread","payload","uncletopia"],"game_id":440,"stv_port":27016,"stv_name":"Uncletopia | São Paulo | 1 | All Maps | STV","players":[{"user_id":3,"name":"https://youtu.be/RvVdFXOFcjw","steam_id":76561198844048672,"connected_time":1313000000000,"state":"active","ping":39},{"user_id":4,"name":"ZINIZOTTI","steam_id":76561199212649021,"connected_time":1312000000000,"state":"active","ping":104},{"user_id":7,"name":"Gramma!","steam_id":76561198340989175,"connected_time":471000000000,"state":"active","ping":205}]},{"server_id":143,"name":"Uncletopia | São Paulo | 2 | Community","name_short":"sao-2","host":"sao-2.br.uncletopia.com","port":27015,"enabled":true,"region":"sa","cc":"br","latitude":-23.533773,"longitude":-46.62529,"reserved":0,"last_update":"0001-01-01T00:00:00Z","name_a2s":"Uncletopia | São Paulo | 2 | Community","protocol":17,"map":"workshop/koth_slaughter_rc1.ugc1712845210","folder":"tf","game":"Team Fortress","app_id":440,"player_count":0,"max_players":24,"Bots":0,"server_type":"Dedicated","server_os":"Linux","password":true,"vac":true,"version":"7961495","steam_id":85568392924485349,"keywords":["cp","nocrits","nodmgspread","uncletopia"],"game_id":440,"stv_port":27016,"stv_name":"Uncletopia | São Paulo | 2 | Community | STV","players":null},{"server_id":7,"name":"Uncletopia | Seattle | 1 | All Maps","name_short":"sea-1","host":"sea-1.us.uncletopia.com","port":27015,"enabled":true,"region":"us-west","cc":"us","latitude":47.608013,"longitude":-122.33517,"reserved":0,"last_update":"0001-01-01T00:00:00Z","name_a2s":"Uncletopia | Seattle | 1 | All Maps","protocol":17,"map":"pl_pier","folder":"tf","game":"Team Fortress","app_id":440,"player_count":22,"max_players":24,"Bots":0,"server_type":"Dedicated","server_os":"Linux","password":true,"vac":true,"version":"7961495","steam_id":85568392924469997,"keywords":["nocrits","nodmgspread","payload","uncletopia"],"game_id":440,"stv_port":27016,"stv_name":"Uncletopia | Seattle | 1 | All Maps | STV","players":[{"user_id":106,"name":"Cheese Fiend","steam_id":76561198053602591,"connected_time":1578000000000,"state":"active","ping":102},{"user_id":107,"name":"TylertheImperial","steam_id":76561199401195068,"connected_time":1559000000000,"state":"active","ping":94},{"user_id":113,"name":"Ricodashadad","steam_id":76561198066140119,"connected_time":884000000000,"state":"active","ping":97},{"user_id":120,"name":"Squiliam","steam_id":76561198025278006,"connected_time":499000000000,"state":"active","ping":93},{"user_id":77,"name":"killswitch","steam_id":76561198213385439,"connected_time":4292000000000,"state":"active","ping":69},{"user_id":121,"name":"EnragedKermit","steam_id":76561198278550369,"connected_time":436000000000,"state":"active","ping":139},{"user_id":105,"name":"Master Wots","steam_id":76561198021535235,"connected_time":1597000000000,"state":"active","ping":64},{"user_id":119,"name":"Peppy","steam_id":76561198866629645,"connected_time":556000000000,"state":"active","ping":60},{"user_id":122,"name":"PurplePond","steam_id":76561199062421006,"connected_time":297000000000,"state":"active","ping":99},{"user_id":111,"name":"Phantom","steam_id":76561199200400404,"connected_time":1165000000000,"state":"active","ping":82},{"user_id":42,"name":"Deadline","steam_id":76561199079078845,"connected_time":7186000000000,"state":"active","ping":150},{"user_id":114,"name":"jer","steam_id":76561198148235230,"connected_time":845000000000,"state":"active","ping":83},{"user_id":83,"name":"Fish Lambert","steam_id":76561198098279668,"connected_time":4138000000000,"state":"active","ping":90},{"user_id":117,"name":"Zannybar","steam_id":76561198096515729,"connected_time":831000000000,"state":"active","ping":123},{"user_id":93,"name":"Dim","steam_id":76561198061411324,"connected_time":2874000000000,"state":"active","ping":130},{"user_id":103,"name":"Mediocre Gaming","steam_id":76561199230467980,"connected_time":2336000000000,"state":"active","ping":135},{"user_id":104,"name":":3","steam_id":76561199194702127,"connected_time":1956000000000,"state":"active","ping":103},{"user_id":124,"name":"Smashing93","steam_id":76561199058453316,"connected_time":191000000000,"state":"active","ping":116},{"user_id":125,"name":"Tom","steam_id":76561198070630154,"connected_time":165000000000,"state":"active","ping":77},{"user_id":118,"name":"Greenwood RN","steam_id":76561198088641060,"connected_time":672000000000,"state":"active","ping":47},{"user_id":110,"name":"Monty","steam_id":76561197993567253,"connected_time":1342000000000,"state":"active","ping":58},{"user_id":98,"name":"Dimple","steam_id":76561198980324190,"connected_time":2488000000000,"state":"active","ping":50}]},{"server_id":119,"name":"Uncletopia | Seattle | 2 | All Maps","name_short":"sea-2","host":"sea-1.us.uncletopia.com","port":27025,"enabled":true,"region":"us-west","cc":"us","latitude":47.608013,"longitude":-122.33517,"reserved":0,"last_update":"0001-01-01T00:00:00Z","name_a2s":"Uncletopia | Seattle | 2 | All Maps","protocol":17,"map":"cp_dustbowl","folder":"tf","game":"Team Fortress","app_id":440,"player_count":0,"max_players":24,"Bots":0,"server_type":"Dedicated","server_os":"Linux","password":true,"vac":true,"version":"7961495","steam_id":85568392924469998,"keywords":["cp","nocrits","nodmgspread","uncletopia"],"game_id":440,"stv_port":27026,"stv_name":"Uncletopia | Seattle | 2 | All Maps | STV","players":null},{"server_id":406,"name":"Uncletopia | Seattle | 3 | Stopwatch","name_short":"sea-3","host":"sea-1.us.uncletopia.com","port":27035,"enabled":true,"region":"us-west","cc":"us","latitude":47.608013,"longitude":-122.33517,"reserved":0,"last_update":"0001-01-01T00:00:00Z","name_a2s":"Uncletopia | Seattle | 3 | Stopwatch","protocol":17,"map":"cp_gullywash_final1","folder":"tf","game":"Team Fortress","app_id":440,"player_count":0,"max_players":24,"Bots":0,"server_type":"Dedicated","server_os":"Linux","password":true,"vac":true,"version":"7961495","steam_id":85568392924515217,"keywords":["cp","nocrits","nodmgspread","uncletopia"],"game_id":440,"stv_port":27036,"stv_name":"Uncletopia | Seattle | 3 | Stopwatch | STV","players":null},{"server_id":17,"name":"Uncletopia | San Francisco | 1 | All Maps","name_short":"sfo-1","host":"sfo-1.us.uncletopia.com","port":27015,"enabled":true,"region":"us-west","cc":"us","latitude":37.77397,"longitude":-122.4313,"reserved":0,"last_update":"0001-01-01T00:00:00Z","name_a2s":"Uncletopia | San Francisco | 1 | All Maps","protocol":17,"map":"cp_gullywash_final1","folder":"tf","game":"Team Fortress","app_id":440,"player_count":0,"max_players":24,"Bots":0,"server_type":"Dedicated","server_os":"Linux","password":true,"vac":true,"version":"7961495","steam_id":85568392924469999,"keywords":["cp","nocrits","nodmgspread","uncletopia"],"game_id":440,"stv_port":27016,"stv_name":"Uncletopia | San Francisco | 1 | All Maps | STV","players":null},{"server_id":18,"name":"Uncletopia | San Francisco | 2 | All Maps","name_short":"sfo-2","host":"sfo-1.us.uncletopia.com","port":27025,"enabled":true,"region":"us-west","cc":"us","latitude":37.77397,"longitude":-122.4313,"reserved":0,"last_update":"0001-01-01T00:00:00Z","name_a2s":"Uncletopia | San Francisco | 2 | All Maps","protocol":17,"map":"pl_hoodoo_final","folder":"tf","game":"Team Fortress","app_id":440,"player_count":0,"max_players":24,"Bots":0,"server_type":"Dedicated","server_os":"Linux","password":true,"vac":true,"version":"7961495","steam_id":85568392924470000,"keywords":["nocrits","nodmgspread","payload","uncletopia"],"game_id":440,"stv_port":27026,"stv_name":"Uncletopia | San Francisco | 2 | All Maps | STV","players":null},{"server_id":19,"name":"Uncletopia | San Francisco | 3 | Stopwatch","name_short":"sfo-3","host":"sfo-1.us.uncletopia.com","port":27035,"enabled":true,"region":"us-west","cc":"us","latitude":37.77397,"longitude":-122.4313,"reserved":0,"last_update":"0001-01-01T00:00:00Z","name_a2s":"Uncletopia | San Francisco | 3 | Stopwatch","protocol":17,"map":"workshop/koth_clearcut_b15.ugc2107050255","folder":"tf","game":"Team Fortress","app_id":440,"player_count":0,"max_players":24,"Bots":0,"server_type":"Dedicated","server_os":"Linux","password":true,"vac":true,"version":"7961495","steam_id":85568392924742824,"keywords":["cp","nocrits","nodmgspread","uncletopia"],"game_id":440,"stv_port":27036,"stv_name":"Uncletopia | San Francisco | 3 | Stopwatch | STV","players":null},{"server_id":20,"name":"Uncletopia | San Francisco | 4 | Community","name_short":"sfo-4","host":"sfo-1.us.uncletopia.com","port":27045,"enabled":true,"region":"us-west","cc":"us","latitude":37.77397,"longitude":-122.4313,"reserved":0,"last_update":"0001-01-01T00:00:00Z","name_a2s":"Uncletopia | San Francisco | 4 | Community","protocol":17,"map":"workshop/cp_reckoner_rc6.ugc674719999","folder":"tf","game":"Team Fortress","app_id":440,"player_count":0,"max_players":24,"Bots":0,"server_type":"Dedicated","server_os":"Linux","password":true,"vac":true,"version":"7961495","steam_id":85568392924742826,"keywords":["cp","nocrits","nodmgspread","uncletopia"],"game_id":440,"stv_port":27046,"stv_name":"Uncletopia | San Francisco | 4 | Community | STV","players":null},{"server_id":141,"name":"Uncletopia | Sydney | 1 | All Maps","name_short":"syd-1","host":"syd-1.au.uncletopia.com","port":27015,"enabled":true,"region":"au","cc":"au","latitude":-33.865143,"longitude":151.2099,"reserved":0,"last_update":"0001-01-01T00:00:00Z","name_a2s":"Uncletopia | Sydney | 1 | All Maps","protocol":17,"map":"cp_5gorge","folder":"tf","game":"Team Fortress","app_id":440,"player_count":0,"max_players":24,"Bots":0,"server_type":"Dedicated","server_os":"Linux","password":true,"vac":true,"version":"7961495","steam_id":85568392924470001,"keywords":["cp","nocrits","nodmgspread","uncletopia"],"game_id":440,"stv_port":27016,"stv_name":"Uncletopia | Sydney | 1 | All Maps | STV","players":null},{"server_id":123,"name":"Uncletopia | Sydney | 2 | All Maps","name_short":"syd-2","host":"syd-1.au.uncletopia.com","port":27025,"enabled":true,"region":"au","cc":"au","latitude":-33.865143,"longitude":151.2099,"reserved":0,"last_update":"0001-01-01T00:00:00Z","name_a2s":"Uncletopia | Sydney | 2 | All Maps","protocol":17,"map":"pl_badwater","folder":"tf","game":"Team Fortress","app_id":440,"player_count":23,"max_players":24,"Bots":0,"server_type":"Dedicated","server_os":"Linux","password":true,"vac":true,"version":"7961495","steam_id":85568392924470002,"keywords":["nocrits","nodmgspread","payload","uncletopia"],"game_id":440,"stv_port":27026,"stv_name":"Uncletopia | Sydney | 2 | All Maps | STV","players":[{"user_id":185,"name":"mutwo","steam_id":76561198077043500,"connected_time":293000000000,"state":"active","ping":132},{"user_id":175,"name":"Bass4K","steam_id":76561198078398515,"connected_time":1351000000000,"state":"active","ping":64},{"user_id":176,"name":"11/10 would cook spider again","steam_id":76561198285714724,"connected_time":1316000000000,"state":"active","ping":67},{"user_id":130,"name":"invert.","steam_id":76561198049619174,"connected_time":5434000000000,"state":"active","ping":68},{"user_id":178,"name":"Earn Trust,","steam_id":76561198183060018,"connected_time":550000000000,"state":"active","ping":62},{"user_id":170,"name":"Heffy","steam_id":76561198043112526,"connected_time":2059000000000,"state":"active","ping":66},{"user_id":122,"name":"bruiseblood","steam_id":76561198062301135,"connected_time":6067000000000,"state":"active","ping":49},{"user_id":179,"name":"cbat peek namanish","steam_id":76561198288035849,"connected_time":513000000000,"state":"active","ping":176},{"user_id":180,"name":"clubalang","steam_id":76561198155972273,"connected_time":435000000000,"state":"active","ping":52},{"user_id":181,"name":"Huz","steam_id":76561198039231303,"connected_time":434000000000,"state":"active","ping":94},{"user_id":182,"name":"racks upon racks","steam_id":76561198182388722,"connected_time":410000000000,"state":"active","ping":49},{"user_id":184,"name":"8MILLION (del david)","steam_id":76561198140339181,"connected_time":319000000000,"state":"active","ping":60},{"user_id":168,"name":"Miles Morales","steam_id":76561198071086727,"connected_time":2515000000000,"state":"active","ping":61},{"user_id":149,"name":"homes inc","steam_id":76561198170188198,"connected_time":4246000000000,"state":"active","ping":57},{"user_id":148,"name":"dc","steam_id":76561198040993425,"connected_time":4383000000000,"state":"active","ping":100},{"user_id":169,"name":"wabi","steam_id":76561198181170282,"connected_time":2493000000000,"state":"active","ping":52},{"user_id":186,"name":"noXy","steam_id":76561198032671657,"connected_time":147000000000,"state":"active","ping":57},{"user_id":154,"name":"TarzyD","steam_id":76561198402744887,"connected_time":4151000000000,"state":"active","ping":35},{"user_id":172,"name":"crows.","steam_id":76561198116839986,"connected_time":1947000000000,"state":"active","ping":45},{"user_id":157,"name":"doctor morbin' (official)","steam_id":76561199365241695,"connected_time":4069000000000,"state":"active","ping":129},{"user_id":132,"name":"oldbie","steam_id":76561198053297711,"connected_time":5245000000000,"state":"active","ping":75},{"user_id":187,"name":"slime","steam_id":76561199176020333,"connected_time":40000000000,"state":"active","ping":62},{"user_id":161,"name":"No","steam_id":76561199092881389,"connected_time":3118000000000,"state":"active","ping":47}]},{"server_id":395,"name":"Uncletopia | Sydney | 3 | All Maps","name_short":"syd-3","host":"syd-1.au.uncletopia.com","port":27035,"enabled":true,"region":"au","cc":"au","latitude":-33.865143,"longitude":151.2099,"reserved":0,"last_update":"0001-01-01T00:00:00Z","name_a2s":"Uncletopia | Sydney | 3 | All Maps","protocol":17,"map":"koth_viaduct","folder":"tf","game":"Team Fortress","app_id":440,"player_count":0,"max_players":24,"Bots":0,"server_type":"Dedicated","server_os":"Linux","password":true,"vac":true,"version":"7961495","steam_id":85568392925194467,"keywords":["cp","nocrits","nodmgspread","uncletopia"],"game_id":440,"stv_port":27036,"stv_name":"Uncletopia | Sydney | 3 | All Maps | STV","players":null},{"server_id":396,"name":"Uncletopia | Sydney | 4 | All Maps","name_short":"syd-4","host":"syd-1.au.uncletopia.com","port":27045,"enabled":true,"region":"au","cc":"au","latitude":-33.865143,"longitude":151.2099,"reserved":0,"last_update":"0001-01-01T00:00:00Z","name_a2s":"Uncletopia | Sydney | 4 | All Maps","protocol":17,"map":"pl_badwater","folder":"tf","game":"Team Fortress","app_id":440,"player_count":0,"max_players":24,"Bots":0,"server_type":"Dedicated","server_os":"Linux","password":true,"vac":true,"version":"7961495","steam_id":85568392925397958,"keywords":["nocrits","nodmgspread","payload","uncletopia"],"game_id":440,"stv_port":27046,"stv_name":"Uncletopia | Sydney | 4 | All Maps | STV","players":null},{"server_id":58,"name":"Uncletopia | Sydney | 5 | Stopwatch","name_short":"syd-5","host":"syd-1.au.uncletopia.com","port":27055,"enabled":true,"region":"au","cc":"au","latitude":-33.865143,"longitude":151.2099,"reserved":0,"last_update":"0001-01-01T00:00:00Z","name_a2s":"Uncletopia | Sydney | 5 | Stopwatch","protocol":17,"map":"koth_highpass","folder":"tf","game":"Team Fortress","app_id":440,"player_count":0,"max_players":24,"Bots":0,"server_type":"Dedicated","server_os":"Linux","password":true,"vac":true,"version":"7961495","steam_id":85568392925397959,"keywords":["cp","nocrits","nodmgspread","uncletopia"],"game_id":440,"stv_port":27056,"stv_name":"Uncletopia | Sydney | 5 | Stopwatch | STV","players":null},{"server_id":59,"name":"Uncletopia | Sydney | 6 | Community","name_short":"syd-6","host":"syd-1.au.uncletopia.com","port":27065,"enabled":true,"region":"au","cc":"au","latitude":-33.865143,"longitude":151.2099,"reserved":0,"last_update":"0001-01-01T00:00:00Z","name_a2s":"Uncletopia | Sydney | 6 | Community","protocol":17,"map":"workshop/koth_soot_final1.ugc2969540689","folder":"tf","game":"Team Fortress","app_id":440,"player_count":0,"max_players":24,"Bots":0,"server_type":"Dedicated","server_os":"Linux","password":true,"vac":true,"version":"7961495","steam_id":85568392925397960,"keywords":["cp","nocrits","nodmgspread","uncletopia"],"game_id":440,"stv_port":27066,"stv_name":"Uncletopia | Sydney | 6 | Community | STV","players":null},{"server_id":49,"name":"Uncletopia | Warsaw | 1 | One Thousand Uncles","name_short":"waw-1","host":"waw-1.pl.uncletopia.com","port":27015,"enabled":true,"region":"eu","cc":"pl","latitude":52.2297,"longitude":21.017532,"reserved":0,"last_update":"0001-01-01T00:00:00Z","name_a2s":"Uncletopia | Warsaw | 1 | One Thousand Uncles","protocol":17,"map":"pl_badwater","folder":"tf","game":"Team Fortress","app_id":440,"player_count":26,"max_players":32,"Bots":20,"server_type":"Dedicated","server_os":"Linux","password":true,"vac":true,"version":"7961495","steam_id":85568392925397850,"keywords":["alltalk","bots","danepve","increased_maxplayers","norespawntime","payload","uncletopia"],"game_id":440,"stv_port":0,"stv_name":"","players":[{"user_id":215,"name":"mannerin","steam_id":76561199037020761,"connected_time":1952000000000,"state":"active","ping":70},{"user_id":216,"name":"[HK]我係香港人","steam_id":76561198165376815,"connected_time":1680000000000,"state":"active","ping":81},{"user_id":214,"name":"Rayco","steam_id":76561198048013129,"connected_time":2301000000000,"state":"active","ping":71},{"user_id":217,"name":"DarthDanny","steam_id":76561197997718926,"connected_time":1399000000000,"state":"active","ping":123},{"user_id":210,"name":"Limner.exe","steam_id":76561199200274345,"connected_time":3336000000000,"state":"active","ping":173},{"user_id":182,"name":"Estyle","steam_id":76561198157804700,"connected_time":4176000000000,"state":"active","ping":81}]},{"server_id":50,"name":"Uncletopia | Warsaw | 2 | One Thousand Uncles","name_short":"waw-2","host":"waw-1.pl.uncletopia.com","port":27025,"enabled":true,"region":"eu","cc":"pl","latitude":52.2297,"longitude":21.017532,"reserved":0,"last_update":"0001-01-01T00:00:00Z","name_a2s":"Uncletopia | Warsaw | 2 | One Thousand Uncles","protocol":17,"map":"pl_hoodoo_final","folder":"tf","game":"Team Fortress","app_id":440,"player_count":27,"max_players":32,"Bots":20,"server_type":"Dedicated","server_os":"Linux","password":true,"vac":true,"version":"7961495","steam_id":85568392925397851,"keywords":["alltalk","bots","danepve","increased_maxplayers","norespawntime","payload","uncletopia"],"game_id":440,"stv_port":0,"stv_name":"","players":[{"user_id":70,"name":"Xi Bingchilling","steam_id":76561198154310301,"connected_time":255000000000,"state":"active","ping":77},{"user_id":91,"name":"Little Spy","steam_id":76561199238736286,"connected_time":61000000000,"state":"active","ping":70},{"user_id":61,"name":"Fuiherik","steam_id":76561199122094683,"connected_time":2270000000000,"state":"active","ping":49},{"user_id":58,"name":"MC_Void_0","steam_id":76561199148827012,"connected_time":3532000000000,"state":"active","ping":214},{"user_id":55,"name":"海超人","steam_id":76561199169553351,"connected_time":3767000000000,"state":"active","ping":349},{"user_id":64,"name":"Shadowwalker","steam_id":76561198344642637,"connected_time":1316000000000,"state":"active","ping":185},{"user_id":67,"name":"Waca_rel","steam_id":76561199020768213,"connected_time":824000000000,"state":"active","ping":62}]},{"server_id":51,"name":"Uncletopia | Warsaw | 3 | All Maps","name_short":"waw-3","host":"waw-1.pl.uncletopia.com","port":27035,"enabled":true,"region":"eu","cc":"pl","latitude":52.2297,"longitude":21.017532,"reserved":0,"last_update":"0001-01-01T00:00:00Z","name_a2s":"Uncletopia | Warsaw | 3 | All Maps","protocol":17,"map":"koth_highpass","folder":"tf","game":"Team Fortress","app_id":440,"player_count":0,"max_players":24,"Bots":0,"server_type":"Dedicated","server_os":"Linux","password":true,"vac":true,"version":"7961495","steam_id":85568392925397852,"keywords":["cp","nocrits","nodmgspread","uncletopia"],"game_id":440,"stv_port":27036,"stv_name":"Uncletopia | Warsaw | 3 | All Maps | STV","players":null},{"server_id":52,"name":"Uncletopia | Warsaw | 4 | All Maps","name_short":"waw-4","host":"waw-1.pl.uncletopia.com","port":27045,"enabled":true,"region":"eu","cc":"pl","latitude":52.2297,"longitude":21.017532,"reserved":0,"last_update":"0001-01-01T00:00:00Z","name_a2s":"Uncletopia | Warsaw | 4 | All Maps","protocol":17,"map":"koth_highpass","folder":"tf","game":"Team Fortress","app_id":440,"player_count":0,"max_players":24,"Bots":0,"server_type":"Dedicated","server_os":"Linux","password":true,"vac":true,"version":"7961495","steam_id":85568392925397853,"keywords":["cp","nocrits","nodmgspread","uncletopia"],"game_id":440,"stv_port":27046,"stv_name":"Uncletopia | Warsaw | 4 | All Maps | STV","players":null},{"server_id":53,"name":"Uncletopia | Warsaw | 5 | Stopwatch","name_short":"waw-5","host":"waw-1.pl.uncletopia.com","port":27055,"enabled":true,"region":"eu","cc":"pl","latitude":52.2297,"longitude":21.017532,"reserved":0,"last_update":"0001-01-01T00:00:00Z","name_a2s":"Uncletopia | Warsaw | 5 | Stopwatch","protocol":17,"map":"workshop/koth_clearcut_b15.ugc2107050255","folder":"tf","game":"Team Fortress","app_id":440,"player_count":0,"max_players":24,"Bots":0,"server_type":"Dedicated","server_os":"Linux","password":true,"vac":true,"version":"7961495","steam_id":85568392925397854,"keywords":["cp","nocrits","nodmgspread","uncletopia"],"game_id":440,"stv_port":27056,"stv_name":"Uncletopia | Warsaw | 5 | Stopwatch | STV","players":null},{"server_id":54,"name":"Uncletopia | Warsaw | 6 | Community","name_short":"waw-6","host":"waw-1.pl.uncletopia.com","port":27065,"enabled":true,"region":"eu","cc":"pl","latitude":52.2297,"longitude":21.017532,"reserved":0,"last_update":"0001-01-01T00:00:00Z","name_a2s":"Uncletopia | Warsaw | 6 | Community","protocol":17,"map":"workshop/pl_highwood_b19.ugc1769496557","folder":"tf","game":"Team Fortress","app_id":440,"player_count":0,"max_players":24,"Bots":0,"server_type":"Dedicated","server_os":"Linux","password":true,"vac":true,"version":"7961495","steam_id":85568392925397856,"keywords":["nocrits","nodmgspread","payload","uncletopia"],"game_id":440,"stv_port":27066,"stv_name":"Uncletopia | Warsaw | 6 | Community | STV","players":null}]}