{"status":true,"message":"","result":[{"server_id":9,"name":"Uncletopia | Atlanta | 1 | All Maps","name_short":"atl-1","host":"atl-1.us.uncletopia.com","port":27015,"enabled":true,"region":"us-east","cc":"us","latitude":33.753746,"longitude":-84.38633,"reserved":0,"last_update":"0001-01-01T00:00:00Z","name_a2s":"Uncletopia | Atlanta | 1 | All Maps","protocol":17,"map":"pl_frontier_final","folder":"tf","game":"Team Fortress","app_id":440,"player_count":24,"max_players":24,"Bots":0,"server_type":"Dedicated","server_os":"Linux","password":true,"vac":true,"version":"7757534","steam_id":85568392924469982,"keywords":["nocrits","nodmgspread","payload","uncletopia"],"game_id":440,"stv_port":27016,"stv_name":"Uncletopia | Atlanta | 1 | All Maps | STV","players":[{"user_id":456,"name":"Red1 | Pharaxer‚Ñ¢","steam_id":76561198051236069,"connected_time":2360000000000,"state":"active","ping":180},{"user_id":444,"name":"Potato Masher","steam_id":76561198056712845,"connected_time":3479000000000,"state":"active","ping":43},{"user_id":447,"name":"WillieMakit","steam_id":76561197985391684,"connected_time":3009000000000,"state":"active","ping":114},{"user_id":382,"name":"Mage","steam_id":76561198285026879,"connected_time":10564000000000,"state":"active","ping":83},{"user_id":458,"name":"heimdall","steam_id":76561198069380992,"connected_time":2347000000000,"state":"active","ping":81},{"user_id":453,"name":"Sol","steam_id":76561199008085020,"connected_time":2661000000000,"state":"active","ping":59},{"user_id":454,"name":"VnZ","steam_id":76561198123675820,"connected_time":2532000000000,"state":"active","ping":64},{"user_id":431,"name":"Captain Tuxedo Terrorist","steam_id":76561198261025556,"connected_time":4442000000000,"state":"active","ping":136},{"user_id":475,"name":"ATLS1 | SparkStorm","steam_id":76561198095817025,"connected_time":663000000000,"state":"active","ping":42},{"user_id":471,"name":"RED1 | ma0re","steam_id":76561199231971506,"connected_time":957000000000,"state":"active","ping":68},{"user_id":465,"name":"SeaBass","steam_id":76561198278914206,"connected_time":1879000000000,"state":"active","ping":64},{"user_id":460,"name":"Jailbreak","steam_id":76561198802085218,"connected_time":2297000000000,"state":"active","ping":92},{"user_id":452,"name":"bogginwater","steam_id":76561198155547142,"connected_time":2714000000000,"state":"active","ping":68},{"user_id":470,"name":"Spoonful","steam_id":76561198927517471,"connected_time":1117000000000,"state":"active","ping":72},{"user_id":477,"name":"root beer enthusiast","steam_id":76561198124791670,"connected_time":171000000000,"state":"active","ping":57},{"user_id":396,"name":"The Professor","steam_id":76561198113760863,"connected_time":7823000000000,"state":"active","ping":60},{"user_id":461,"name":"YASAI JUICE","steam_id":76561198131971992,"connected_time":2290000000000,"state":"active","ping":59},{"user_id":389,"name":"floofy","steam_id":76561198389769098,"connected_time":9125000000000,"state":"active","ping":87},{"user_id":441,"name":"El Chapo","steam_id":76561198018182763,"connected_time":3646000000000,"state":"active","ping":90},{"user_id":378,"name":"Anna","steam_id":76561197999657118,"connected_time":10653000000000,"state":"active","ping":84},{"user_id":443,"name":"Mr. Dr. PhD Expert","steam_id":76561198151253061,"connected_time":3613000000000,"state":"active","ping":60},{"user_id":468,"name":"‚ô•Bunny‚ô•Slut‚ô•","steam_id":76561198206376851,"connected_time":1681000000000,"state":"active","ping":145},{"user_id":463,"name":"Zhenaj","steam_id":76561199209016136,"connected_time":2269000000000,"state":"active","ping":76},{"user_id":474,"name":"stink","steam_id":76561198099318923,"connected_time":952000000000,"state":"active","ping":78}]},{"server_id":400,"name":"Uncletopia | Atlanta | 3 | Community","name_short":"atl-3","host":"atl-1.us.uncletopia.com","port":27035,"enabled":true,"region":"us-east","cc":"us","latitude":33.753746,"longitude":-84.38633,"reserved":0,"last_update":"0001-01-01T00:00:00Z","name_a2s":"Uncletopia | Atlanta | 3 | Community","protocol":17,"map":"workshop/pl_badwater_pro_v12.ugc2142942074","folder":"tf","game":"Team Fortress","app_id":440,"player_count":23,"max_players":32,"Bots":0,"server_type":"Dedicated","server_os":"Linux","password":true,"vac":true,"version":"7757534","steam_id":85568392924515187,"keywords":["increased_maxplayers","nocrits","nodmgspread","payload","uncletopia"],"game_id":440,"stv_port":27036,"stv_name":"Uncletopia | Atlanta | 3 | Community | STV","players":[{"user_id":676,"name":"land0","steam_id":76561198321264704,"connected_time":1674000000000,"state":"active","ping":102},{"user_id":648,"name":"Silvercoat's Stargazer","steam_id":76561198399525329,"connected_time":2741000000000,"state":"active","ping":75},{"user_id":616,"name":"giura","steam_id":76561197986794525,"connected_time":3560000000000,"state":"active","ping":99},{"user_id":682,"name":"Sanic_Bum","steam_id":76561198094179822,"connected_time":1427000000000,"state":"active","ping":47},{"user_id":632,"name":"The Mann of Hecc","steam_id":76561199090553975,"connected_time":3166000000000,"state":"active","ping":92},{"user_id":630,"name":"Tomoko2001","steam_id":76561198047117990,"connected_time":3266000000000,"state":"active","ping":85},{"user_id":613,"name":"Clippopotamus","steam_id":76561199064713608,"connected_time":3734000000000,"state":"active","ping":72},{"user_id":658,"name":"Your Local Jester","steam_id":76561199120223717,"connected_time":2369000000000,"state":"active","ping":70},{"user_id":681,"name":"Baumber191","steam_id":76561198208612705,"connected_time":1513000000000,"state":"active","ping":107},{"user_id":594,"name":"The Winter Medic","steam_id":76561198197112922,"connected_time":4340000000000,"state":"active","ping":85},{"user_id":702,"name":"Jeremy","steam_id":76561198352333793,"connected_time":416000000000,"state":"active","ping":82},{"user_id":694,"name":"Red","steam_id":76561198031865869,"connected_time":759000000000,"state":"active","ping":75},{"user_id":704,"name":"Foxtrot Uniform‚Ñ¢","steam_id":76561199236576844,"connected_time":299000000000,"state":"active","ping":86},{"user_id":683,"name":"‚òÇBliffenstimmers‚òÇ","steam_id":76561198059984896,"connected_time":1426000000000,"state":"active","ping":83},{"user_id":647,"name":"Joseph \"Biden\" Stalin","steam_id":76561198213863907,"connected_time":2746000000000,"state":"active","ping":175},{"user_id":684,"name":"Rythillian","steam_id":76561198099651920,"connected_time":1389000000000,"state":"active","ping":60},{"user_id":573,"name":"foot pricess","steam_id":76561198090412935,"connected_time":5143000000000,"state":"active","ping":86},{"user_id":637,"name":"DaÃµksuki","steam_id":76561198084127751,"connected_time":2938000000000,"state":"active","ping":82},{"user_id":678,"name":"Ground Control to Majortom","steam_id":76561198065589126,"connected_time":1567000000000,"state":"active","ping":70},{"user_id":576,"name":"BobSoup89","steam_id":76561198908566221,"connected_time":5087000000000,"state":"active","ping":75},{"user_id":705,"name":"GiraffeMan","steam_id":76561198042104084,"connected_time":299000000000,"state":"active","ping":74},{"user_id":611,"name":"Sea raider","steam_id":76561199223358782,"connected_time":3766000000000,"state":"active","ping":95},{"user_id":655,"name":"PLATYPUS","steam_id":76561198255796625,"connected_time":2602000000000,"state":"active","ping":106}]},{"server_id":401,"name":"Uncletopia | Atlanta | 4 | No Payload","name_short":"atl-4","host":"atl-1.us.uncletopia.com","port":27045,"enabled":true,"region":"us-east","cc":"us","latitude":33.753746,"longitude":-84.38633,"reserved":0,"last_update":"0001-01-01T00:00:00Z","name_a2s":"","protocol":0,"map":"","folder":"","game":"","app_id":0,"player_count":0,"max_players":0,"Bots":0,"server_type":"","server_os":"","password":false,"vac":false,"version":"","steam_id":0,"keywords":null,"game_id":0,"stv_port":0,"stv_name":"","players":null},{"server_id":2,"name":"Uncletopia | Chicago | 1 | All Maps","name_short":"chi-1","host":"chi-1.us.uncletopia.com","port":27015,"enabled":true,"region":"us-central","cc":"us","latitude":41.881832,"longitude":-87.62318,"reserved":0,"last_update":"0001-01-01T00:00:00Z","name_a2s":"Uncletopia | Chicago | 1 | All Maps","protocol":17,"map":"pl_borneo","folder":"tf","game":"Team Fortress","app_id":440,"player_count":18,"max_players":24,"Bots":0,"server_type":"Dedicated","server_os":"Linux","password":true,"vac":true,"version":"7757534","steam_id":85568392924469984,"keywords":["nocrits","nodmgspread","payload","uncletopia"],"game_id":440,"stv_port":27016,"stv_name":"Uncletopia | Chicago | 1 | All Maps | STV","players":[{"user_id":358,"name":"Frajer","steam_id":76561198059129680,"connected_time":1502000000000,"state":"active","ping":72},{"user_id":350,"name":"I bomb atomically","steam_id":76561198009818412,"connected_time":2097000000000,"state":"active","ping":54},{"user_id":372,"name":"Omni-S","steam_id":76561198082396372,"connected_time":270000000000,"state":"active","ping":74},{"user_id":366,"name":"scrapheap","steam_id":76561198202407087,"connected_time":1380000000000,"state":"active","ping":78},{"user_id":374,"name":"soup","steam_id":76561198099977572,"connected_time":45000000000,"state":"active","ping":48},{"user_id":369,"name":"blob","steam_id":76561198122375328,"connected_time":577000000000,"state":"active","ping":60},{"user_id":373,"name":"Sydney","steam_id":76561198797603297,"connected_time":225000000000,"state":"active","ping":70},{"user_id":375,"name":"Vem","steam_id":76561198117273112,"connected_time":5000000000,"state":"spawning","ping":57},{"user_id":365,"name":"debin","steam_id":76561198070711217,"connected_time":1409000000000,"state":"active","ping":51},{"user_id":370,"name":"[UHS] K24A4 2.4","steam_id":76561199072970627,"connected_time":554000000000,"state":"active","ping":42},{"user_id":353,"name":"Big Phony","steam_id":76561199092395311,"connected_time":1935000000000,"state":"active","ping":46},{"user_id":356,"name":"Thatoneguybunchanumbers","steam_id":76561198028039160,"connected_time":1625000000000,"state":"active","ping":73},{"user_id":371,"name":"Voids","steam_id":76561198128386726,"connected_time":483000000000,"state":"active","ping":84},{"user_id":282,"name":"the bulldozer","steam_id":76561198800334545,"connected_time":6664000000000,"state":"active","ping":101},{"user_id":322,"name":"fuckterry","steam_id":76561198271957738,"connected_time":3419000000000,"state":"active","ping":61},{"user_id":362,"name":"aaron","steam_id":76561198308883028,"connected_time":1470000000000,"state":"active","ping":106},{"user_id":341,"name":"bonk","steam_id":76561198004823930,"connected_time":2411000000000,"state":"active","ping":59},{"user_id":363,"name":"Medic gaming","steam_id":76561199053687718,"connected_time":1455000000000,"state":"active","ping":127}]},{"server_id":106,"name":"Uncletopia | Chicago | 2 | All Maps","name_short":"chi-2","host":"chi-1.us.uncletopia.com","port":27025,"enabled":true,"region":"us-central","cc":"us","latitude":41.881832,"longitude":-87.62318,"reserved":0,"last_update":"0001-01-01T00:00:00Z","name_a2s":"Uncletopia | Chicago | 2 | All Maps","protocol":17,"map":"pl_badwater","folder":"tf","game":"Team Fortress","app_id":440,"player_count":23,"max_players":24,"Bots":0,"server_type":"Dedicated","server_os":"Linux","password":true,"vac":true,"version":"7757534","steam_id":85568392924469985,"keywords":["nocrits","nodmgspread","payload","uncletopia"],"game_id":440,"stv_port":27026,"stv_name":"Uncletopia | Chicago | 2 | All Maps | STV","players":[{"user_id":282,"name":"LocalGoose","steam_id":76561198154176702,"connected_time":209000000000,"state":"active","ping":73},{"user_id":293,"name":"food coma esports","steam_id":76561198075216115,"connected_time":84000000000,"state":"active","ping":150},{"user_id":294,"name":"Tinnitus Enjoyer","steam_id":76561198046526036,"connected_time":83000000000,"state":"active","ping":103},{"user_id":285,"name":"Devoid","steam_id":76561198254039012,"connected_time":151000000000,"state":"active","ping":47},{"user_id":269,"name":"üéÉBunnyüéÉ","steam_id":76561198074872531,"connected_time":2127000000000,"state":"active","ping":67},{"user_id":240,"name":"Shaquille Oatmeal","steam_id":76561198283213819,"connected_time":3280000000000,"state":"active","ping":72},{"user_id":241,"name":"Tatermytots","steam_id":76561198309634514,"connected_time":3248000000000,"state":"active","ping":148},{"user_id":273,"name":"TheFallenFox","steam_id":76561199074190919,"connected_time":1540000000000,"state":"active","ping":144},{"user_id":276,"name":"CherryYeti","steam_id":76561199221441151,"connected_time":1506000000000,"state":"active","ping":109},{"user_id":283,"name":"‚ù§ Ivy ‚ù§","steam_id":76561198077796736,"connected_time":168000000000,"state":"active","ping":59},{"user_id":289,"name":"Scum!","steam_id":76561198051805219,"connected_time":116000000000,"state":"active","ping":51},{"user_id":263,"name":"Kapreesi","steam_id":76561198163361200,"connected_time":2624000000000,"state":"active","ping":71},{"user_id":264,"name":"Rock Kickass","steam_id":76561198450510841,"connected_time":2621000000000,"state":"active","ping":126},{"user_id":286,"name":"SubZeroDestruction","steam_id":76561198145082209,"connected_time":151000000000,"state":"active","ping":69},{"user_id":287,"name":"craxyt","steam_id":76561198050192689,"connected_time":134000000000,"state":"active","ping":105},{"user_id":278,"name":"Huge","steam_id":76561199030987614,"connected_time":1496000000000,"state":"active","ping":86},{"user_id":257,"name":"Space‚≠êTaffy","steam_id":76561198002271720,"connected_time":2822000000000,"state":"active","ping":71},{"user_id":288,"name":"GamerMan","steam_id":76561199058616824,"connected_time":126000000000,"state":"active","ping":84},{"user_id":270,"name":"brake pipe","steam_id":76561198056330171,"connected_time":2120000000000,"state":"active","ping":72},{"user_id":279,"name":"THE CAPN","steam_id":76561198170210979,"connected_time":762000000000,"state":"active","ping":108},{"user_id":267,"name":"Cliff Uppercut","steam_id":76561197999439391,"connected_time":2409000000000,"state":"active","ping":84},{"user_id":251,"name":"Purplest","steam_id":76561198093523277,"connected_time":3022000000000,"state":"active","ping":45},{"user_id":292,"name":"tree","steam_id":76561198116885731,"connected_time":99000000000,"state":"active","ping":60}]},{"server_id":402,"name":"Uncletopia | Chicago | 3 | All Maps","name_short":"chi-3","host":"chi-1.us.uncletopia.com","port":27035,"enabled":true,"region":"us-central","cc":"us","latitude":41.881832,"longitude":-87.62318,"reserved":0,"last_update":"0001-01-01T00:00:00Z","name_a2s":"Uncletopia | Chicago | 3 | All Maps","protocol":17,"map":"plr_pipeline","folder":"tf","game":"Team Fortress","app_id":440,"player_count":20,"max_players":24,"Bots":0,"server_type":"Dedicated","server_os":"Linux","password":true,"vac":true,"version":"7757534","steam_id":85568392924515191,"keywords":["nocrits","nodmgspread","payload","uncletopia"],"game_id":440,"stv_port":27036,"stv_name":"Uncletopia | Chicago | 3 | All Maps | STV","players":[{"user_id":663,"name":"dicksnip","steam_id":76561198356515396,"connected_time":179000000000,"state":"active","ping":83},{"user_id":633,"name":"Toottoot","steam_id":76561197992404836,"connected_time":1632000000000,"state":"active","ping":47},{"user_id":647,"name":"Getting sloppy at High Hrothgar","steam_id":76561198202195792,"connected_time":1068000000000,"state":"active","ping":56},{"user_id":661,"name":"Pusieeeeeee!!!!!!!!!!!!!!!!!","steam_id":76561198083175190,"connected_time":198000000000,"state":"active","ping":72},{"user_id":662,"name":"wildbryar","steam_id":76561198196408974,"connected_time":197000000000,"state":"active","ping":83},{"user_id":668,"name":"Ubuntu Phone","steam_id":76561198008110407,"connected_time":6000000000,"state":"spawning","ping":126},{"user_id":664,"name":"ProfessorCagan","steam_id":76561198141372356,"connected_time":140000000000,"state":"active","ping":45},{"user_id":582,"name":"KEEN","steam_id":76561197988436984,"connected_time":5456000000000,"state":"active","ping":60},{"user_id":665,"name":"Leviathan","steam_id":76561197997528907,"connected_time":98000000000,"state":"active","ping":69},{"user_id":666,"name":"oinkpig234","steam_id":76561198883733811,"connected_time":82000000000,"state":"active","ping":77},{"user_id":640,"name":"adil (victim)","steam_id":76561198197047443,"connected_time":1376000000000,"state":"active","ping":82},{"user_id":639,"name":"Calypso","steam_id":76561198082939544,"connected_time":1399000000000,"state":"active","ping":84},{"user_id":667,"name":"IxMic88","steam_id":76561198018552479,"connected_time":35000000000,"state":"active","ping":82},{"user_id":650,"name":"ogre confrontation","steam_id":76561198192654455,"connected_time":960000000000,"state":"active","ping":79},{"user_id":651,"name":"Tuchpi","steam_id":76561197967581205,"connected_time":934000000000,"state":"active","ping":58},{"user_id":652,"name":"Reed.Dook","steam_id":76561198046625664,"connected_time":931000000000,"state":"active","ping":62},{"user_id":642,"name":"illegal (victim)","steam_id":76561198871530383,"connected_time":1355000000000,"state":"active","ping":45},{"user_id":660,"name":"Ëß£ÊîæÈ¶ôÊ∏ØÊó∂‰ª£ÁöÑÈù©ÂëΩ","steam_id":76561198003230524,"connected_time":316000000000,"state":"active","ping":44},{"user_id":630,"name":"Joseph Stalin","steam_id":76561198126234142,"connected_time":1992000000000,"state":"active","ping":79},{"user_id":658,"name":"Missing Minus","steam_id":76561198120822928,"connected_time":586000000000,"state":"active","ping":59}]},{"server_id":403,"name":"Uncletopia | Chicago | 4 | All Maps","name_short":"chi-4","host":"chi-1.us.uncletopia.com","port":27045,"enabled":true,"region":"us-central","cc":"us","latitude":41.881832,"longitude":-87.62318,"reserved":0,"last_update":"0001-01-01T00:00:00Z","name_a2s":"Uncletopia | Chicago | 4 | All Maps","protocol":17,"map":"cp_dustbowl","folder":"tf","game":"Team Fortress","app_id":440,"player_count":23,"max_players":24,"Bots":0,"server_type":"Dedicated","server_os":"Linux","password":true,"vac":true,"version":"7757534","steam_id":85568392924515193,"keywords":["cp","nocrits","nodmgspread","uncletopia"],"game_id":440,"stv_port":27046,"stv_name":"Uncletopia | Chicago | 4 | All Maps | STV","players":[{"user_id":647,"name":"Horrizan","steam_id":76561197965028480,"connected_time":3890000000000,"state":"active","ping":75},{"user_id":758,"name":"Moist Marauder","steam_id":76561198127097781,"connected_time":987000000000,"state":"active","ping":46},{"user_id":767,"name":"Tom the Necromancer","steam_id":76561198048895288,"connected_time":603000000000,"state":"active","ping":54},{"user_id":773,"name":"a crazy hobo","steam_id":76561198289650060,"connected_time":159000000000,"state":"active","ping":82},{"user_id":756,"name":"natman_22","steam_id":76561198203353284,"connected_time":1024000000000,"state":"active","ping":61},{"user_id":757,"name":"YungChefMingus","steam_id":76561198087122048,"connected_time":1023000000000,"state":"active","ping":45},{"user_id":692,"name":"‚ù§‚ô°ÔΩ•ÔæüBubblesÔΩ•Ôæü‚ô°‚ù§","steam_id":76561198041057042,"connected_time":2498000000000,"state":"active","ping":70},{"user_id":743,"name":"kezia","steam_id":76561198059815894,"connected_time":1478000000000,"state":"active","ping":46},{"user_id":771,"name":"$200 Shirt","steam_id":76561197977329534,"connected_time":208000000000,"state":"active","ping":60},{"user_id":693,"name":"bash -lc ./asshat.sh","steam_id":76561198004584315,"connected_time":2482000000000,"state":"active","ping":72},{"user_id":714,"name":"Sharper Spoon","steam_id":76561198877130687,"connected_time":1989000000000,"state":"active","ping":65},{"user_id":761,"name":"Why is there a","steam_id":76561198201986323,"connected_time":949000000000,"state":"active","ping":57},{"user_id":632,"name":"Piyono","steam_id":76561197962188504,"connected_time":4214000000000,"state":"active","ping":68},{"user_id":762,"name":"Soss","steam_id":76561198042113387,"connected_time":941000000000,"state":"active","ping":89},{"user_id":770,"name":"Boeing 777X GE9X Engine","steam_id":76561198167411287,"connected_time":255000000000,"state":"active","ping":59},{"user_id":763,"name":"Weasel Smack","steam_id":76561198023116430,"connected_time":930000000000,"state":"active","ping":93},{"user_id":764,"name":"Lae","steam_id":76561198185527278,"connected_time":918000000000,"state":"active","ping":82},{"user_id":694,"name":"Pongallow","steam_id":76561198146876078,"connected_time":2481000000000,"state":"active","ping":50},{"user_id":678,"name":"jibby","steam_id":76561198046872382,"connected_time":2824000000000,"state":"active","ping":52},{"user_id":765,"name":"grflk","steam_id":76561198403483744,"connected_time":891000000000,"state":"active","ping":88},{"user_id":766,"name":"(V)(A)c","steam_id":76561199211753062,"connected_time":880000000000,"state":"active","ping":83},{"user_id":768,"name":"Reisen","steam_id":76561199174579733,"connected_time":300000000000,"state":"active","ping":73},{"user_id":658,"name":"hashmap","steam_id":76561198043794014,"connected_time":3740000000000,"state":"active","ping":47}]},{"server_id":36,"name":"Uncletopia | Chicago | 5 | All Maps","name_short":"chi-5","host":"chi-2.us.uncletopia.com","port":27015,"enabled":true,"region":"us-central","cc":"us","latitude":41.881832,"longitude":-87.62318,"reserved":0,"last_update":"0001-01-01T00:00:00Z","name_a2s":"Uncletopia | Chicago | 5 | All Maps","protocol":17,"map":"cp_mossrock","folder":"tf","game":"Team Fortress","app_id":440,"player_count":22,"max_players":24,"Bots":0,"server_type":"Dedicated","server_os":"Linux","password":true,"vac":true,"version":"7757534","steam_id":85568392924866362,"keywords":["cp","nocrits","nodmgspread","uncletopia"],"game_id":440,"stv_port":27016,"stv_name":"Uncletopia | Chicago | 5 | All Maps | STV","players":[{"user_id":183,"name":"Monkey","steam_id":76561198031015186,"connected_time":2463000000000,"state":"active","ping":72},{"user_id":152,"name":"Sychke","steam_id":76561198067144055,"connected_time":4613000000000,"state":"active","ping":37},{"user_id":217,"name":"drottle","steam_id":76561198072244644,"connected_time":325000000000,"state":"active","ping":64},{"user_id":218,"name":"MrhobbitRequiem","steam_id":76561198976215013,"connected_time":197000000000,"state":"active","ping":71},{"user_id":216,"name":"Mister36","steam_id":76561198019132100,"connected_time":467000000000,"state":"active","ping":53},{"user_id":208,"name":"the","steam_id":76561198311446636,"connected_time":1132000000000,"state":"active","ping":63},{"user_id":219,"name":"barker bill","steam_id":76561198018451994,"connected_time":185000000000,"state":"active","ping":78},{"user_id":211,"name":"Giacomo","steam_id":76561198058560798,"connected_time":830000000000,"state":"active","ping":45},{"user_id":212,"name":"Asolator0","steam_id":76561198095809798,"connected_time":682000000000,"state":"active","ping":65},{"user_id":220,"name":"Ironaka","steam_id":76561198029993183,"connected_time":176000000000,"state":"active","ping":84},{"user_id":191,"name":"Robotigan","steam_id":76561198039652254,"connected_time":1723000000000,"state":"active","ping":57},{"user_id":214,"name":"X_Sniper7","steam_id":76561198081097640,"connected_time":598000000000,"state":"active","ping":71},{"user_id":195,"name":"totally not a pile of beans","steam_id":76561198119851931,"connected_time":1686000000000,"state":"active","ping":85},{"user_id":222,"name":"Brendan","steam_id":76561198041079914,"connected_time":128000000000,"state":"active","ping":71},{"user_id":171,"name":"Antifa Alligator","steam_id":76561197988170816,"connected_time":3469000000000,"state":"active","ping":58},{"user_id":198,"name":"TruffShuff","steam_id":76561198055869160,"connected_time":1648000000000,"state":"active","ping":52},{"user_id":205,"name":"Venk","steam_id":76561198251131422,"connected_time":1269000000000,"state":"active","ping":71},{"user_id":221,"name":"MancalaMadMan","steam_id":76561198347324053,"connected_time":165000000000,"state":"active","ping":115},{"user_id":215,"name":"Yam Jazzy Jim","steam_id":76561198000788950,"connected_time":574000000000,"state":"active","ping":65},{"user_id":223,"name":"trinqette","steam_id":76561198119543621,"connected_time":90000000000,"state":"active","ping":60},{"user_id":224,"name":"Kronk","steam_id":76561198010276205,"connected_time":27000000000,"state":"active","ping":83},{"user_id":133,"name":"cornshot","steam_id":76561198043496387,"connected_time":5379000000000,"state":"active","ping":107}]},{"server_id":37,"name":"Uncletopia | Chicago | 6 | All Maps","name_short":"chi-6","host":"chi-2.us.uncletopia.com","port":27025,"enabled":true,"region":"us-central","cc":"us","latitude":41.881832,"longitude":-87.62318,"reserved":0,"last_update":"0001-01-01T00:00:00Z","name_a2s":"Uncletopia | Chicago | 6 | All Maps","protocol":17,"map":"pl_badwater","folder":"tf","game":"Team Fortress","app_id":440,"player_count":21,"max_players":24,"Bots":0,"server_type":"Dedicated","server_os":"Linux","password":true,"vac":true,"version":"7757534","steam_id":85568392924866363,"keywords":["nocrits","nodmgspread","payload","uncletopia"],"game_id":440,"stv_port":27026,"stv_name":"Uncletopia | Chicago | 6 | All Maps | STV","players":[{"user_id":370,"name":"Fargo","steam_id":76561198044703931,"connected_time":898000000000,"state":"active","ping":68},{"user_id":187,"name":"Cool Bird Facts","steam_id":76561198105613110,"connected_time":13316000000000,"state":"active","ping":61},{"user_id":340,"name":"Mr. Tickle","steam_id":76561198126684647,"connected_time":1500000000000,"state":"active","ping":53},{"user_id":343,"name":"warewarewa","steam_id":76561197965022076,"connected_time":1188000000000,"state":"active","ping":48},{"user_id":332,"name":"Lore","steam_id":76561198098407538,"connected_time":1958000000000,"state":"active","ping":47},{"user_id":393,"name":"Discipline","steam_id":76561198019206178,"connected_time":348000000000,"state":"active","ping":73},{"user_id":394,"name":"hsq =)","steam_id":76561198087534644,"connected_time":345000000000,"state":"active","ping":48},{"user_id":345,"name":"Strange Festive Femboy","steam_id":76561198050385093,"connected_time":1164000000000,"state":"active","ping":72},{"user_id":395,"name":" ï‚Ä¢·¥•‚Ä¢ î the bear","steam_id":76561197989591976,"connected_time":305000000000,"state":"active","ping":77},{"user_id":307,"name":"IMPACT!","steam_id":76561198131458027,"connected_time":3248000000000,"state":"active","ping":65},{"user_id":314,"name":"SSBM Pelican","steam_id":76561198040697907,"connected_time":2995000000000,"state":"active","ping":75},{"user_id":313,"name":"Soap Man","steam_id":76561198000490235,"connected_time":3012000000000,"state":"active","ping":124},{"user_id":373,"name":"wjnger","steam_id":76561198120498226,"connected_time":807000000000,"state":"active","ping":88},{"user_id":376,"name":"Chrisscar","steam_id":76561198086298130,"connected_time":785000000000,"state":"active","ping":101},{"user_id":375,"name":"NickMcAwesome","steam_id":76561197997818869,"connected_time":799000000000,"state":"active","ping":77},{"user_id":193,"name":"Cool Lobster Facts","steam_id":76561198247484514,"connected_time":13284000000000,"state":"active","ping":78},{"user_id":329,"name":"[ ¬£≈∏,ƒê ] Not AirmanBlueJay","steam_id":76561198030901346,"connected_time":2073000000000,"state":"active","ping":83},{"user_id":377,"name":"Bernaners","steam_id":76561198142665643,"connected_time":776000000000,"state":"active","ping":90},{"user_id":268,"name":"Vladikr1","steam_id":76561198401495362,"connected_time":7215000000000,"state":"active","ping":64},{"user_id":338,"name":"CRHalby","steam_id":76561198060522701,"connected_time":1660000000000,"state":"active","ping":76},{"user_id":378,"name":"Pot8to","steam_id":76561198247598000,"connected_time":749000000000,"state":"active","ping":76}]},{"server_id":38,"name":"Uncletopia | Chicago | 7 | Stopwatch Beta","name_short":"chi-7","host":"chi-2.us.uncletopia.com","port":27035,"enabled":true,"region":"us-central","cc":"us","latitude":41.881832,"longitude":-87.62318,"reserved":0,"last_update":"0001-01-01T00:00:00Z","name_a2s":"Uncletopia | Chicago | 7 | Stopwatch Beta","protocol":17,"map":"workshop/koth_product_final.ugc454272353","folder":"tf","game":"Team Fortress","app_id":440,"player_count":0,"max_players":24,"Bots":0,"server_type":"Dedicated","server_os":"Linux","password":true,"vac":true,"version":"7757534","steam_id":85568392924866364,"keywords":["cp","nocrits","nodmgspread","uncletopia"],"game_id":440,"stv_port":27036,"stv_name":"Uncletopia | Chicago | 7 | Stopwatch Beta | STV","players":null},{"server_id":39,"name":"Uncletopia | Chicago | 8 | Community","name_short":"chi-8","host":"chi-2.us.uncletopia.com","port":27045,"enabled":true,"region":"us-central","cc":"us","latitude":41.881832,"longitude":-87.62318,"reserved":0,"last_update":"0001-01-01T00:00:00Z","name_a2s":"Uncletopia | Chicago | 8 | Community","protocol":17,"map":"workshop/cp_sulfur_rc2.ugc619869471","folder":"tf","game":"Team Fortress","app_id":440,"player_count":0,"max_players":24,"Bots":0,"server_type":"Dedicated","server_os":"Linux","password":true,"vac":true,"version":"7757534","steam_id":85568392924866365,"keywords":["cp","nocrits","nodmgspread","uncletopia"],"game_id":440,"stv_port":27046,"stv_name":"Uncletopia | Chicago | 8 | Community | STV","players":null},{"server_id":8,"name":"Uncletopia | Dallas | 1 | All Maps","name_short":"dal-1","host":"dal-1.us.uncletopia.com","port":27015,"enabled":true,"region":"us-central","cc":"us","latitude":32.779167,"longitude":-96.80889,"reserved":0,"last_update":"0001-01-01T00:00:00Z","name_a2s":"Uncletopia | Dallas | 1 | All Maps","protocol":17,"map":"pl_pier","folder":"tf","game":"Team Fortress","app_id":440,"player_count":24,"max_players":24,"Bots":0,"server_type":"Dedicated","server_os":"Linux","password":true,"vac":true,"version":"7757534","steam_id":85568392924469986,"keywords":["nocrits","nodmgspread","payload","uncletopia"],"game_id":440,"stv_port":27016,"stv_name":"Uncletopia | Dallas | 1 | All Maps | STV","players":[{"user_id":788,"name":"·ö£·ö≥·õä·ö∏","steam_id":76561198103507176,"connected_time":1241000000000,"state":"active","ping":77},{"user_id":779,"name":"karbomb","steam_id":76561198120744480,"connected_time":1529000000000,"state":"active","ping":45},{"user_id":744,"name":"Hulkworm","steam_id":76561198263964808,"connected_time":5300000000000,"state":"active","ping":56},{"user_id":784,"name":"Justy","steam_id":76561198044014069,"connected_time":1380000000000,"state":"active","ping":64},{"user_id":789,"name":"firestabber","steam_id":76561198057055577,"connected_time":1151000000000,"state":"active","ping":92},{"user_id":799,"name":"swan","steam_id":76561198012569200,"connected_time":626000000000,"state":"active","ping":92},{"user_id":723,"name":"ya boi","steam_id":76561198420218460,"connected_time":6768000000000,"state":"active","ping":58},{"user_id":809,"name":"Disney Junior","steam_id":76561198271881560,"connected_time":185000000000,"state":"active","ping":82},{"user_id":792,"name":"Darentmotion","steam_id":76561198161628971,"connected_time":961000000000,"state":"active","ping":79},{"user_id":793,"name":"LalitoTV","steam_id":76561198334302951,"connected_time":919000000000,"state":"active","ping":102},{"user_id":794,"name":"intek","steam_id":76561198052705291,"connected_time":868000000000,"state":"active","ping":76},{"user_id":795,"name":"Playboy Carti","steam_id":76561198305836153,"connected_time":772000000000,"state":"active","ping":60},{"user_id":796,"name":"Dank Ghost","steam_id":76561198400690889,"connected_time":747000000000,"state":"active","ping":82},{"user_id":808,"name":"ThePirateKenway","steam_id":76561198115156181,"connected_time":273000000000,"state":"active","ping":47},{"user_id":798,"name":"Nicko","steam_id":76561198328490503,"connected_time":689000000000,"state":"active","ping":142},{"user_id":778,"name":"greg","steam_id":76561198051075489,"connected_time":1641000000000,"state":"active","ping":58},{"user_id":800,"name":"Su1tCas3","steam_id":76561198035989471,"connected_time":599000000000,"state":"active","ping":112},{"user_id":801,"name":"manbearswineflu","steam_id":76561198083945137,"connected_time":584000000000,"state":"active","ping":82},{"user_id":770,"name":"cup","steam_id":76561198121245586,"connected_time":2790000000000,"state":"active","ping":82},{"user_id":802,"name":"supafly","steam_id":76561198294281809,"connected_time":576000000000,"state":"active","ping":74},{"user_id":807,"name":"Shmebulock","steam_id":76561198046941925,"connected_time":428000000000,"state":"active","ping":77},{"user_id":804,"name":"sollarious101","steam_id":76561199086649385,"connected_time":571000000000,"state":"active","ping":42},{"user_id":810,"name":"Willy","steam_id":76561198046508940,"connected_time":85000000000,"state":"active","ping":88},{"user_id":774,"name":"Alchemist","steam_id":76561198094238189,"connected_time":2295000000000,"state":"active","ping":71}]},{"server_id":108,"name":"Uncletopia | Dallas | 2 | All Maps","name_short":"dal-2","host":"dal-1.us.uncletopia.com","port":27025,"enabled":true,"region":"us-central","cc":"us","latitude":32.779167,"longitude":-96.80889,"reserved":0,"last_update":"0001-01-01T00:00:00Z","name_a2s":"Uncletopia | Dallas | 2 | All Maps","protocol":17,"map":"pl_upward","folder":"tf","game":"Team Fortress","app_id":440,"player_count":24,"max_players":24,"Bots":0,"server_type":"Dedicated","server_os":"Linux","password":true,"vac":true,"version":"7757534","steam_id":85568392924469988,"keywords":["nocrits","nodmgspread","payload","uncletopia"],"game_id":440,"stv_port":27026,"stv_name":"Uncletopia | Dallas | 2 | All Maps | STV","players":[{"user_id":474,"name":"Jetmeme Sam","steam_id":76561198093994707,"connected_time":1824000000000,"state":"active","ping":44},{"user_id":461,"name":"Burny Sanders","steam_id":76561197961879048,"connected_time":2522000000000,"state":"active","ping":45},{"user_id":478,"name":"SirBagettue","steam_id":76561199010270588,"connected_time":1254000000000,"state":"active","ping":86},{"user_id":375,"name":"Dragons\u003eEverything","steam_id":76561199140784635,"connected_time":8774000000000,"state":"active","ping":61},{"user_id":477,"name":"NeutrinoCarrot","steam_id":76561199064279851,"connected_time":1359000000000,"state":"active","ping":58},{"user_id":464,"name":"xMystic_Fire","steam_id":76561198189961543,"connected_time":2517000000000,"state":"active","ping":58},{"user_id":428,"name":"bolainassr0","steam_id":76561199079078845,"connected_time":4455000000000,"state":"active","ping":110},{"user_id":479,"name":"Rafl","steam_id":76561198055222756,"connected_time":1239000000000,"state":"active","ping":45},{"user_id":442,"name":"TartMeringue","steam_id":76561198986757576,"connected_time":4192000000000,"state":"active","ping":63},{"user_id":482,"name":"maxresdefault","steam_id":76561198185980055,"connected_time":1055000000000,"state":"active","ping":75},{"user_id":443,"name":"schnedwob","steam_id":76561197999146588,"connected_time":4069000000000,"state":"active","ping":55},{"user_id":489,"name":"Se√±or_Awesome","steam_id":76561197995206768,"connected_time":271000000000,"state":"active","ping":71},{"user_id":460,"name":"inzang","steam_id":76561198088318074,"connected_time":2544000000000,"state":"active","ping":56},{"user_id":485,"name":"Soto101","steam_id":76561198141538280,"connected_time":533000000000,"state":"active","ping":62},{"user_id":441,"name":"Dat Dere Kirby","steam_id":76561198084054568,"connected_time":4210000000000,"state":"active","ping":99},{"user_id":456,"name":"InvaderAlex","steam_id":76561198039232451,"connected_time":3304000000000,"state":"active","ping":65},{"user_id":437,"name":"DiabetesMan","steam_id":76561198075668940,"connected_time":4258000000000,"state":"active","ping":85},{"user_id":438,"name":"derdds","steam_id":76561198034339940,"connected_time":4257000000000,"state":"active","ping":75},{"user_id":483,"name":"Charlie.","steam_id":76561199014543640,"connected_time":798000000000,"state":"active","ping":126},{"user_id":490,"name":"Kiwimpediment","steam_id":76561198322781400,"connected_time":205000000000,"state":"active","ping":103},{"user_id":481,"name":"FearTheJynx","steam_id":76561198136487957,"connected_time":1224000000000,"state":"active","ping":62},{"user_id":476,"name":"Miami","steam_id":76561198316753540,"connected_time":1636000000000,"state":"active","ping":37},{"user_id":473,"name":"Jelpo","steam_id":76561198406920072,"connected_time":1880000000000,"state":"active","ping":77},{"user_id":488,"name":"Mischievous44","steam_id":76561198106532712,"connected_time":452000000000,"state":"active","ping":82}]},{"server_id":5,"name":"Uncletopia | Frankfurt | 1 | All Maps","name_short":"frk-1","host":"frk-1.de.uncletopia.com","port":27015,"enabled":true,"region":"eu","cc":"de","latitude":50.110924,"longitude":8.682127,"reserved":0,"last_update":"0001-01-01T00:00:00Z","name_a2s":"Uncletopia | Frankfurt | 1 | All Maps","protocol":17,"map":"cp_mountainlab","folder":"tf","game":"Team Fortress","app_id":440,"player_count":0,"max_players":24,"Bots":0,"server_type":"Dedicated","server_os":"Linux","password":true,"vac":true,"version":"7757534","steam_id":85568392924469989,"keywords":["cp","nocrits","nodmgspread","uncletopia"],"game_id":440,"stv_port":27016,"stv_name":"Uncletopia | Frankfurt | 1 | All Maps | STV","players":null},{"server_id":110,"name":"Uncletopia | Frankfurt | 2 | All Maps","name_short":"frk-2","host":"frk-1.de.uncletopia.com","port":27025,"enabled":true,"region":"eu","cc":"de","latitude":50.110924,"longitude":8.682127,"reserved":0,"last_update":"0001-01-01T00:00:00Z","name_a2s":"Uncletopia | Frankfurt | 2 | All Maps","protocol":17,"map":"koth_suijin","folder":"tf","game":"Team Fortress","app_id":440,"player_count":4,"max_players":24,"Bots":0,"server_type":"Dedicated","server_os":"Linux","password":true,"vac":true,"version":"7757534","steam_id":85568392924469990,"keywords":["cp","nocrits","nodmgspread","uncletopia"],"game_id":440,"stv_port":27026,"stv_name":"Uncletopia | Frankfurt | 2 | All Maps | STV","players":[{"user_id":487,"name":"spotted richard","steam_id":76561197988802856,"connected_time":3425000000000,"state":"active","ping":47},{"user_id":494,"name":"Green_GarBear","steam_id":76561199468912415,"connected_time":491000000000,"state":"active","ping":214},{"user_id":495,"name":"blue_tristan03","steam_id":76561199468377688,"connected_time":460000000000,"state":"active","ping":210},{"user_id":491,"name":"bonus ducks","steam_id":76561199133093829,"connected_time":2183000000000,"state":"active","ping":133}]},{"server_id":308,"name":"Uncletopia | Frankfurt | 3 | All Maps","name_short":"frk-3","host":"frk-1.de.uncletopia.com","port":27035,"enabled":true,"region":"eu","cc":"de","latitude":50.110924,"longitude":8.682127,"reserved":0,"last_update":"0001-01-01T00:00:00Z","name_a2s":"Uncletopia | Frankfurt | 3 | All Maps","protocol":17,"map":"cp_mountainlab","folder":"tf","game":"Team Fortress","app_id":440,"player_count":0,"max_players":24,"Bots":0,"server_type":"Dedicated","server_os":"Linux","password":true,"vac":true,"version":"7757534","steam_id":85568392924504274,"keywords":["cp","nocrits","nodmgspread","uncletopia"],"game_id":440,"stv_port":27036,"stv_name":"Uncletopia | Frankfurt | 3 | All Maps | STV","players":null},{"server_id":309,"name":"Uncletopia | Frankfurt | 4 | All Maps","name_short":"frk-4","host":"frk-1.de.uncletopia.com","port":27045,"enabled":true,"region":"eu","cc":"de","latitude":50.110924,"longitude":8.682127,"reserved":0,"last_update":"0001-01-01T00:00:00Z","name_a2s":"Uncletopia | Frankfurt | 4 | All Maps","protocol":17,"map":"koth_highpass","folder":"tf","game":"Team Fortress","app_id":440,"player_count":0,"max_players":24,"Bots":0,"server_type":"Dedicated","server_os":"Linux","password":true,"vac":true,"version":"7757534","steam_id":85568392924504275,"keywords":["cp","nocrits","nodmgspread","uncletopia"],"game_id":440,"stv_port":27046,"stv_name":"Uncletopia | Frankfurt | 4 | All Maps | STV","players":null},{"server_id":310,"name":"Uncletopia | Frankfurt | 5 | All Maps","name_short":"frk-5","host":"frk-1.de.uncletopia.com","port":27055,"enabled":true,"region":"eu","cc":"de","latitude":50.110924,"longitude":8.682127,"reserved":0,"last_update":"0001-01-01T00:00:00Z","name_a2s":"Uncletopia | Frankfurt | 5 | All Maps","protocol":17,"map":"koth_viaduct","folder":"tf","game":"Team Fortress","app_id":440,"player_count":0,"max_players":24,"Bots":0,"server_type":"Dedicated","server_os":"Linux","password":true,"vac":true,"version":"7757534","steam_id":85568392924504277,"keywords":["cp","nocrits","nodmgspread","uncletopia"],"game_id":440,"stv_port":27056,"stv_name":"Uncletopia | Frankfurt | 5 | All Maps | STV","players":null},{"server_id":311,"name":"Uncletopia | Frankfurt | 6 | All Maps","name_short":"frk-6","host":"frk-1.de.uncletopia.com","port":27065,"enabled":true,"region":"eu","cc":"de","latitude":50.110924,"longitude":8.682127,"reserved":0,"last_update":"0001-01-01T00:00:00Z","name_a2s":"Uncletopia | Frankfurt | 6 | All Maps","protocol":17,"map":"koth_viaduct","folder":"tf","game":"Team Fortress","app_id":440,"player_count":0,"max_players":24,"Bots":0,"server_type":"Dedicated","server_os":"Linux","password":true,"vac":true,"version":"7757534","steam_id":85568392924504278,"keywords":["cp","nocrits","nodmgspread","uncletopia"],"game_id":440,"stv_port":27066,"stv_name":"Uncletopia | Frankfurt | 6 | All Maps | STV","players":null},{"server_id":23,"name":"Uncletopia | Frankfurt | 7 | Stopwatch Beta","name_short":"frk-7","host":"frk-1.de.uncletopia.com","port":27075,"enabled":true,"region":"eu","cc":"de","latitude":50.110924,"longitude":8.682127,"reserved":0,"last_update":"0001-01-01T00:00:00Z","name_a2s":"Uncletopia | Frankfurt | 7 | Stopwatch Beta","protocol":17,"map":"workshop/koth_ramjam_rc1.ugc459778887","folder":"tf","game":"Team Fortress","app_id":440,"player_count":0,"max_players":24,"Bots":0,"server_type":"Dedicated","server_os":"Linux","password":true,"vac":true,"version":"7757534","steam_id":85568392924742827,"keywords":["cp","nocrits","nodmgspread","uncletopia"],"game_id":440,"stv_port":27076,"stv_name":"Uncletopia | Frankfurt | 7 | Stopwatch Beta | STV","players":null},{"server_id":24,"name":"Uncletopia | Frankfurt | 8 | Community","name_short":"frk-8","host":"frk-1.de.uncletopia.com","port":27085,"enabled":true,"region":"eu","cc":"de","latitude":50.110924,"longitude":8.682127,"reserved":0,"last_update":"0001-01-01T00:00:00Z","name_a2s":"Uncletopia | Frankfurt | 8 | Community","protocol":17,"map":"workshop/pl_shoreleave_rc1.ugc1238849347","folder":"tf","game":"Team Fortress","app_id":440,"player_count":0,"max_players":24,"Bots":0,"server_type":"Dedicated","server_os":"Linux","password":true,"vac":true,"version":"7757534","steam_id":85568392924742828,"keywords":["nocrits","nodmgspread","payload","uncletopia"],"game_id":440,"stv_port":27086,"stv_name":"Uncletopia | Frankfurt | 8 | Community | STV","players":null},{"server_id":202,"name":"Uncletopia | Hong Kong | 1 | All Maps","name_short":"hgk-1","host":"hgk-1.hk.uncletopia.com","port":27015,"enabled":true,"region":"asia","cc":"hk","latitude":22.302711,"longitude":114.177216,"reserved":0,"last_update":"0001-01-01T00:00:00Z","name_a2s":"Uncletopia | Hong Kong | 1 | All Maps","protocol":17,"map":"cp_process_final","folder":"tf","game":"Team Fortress","app_id":440,"player_count":5,"max_players":24,"Bots":0,"server_type":"Dedicated","server_os":"Linux","password":true,"vac":true,"version":"7757534","steam_id":85568392924494504,"keywords":["cp","nocrits","nodmgspread","uncletopia"],"game_id":440,"stv_port":27016,"stv_name":"Uncletopia | Hong Kong | 1 | All Maps | STV","players":[{"user_id":26,"name":"ÂñÑËâØ„ÅÆÂ¢®","steam_id":76561199102754539,"connected_time":2317000000000,"state":"spawning","ping":114},{"user_id":36,"name":"ali_","steam_id":76561198268752908,"connected_time":94000000000,"state":"spawning","ping":106},{"user_id":28,"name":"an idiot","steam_id":76561199245124028,"connected_time":2039000000000,"state":"spawning","ping":124},{"user_id":37,"name":"eekynetwo(F2P Piss Sniper)","steam_id":76561198990017441,"connected_time":76000000000,"state":"spawning","ping":111},{"user_id":38,"name":"\"SKS\"","steam_id":76561198187995386,"connected_time":58000000000,"state":"spawning","ping":90}]},{"server_id":1,"name":"Uncletopia | Los Angeles | 1 | All Maps","name_short":"lax-1","host":"lax-1.us.uncletopia.com","port":27015,"enabled":true,"region":"us-west","cc":"us","latitude":33.94279,"longitude":-118.41004,"reserved":0,"last_update":"0001-01-01T00:00:00Z","name_a2s":"Uncletopia | Los Angeles | 1 | All Maps","protocol":17,"map":"pl_upward","folder":"tf","game":"Team Fortress","app_id":440,"player_count":24,"max_players":24,"Bots":0,"server_type":"Dedicated","server_os":"Linux","password":true,"vac":true,"version":"7757534","steam_id":85568392924469991,"keywords":["nocrits","nodmgspread","payload","uncletopia"],"game_id":440,"stv_port":27016,"stv_name":"Uncletopia | Los Angeles | 1 | All Maps | STV","players":[{"user_id":472,"name":"Mycelius","steam_id":76561198324811385,"connected_time":2244000000000,"state":"active","ping":54},{"user_id":487,"name":"Uprightmoss7528","steam_id":76561199200138486,"connected_time":1273000000000,"state":"active","ping":61},{"user_id":474,"name":"the goblin","steam_id":76561198097721532,"connected_time":2170000000000,"state":"active","ping":52},{"user_id":421,"name":"biofio","steam_id":76561198019094571,"connected_time":3913000000000,"state":"active","ping":66},{"user_id":498,"name":"OrphanObliterator","steam_id":76561199185087795,"connected_time":489000000000,"state":"active","ping":107},{"user_id":370,"name":"Tako","steam_id":76561199264073138,"connected_time":7207000000000,"state":"active","ping":31},{"user_id":357,"name":"bigman1","steam_id":76561198050225055,"connected_time":8667000000000,"state":"active","ping":50},{"user_id":495,"name":"Coolidge","steam_id":76561198352198467,"connected_time":655000000000,"state":"active","ping":62},{"user_id":407,"name":"Empyrean","steam_id":76561198116398716,"connected_time":4743000000000,"state":"active","ping":64},{"user_id":513,"name":"DaBeatGoOff?","steam_id":76561198106507400,"connected_time":132000000000,"state":"active","ping":58},{"user_id":455,"name":"Unknown2Me","steam_id":76561199049192464,"connected_time":2736000000000,"state":"active","ping":62},{"user_id":507,"name":"cringy","steam_id":76561198323000455,"connected_time":301000000000,"state":"active","ping":112},{"user_id":491,"name":"4oh4","steam_id":76561198388047861,"connected_time":770000000000,"state":"active","ping":95},{"user_id":478,"name":"BrightOrangeMango","steam_id":76561198023144607,"connected_time":1986000000000,"state":"active","ping":64},{"user_id":496,"name":"Shamrock Shake Oct.10.2020 @8pm","steam_id":76561198833313201,"connected_time":597000000000,"state":"active","ping":57},{"user_id":396,"name":"Esue Ijae","steam_id":76561199268519057,"connected_time":5924000000000,"state":"active","ping":54},{"user_id":481,"name":"hoopswoop9","steam_id":76561199203050556,"connected_time":1928000000000,"state":"active","ping":61},{"user_id":500,"name":"Len","steam_id":76561199141913673,"connected_time":479000000000,"state":"active","ping":30},{"user_id":511,"name":"ejschild745","steam_id":76561199013388867,"connected_time":189000000000,"state":"active","ping":106},{"user_id":417,"name":"the hottest to ever do it","steam_id":76561198145669711,"connected_time":4319000000000,"state":"active","ping":44},{"user_id":492,"name":"AwesomenessPhD","steam_id":76561198152631718,"connected_time":763000000000,"state":"active","ping":81},{"user_id":429,"name":"yoshi from da hood","steam_id":76561199102371298,"connected_time":3426000000000,"state":"active","ping":63},{"user_id":485,"name":"Reem0h","steam_id":76561198169848690,"connected_time":1343000000000,"state":"active","ping":119},{"user_id":432,"name":"Stacks to the Ceiling Fan","steam_id":76561198011675372,"connected_time":3363000000000,"state":"active","ping":86}]},{"server_id":112,"name":"Uncletopia | Los Angeles | 2 | All Maps","name_short":"lax-2","host":"lax-1.us.uncletopia.com","port":27025,"enabled":true,"region":"us-west","cc":"us","latitude":33.94279,"longitude":-118.41004,"reserved":0,"last_update":"0001-01-01T00:00:00Z","name_a2s":"Uncletopia | Los Angeles | 2 | All Maps","protocol":17,"map":"koth_cascade","folder":"tf","game":"Team Fortress","app_id":440,"player_count":0,"max_players":24,"Bots":0,"server_type":"Dedicated","server_os":"Linux","password":true,"vac":true,"version":"7757534","steam_id":85568392924469992,"keywords":["cp","nocrits","nodmgspread","uncletopia"],"game_id":440,"stv_port":27026,"stv_name":"Uncletopia | Los Angeles | 2 | All Maps | STV","players":null},{"server_id":324,"name":"Uncletopia | Los Angeles | 3 | All Maps","name_short":"lax-3","host":"lax-1.us.uncletopia.com","port":27035,"enabled":true,"region":"us-west","cc":"us","latitude":33.94279,"longitude":-118.41004,"reserved":0,"last_update":"0001-01-01T00:00:00Z","name_a2s":"Uncletopia | Los Angeles | 3 | All Maps","protocol":17,"map":"cp_coldfront","folder":"tf","game":"Team Fortress","app_id":440,"player_count":24,"max_players":24,"Bots":0,"server_type":"Dedicated","server_os":"Linux","password":true,"vac":true,"version":"7757534","steam_id":85568392924510198,"keywords":["cp","nocrits","nodmgspread","uncletopia"],"game_id":440,"stv_port":27036,"stv_name":"Uncletopia | Los Angeles | 3 | All Maps | STV","players":[{"user_id":86,"name":"ZenoeZ","steam_id":76561198073573555,"connected_time":1492000000000,"state":"active","ping":88},{"user_id":90,"name":"Verily","steam_id":76561198200558318,"connected_time":1444000000000,"state":"active","ping":104},{"user_id":103,"name":"PinguEnjoyer6","steam_id":76561199186723516,"connected_time":223000000000,"state":"active","ping":41},{"user_id":101,"name":"MuZe","steam_id":76561198096212604,"connected_time":402000000000,"state":"active","ping":133},{"user_id":104,"name":"what da dog doin","steam_id":76561198090573639,"connected_time":19000000000,"state":"active","ping":72},{"user_id":22,"name":"Great Chinaman","steam_id":76561198409907417,"connected_time":3595000000000,"state":"active","ping":65},{"user_id":95,"name":"Ellis","steam_id":76561198993634489,"connected_time":648000000000,"state":"active","ping":48},{"user_id":96,"name":"walrooos","steam_id":76561198024521839,"connected_time":578000000000,"state":"active","ping":43},{"user_id":24,"name":"SuperBurgerBoy","steam_id":76561198856387197,"connected_time":3516000000000,"state":"active","ping":58},{"user_id":26,"name":"The Admiralty","steam_id":76561198839398708,"connected_time":2957000000000,"state":"active","ping":75},{"user_id":27,"name":"Meme_Man256","steam_id":76561199013740179,"connected_time":2867000000000,"state":"active","ping":73},{"user_id":28,"name":"wiseman64","steam_id":76561198079165879,"connected_time":2866000000000,"state":"active","ping":73},{"user_id":29,"name":"tie dye die guy","steam_id":76561198049845337,"connected_time":2854000000000,"state":"active","ping":65},{"user_id":30,"name":"Bignoobequalme","steam_id":76561199083816758,"connected_time":2801000000000,"state":"active","ping":66},{"user_id":97,"name":"nicotine","steam_id":76561198193457726,"connected_time":562000000000,"state":"active","ping":51},{"user_id":98,"name":"Festive Boi","steam_id":76561198065699631,"connected_time":544000000000,"state":"active","ping":57},{"user_id":36,"name":"AverageCEO","steam_id":76561198341738788,"connected_time":2726000000000,"state":"active","ping":96},{"user_id":102,"name":"APOTATO","steam_id":76561198118199858,"connected_time":395000000000,"state":"active","ping":54},{"user_id":99,"name":"Frogzilla","steam_id":76561198077657538,"connected_time":461000000000,"state":"active","ping":102},{"user_id":38,"name":"Mr. Dick‚Ñ¢","steam_id":76561198047309044,"connected_time":2685000000000,"state":"active","ping":88},{"user_id":39,"name":"Mozes","steam_id":76561198282673707,"connected_time":2678000000000,"state":"active","ping":75},{"user_id":40,"name":"Rooster Cookie","steam_id":76561198137850413,"connected_time":2667000000000,"state":"active","ping":119},{"user_id":42,"name":"Socialism Enjoyer","steam_id":76561197991817974,"connected_time":2613000000000,"state":"active","ping":57},{"user_id":44,"name":"RobotPrototype","steam_id":76561198117511091,"connected_time":2544000000000,"state":"active","ping":100}]},{"server_id":25,"name":"Uncletopia | Los Angeles | 4 | Stopwatch Beta","name_short":"lax-4","host":"lax-1.us.uncletopia.com","port":27045,"enabled":true,"region":"us-west","cc":"us","latitude":33.94279,"longitude":-118.41004,"reserved":0,"last_update":"0001-01-01T00:00:00Z","name_a2s":"Uncletopia | Los Angeles | 4 | Stopwatch Beta","protocol":17,"map":"pl_frontier_final","folder":"tf","game":"Team Fortress","app_id":440,"player_count":0,"max_players":24,"Bots":0,"server_type":"Dedicated","server_os":"Linux","password":true,"vac":true,"version":"7757534","steam_id":85568392924510199,"keywords":["nocrits","nodmgspread","payload","uncletopia"],"game_id":440,"stv_port":27046,"stv_name":"Uncletopia | Los Angeles | 4 | Stopwatch Beta | STV","players":null},{"server_id":11,"name":"Uncletopia | London | 1 | All Maps","name_short":"lon-1","host":"lon-1.uk.uncletopia.com","port":27015,"enabled":true,"region":"eu","cc":"gb","latitude":51.509865,"longitude":-0.118092,"reserved":0,"last_update":"0001-01-01T00:00:00Z","name_a2s":"Uncletopia | London | 1 | All Maps","protocol":17,"map":"koth_lakeside_final","folder":"tf","game":"Team Fortress","app_id":440,"player_count":0,"max_players":24,"Bots":0,"server_type":"Dedicated","server_os":"Linux","password":true,"vac":true,"version":"7757534","steam_id":85568392924367362,"keywords":["cp","nocrits","nodmgspread","uncletopia"],"game_id":440,"stv_port":27016,"stv_name":"Uncletopia | London | 1 | All Maps | STV","players":null},{"server_id":114,"name":"Uncletopia | London | 2 | All Maps","name_short":"lon-2","host":"lon-1.uk.uncletopia.com","port":27025,"enabled":true,"region":"eu","cc":"gb","latitude":51.509865,"longitude":-0.118092,"reserved":0,"last_update":"0001-01-01T00:00:00Z","name_a2s":"Uncletopia | London | 2 | All Maps","protocol":17,"map":"koth_cascade","folder":"tf","game":"Team Fortress","app_id":440,"player_count":0,"max_players":24,"Bots":0,"server_type":"Dedicated","server_os":"Linux","password":true,"vac":true,"version":"7757534","steam_id":85568392924470941,"keywords":["cp","nocrits","nodmgspread","uncletopia"],"game_id":440,"stv_port":27026,"stv_name":"Uncletopia | London | 2 | All Maps | STV","players":null},{"server_id":320,"name":"Uncletopia | London | 3 | All Maps","name_short":"lon-3","host":"lon-1.uk.uncletopia.com","port":27035,"enabled":true,"region":"eu","cc":"gb","latitude":51.509865,"longitude":-0.118092,"reserved":0,"last_update":"0001-01-01T00:00:00Z","name_a2s":"Uncletopia | London | 3 | All Maps","protocol":17,"map":"pl_upward","folder":"tf","game":"Team Fortress","app_id":440,"player_count":0,"max_players":24,"Bots":0,"server_type":"Dedicated","server_os":"Linux","password":true,"vac":true,"version":"7757534","steam_id":85568392924510192,"keywords":["nocrits","nodmgspread","payload","uncletopia"],"game_id":440,"stv_port":27036,"stv_name":"Uncletopia | London | 3 | All Maps | STV","players":null},{"server_id":321,"name":"Uncletopia | London | 4 | All Maps","name_short":"lon-4","host":"lon-1.uk.uncletopia.com","port":27045,"enabled":true,"region":"eu","cc":"gb","latitude":51.509865,"longitude":-0.118092,"reserved":0,"last_update":"0001-01-01T00:00:00Z","name_a2s":"Uncletopia | London | 4 | All Maps","protocol":17,"map":"koth_highpass","folder":"tf","game":"Team Fortress","app_id":440,"player_count":0,"max_players":24,"Bots":0,"server_type":"Dedicated","server_os":"Linux","password":true,"vac":true,"version":"7757534","steam_id":85568392924510193,"keywords":["cp","nocrits","nodmgspread","uncletopia"],"game_id":440,"stv_port":27046,"stv_name":"Uncletopia | London | 4 | All Maps | STV","players":null},{"server_id":21,"name":"Uncletopia | London | 5 | All Maps","name_short":"lon-5","host":"lon-1.uk.uncletopia.com","port":27055,"enabled":true,"region":"eu","cc":"gb","latitude":51.509865,"longitude":-0.118092,"reserved":0,"last_update":"0001-01-01T00:00:00Z","name_a2s":"Uncletopia | London | 5 | All Maps","protocol":17,"map":"koth_lakeside_final","folder":"tf","game":"Team Fortress","app_id":440,"player_count":0,"max_players":24,"Bots":0,"server_type":"Dedicated","server_os":"Linux","password":true,"vac":true,"version":"7757534","steam_id":85568392924742829,"keywords":["cp","nocrits","nodmgspread","uncletopia"],"game_id":440,"stv_port":27056,"stv_name":"Uncletopia | London | 5 | All Maps | STV","players":null},{"server_id":22,"name":"Uncletopia | London | 6 | All Maps","name_short":"lon-6","host":"lon-1.uk.uncletopia.com","port":27065,"enabled":true,"region":"eu","cc":"gb","latitude":51.509865,"longitude":-0.118092,"reserved":0,"last_update":"0001-01-01T00:00:00Z","name_a2s":"Uncletopia | London | 6 | All Maps","protocol":17,"map":"cp_dustbowl","folder":"tf","game":"Team Fortress","app_id":440,"player_count":0,"max_players":24,"Bots":0,"server_type":"Dedicated","server_os":"Linux","password":true,"vac":true,"version":"7757534","steam_id":85568392924742830,"keywords":["cp","nocrits","nodmgspread","uncletopia"],"game_id":440,"stv_port":27066,"stv_name":"Uncletopia | London | 6 | All Maps | STV","players":null},{"server_id":40,"name":"Uncletopia | London | 7 | No Payload","name_short":"lon-7","host":"lon-1.uk.uncletopia.com","port":27075,"enabled":true,"region":"eu","cc":"gb","latitude":51.509865,"longitude":-0.118092,"reserved":0,"last_update":"0001-01-01T00:00:00Z","name_a2s":"Uncletopia | London | 7 | No Payload","protocol":17,"map":"koth_suijin","folder":"tf","game":"Team Fortress","app_id":440,"player_count":0,"max_players":24,"Bots":0,"server_type":"Dedicated","server_os":"Linux","password":true,"vac":true,"version":"7757534","steam_id":85568392924964314,"keywords":["cp","nocrits","nodmgspread","uncletopia"],"game_id":440,"stv_port":27076,"stv_name":"Uncletopia | London | 7 | No Payload | STV","players":null},{"server_id":41,"name":"Uncletopia | London | 8 | Community","name_short":"lon-8","host":"lon-1.uk.uncletopia.com","port":27085,"enabled":true,"region":"eu","cc":"gb","latitude":51.509865,"longitude":-0.118092,"reserved":0,"last_update":"0001-01-01T00:00:00Z","name_a2s":"Uncletopia | London | 8 | Community","protocol":17,"map":"workshop/pl_cactuscanyon_redux_rc4b.ugc2579644293","folder":"tf","game":"Team Fortress","app_id":440,"player_count":0,"max_players":24,"Bots":0,"server_type":"Dedicated","server_os":"Linux","password":true,"vac":true,"version":"7757534","steam_id":85568392924964315,"keywords":["nocrits","nodmgspread","payload","uncletopia"],"game_id":440,"stv_port":27086,"stv_name":"Uncletopia | London | 8 | Community | STV","players":null},{"server_id":300,"name":"Uncletopia | Montr√©al | 1 | All Maps","name_short":"mtl-1","host":"mtl-1.ca.uncletopia.com","port":27015,"enabled":true,"region":"us-east","cc":"ca","latitude":45.50889,"longitude":-73.56167,"reserved":0,"last_update":"0001-01-01T00:00:00Z","name_a2s":"Uncletopia | Montr√©al | 1 | All Maps","protocol":17,"map":"pl_snowycoast","folder":"tf","game":"Team Fortress","app_id":440,"player_count":18,"max_players":24,"Bots":0,"server_type":"Dedicated","server_os":"Linux","password":true,"vac":true,"version":"7757534","steam_id":85568392924500087,"keywords":["nocrits","nodmgspread","payload","uncletopia"],"game_id":440,"stv_port":27016,"stv_name":"Uncletopia | Montr√©al | 1 | All Maps | STV","players":[{"user_id":358,"name":"Futo","steam_id":76561198023185653,"connected_time":2865000000000,"state":"active","ping":65},{"user_id":389,"name":"Munchyjr","steam_id":76561198041498014,"connected_time":143000000000,"state":"active","ping":56},{"user_id":371,"name":"carrion goat she/it","steam_id":76561198262064871,"connected_time":1956000000000,"state":"active","ping":48},{"user_id":372,"name":"jootloops","steam_id":76561198155447794,"connected_time":1897000000000,"state":"active","ping":50},{"user_id":369,"name":"Wacky-Mo","steam_id":76561198022265991,"connected_time":2222000000000,"state":"active","ping":60},{"user_id":386,"name":"mud drater","steam_id":76561198018680492,"connected_time":670000000000,"state":"active","ping":62},{"user_id":387,"name":"zeredis","steam_id":76561198076596689,"connected_time":230000000000,"state":"active","ping":54},{"user_id":341,"name":"CheddarCake","steam_id":76561198061993725,"connected_time":3987000000000,"state":"active","ping":57},{"user_id":388,"name":"Andrew","steam_id":76561198070615190,"connected_time":189000000000,"state":"active","ping":67},{"user_id":377,"name":"Stinkly","steam_id":76561198045010846,"connected_time":1362000000000,"state":"active","ping":59},{"user_id":379,"name":"ml is fake cs","steam_id":76561198350747953,"connected_time":1280000000000,"state":"active","ping":38},{"user_id":380,"name":"||:‚ô©‚ô©‚ô©‚ô™:|| Opplydead","steam_id":76561198028630334,"connected_time":1222000000000,"state":"active","ping":124},{"user_id":381,"name":"Lavender","steam_id":76561198142770666,"connected_time":1133000000000,"state":"active","ping":77},{"user_id":382,"name":"Marisuh","steam_id":76561198843890616,"connected_time":1130000000000,"state":"active","ping":85},{"user_id":383,"name":"Rykah","steam_id":76561198095040360,"connected_time":1126000000000,"state":"active","ping":70},{"user_id":385,"name":"flasky","steam_id":76561198079119793,"connected_time":1072000000000,"state":"active","ping":76},{"user_id":354,"name":"Waterzuka","steam_id":76561198254454489,"connected_time":3389000000000,"state":"active","ping":120},{"user_id":357,"name":"chloe","steam_id":76561198369849908,"connected_time":3089000000000,"state":"active","ping":57}]},{"server_id":301,"name":"Uncletopia | Montr√©al | 2 | All Maps","name_short":"mtl-2","host":"mtl-1.ca.uncletopia.com","port":27025,"enabled":true,"region":"us-east","cc":"ca","latitude":45.50889,"longitude":-73.56167,"reserved":0,"last_update":"0001-01-01T00:00:00Z","name_a2s":"Uncletopia | Montr√©al | 2 | All Maps","protocol":17,"map":"pl_frontier_final","folder":"tf","game":"Team Fortress","app_id":440,"player_count":0,"max_players":24,"Bots":0,"server_type":"Dedicated","server_os":"Linux","password":true,"vac":true,"version":"7757534","steam_id":85568392924500088,"keywords":["nocrits","nodmgspread","payload","uncletopia"],"game_id":440,"stv_port":27026,"stv_name":"Uncletopia | Montr√©al | 2 | All Maps | STV","players":null},{"server_id":302,"name":"Uncletopia | Montr√©al | 3 | All Maps","name_short":"mtl-3","host":"mtl-1.ca.uncletopia.com","port":27035,"enabled":true,"region":"us-east","cc":"ca","latitude":45.50889,"longitude":-73.56167,"reserved":0,"last_update":"0001-01-01T00:00:00Z","name_a2s":"Uncletopia | Montr√©al | 3 | All Maps","protocol":17,"map":"cp_dustbowl","folder":"tf","game":"Team Fortress","app_id":440,"player_count":0,"max_players":24,"Bots":0,"server_type":"Dedicated","server_os":"Linux","password":true,"vac":true,"version":"7757534","steam_id":85568392924500089,"keywords":["cp","nocrits","nodmgspread","uncletopia"],"game_id":440,"stv_port":27036,"stv_name":"Uncletopia | Montr√©al | 3 | All Maps | STV","players":null},{"server_id":303,"name":"Uncletopia | Montr√©al | 4 | No Payload","name_short":"mtl-4","host":"mtl-1.ca.uncletopia.com","port":27045,"enabled":true,"region":"us-east","cc":"ca","latitude":45.50889,"longitude":-73.56167,"reserved":0,"last_update":"0001-01-01T00:00:00Z","name_a2s":"Uncletopia | Montr√©al | 4 | No Payload","protocol":17,"map":"pl_borneo","folder":"tf","game":"Team Fortress","app_id":440,"player_count":0,"max_players":24,"Bots":0,"server_type":"Dedicated","server_os":"Linux","password":true,"vac":true,"version":"7757534","steam_id":85568392924500090,"keywords":["nocrits","nodmgspread","payload","uncletopia"],"game_id":440,"stv_port":27046,"stv_name":"Uncletopia | Montr√©al | 4 | No Payload | STV","players":null},{"server_id":13,"name":"Uncletopia | New York City | 1 | All Maps","name_short":"nyc-1","host":"nyc-1.us.uncletopia.com","port":27015,"enabled":true,"region":"us-east","cc":"us","latitude":40.73061,"longitude":-73.93524,"reserved":0,"last_update":"0001-01-01T00:00:00Z","name_a2s":"Uncletopia | New York City | 1 | All Maps","protocol":17,"map":"cp_mountainlab","folder":"tf","game":"Team Fortress","app_id":440,"player_count":24,"max_players":24,"Bots":0,"server_type":"Dedicated","server_os":"Linux","password":true,"vac":true,"version":"7757534","steam_id":85568392924469993,"keywords":["cp","nocrits","nodmgspread","uncletopia"],"game_id":440,"stv_port":27016,"stv_name":"Uncletopia | New York City | 1 | All Maps | STV","players":[{"user_id":602,"name":"Phoenix117","steam_id":76561198071630835,"connected_time":2293000000000,"state":"active","ping":97},{"user_id":616,"name":"Zesty Jesus","steam_id":76561198052431073,"connected_time":643000000000,"state":"active","ping":76},{"user_id":601,"name":"Bother","steam_id":76561198336750909,"connected_time":2304000000000,"state":"active","ping":36},{"user_id":617,"name":"James","steam_id":76561198055687973,"connected_time":609000000000,"state":"active","ping":63},{"user_id":548,"name":"ndvr","steam_id":76561199379200102,"connected_time":5988000000000,"state":"active","ping":51},{"user_id":619,"name":"the deadliest pyroshark","steam_id":76561198374227766,"connected_time":567000000000,"state":"active","ping":56},{"user_id":620,"name":"RED1 | p4ka","steam_id":76561198315291317,"connected_time":551000000000,"state":"active","ping":50},{"user_id":622,"name":"LinkFromDaPast","steam_id":76561198211437197,"connected_time":434000000000,"state":"active","ping":75},{"user_id":586,"name":"mars.","steam_id":76561198054859869,"connected_time":3563000000000,"state":"active","ping":62},{"user_id":604,"name":"Gator","steam_id":76561198185982730,"connected_time":2284000000000,"state":"active","ping":63},{"user_id":615,"name":"SpinetinglingToast","steam_id":76561198099470670,"connected_time":687000000000,"state":"active","ping":55},{"user_id":612,"name":"Saultnami","steam_id":76561198054742221,"connected_time":1192000000000,"state":"active","ping":82},{"user_id":606,"name":"ADHDking","steam_id":76561198116099017,"connected_time":2261000000000,"state":"active","ping":46},{"user_id":567,"name":"kentuckyfriedsocks","steam_id":76561198311122883,"connected_time":4705000000000,"state":"active","ping":84},{"user_id":597,"name":"Cake","steam_id":76561198067273252,"connected_time":2933000000000,"state":"active","ping":81},{"user_id":595,"name":"IggyYT","steam_id":76561198317980567,"connected_time":3092000000000,"state":"active","ping":76},{"user_id":613,"name":"simpsons capitalist","steam_id":76561198054731676,"connected_time":1163000000000,"state":"active","ping":58},{"user_id":614,"name":"Bashirider","steam_id":76561198260522253,"connected_time":1053000000000,"state":"active","ping":55},{"user_id":607,"name":"Dezorbo","steam_id":76561197971883897,"connected_time":2249000000000,"state":"active","ping":64},{"user_id":382,"name":"Elixir","steam_id":76561198166786809,"connected_time":18028000000000,"state":"active","ping":59},{"user_id":570,"name":"egyptiangodcard","steam_id":76561198855935442,"connected_time":4664000000000,"state":"active","ping":90},{"user_id":576,"name":"HumFreY","steam_id":76561198076639682,"connected_time":4328000000000,"state":"active","ping":55},{"user_id":599,"name":"Noided Garfield","steam_id":76561198066711838,"connected_time":2664000000000,"state":"active","ping":76},{"user_id":610,"name":"Senator Lucon","steam_id":76561198030563610,"connected_time":1271000000000,"state":"active","ping":129}]},{"server_id":14,"name":"Uncletopia | New York City | 2 | All Maps","name_short":"nyc-2","host":"nyc-1.us.uncletopia.com","port":27025,"enabled":true,"region":"us-east","cc":"us","latitude":40.73061,"longitude":-73.93524,"reserved":0,"last_update":"0001-01-01T00:00:00Z","name_a2s":"Uncletopia | New York City | 2 | All Maps","protocol":17,"map":"pl_badwater","folder":"tf","game":"Team Fortress","app_id":440,"player_count":24,"max_players":24,"Bots":0,"server_type":"Dedicated","server_os":"Linux","password":true,"vac":true,"version":"7757534","steam_id":85568392924469994,"keywords":["nocrits","nodmgspread","payload","uncletopia"],"game_id":440,"stv_port":27026,"stv_name":"Uncletopia | New York City | 2 | All Maps | STV","players":[{"user_id":200,"name":"hoots","steam_id":76561198015609525,"connected_time":474000000000,"state":"active","ping":52},{"user_id":190,"name":"Z4lTte","steam_id":76561198283258068,"connected_time":875000000000,"state":"active","ping":52},{"user_id":179,"name":"[BBW] Justario","steam_id":76561198016095410,"connected_time":1264000000000,"state":"active","ping":44},{"user_id":174,"name":"Sim","steam_id":76561198119227922,"connected_time":2233000000000,"state":"active","ping":54},{"user_id":201,"name":"Super D Duper","steam_id":76561198078203677,"connected_time":376000000000,"state":"active","ping":55},{"user_id":185,"name":"snood","steam_id":76561198054279302,"connected_time":1041000000000,"state":"active","ping":61},{"user_id":192,"name":"PrinceGrotle","steam_id":76561198206131603,"connected_time":835000000000,"state":"active","ping":67},{"user_id":194,"name":"Lawtumn","steam_id":76561198347286009,"connected_time":798000000000,"state":"active","ping":58},{"user_id":195,"name":"\u003cDET\u003e Zetsyuk","steam_id":76561197979474818,"connected_time":798000000000,"state":"active","ping":83},{"user_id":178,"name":"British Rage","steam_id":76561198009585209,"connected_time":1474000000000,"state":"active","ping":123},{"user_id":181,"name":"MBE2FL","steam_id":76561198030766976,"connected_time":1175000000000,"state":"active","ping":81},{"user_id":153,"name":"Fishman_200","steam_id":76561198152455167,"connected_time":3331000000000,"state":"active","ping":56},{"user_id":169,"name":"Justinbk","steam_id":76561198076047549,"connected_time":2479000000000,"state":"active","ping":61},{"user_id":202,"name":"FTN | Shakaman","steam_id":76561198039829758,"connected_time":310000000000,"state":"active","ping":51},{"user_id":165,"name":"A Puppy","steam_id":76561198828184456,"connected_time":2516000000000,"state":"active","ping":48},{"user_id":157,"name":"Nobody","steam_id":76561198160544586,"connected_time":2685000000000,"state":"active","ping":83},{"user_id":189,"name":"Kraftlos","steam_id":76561198074350350,"connected_time":885000000000,"state":"active","ping":58},{"user_id":120,"name":"Heropon","steam_id":76561198105224481,"connected_time":4520000000000,"state":"active","ping":67},{"user_id":188,"name":"Tone","steam_id":76561198139386202,"connected_time":886000000000,"state":"active","ping":61},{"user_id":196,"name":"Communist Killing Candy Cactus\ufffd","steam_id":76561198074980635,"connected_time":752000000000,"state":"active","ping":138},{"user_id":166,"name":"Wefflez","steam_id":76561198049110443,"connected_time":2515000000000,"state":"active","ping":71},{"user_id":203,"name":"speck","steam_id":76561198147107736,"connected_time":159000000000,"state":"active","ping":60},{"user_id":197,"name":"shadowjango","steam_id":76561198001475833,"connected_time":728000000000,"state":"active","ping":75}]},{"server_id":15,"name":"Uncletopia | New York City | 3 | Stopwatch Beta","name_short":"nyc-3","host":"nyc-1.us.uncletopia.com","port":27035,"enabled":true,"region":"us-east","cc":"us","latitude":40.73061,"longitude":-73.93524,"reserved":0,"last_update":"0001-01-01T00:00:00Z","name_a2s":"Uncletopia | New York City | 3 | Stopwatch Beta","protocol":17,"map":"workshop/cp_reckoner_rc6.ugc674719999","folder":"tf","game":"Team Fortress","app_id":440,"player_count":0,"max_players":24,"Bots":0,"server_type":"Dedicated","server_os":"Linux","password":true,"vac":true,"version":"7757534","steam_id":85568392924742820,"keywords":["cp","nocrits","nodmgspread","uncletopia"],"game_id":440,"stv_port":27036,"stv_name":"Uncletopia | New York City | 3 | Stopwatch Beta | STV","players":null},{"server_id":16,"name":"Uncletopia | New York City | 4 | Community","name_short":"nyc-4","host":"nyc-1.us.uncletopia.com","port":27045,"enabled":true,"region":"us-east","cc":"us","latitude":40.73061,"longitude":-73.93524,"reserved":0,"last_update":"0001-01-01T00:00:00Z","name_a2s":"Uncletopia | New York City | 4 | Community","protocol":17,"map":"workshop/koth_product_final.ugc454272353","folder":"tf","game":"Team Fortress","app_id":440,"player_count":0,"max_players":24,"Bots":0,"server_type":"Dedicated","server_os":"Linux","password":true,"vac":true,"version":"7757534","steam_id":85568392924742821,"keywords":["cp","nocrits","nodmgspread","uncletopia"],"game_id":440,"stv_port":27046,"stv_name":"Uncletopia | New York City | 4 | Community | STV","players":null},{"server_id":142,"name":"Uncletopia | S√£o Paulo | 1 | All Maps","name_short":"sao-1","host":"sao-1.br.uncletopia.com","port":27015,"enabled":true,"region":"sa","cc":"br","latitude":-23.533773,"longitude":-46.62529,"reserved":0,"last_update":"0001-01-01T00:00:00Z","name_a2s":"Uncletopia | S√£o Paulo | 1 | All Maps","protocol":17,"map":"cp_altitude","folder":"tf","game":"Team Fortress","app_id":440,"player_count":0,"max_players":24,"Bots":0,"server_type":"Dedicated","server_os":"Linux","password":true,"vac":true,"version":"7757534","steam_id":85568392924469996,"keywords":["cp","nocrits","nodmgspread","uncletopia"],"game_id":440,"stv_port":27016,"stv_name":"Uncletopia | S√£o Paulo | 1 | All Maps | STV","players":null},{"server_id":143,"name":"Uncletopia | S√£o Paulo | 2 | All Maps","name_short":"sao-2","host":"sao-2.br.uncletopia.com","port":27015,"enabled":true,"region":"sa","cc":"br","latitude":-23.533773,"longitude":-46.62529,"reserved":0,"last_update":"0001-01-01T00:00:00Z","name_a2s":"Uncletopia | S√£o Paulo | 2 | All Maps","protocol":17,"map":"koth_viaduct","folder":"tf","game":"Team Fortress","app_id":440,"player_count":0,"max_players":24,"Bots":0,"server_type":"Dedicated","server_os":"Linux","password":true,"vac":true,"version":"7757534","steam_id":85568392924485349,"keywords":["cp","nocrits","nodmgspread","uncletopia"],"game_id":440,"stv_port":27016,"stv_name":"Uncletopia | S√£o Paulo | 2 | All Maps | STV","players":null},{"server_id":7,"name":"Uncletopia | Seattle | 1 | All Maps","name_short":"sea-1","host":"sea-1.us.uncletopia.com","port":27015,"enabled":true,"region":"us-west","cc":"us","latitude":47.608013,"longitude":-122.33517,"reserved":0,"last_update":"0001-01-01T00:00:00Z","name_a2s":"Uncletopia | Seattle | 1 | All Maps","protocol":17,"map":"pl_borneo","folder":"tf","game":"Team Fortress","app_id":440,"player_count":24,"max_players":24,"Bots":0,"server_type":"Dedicated","server_os":"Linux","password":true,"vac":true,"version":"7757534","steam_id":85568392924469997,"keywords":["nocrits","nodmgspread","payload","uncletopia"],"game_id":440,"stv_port":27016,"stv_name":"Uncletopia | Seattle | 1 | All Maps | STV","players":[{"user_id":311,"name":"exephur","steam_id":76561198135763234,"connected_time":473000000000,"state":"active","ping":70},{"user_id":299,"name":"reverie","steam_id":76561198168158637,"connected_time":1314000000000,"state":"active","ping":72},{"user_id":312,"name":"R5-D4","steam_id":76561198025196439,"connected_time":378000000000,"state":"active","ping":50},{"user_id":272,"name":"goldhed","steam_id":76561198051751133,"connected_time":3756000000000,"state":"active","ping":55},{"user_id":236,"name":"lker","steam_id":76561197976975075,"connected_time":6362000000000,"state":"active","ping":106},{"user_id":294,"name":"royoÂΩ°","steam_id":76561198155447646,"connected_time":2046000000000,"state":"active","ping":84},{"user_id":287,"name":"HaphazardHazel","steam_id":76561198316812693,"connected_time":2516000000000,"state":"active","ping":139},{"user_id":301,"name":"Vetresol","steam_id":76561198174828486,"connected_time":1155000000000,"state":"active","ping":51},{"user_id":284,"name":"Sam","steam_id":76561198146472900,"connected_time":2521000000000,"state":"active","ping":65},{"user_id":248,"name":"mooney","steam_id":76561199110622484,"connected_time":5550000000000,"state":"active","ping":69},{"user_id":297,"name":"amoeba","steam_id":76561198970261784,"connected_time":1655000000000,"state":"active","ping":51},{"user_id":313,"name":"Simplicity","steam_id":76561198005224796,"connected_time":225000000000,"state":"active","ping":59},{"user_id":288,"name":"Idontknow","steam_id":76561199207044048,"connected_time":2510000000000,"state":"active","ping":41},{"user_id":275,"name":"Sloppy John (Extra Sauce)","steam_id":76561198359703432,"connected_time":3652000000000,"state":"active","ping":76},{"user_id":267,"name":"Glue Gobbler","steam_id":76561198237034712,"connected_time":4159000000000,"state":"active","ping":47},{"user_id":298,"name":"strbry","steam_id":76561198155133601,"connected_time":1423000000000,"state":"active","ping":59},{"user_id":307,"name":"Flea103","steam_id":76561198085863864,"connected_time":856000000000,"state":"active","ping":99},{"user_id":314,"name":"HOG RIDER","steam_id":76561198298589502,"connected_time":61000000000,"state":"active","ping":87},{"user_id":304,"name":"‚ô• President Shitfart ‚ô•","steam_id":76561198141819053,"connected_time":1005000000000,"state":"active","ping":63},{"user_id":305,"name":"lavender","steam_id":76561199069518286,"connected_time":872000000000,"state":"active","ping":79},{"user_id":283,"name":"Tungsten","steam_id":76561198312854342,"connected_time":2536000000000,"state":"active","ping":61},{"user_id":280,"name":"Arsonist Goose","steam_id":76561198147441830,"connected_time":2813000000000,"state":"active","ping":79},{"user_id":292,"name":"Hassium","steam_id":76561198162541373,"connected_time":2413000000000,"state":"active","ping":60},{"user_id":255,"name":"AmiableNebula","steam_id":76561198094306627,"connected_time":5426000000000,"state":"active","ping":79}]},{"server_id":119,"name":"Uncletopia | Seattle | 2 | All Maps","name_short":"sea-2","host":"sea-1.us.uncletopia.com","port":27025,"enabled":true,"region":"us-west","cc":"us","latitude":47.608013,"longitude":-122.33517,"reserved":0,"last_update":"0001-01-01T00:00:00Z","name_a2s":"Uncletopia | Seattle | 2 | All Maps","protocol":17,"map":"pl_upward","folder":"tf","game":"Team Fortress","app_id":440,"player_count":24,"max_players":24,"Bots":0,"server_type":"Dedicated","server_os":"Linux","password":true,"vac":true,"version":"7757534","steam_id":85568392924469998,"keywords":["nocrits","nodmgspread","payload","uncletopia"],"game_id":440,"stv_port":27026,"stv_name":"Uncletopia | Seattle | 2 | All Maps | STV","players":[{"user_id":511,"name":"Grammaring","steam_id":76561198867366139,"connected_time":5537000000000,"state":"active","ping":73},{"user_id":507,"name":"captain red","steam_id":76561198191587983,"connected_time":5802000000000,"state":"active","ping":86},{"user_id":540,"name":"The Population of Sweden","steam_id":76561198202201644,"connected_time":2522000000000,"state":"active","ping":39},{"user_id":548,"name":"Squid121","steam_id":76561198038832034,"connected_time":1251000000000,"state":"active","ping":56},{"user_id":521,"name":"Court Wizard, Sir Dr. Clydesdal","steam_id":76561198149267697,"connected_time":4741000000000,"state":"active","ping":67},{"user_id":544,"name":"John Wick's puppy","steam_id":76561198064662875,"connected_time":1675000000000,"state":"active","ping":64},{"user_id":527,"name":"mountain creature","steam_id":76561198146228439,"connected_time":3786000000000,"state":"active","ping":48},{"user_id":549,"name":"Radiohead","steam_id":76561198341542988,"connected_time":1240000000000,"state":"active","ping":105},{"user_id":562,"name":"Lambchop","steam_id":76561198043900363,"connected_time":427000000000,"state":"active","ping":75},{"user_id":558,"name":"Void","steam_id":76561198308290211,"connected_time":858000000000,"state":"active","ping":92},{"user_id":557,"name":"Madcows","steam_id":76561198021695614,"connected_time":1048000000000,"state":"active","ping":61},{"user_id":546,"name":"qt wavyz","steam_id":76561199060668138,"connected_time":1280000000000,"state":"active","ping":117},{"user_id":525,"name":"PerKnuckleChuckle","steam_id":76561198023221596,"connected_time":3889000000000,"state":"active","ping":86},{"user_id":547,"name":"strong and healthy gamer","steam_id":76561198049489349,"connected_time":1279000000000,"state":"active","ping":64},{"user_id":561,"name":"Strikerbolt","steam_id":76561199095622897,"connected_time":469000000000,"state":"active","ping":90},{"user_id":563,"name":"corbenis","steam_id":76561199012442511,"connected_time":410000000000,"state":"active","ping":78},{"user_id":553,"name":"Flickerr","steam_id":76561198080190967,"connected_time":1138000000000,"state":"active","ping":59},{"user_id":554,"name":"[DATS‚û°] Sugar Meowth","steam_id":76561197995251793,"connected_time":1130000000000,"state":"active","ping":44},{"user_id":504,"name":"MarshallMellows","steam_id":76561198231561020,"connected_time":5953000000000,"state":"active","ping":58},{"user_id":543,"name":"S Q U I S H E  T H A T  C A T","steam_id":76561198293865429,"connected_time":1792000000000,"state":"active","ping":42},{"user_id":555,"name":"Theory-ZaZa","steam_id":76561198116419931,"connected_time":1125000000000,"state":"active","ping":66},{"user_id":559,"name":"tender mike","steam_id":76561198058821622,"connected_time":803000000000,"state":"active","ping":94},{"user_id":556,"name":"Tyth","steam_id":76561198062543298,"connected_time":1099000000000,"state":"active","ping":45},{"user_id":542,"name":"Major Rabbit","steam_id":76561198086047613,"connected_time":1823000000000,"state":"active","ping":131}]},{"server_id":406,"name":"Uncletopia | Seattle | 3 | Stopwatch Beta","name_short":"sea-3","host":"sea-1.us.uncletopia.com","port":27035,"enabled":true,"region":"us-west","cc":"us","latitude":47.608013,"longitude":-122.33517,"reserved":0,"last_update":"0001-01-01T00:00:00Z","name_a2s":"Uncletopia | Seattle | 3 | Stopwatch Beta","protocol":17,"map":"cp_sunshine","folder":"tf","game":"Team Fortress","app_id":440,"player_count":22,"max_players":24,"Bots":0,"server_type":"Dedicated","server_os":"Linux","password":true,"vac":true,"version":"7757534","steam_id":85568392924515217,"keywords":["cp","nocrits","nodmgspread","uncletopia"],"game_id":440,"stv_port":27036,"stv_name":"Uncletopia | Seattle | 3 | Stopwatch Beta | STV","players":[{"user_id":301,"name":"jumpoutthehousejumpouttheho","steam_id":76561198143132686,"connected_time":1160000000000,"state":"active","ping":66},{"user_id":323,"name":"some random europeon","steam_id":76561198913057497,"connected_time":77000000000,"state":"active","ping":101},{"user_id":293,"name":"Bad Medic Buddy","steam_id":76561198093222632,"connected_time":1911000000000,"state":"active","ping":130},{"user_id":233,"name":"ihavetapeworms","steam_id":76561198357040313,"connected_time":5078000000000,"state":"active","ping":56},{"user_id":289,"name":"PaveLow","steam_id":76561198062313698,"connected_time":2070000000000,"state":"active","ping":47},{"user_id":302,"name":"H.","steam_id":76561198074951179,"connected_time":1082000000000,"state":"active","ping":77},{"user_id":307,"name":"https://en.wikipedia.org","steam_id":76561198261326806,"connected_time":861000000000,"state":"active","ping":55},{"user_id":306,"name":"turbo swaglord","steam_id":76561198114147197,"connected_time":874000000000,"state":"active","ping":71},{"user_id":308,"name":"im so fucking cool","steam_id":76561198130478487,"connected_time":860000000000,"state":"active","ping":101},{"user_id":319,"name":"MxProf","steam_id":76561198044519572,"connected_time":420000000000,"state":"active","ping":65},{"user_id":311,"name":"Frongus","steam_id":76561197979056451,"connected_time":733000000000,"state":"active","ping":46},{"user_id":324,"name":"PTSleepyHead","steam_id":76561198037748705,"connected_time":9000000000,"state":"spawning","ping":63},{"user_id":290,"name":"Kaiser Scoopy","steam_id":76561199122649727,"connected_time":2067000000000,"state":"active","ping":69},{"user_id":312,"name":"Ryld","steam_id":76561198010174380,"connected_time":725000000000,"state":"active","ping":64},{"user_id":249,"name":"Wackydavo","steam_id":76561197990094209,"connected_time":4455000000000,"state":"active","ping":107},{"user_id":314,"name":"Dosario","steam_id":76561198298095535,"connected_time":670000000000,"state":"active","ping":93},{"user_id":315,"name":"Bloom","steam_id":76561199065581662,"connected_time":653000000000,"state":"spawning","ping":99},{"user_id":317,"name":"FIRETROOP277","steam_id":76561198418201110,"connected_time":480000000000,"state":"active","ping":114},{"user_id":320,"name":"Wheaties","steam_id":76561198060909578,"connected_time":261000000000,"state":"active","ping":58},{"user_id":321,"name":"im insanely fucking cool","steam_id":76561198328338297,"connected_time":257000000000,"state":"active","ping":74},{"user_id":322,"name":"Morse","steam_id":76561198039944542,"connected_time":96000000000,"state":"active","ping":46}]},{"server_id":17,"name":"Uncletopia | San Francisco | 1 | All Maps","name_short":"sfo-1","host":"sfo-1.us.uncletopia.com","port":27015,"enabled":true,"region":"us-west","cc":"us","latitude":37.77397,"longitude":-122.4313,"reserved":0,"last_update":"0001-01-01T00:00:00Z","name_a2s":"Uncletopia | San Francisco | 1 | All Maps","protocol":17,"map":"pl_swiftwater_final1","folder":"tf","game":"Team Fortress","app_id":440,"player_count":0,"max_players":24,"Bots":0,"server_type":"Dedicated","server_os":"Linux","password":true,"vac":true,"version":"7757534","steam_id":85568392924469999,"keywords":["nocrits","nodmgspread","payload","uncletopia"],"game_id":440,"stv_port":27016,"stv_name":"Uncletopia | San Francisco | 1 | All Maps | STV","players":null},{"server_id":18,"name":"Uncletopia | San Francisco | 2 | All Maps","name_short":"sfo-2","host":"sfo-1.us.uncletopia.com","port":27025,"enabled":true,"region":"us-west","cc":"us","latitude":37.77397,"longitude":-122.4313,"reserved":0,"last_update":"0001-01-01T00:00:00Z","name_a2s":"Uncletopia | San Francisco | 2 | All Maps","protocol":17,"map":"pl_barnblitz","folder":"tf","game":"Team Fortress","app_id":440,"player_count":23,"max_players":24,"Bots":0,"server_type":"Dedicated","server_os":"Linux","password":true,"vac":true,"version":"7757534","steam_id":85568392924470000,"keywords":["nocrits","nodmgspread","payload","uncletopia"],"game_id":440,"stv_port":27026,"stv_name":"Uncletopia | San Francisco | 2 | All Maps | STV","players":[{"user_id":98,"name":"Stapler","steam_id":76561198099295077,"connected_time":3551000000000,"state":"active","ping":44},{"user_id":109,"name":"me","steam_id":76561199468285784,"connected_time":2353000000000,"state":"active","ping":36},{"user_id":112,"name":"Amogous Supreme","steam_id":76561198025476774,"connected_time":2308000000000,"state":"active","ping":55},{"user_id":117,"name":"compulsive","steam_id":76561198212421513,"connected_time":1603000000000,"state":"active","ping":57},{"user_id":84,"name":"jawnymac","steam_id":76561198179529599,"connected_time":5339000000000,"state":"active","ping":54},{"user_id":126,"name":"Snety Gun","steam_id":76561198862745731,"connected_time":931000000000,"state":"active","ping":79},{"user_id":120,"name":"doobiebob","steam_id":76561198071963742,"connected_time":1279000000000,"state":"active","ping":65},{"user_id":129,"name":"Rude Dog","steam_id":76561197980385816,"connected_time":868000000000,"state":"active","ping":83},{"user_id":121,"name":"Papa Panda","steam_id":76561198159061475,"connected_time":1111000000000,"state":"active","ping":58},{"user_id":124,"name":"Isaac","steam_id":76561198015727013,"connected_time":1029000000000,"state":"active","ping":76},{"user_id":125,"name":"The dreaded jar","steam_id":76561199087010656,"connected_time":977000000000,"state":"active","ping":81},{"user_id":105,"name":"Shoggoth","steam_id":76561198117892299,"connected_time":3230000000000,"state":"active","ping":85},{"user_id":127,"name":"R4 | Mr. Commissioner","steam_id":76561198101666509,"connected_time":926000000000,"state":"active","ping":71},{"user_id":133,"name":"Petey","steam_id":76561198007339151,"connected_time":788000000000,"state":"active","ping":61},{"user_id":113,"name":"el muchacho","steam_id":76561198282632562,"connected_time":2290000000000,"state":"active","ping":99},{"user_id":134,"name":"a home uber you hube tube","steam_id":76561198319442494,"connected_time":650000000000,"state":"active","ping":69},{"user_id":116,"name":"Awkward Shark","steam_id":76561198066652332,"connected_time":1796000000000,"state":"active","ping":119},{"user_id":74,"name":"Scarlett (Trans)","steam_id":76561197999367029,"connected_time":5840000000000,"state":"active","ping":109},{"user_id":75,"name":"Evil Ed","steam_id":76561198020055546,"connected_time":5823000000000,"state":"active","ping":105},{"user_id":99,"name":"Sugary","steam_id":76561198088267265,"connected_time":3413000000000,"state":"active","ping":66},{"user_id":136,"name":"Nuggies","steam_id":76561198272432592,"connected_time":53000000000,"state":"active","ping":54},{"user_id":92,"name":"Bandit","steam_id":76561199087543553,"connected_time":4728000000000,"state":"active","ping":70},{"user_id":132,"name":"Quon Grene for Vice Prez","steam_id":76561198127545817,"connected_time":795000000000,"state":"active","ping":60}]},{"server_id":19,"name":"Uncletopia | San Francisco | 3 | Stopwatch Beta","name_short":"sfo-3","host":"sfo-1.us.uncletopia.com","port":27035,"enabled":true,"region":"us-west","cc":"us","latitude":37.77397,"longitude":-122.4313,"reserved":0,"last_update":"0001-01-01T00:00:00Z","name_a2s":"Uncletopia | San Francisco | 3 | Stopwatch Beta","protocol":17,"map":"pl_borneo","folder":"tf","game":"Team Fortress","app_id":440,"player_count":0,"max_players":24,"Bots":0,"server_type":"Dedicated","server_os":"Linux","password":true,"vac":true,"version":"7757534","steam_id":85568392924742824,"keywords":["nocrits","nodmgspread","payload","uncletopia"],"game_id":440,"stv_port":27036,"stv_name":"Uncletopia | San Francisco | 3 | Stopwatch Beta | STV","players":null},{"server_id":20,"name":"Uncletopia | San Francisco | 4 | Community","name_short":"sfo-4","host":"sfo-1.us.uncletopia.com","port":27045,"enabled":true,"region":"us-west","cc":"us","latitude":37.77397,"longitude":-122.4313,"reserved":0,"last_update":"0001-01-01T00:00:00Z","name_a2s":"Uncletopia | San Francisco | 4 | Community","protocol":17,"map":"koth_highpass","folder":"tf","game":"Team Fortress","app_id":440,"player_count":0,"max_players":24,"Bots":0,"server_type":"Dedicated","server_os":"Linux","password":true,"vac":true,"version":"7757534","steam_id":85568392924742826,"keywords":["cp","nocrits","nodmgspread","uncletopia"],"game_id":440,"stv_port":27046,"stv_name":"Uncletopia | San Francisco | 4 | Community | STV","players":null},{"server_id":141,"name":"Uncletopia | Sydney | 1 | All Maps","name_short":"syd-1","host":"syd-1.au.uncletopia.com","port":27015,"enabled":true,"region":"au","cc":"au","latitude":-33.865143,"longitude":151.2099,"reserved":0,"last_update":"0001-01-01T00:00:00Z","name_a2s":"Uncletopia | Sydney | 1 | All Maps","protocol":17,"map":"pl_swiftwater_final1","folder":"tf","game":"Team Fortress","app_id":440,"player_count":6,"max_players":24,"Bots":0,"server_type":"Dedicated","server_os":"Linux","password":true,"vac":true,"version":"7757534","steam_id":85568392924470001,"keywords":["nocrits","nodmgspread","payload","uncletopia"],"game_id":440,"stv_port":27016,"stv_name":"Uncletopia | Sydney | 1 | All Maps | STV","players":[{"user_id":13,"name":"zeaphg","steam_id":76561199014878539,"connected_time":2005000000000,"state":"active","ping":74},{"user_id":20,"name":"‰∏≠ÊñáÂçïËØç","steam_id":76561199017211623,"connected_time":903000000000,"state":"active","ping":74},{"user_id":24,"name":"P'pot","steam_id":76561198117278590,"connected_time":504000000000,"state":"active","ping":54},{"user_id":22,"name":"ShrekEnjoyer908","steam_id":76561198435882553,"connected_time":647000000000,"state":"active","ping":91},{"user_id":19,"name":"Mo1styy","steam_id":76561198084612158,"connected_time":1093000000000,"state":"active","ping":55},{"user_id":25,"name":"Wake'n'Bake'n'Make'n'Bacon","steam_id":76561198061960926,"connected_time":231000000000,"state":"active","ping":98}]},{"server_id":123,"name":"Uncletopia | Sydney | 2 | All Maps","name_short":"syd-2","host":"syd-1.au.uncletopia.com","port":27025,"enabled":true,"region":"au","cc":"au","latitude":-33.865143,"longitude":151.2099,"reserved":0,"last_update":"0001-01-01T00:00:00Z","name_a2s":"Uncletopia | Sydney | 2 | All Maps","protocol":17,"map":"cp_sunshine","folder":"tf","game":"Team Fortress","app_id":440,"player_count":18,"max_players":24,"Bots":0,"server_type":"Dedicated","server_os":"Linux","password":true,"vac":true,"version":"7757534","steam_id":85568392924470002,"keywords":["cp","nocrits","nodmgspread","uncletopia"],"game_id":440,"stv_port":27026,"stv_name":"Uncletopia | Sydney | 2 | All Maps | STV","players":[{"user_id":143,"name":"Fuzzy","steam_id":76561198081319798,"connected_time":394000000000,"state":"active","ping":53},{"user_id":89,"name":"Fresh Produce Gaming","steam_id":76561198358483352,"connected_time":4999000000000,"state":"active","ping":65},{"user_id":119,"name":"HornHook44","steam_id":76561199443068966,"connected_time":2896000000000,"state":"active","ping":46},{"user_id":136,"name":"Lancer","steam_id":76561198122813810,"connected_time":776000000000,"state":"active","ping":66},{"user_id":130,"name":"Rarity the Fabulous","steam_id":76561198077653287,"connected_time":1471000000000,"state":"active","ping":30},{"user_id":140,"name":"Goobman","steam_id":76561198070022487,"connected_time":407000000000,"state":"active","ping":69},{"user_id":138,"name":"cimpact","steam_id":76561198452258917,"connected_time":517000000000,"state":"active","ping":136},{"user_id":149,"name":"Jimsehy","steam_id":76561198061059871,"connected_time":270000000000,"state":"active","ping":70},{"user_id":125,"name":"blortzoing","steam_id":76561198063481761,"connected_time":2469000000000,"state":"active","ping":35},{"user_id":142,"name":"Doctor Estonia","steam_id":76561198057365089,"connected_time":402000000000,"state":"active","ping":96},{"user_id":156,"name":"Doctor Large","steam_id":76561198332393957,"connected_time":85000000000,"state":"active","ping":113},{"user_id":150,"name":"Bernie the boomer remover","steam_id":76561198094168455,"connected_time":261000000000,"state":"active","ping":65},{"user_id":157,"name":"kenji","steam_id":76561198120942479,"connected_time":84000000000,"state":"active","ping":46},{"user_id":123,"name":"‡πá‡πá ‡πá‡πá","steam_id":76561198241303512,"connected_time":2735000000000,"state":"active","ping":56},{"user_id":128,"name":"Pirate Arr","steam_id":76561198011944697,"connected_time":1931000000000,"state":"active","ping":56},{"user_id":117,"name":"Glockenspe (She/Her)","steam_id":76561199184115241,"connected_time":2969000000000,"state":"active","ping":52},{"user_id":126,"name":"saudi ambassador messi","steam_id":76561198031293430,"connected_time":2340000000000,"state":"active","ping":87},{"user_id":135,"name":"ex nihilo","steam_id":76561198054804209,"connected_time":890000000000,"state":"active","ping":84}]},{"server_id":395,"name":"Uncletopia | Sydney | 3 | All Maps","name_short":"syd-3","host":"syd-1.au.uncletopia.com","port":27035,"enabled":true,"region":"au","cc":"au","latitude":-33.865143,"longitude":151.2099,"reserved":0,"last_update":"0001-01-01T00:00:00Z","name_a2s":"Uncletopia | Sydney | 3 | All Maps","protocol":17,"map":"pl_upward","folder":"tf","game":"Team Fortress","app_id":440,"player_count":0,"max_players":24,"Bots":0,"server_type":"Dedicated","server_os":"Linux","password":true,"vac":true,"version":"7757534","steam_id":85568392925194467,"keywords":["nocrits","nodmgspread","payload","uncletopia"],"game_id":440,"stv_port":27036,"stv_name":"Uncletopia | Sydney | 3 | All Maps | STV","players":null},{"server_id":396,"name":"Uncletopia | Sydney | 4 | All Maps","name_short":"syd-4","host":"syd-1.au.uncletopia.com","port":27045,"enabled":true,"region":"au","cc":"au","latitude":-33.865143,"longitude":151.2099,"reserved":0,"last_update":"0001-01-01T00:00:00Z","name_a2s":"Uncletopia | Sydney | 4 | All Maps","protocol":17,"map":"cp_sunshine","folder":"tf","game":"Team Fortress","app_id":440,"player_count":0,"max_players":24,"Bots":0,"server_type":"Dedicated","server_os":"Linux","password":true,"vac":true,"version":"7757534","steam_id":85568392925397958,"keywords":["cp","nocrits","nodmgspread","uncletopia"],"game_id":440,"stv_port":27046,"stv_name":"Uncletopia | Sydney | 4 | All Maps | STV","players":null},{"server_id":58,"name":"Uncletopia | Sydney | 5 | Stopwatch Beta","name_short":"syd-5","host":"syd-1.au.uncletopia.com","port":27055,"enabled":true,"region":"au","cc":"au","latitude":-33.865143,"longitude":151.2099,"reserved":0,"last_update":"0001-01-01T00:00:00Z","name_a2s":"Uncletopia | Sydney | 5 | Stopwatch Beta","protocol":17,"map":"koth_highpass","folder":"tf","game":"Team Fortress","app_id":440,"player_count":0,"max_players":24,"Bots":0,"server_type":"Dedicated","server_os":"Linux","password":true,"vac":true,"version":"7757534","steam_id":85568392925397959,"keywords":["cp","nocrits","nodmgspread","uncletopia"],"game_id":440,"stv_port":27056,"stv_name":"Uncletopia | Sydney | 5 | Stopwatch Beta | STV","players":null},{"server_id":59,"name":"Uncletopia | Sydney | 6 | Community","name_short":"syd-6","host":"syd-1.au.uncletopia.com","port":27065,"enabled":true,"region":"au","cc":"au","latitude":-33.865143,"longitude":151.2099,"reserved":0,"last_update":"0001-01-01T00:00:00Z","name_a2s":"Uncletopia | Sydney | 6 | Community","protocol":17,"map":"cp_sunshine","folder":"tf","game":"Team Fortress","app_id":440,"player_count":0,"max_players":24,"Bots":0,"server_type":"Dedicated","server_os":"Linux","password":true,"vac":true,"version":"7757534","steam_id":85568392925397960,"keywords":["cp","nocrits","nodmgspread","uncletopia"],"game_id":440,"stv_port":27066,"stv_name":"Uncletopia | Sydney | 6 | Community | STV","players":null},{"server_id":49,"name":"Uncletopia | Warsaw | 1 | All Maps","name_short":"waw-1","host":"waw-1.pl.uncletopia.com","port":27015,"enabled":true,"region":"eu","cc":"pl","latitude":52.2297,"longitude":21.017532,"reserved":0,"last_update":"0001-01-01T00:00:00Z","name_a2s":"","protocol":0,"map":"","folder":"","game":"","app_id":0,"player_count":0,"max_players":0,"Bots":0,"server_type":"","server_os":"","password":false,"vac":false,"version":"","steam_id":0,"keywords":null,"game_id":0,"stv_port":0,"stv_name":"","players":null},{"server_id":50,"name":"Uncletopia | Warsaw | 2 | All Maps","name_short":"waw-2","host":"waw-1.pl.uncletopia.com","port":27025,"enabled":true,"region":"eu","cc":"pl","latitude":52.2297,"longitude":21.017532,"reserved":0,"last_update":"0001-01-01T00:00:00Z","name_a2s":"Uncletopia | Warsaw | 2 | All Maps","protocol":17,"map":"koth_lakeside_final","folder":"tf","game":"Team Fortress","app_id":440,"player_count":0,"max_players":24,"Bots":0,"server_type":"Dedicated","server_os":"Linux","password":true,"vac":true,"version":"7757534","steam_id":85568392925397851,"keywords":["cp","nocrits","nodmgspread","uncletopia"],"game_id":440,"stv_port":27026,"stv_name":"Uncletopia | Warsaw | 2 | All Maps | STV","players":null},{"server_id":51,"name":"Uncletopia | Warsaw | 3 | All Maps","name_short":"waw-3","host":"waw-1.pl.uncletopia.com","port":27035,"enabled":true,"region":"eu","cc":"pl","latitude":52.2297,"longitude":21.017532,"reserved":0,"last_update":"0001-01-01T00:00:00Z","name_a2s":"Uncletopia | Warsaw | 3 | All Maps","protocol":17,"map":"cp_dustbowl","folder":"tf","game":"Team Fortress","app_id":440,"player_count":0,"max_players":24,"Bots":0,"server_type":"Dedicated","server_os":"Linux","password":true,"vac":true,"version":"7757534","steam_id":85568392925397852,"keywords":["cp","nocrits","nodmgspread","uncletopia"],"game_id":440,"stv_port":27036,"stv_name":"Uncletopia | Warsaw | 3 | All Maps | STV","players":null},{"server_id":52,"name":"Uncletopia | Warsaw | 4 | All Maps","name_short":"waw-4","host":"waw-1.pl.uncletopia.com","port":27045,"enabled":true,"region":"eu","cc":"pl","latitude":52.2297,"longitude":21.017532,"reserved":0,"last_update":"0001-01-01T00:00:00Z","name_a2s":"Uncletopia | Warsaw | 4 | All Maps","protocol":17,"map":"pl_snowycoast","folder":"tf","game":"Team Fortress","app_id":440,"player_count":0,"max_players":24,"Bots":0,"server_type":"Dedicated","server_os":"Linux","password":true,"vac":true,"version":"7757534","steam_id":85568392925397853,"keywords":["nocrits","nodmgspread","payload","uncletopia"],"game_id":440,"stv_port":27046,"stv_name":"Uncletopia | Warsaw | 4 | All Maps | STV","players":null},{"server_id":53,"name":"Uncletopia | Warsaw | 5 | Stopwatch Beta","name_short":"waw-5","host":"waw-1.pl.uncletopia.com","port":27055,"enabled":true,"region":"eu","cc":"pl","latitude":52.2297,"longitude":21.017532,"reserved":0,"last_update":"0001-01-01T00:00:00Z","name_a2s":"Uncletopia | Warsaw | 5 | Stopwatch Beta","protocol":17,"map":"pl_barnblitz","folder":"tf","game":"Team Fortress","app_id":440,"player_count":0,"max_players":24,"Bots":0,"server_type":"Dedicated","server_os":"Linux","password":true,"vac":true,"version":"7757534","steam_id":85568392925397854,"keywords":["nocrits","nodmgspread","payload","uncletopia"],"game_id":440,"stv_port":27056,"stv_name":"Uncletopia | Warsaw | 5 | Stopwatch Beta | STV","players":null},{"server_id":54,"name":"Uncletopia | Warsaw | 6 | Community","name_short":"waw-6","host":"waw-1.pl.uncletopia.com","port":27065,"enabled":true,"region":"eu","cc":"pl","latitude":52.2297,"longitude":21.017532,"reserved":0,"last_update":"0001-01-01T00:00:00Z","name_a2s":"Uncletopia | Warsaw | 6 | Community","protocol":17,"map":"workshop/cp_sulfur_rc2.ugc619869471","folder":"tf","game":"Team Fortress","app_id":440,"player_count":0,"max_players":24,"Bots":0,"server_type":"Dedicated","server_os":"Linux","password":true,"vac":true,"version":"7757534","steam_id":85568392925397856,"keywords":["cp","nocrits","nodmgspread","uncletopia"],"game_id":440,"stv_port":27066,"stv_name":"Uncletopia | Warsaw | 6 | Community | STV","players":null}]}