{"status":true,"message":"","result":[{"server_id":9,"name":"Uncletopia | Atlanta | 1 | All Maps","name_short":"atl-1","host":"atl-1.us.uncletopia.com","port":27015,"enabled":true,"region":"us-east","cc":"us","latitude":33.753746,"longitude":-84.38633,"reserved":0,"last_update":"0001-01-01T00:00:00Z","name_a2s":"Uncletopia | Atlanta | 1 | All Maps","protocol":17,"map":"pl_swiftwater_final1","folder":"tf","game":"Team Fortress","app_id":440,"player_count":24,"max_players":24,"Bots":0,"server_type":"Dedicated","server_os":"Linux","password":true,"vac":true,"version":"7757534","steam_id":85568392924469982,"keywords":["nocrits","nodmgspread","payload","uncletopia"],"game_id":440,"stv_port":27016,"stv_name":"Uncletopia | Atlanta | 1 | All Maps | STV","players":[{"user_id":322,"name":"Matisguy","steam_id":76561199020903681,"connected_time":3677000000000,"state":"active","ping":78},{"user_id":362,"name":"goober man","steam_id":76561198798194697,"connected_time":532000000000,"state":"active","ping":119},{"user_id":310,"name":"ATL1 | Sunny004","steam_id":76561198105397410,"connected_time":4360000000000,"state":"active","ping":57},{"user_id":317,"name":"jema","steam_id":76561198276513608,"connected_time":4121000000000,"state":"active","ping":173},{"user_id":363,"name":"spoon","steam_id":76561198927517471,"connected_time":186000000000,"state":"active","ping":57},{"user_id":341,"name":"Rat_king","steam_id":76561199465689129,"connected_time":2367000000000,"state":"active","ping":66},{"user_id":355,"name":"the man of coom bob","steam_id":76561199082474364,"connected_time":941000000000,"state":"active","ping":76},{"user_id":307,"name":"metal pipe","steam_id":76561198849461209,"connected_time":4612000000000,"state":"active","ping":74},{"user_id":338,"name":"Onyx","steam_id":76561198275349640,"connected_time":2587000000000,"state":"active","ping":93},{"user_id":351,"name":"CattoSpec","steam_id":76561198982872413,"connected_time":1542000000000,"state":"active","ping":184},{"user_id":302,"name":"Intro Bonito","steam_id":76561198119478838,"connected_time":4858000000000,"state":"active","ping":51},{"user_id":352,"name":"marguerite","steam_id":76561198170873495,"connected_time":1332000000000,"state":"active","ping":51},{"user_id":348,"name":"ashelin praxis nude mod","steam_id":76561198167907089,"connected_time":1585000000000,"state":"active","ping":52},{"user_id":357,"name":"Sheep","steam_id":76561198122705864,"connected_time":690000000000,"state":"active","ping":93},{"user_id":342,"name":"BIG HOG","steam_id":76561198079923652,"connected_time":2237000000000,"state":"active","ping":72},{"user_id":350,"name":"Wren","steam_id":76561198071109787,"connected_time":1553000000000,"state":"active","ping":85},{"user_id":353,"name":"Lady J","steam_id":76561198133278462,"connected_time":1287000000000,"state":"active","ping":74},{"user_id":290,"name":"Nicholas","steam_id":76561198140517330,"connected_time":5935000000000,"state":"active","ping":101},{"user_id":364,"name":"Myn","steam_id":76561198055438857,"connected_time":115000000000,"state":"active","ping":75},{"user_id":365,"name":"Ghetto Smosh Fan","steam_id":76561198097272509,"connected_time":115000000000,"state":"active","ping":35},{"user_id":336,"name":"krabby","steam_id":76561199072773402,"connected_time":2663000000000,"state":"active","ping":64},{"user_id":347,"name":"me?","steam_id":76561198381136912,"connected_time":1618000000000,"state":"active","ping":81},{"user_id":361,"name":"Albino Jellyfish","steam_id":76561198208561097,"connected_time":640000000000,"state":"active","ping":69},{"user_id":335,"name":"⚢","steam_id":76561199117637890,"connected_time":2748000000000,"state":"active","ping":77}]},{"server_id":104,"name":"Uncletopia | Atlanta | 2 | All Maps","name_short":"atl-2","host":"atl-1.us.uncletopia.com","port":27025,"enabled":true,"region":"us-east","cc":"us","latitude":33.753746,"longitude":-84.38633,"reserved":0,"last_update":"0001-01-01T00:00:00Z","name_a2s":"Uncletopia | Atlanta | 2 | All Maps","protocol":17,"map":"pl_badwater","folder":"tf","game":"Team Fortress","app_id":440,"player_count":24,"max_players":24,"Bots":0,"server_type":"Dedicated","server_os":"Linux","password":true,"vac":true,"version":"7757534","steam_id":85568392924469983,"keywords":["nocrits","nodmgspread","payload","uncletopia"],"game_id":440,"stv_port":27026,"stv_name":"Uncletopia | Atlanta | 2 | All Maps | STV","players":[{"user_id":227,"name":"Cowman","steam_id":76561199013705323,"connected_time":3006000000000,"state":"active","ping":64},{"user_id":58,"name":"Mike Charlie","steam_id":76561199470538309,"connected_time":15015000000000,"state":"active","ping":77},{"user_id":183,"name":"drdoofus123","steam_id":76561198016826181,"connected_time":5721000000000,"state":"active","ping":63},{"user_id":254,"name":"mayoratheone","steam_id":76561199013353434,"connected_time":1017000000000,"state":"active","ping":114},{"user_id":246,"name":"ArrowOmega","steam_id":76561198079364917,"connected_time":2016000000000,"state":"active","ping":65},{"user_id":158,"name":"nft airshotter","steam_id":76561198158137522,"connected_time":7373000000000,"state":"active","ping":46},{"user_id":258,"name":"frank gallagher","steam_id":76561198973429541,"connected_time":652000000000,"state":"active","ping":69},{"user_id":242,"name":"Megapal","steam_id":76561198033547435,"connected_time":2104000000000,"state":"active","ping":61},{"user_id":257,"name":"Space_Cowboy","steam_id":76561198202240772,"connected_time":693000000000,"state":"active","ping":70},{"user_id":230,"name":"J.G. Klaus","steam_id":76561198001111196,"connected_time":2914000000000,"state":"active","ping":75},{"user_id":252,"name":"Magnamalo","steam_id":76561198880519139,"connected_time":1471000000000,"state":"active","ping":84},{"user_id":255,"name":"Wiggee","steam_id":76561197972792989,"connected_time":722000000000,"state":"active","ping":65},{"user_id":243,"name":"Joshy","steam_id":76561198061405421,"connected_time":2076000000000,"state":"active","ping":75},{"user_id":261,"name":"vastrobotmax","steam_id":76561198417110724,"connected_time":286000000000,"state":"active","ping":87},{"user_id":216,"name":"Notsocreative","steam_id":76561198236372202,"connected_time":3399000000000,"state":"active","ping":81},{"user_id":259,"name":"krusty","steam_id":76561198161389196,"connected_time":632000000000,"state":"active","ping":71},{"user_id":245,"name":"Dr. Money Stacks","steam_id":76561198058144219,"connected_time":2069000000000,"state":"active","ping":75},{"user_id":218,"name":"Shattered Glass","steam_id":76561198116835391,"connected_time":3372000000000,"state":"active","ping":91},{"user_id":248,"name":"Mask","steam_id":76561198877649728,"connected_time":1978000000000,"state":"active","ping":208},{"user_id":260,"name":"Bl0ckhead123","steam_id":76561198283536929,"connected_time":526000000000,"state":"active","ping":152},{"user_id":208,"name":"Blake...","steam_id":76561198064090974,"connected_time":4409000000000,"state":"active","ping":89},{"user_id":249,"name":"evnobev","steam_id":76561198038966462,"connected_time":1958000000000,"state":"active","ping":56},{"user_id":209,"name":"Scuttlez","steam_id":76561198050350566,"connected_time":4306000000000,"state":"active","ping":60},{"user_id":262,"name":".-.","steam_id":76561198820617005,"connected_time":268000000000,"state":"active","ping":93}]},{"server_id":400,"name":"Uncletopia | Atlanta | 3 | Community","name_short":"atl-3","host":"atl-1.us.uncletopia.com","port":27035,"enabled":true,"region":"us-east","cc":"us","latitude":33.753746,"longitude":-84.38633,"reserved":0,"last_update":"0001-01-01T00:00:00Z","name_a2s":"Uncletopia | Atlanta | 3 | Community","protocol":17,"map":"workshop/koth_trenchfoot_b1a.ugc731436616","folder":"tf","game":"Team Fortress","app_id":440,"player_count":0,"max_players":24,"Bots":0,"server_type":"Dedicated","server_os":"Linux","password":true,"vac":true,"version":"7757534","steam_id":85568392924515187,"keywords":["cp","nocrits","nodmgspread","uncletopia"],"game_id":440,"stv_port":27036,"stv_name":"Uncletopia | Atlanta | 3 | Community | STV","players":null},{"server_id":401,"name":"Uncletopia | Atlanta | 4 | No Payload","name_short":"atl-4","host":"atl-1.us.uncletopia.com","port":27045,"enabled":true,"region":"us-east","cc":"us","latitude":33.753746,"longitude":-84.38633,"reserved":0,"last_update":"0001-01-01T00:00:00Z","name_a2s":"","protocol":0,"map":"","folder":"","game":"","app_id":0,"player_count":0,"max_players":0,"Bots":0,"server_type":"","server_os":"","password":false,"vac":false,"version":"","steam_id":0,"keywords":null,"game_id":0,"stv_port":0,"stv_name":"","players":null},{"server_id":2,"name":"Uncletopia | Chicago | 1 | All Maps","name_short":"chi-1","host":"chi-1.us.uncletopia.com","port":27015,"enabled":true,"region":"us-central","cc":"us","latitude":41.881832,"longitude":-87.62318,"reserved":0,"last_update":"0001-01-01T00:00:00Z","name_a2s":"Uncletopia | Chicago | 1 | All Maps","protocol":17,"map":"pl_thundermountain","folder":"tf","game":"Team Fortress","app_id":440,"player_count":24,"max_players":24,"Bots":0,"server_type":"Dedicated","server_os":"Linux","password":true,"vac":true,"version":"7757534","steam_id":85568392924469984,"keywords":["nocrits","nodmgspread","payload","uncletopia"],"game_id":440,"stv_port":27016,"stv_name":"Uncletopia | Chicago | 1 | All Maps | STV","players":[{"user_id":277,"name":"RyInc","steam_id":76561198874261643,"connected_time":2056000000000,"state":"active","ping":47},{"user_id":292,"name":"StonedGiant","steam_id":76561197984386932,"connected_time":1367000000000,"state":"active","ping":57},{"user_id":242,"name":"twitch.tv/kegaman_","steam_id":76561198043632775,"connected_time":4721000000000,"state":"active","ping":104},{"user_id":294,"name":"edwinbrood","steam_id":76561198044848769,"connected_time":776000000000,"state":"active","ping":63},{"user_id":297,"name":"Cedric","steam_id":76561198072090580,"connected_time":453000000000,"state":"active","ping":114},{"user_id":276,"name":"Thix","steam_id":76561199187457689,"connected_time":2145000000000,"state":"active","ping":60},{"user_id":301,"name":"Snugboo","steam_id":76561198147970327,"connected_time":50000000000,"state":"active","ping":60},{"user_id":302,"name":"EddyQTooReal","steam_id":76561198088480679,"connected_time":28000000000,"state":"active","ping":55},{"user_id":280,"name":"Dwaggy","steam_id":76561198027369555,"connected_time":1982000000000,"state":"active","ping":74},{"user_id":281,"name":"VioletSpecs","steam_id":76561198089366466,"connected_time":1976000000000,"state":"active","ping":72},{"user_id":293,"name":"Sychke","steam_id":76561198067144055,"connected_time":1302000000000,"state":"active","ping":45},{"user_id":298,"name":"greeno","steam_id":76561198109901138,"connected_time":433000000000,"state":"active","ping":74},{"user_id":299,"name":"NUt","steam_id":76561198031007966,"connected_time":398000000000,"state":"active","ping":75},{"user_id":295,"name":"Ademar","steam_id":76561199391802581,"connected_time":561000000000,"state":"active","ping":55},{"user_id":272,"name":"Hylic","steam_id":76561199051314589,"connected_time":2620000000000,"state":"active","ping":65},{"user_id":254,"name":"Gnarly Shark Bite","steam_id":76561198004058342,"connected_time":3793000000000,"state":"active","ping":79},{"user_id":275,"name":"Wumps","steam_id":76561198207226825,"connected_time":2176000000000,"state":"active","ping":80},{"user_id":300,"name":"Tlaloc","steam_id":76561198375215983,"connected_time":150000000000,"state":"active","ping":121},{"user_id":296,"name":"dirty dank","steam_id":76561198360904432,"connected_time":492000000000,"state":"active","ping":71},{"user_id":285,"name":"Dallas","steam_id":76561198066542919,"connected_time":1914000000000,"state":"active","ping":88},{"user_id":221,"name":"Lia_Rein","steam_id":76561198151569597,"connected_time":6823000000000,"state":"active","ping":147},{"user_id":286,"name":"Mr. Hankey","steam_id":76561198872852200,"connected_time":1889000000000,"state":"active","ping":141},{"user_id":253,"name":"Hooked","steam_id":76561198007302139,"connected_time":3884000000000,"state":"active","ping":67},{"user_id":303,"name":"CHEEKY EUNUCH","steam_id":76561198990825232,"connected_time":13000000000,"state":"active","ping":64}]},{"server_id":106,"name":"Uncletopia | Chicago | 2 | All Maps","name_short":"chi-2","host":"chi-1.us.uncletopia.com","port":27025,"enabled":true,"region":"us-central","cc":"us","latitude":41.881832,"longitude":-87.62318,"reserved":0,"last_update":"0001-01-01T00:00:00Z","name_a2s":"Uncletopia | Chicago | 2 | All Maps","protocol":17,"map":"pl_badwater","folder":"tf","game":"Team Fortress","app_id":440,"player_count":24,"max_players":24,"Bots":0,"server_type":"Dedicated","server_os":"Linux","password":true,"vac":true,"version":"7757534","steam_id":85568392924469985,"keywords":["nocrits","nodmgspread","payload","uncletopia"],"game_id":440,"stv_port":27026,"stv_name":"Uncletopia | Chicago | 2 | All Maps | STV","players":[{"user_id":267,"name":"「ᴛʜᴇ ʙɪɢɢᴇꜱᴛ \ufffd","steam_id":76561198190323610,"connected_time":862000000000,"state":"active","ping":89},{"user_id":268,"name":"「Swede」","steam_id":76561198024821171,"connected_time":859000000000,"state":"active","ping":74},{"user_id":264,"name":"clamchowder.clarence1989","steam_id":76561198070923665,"connected_time":1167000000000,"state":"active","ping":75},{"user_id":271,"name":"Zenabie","steam_id":76561198088372680,"connected_time":852000000000,"state":"active","ping":84},{"user_id":277,"name":"Stardustry","steam_id":76561198090010107,"connected_time":799000000000,"state":"active","ping":73},{"user_id":209,"name":"Lost","steam_id":76561198093713427,"connected_time":5115000000000,"state":"active","ping":60},{"user_id":247,"name":"Garzy Hardbody","steam_id":76561198024304342,"connected_time":1783000000000,"state":"active","ping":59},{"user_id":278,"name":"Meurik","steam_id":76561198078032795,"connected_time":331000000000,"state":"active","ping":166},{"user_id":198,"name":"pumbloom","steam_id":76561199161322235,"connected_time":6095000000000,"state":"active","ping":73},{"user_id":272,"name":"Hunstman sniper","steam_id":76561199187764012,"connected_time":850000000000,"state":"active","ping":64},{"user_id":273,"name":"lucy","steam_id":76561198135559825,"connected_time":846000000000,"state":"active","ping":60},{"user_id":224,"name":"Mikael_01","steam_id":76561199080253129,"connected_time":4401000000000,"state":"active","ping":189},{"user_id":208,"name":"Motreir","steam_id":76561198151717946,"connected_time":5257000000000,"state":"active","ping":81},{"user_id":252,"name":"MoanfulMilk","steam_id":76561199229169396,"connected_time":1719000000000,"state":"active","ping":71},{"user_id":274,"name":"mEch114","steam_id":76561198236936060,"connected_time":832000000000,"state":"active","ping":69},{"user_id":260,"name":"Hatsune Miku gaming","steam_id":76561199095868207,"connected_time":1522000000000,"state":"active","ping":55},{"user_id":261,"name":"thepicgamer","steam_id":76561198211354351,"connected_time":1515000000000,"state":"active","ping":69},{"user_id":253,"name":"Geloman","steam_id":76561198005501322,"connected_time":1705000000000,"state":"active","ping":79},{"user_id":279,"name":"Salty","steam_id":76561198451736633,"connected_time":189000000000,"state":"active","ping":156},{"user_id":240,"name":"threethree","steam_id":76561198177354155,"connected_time":2424000000000,"state":"active","ping":73},{"user_id":263,"name":"Ciela","steam_id":76561198799403828,"connected_time":1325000000000,"state":"active","ping":49},{"user_id":258,"name":"hoodiedendendendendendendendend","steam_id":76561198354284591,"connected_time":1628000000000,"state":"active","ping":49},{"user_id":275,"name":"pipepeepi","steam_id":76561198845905873,"connected_time":816000000000,"state":"active","ping":62},{"user_id":276,"name":"TheViccan127","steam_id":76561199482134285,"connected_time":807000000000,"state":"active","ping":106}]},{"server_id":402,"name":"Uncletopia | Chicago | 3 | All Maps","name_short":"chi-3","host":"chi-1.us.uncletopia.com","port":27035,"enabled":true,"region":"us-central","cc":"us","latitude":41.881832,"longitude":-87.62318,"reserved":0,"last_update":"0001-01-01T00:00:00Z","name_a2s":"Uncletopia | Chicago | 3 | All Maps","protocol":17,"map":"pl_frontier_final","folder":"tf","game":"Team Fortress","app_id":440,"player_count":24,"max_players":24,"Bots":0,"server_type":"Dedicated","server_os":"Linux","password":true,"vac":true,"version":"7757534","steam_id":85568392924515191,"keywords":["nocrits","nodmgspread","payload","uncletopia"],"game_id":440,"stv_port":27036,"stv_name":"Uncletopia | Chicago | 3 | All Maps | STV","players":[{"user_id":98,"name":"Mackrel","steam_id":76561199021620267,"connected_time":2219000000000,"state":"active","ping":54},{"user_id":119,"name":"wakeupbdot","steam_id":76561198160786631,"connected_time":114000000000,"state":"active","ping":98},{"user_id":110,"name":"Styx","steam_id":76561198158334494,"connected_time":1350000000000,"state":"active","ping":55},{"user_id":118,"name":"Clueless_Noob","steam_id":76561199090554925,"connected_time":159000000000,"state":"active","ping":68},{"user_id":97,"name":"DarthEthanBoy","steam_id":76561198441643581,"connected_time":2227000000000,"state":"active","ping":73},{"user_id":99,"name":"6t26j","steam_id":76561198278282836,"connected_time":2201000000000,"state":"active","ping":46},{"user_id":21,"name":"Dreamzapp","steam_id":76561199084936632,"connected_time":8216000000000,"state":"active","ping":124},{"user_id":109,"name":"who is gavin?","steam_id":76561198069415057,"connected_time":1363000000000,"state":"active","ping":60},{"user_id":100,"name":"(TTV) The_Astrum_Guardian","steam_id":76561198130134103,"connected_time":2196000000000,"state":"active","ping":61},{"user_id":101,"name":"Racer X","steam_id":76561198073613932,"connected_time":2192000000000,"state":"active","ping":73},{"user_id":111,"name":"leumas","steam_id":76561198240408540,"connected_time":1133000000000,"state":"active","ping":74},{"user_id":116,"name":"Lucky_Boi","steam_id":76561199208835578,"connected_time":467000000000,"state":"active","ping":110},{"user_id":104,"name":"Joe Nathan","steam_id":76561198041030399,"connected_time":2175000000000,"state":"active","ping":84},{"user_id":28,"name":"Xii","steam_id":76561198860209947,"connected_time":8042000000000,"state":"active","ping":52},{"user_id":117,"name":"Glue Gulper","steam_id":76561198158014525,"connected_time":449000000000,"state":"active","ping":60},{"user_id":105,"name":"StrangerHYP","steam_id":76561198395336752,"connected_time":2140000000000,"state":"active","ping":92},{"user_id":120,"name":"Sheev Palpatine","steam_id":76561198252332430,"connected_time":85000000000,"state":"active","ping":81},{"user_id":112,"name":"Captain Baxter","steam_id":76561198100587328,"connected_time":1035000000000,"state":"active","ping":85},{"user_id":106,"name":"Drapph","steam_id":76561199384213314,"connected_time":2134000000000,"state":"active","ping":68},{"user_id":115,"name":"darkjustin54","steam_id":76561198060056280,"connected_time":801000000000,"state":"active","ping":59},{"user_id":114,"name":"iamoctopii","steam_id":76561198876901076,"connected_time":832000000000,"state":"active","ping":128},{"user_id":92,"name":"shake","steam_id":76561199064204750,"connected_time":2693000000000,"state":"active","ping":83},{"user_id":96,"name":"lofile :]","steam_id":76561198083798918,"connected_time":2250000000000,"state":"active","ping":61},{"user_id":121,"name":"ƐՌѴƳ","steam_id":76561198099470277,"connected_time":38000000000,"state":"active","ping":88}]},{"server_id":403,"name":"Uncletopia | Chicago | 4 | All Maps","name_short":"chi-4","host":"chi-1.us.uncletopia.com","port":27045,"enabled":true,"region":"us-central","cc":"us","latitude":41.881832,"longitude":-87.62318,"reserved":0,"last_update":"0001-01-01T00:00:00Z","name_a2s":"Uncletopia | Chicago | 4 | All Maps","protocol":17,"map":"pl_borneo","folder":"tf","game":"Team Fortress","app_id":440,"player_count":24,"max_players":24,"Bots":0,"server_type":"Dedicated","server_os":"Linux","password":true,"vac":true,"version":"7757534","steam_id":85568392924515193,"keywords":["nocrits","nodmgspread","payload","uncletopia"],"game_id":440,"stv_port":27046,"stv_name":"Uncletopia | Chicago | 4 | All Maps | STV","players":[{"user_id":205,"name":"rfed","steam_id":76561198194789617,"connected_time":5010000000000,"state":"active","ping":75},{"user_id":229,"name":"sapphrodite","steam_id":76561198279341789,"connected_time":1117000000000,"state":"active","ping":76},{"user_id":228,"name":"Try Gardening","steam_id":76561198120311340,"connected_time":1340000000000,"state":"active","ping":42},{"user_id":154,"name":"Cyber Glitch","steam_id":76561199277801462,"connected_time":5993000000000,"state":"active","ping":81},{"user_id":211,"name":"Zoot","steam_id":76561198121944243,"connected_time":4818000000000,"state":"active","ping":70},{"user_id":203,"name":"0vii","steam_id":76561198117084598,"connected_time":5013000000000,"state":"active","ping":68},{"user_id":204,"name":"Coco","steam_id":76561198213155565,"connected_time":5011000000000,"state":"active","ping":71},{"user_id":206,"name":"sam LFT","steam_id":76561198080951077,"connected_time":5006000000000,"state":"active","ping":80},{"user_id":234,"name":"LukeLeal","steam_id":76561198049822995,"connected_time":369000000000,"state":"active","ping":170},{"user_id":56,"name":"volta","steam_id":76561199214283884,"connected_time":11513000000000,"state":"active","ping":100},{"user_id":219,"name":"TechLegion","steam_id":76561198951606276,"connected_time":3382000000000,"state":"active","ping":78},{"user_id":226,"name":"Sgt. Pepper","steam_id":76561198063674627,"connected_time":1880000000000,"state":"active","ping":78},{"user_id":98,"name":"Lightatex","steam_id":76561199068097196,"connected_time":7829000000000,"state":"active","ping":59},{"user_id":225,"name":"bachphong760","steam_id":76561199433780443,"connected_time":2129000000000,"state":"active","ping":103},{"user_id":233,"name":"ᴬᴯᴱ Mildstrife","steam_id":76561198000080715,"connected_time":696000000000,"state":"active","ping":62},{"user_id":217,"name":"Tobin","steam_id":76561198072977470,"connected_time":3488000000000,"state":"active","ping":76},{"user_id":232,"name":"CamSoup","steam_id":76561198202483168,"connected_time":904000000000,"state":"active","ping":67},{"user_id":230,"name":"LocaKola","steam_id":76561198173435430,"connected_time":1024000000000,"state":"active","ping":81},{"user_id":100,"name":"waffen's kid","steam_id":76561197972661434,"connected_time":7748000000000,"state":"active","ping":83},{"user_id":96,"name":"４０ ＦＰＳ","steam_id":76561198272394965,"connected_time":8336000000000,"state":"active","ping":134},{"user_id":172,"name":"HollyBlocky","steam_id":76561198030156100,"connected_time":5665000000000,"state":"active","ping":69},{"user_id":214,"name":"Letters","steam_id":76561198035508148,"connected_time":4451000000000,"state":"active","ping":95},{"user_id":215,"name":"Varveer","steam_id":76561198218897383,"connected_time":4451000000000,"state":"active","ping":71},{"user_id":139,"name":"igotmail","steam_id":76561198070631899,"connected_time":6496000000000,"state":"active","ping":67}]},{"server_id":36,"name":"Uncletopia | Chicago | 5 | All Maps","name_short":"chi-5","host":"chi-2.us.uncletopia.com","port":27015,"enabled":true,"region":"us-central","cc":"us","latitude":41.881832,"longitude":-87.62318,"reserved":0,"last_update":"0001-01-01T00:00:00Z","name_a2s":"Uncletopia | Chicago | 5 | All Maps","protocol":17,"map":"pl_badwater","folder":"tf","game":"Team Fortress","app_id":440,"player_count":24,"max_players":24,"Bots":0,"server_type":"Dedicated","server_os":"Linux","password":true,"vac":true,"version":"7757534","steam_id":85568392924866362,"keywords":["nocrits","nodmgspread","payload","uncletopia"],"game_id":440,"stv_port":27016,"stv_name":"Uncletopia | Chicago | 5 | All Maps | STV","players":[{"user_id":176,"name":"RedLex","steam_id":76561198205472311,"connected_time":732000000000,"state":"active","ping":86},{"user_id":187,"name":"wes","steam_id":76561198085849758,"connected_time":122000000000,"state":"active","ping":75},{"user_id":179,"name":"Isopentyl Ethanoate","steam_id":76561198116389072,"connected_time":661000000000,"state":"active","ping":117},{"user_id":188,"name":"tntexplosion","steam_id":76561199090152308,"connected_time":90000000000,"state":"active","ping":85},{"user_id":12,"name":"Fresh Lychee","steam_id":76561198045399559,"connected_time":10359000000000,"state":"active","ping":51},{"user_id":13,"name":"The World's Softest Sandwich","steam_id":76561198015577707,"connected_time":10356000000000,"state":"active","ping":78},{"user_id":128,"name":"BarrowBaron","steam_id":76561198013633236,"connected_time":3842000000000,"state":"active","ping":75},{"user_id":168,"name":"Queen Frau the Round","steam_id":76561197999942134,"connected_time":1223000000000,"state":"active","ping":45},{"user_id":186,"name":"BIGGEST MAC","steam_id":76561198847517098,"connected_time":355000000000,"state":"active","ping":92},{"user_id":140,"name":"HAT-WEARING™ Maggot Gamer Cat","steam_id":76561197973992705,"connected_time":3114000000000,"state":"active","ping":111},{"user_id":81,"name":".jpg","steam_id":76561198137237377,"connected_time":7192000000000,"state":"active","ping":74},{"user_id":172,"name":"Dive(z)","steam_id":76561198140843225,"connected_time":1008000000000,"state":"active","ping":112},{"user_id":169,"name":"Pluto","steam_id":76561198338593690,"connected_time":1214000000000,"state":"active","ping":82},{"user_id":171,"name":"bananalover5","steam_id":76561199143854578,"connected_time":1075000000000,"state":"active","ping":88},{"user_id":178,"name":"Fastest Spycrab in The West","steam_id":76561198345326844,"connected_time":678000000000,"state":"active","ping":46},{"user_id":174,"name":"Timon's high on crack cocaine!","steam_id":76561198180396430,"connected_time":834000000000,"state":"active","ping":73},{"user_id":163,"name":"The indomitable human spirit","steam_id":76561198282395338,"connected_time":1609000000000,"state":"active","ping":70},{"user_id":175,"name":"LikeASir","steam_id":76561198042209721,"connected_time":773000000000,"state":"active","ping":43},{"user_id":177,"name":"neet","steam_id":76561197968115168,"connected_time":714000000000,"state":"active","ping":60},{"user_id":157,"name":"Parker","steam_id":76561198046044893,"connected_time":1916000000000,"state":"active","ping":49},{"user_id":181,"name":"toastman","steam_id":76561198207073088,"connected_time":623000000000,"state":"active","ping":89},{"user_id":165,"name":"Coolshroomish","steam_id":76561199109440924,"connected_time":1518000000000,"state":"active","ping":91},{"user_id":144,"name":"estrogen taker","steam_id":76561198044696803,"connected_time":2320000000000,"state":"active","ping":73},{"user_id":182,"name":"RabidSoda","steam_id":76561198115416316,"connected_time":616000000000,"state":"active","ping":82}]},{"server_id":37,"name":"Uncletopia | Chicago | 6 | All Maps","name_short":"chi-6","host":"chi-2.us.uncletopia.com","port":27025,"enabled":true,"region":"us-central","cc":"us","latitude":41.881832,"longitude":-87.62318,"reserved":0,"last_update":"0001-01-01T00:00:00Z","name_a2s":"Uncletopia | Chicago | 6 | All Maps","protocol":17,"map":"cp_gravelpit","folder":"tf","game":"Team Fortress","app_id":440,"player_count":24,"max_players":24,"Bots":0,"server_type":"Dedicated","server_os":"Linux","password":true,"vac":true,"version":"7757534","steam_id":85568392924866363,"keywords":["cp","nocrits","nodmgspread","uncletopia"],"game_id":440,"stv_port":27026,"stv_name":"Uncletopia | Chicago | 6 | All Maps | STV","players":[{"user_id":23,"name":"Aerobro","steam_id":76561198033530996,"connected_time":2036000000000,"state":"active","ping":88},{"user_id":35,"name":"Scopo","steam_id":76561199013379847,"connected_time":670000000000,"state":"active","ping":72},{"user_id":28,"name":"bryyte","steam_id":76561198012377833,"connected_time":877000000000,"state":"active","ping":53},{"user_id":31,"name":"butterfalcon3","steam_id":76561198412918896,"connected_time":845000000000,"state":"active","ping":70},{"user_id":30,"name":"Acidasaur","steam_id":76561198424179969,"connected_time":856000000000,"state":"active","ping":54},{"user_id":32,"name":"ChozoChorizo","steam_id":76561198272609196,"connected_time":818000000000,"state":"active","ping":58},{"user_id":43,"name":"gideon nav my beloved","steam_id":76561198259092181,"connected_time":442000000000,"state":"active","ping":62},{"user_id":34,"name":"Penny #girl","steam_id":76561198144281771,"connected_time":760000000000,"state":"active","ping":68},{"user_id":37,"name":"aidenshipley22","steam_id":76561199482023719,"connected_time":663000000000,"state":"active","ping":98},{"user_id":38,"name":"Skizzix","steam_id":76561197979993319,"connected_time":644000000000,"state":"active","ping":96},{"user_id":39,"name":"Thai Cobra-Snake","steam_id":76561198128928443,"connected_time":589000000000,"state":"active","ping":68},{"user_id":40,"name":"Gordon From White Castle (real)","steam_id":76561198364172677,"connected_time":544000000000,"state":"active","ping":87},{"user_id":41,"name":"Lelwani","steam_id":76561198029371348,"connected_time":527000000000,"state":"active","ping":104},{"user_id":42,"name":"TJGSASQUATCH","steam_id":76561198077806921,"connected_time":494000000000,"state":"active","ping":71},{"user_id":44,"name":"Rat5555546","steam_id":76561199350546592,"connected_time":396000000000,"state":"active","ping":106},{"user_id":45,"name":"Buck","steam_id":76561197993075304,"connected_time":365000000000,"state":"active","ping":76},{"user_id":54,"name":"garbo","steam_id":76561198149280150,"connected_time":42000000000,"state":"active","ping":95},{"user_id":47,"name":"Rav3 p4rty","steam_id":76561198037518646,"connected_time":295000000000,"state":"active","ping":63},{"user_id":48,"name":"double","steam_id":76561199241322679,"connected_time":227000000000,"state":"active","ping":64},{"user_id":49,"name":"twin","steam_id":76561198055626638,"connected_time":219000000000,"state":"active","ping":89},{"user_id":50,"name":"jazaniac","steam_id":76561198059955588,"connected_time":216000000000,"state":"active","ping":85},{"user_id":51,"name":"Ursus Ludius","steam_id":76561198025470722,"connected_time":207000000000,"state":"active","ping":91},{"user_id":52,"name":"Rez","steam_id":76561198374251889,"connected_time":187000000000,"state":"active","ping":101},{"user_id":53,"name":"Day","steam_id":76561198346908503,"connected_time":185000000000,"state":"active","ping":66}]},{"server_id":38,"name":"Uncletopia | Chicago | 7 | Stopwatch Beta","name_short":"chi-7","host":"chi-2.us.uncletopia.com","port":27035,"enabled":true,"region":"us-central","cc":"us","latitude":41.881832,"longitude":-87.62318,"reserved":0,"last_update":"0001-01-01T00:00:00Z","name_a2s":"Uncletopia | Chicago | 7 | Stopwatch Beta","protocol":17,"map":"workshop/pl_vigil_rc9.ugc1266210012","folder":"tf","game":"Team Fortress","app_id":440,"player_count":0,"max_players":24,"Bots":0,"server_type":"Dedicated","server_os":"Linux","password":true,"vac":true,"version":"7757534","steam_id":85568392924866364,"keywords":["nocrits","nodmgspread","payload","uncletopia"],"game_id":440,"stv_port":27036,"stv_name":"Uncletopia | Chicago | 7 | Stopwatch Beta | STV","players":null},{"server_id":39,"name":"Uncletopia | Chicago | 8 | Community","name_short":"chi-8","host":"chi-2.us.uncletopia.com","port":27045,"enabled":true,"region":"us-central","cc":"us","latitude":41.881832,"longitude":-87.62318,"reserved":0,"last_update":"0001-01-01T00:00:00Z","name_a2s":"Uncletopia | Chicago | 8 | Community","protocol":17,"map":"workshop/koth_slaughter_rc1.ugc1712845210","folder":"tf","game":"Team Fortress","app_id":440,"player_count":0,"max_players":24,"Bots":0,"server_type":"Dedicated","server_os":"Linux","password":true,"vac":true,"version":"7757534","steam_id":85568392924866365,"keywords":["cp","nocrits","nodmgspread","uncletopia"],"game_id":440,"stv_port":27046,"stv_name":"Uncletopia | Chicago | 8 | Community | STV","players":null},{"server_id":8,"name":"Uncletopia | Dallas | 1 | All Maps","name_short":"dal-1","host":"dal-1.us.uncletopia.com","port":27015,"enabled":true,"region":"us-central","cc":"us","latitude":32.779167,"longitude":-96.80889,"reserved":0,"last_update":"0001-01-01T00:00:00Z","name_a2s":"Uncletopia | Dallas | 1 | All Maps","protocol":17,"map":"koth_lakeside_final","folder":"tf","game":"Team Fortress","app_id":440,"player_count":24,"max_players":24,"Bots":0,"server_type":"Dedicated","server_os":"Linux","password":true,"vac":true,"version":"7757534","steam_id":85568392924469986,"keywords":["cp","nocrits","nodmgspread","uncletopia"],"game_id":440,"stv_port":27016,"stv_name":"Uncletopia | Dallas | 1 | All Maps | STV","players":[{"user_id":365,"name":"mentos14","steam_id":76561198097993629,"connected_time":2811000000000,"state":"active","ping":86},{"user_id":375,"name":"Caboose","steam_id":76561198215451935,"connected_time":1841000000000,"state":"active","ping":49},{"user_id":388,"name":"RANDALL","steam_id":76561198026734458,"connected_time":579000000000,"state":"active","ping":75},{"user_id":380,"name":"Soviet Potato","steam_id":76561198068546113,"connected_time":1280000000000,"state":"active","ping":71},{"user_id":367,"name":"A Straw","steam_id":76561199367935846,"connected_time":2354000000000,"state":"active","ping":70},{"user_id":392,"name":"Saltycheesecak0","steam_id":76561199044288353,"connected_time":265000000000,"state":"active","ping":59},{"user_id":397,"name":"joyboy","steam_id":76561198400381132,"connected_time":55000000000,"state":"active","ping":74},{"user_id":395,"name":"bdefg","steam_id":76561199422915609,"connected_time":167000000000,"state":"active","ping":768},{"user_id":369,"name":"RysN Yeen ♥","steam_id":76561198105359319,"connected_time":2235000000000,"state":"active","ping":70},{"user_id":385,"name":"Anxious Nerd Bird","steam_id":76561198112178602,"connected_time":832000000000,"state":"active","ping":83},{"user_id":336,"name":"CashBin","steam_id":76561199382865598,"connected_time":4628000000000,"state":"active","ping":64},{"user_id":396,"name":"jcontes11","steam_id":76561199098001805,"connected_time":147000000000,"state":"active","ping":102},{"user_id":398,"name":"Shook","steam_id":76561198054064995,"connected_time":44000000000,"state":"active","ping":71},{"user_id":378,"name":"teatimesukka","steam_id":76561198978749594,"connected_time":1311000000000,"state":"active","ping":41},{"user_id":364,"name":"Zetta","steam_id":76561198045710113,"connected_time":2839000000000,"state":"active","ping":87},{"user_id":376,"name":"squilith","steam_id":76561198134923092,"connected_time":1827000000000,"state":"active","ping":75},{"user_id":372,"name":"Flubdy_","steam_id":76561198073338521,"connected_time":2084000000000,"state":"active","ping":54},{"user_id":323,"name":"Unlock The Shock (She/They)","steam_id":76561198823616667,"connected_time":5911000000000,"state":"active","ping":59},{"user_id":393,"name":"whistle","steam_id":76561198258304736,"connected_time":232000000000,"state":"active","ping":72},{"user_id":278,"name":"Gad","steam_id":76561198020792373,"connected_time":10107000000000,"state":"active","ping":63},{"user_id":382,"name":"Jezzus","steam_id":76561199289676387,"connected_time":1130000000000,"state":"active","ping":61},{"user_id":362,"name":"MintyAProto (she/her)","steam_id":76561199264693502,"connected_time":2997000000000,"state":"active","ping":59},{"user_id":381,"name":"Darkpuppy","steam_id":76561199054246630,"connected_time":1279000000000,"state":"active","ping":46},{"user_id":394,"name":"PiolaCat","steam_id":76561199100535345,"connected_time":229000000000,"state":"active","ping":111}]},{"server_id":108,"name":"Uncletopia | Dallas | 2 | All Maps","name_short":"dal-2","host":"dal-1.us.uncletopia.com","port":27025,"enabled":true,"region":"us-central","cc":"us","latitude":32.779167,"longitude":-96.80889,"reserved":0,"last_update":"0001-01-01T00:00:00Z","name_a2s":"Uncletopia | Dallas | 2 | All Maps","protocol":17,"map":"koth_suijin","folder":"tf","game":"Team Fortress","app_id":440,"player_count":24,"max_players":24,"Bots":0,"server_type":"Dedicated","server_os":"Linux","password":true,"vac":true,"version":"7757534","steam_id":85568392924469988,"keywords":["cp","nocrits","nodmgspread","uncletopia"],"game_id":440,"stv_port":27026,"stv_name":"Uncletopia | Dallas | 2 | All Maps | STV","players":[{"user_id":108,"name":"Perfume Department","steam_id":76561198128299594,"connected_time":4039000000000,"state":"active","ping":102},{"user_id":162,"name":"inzang","steam_id":76561198088318074,"connected_time":461000000000,"state":"active","ping":55},{"user_id":163,"name":"Law","steam_id":76561198169960915,"connected_time":443000000000,"state":"active","ping":53},{"user_id":172,"name":"Gm_Trash","steam_id":76561199445091548,"connected_time":157000000000,"state":"active","ping":73},{"user_id":116,"name":"Federico","steam_id":76561198411873065,"connected_time":3534000000000,"state":"active","ping":93},{"user_id":165,"name":"SleepyJane","steam_id":76561198379320087,"connected_time":352000000000,"state":"active","ping":76},{"user_id":159,"name":"GrantTheMedicYT","steam_id":76561199077176696,"connected_time":489000000000,"state":"active","ping":79},{"user_id":169,"name":"mr.edderkopper","steam_id":76561198152614478,"connected_time":310000000000,"state":"active","ping":67},{"user_id":161,"name":"PEPSI POWERED MAN","steam_id":76561198362668431,"connected_time":478000000000,"state":"active","ping":111},{"user_id":170,"name":"Mellou","steam_id":76561198212048740,"connected_time":299000000000,"state":"active","ping":43},{"user_id":104,"name":"Nayru","steam_id":76561199088789298,"connected_time":4406000000000,"state":"active","ping":98},{"user_id":173,"name":"Cervidé","steam_id":76561198098579497,"connected_time":142000000000,"state":"active","ping":101},{"user_id":147,"name":"frank","steam_id":76561198045499333,"connected_time":2023000000000,"state":"active","ping":81},{"user_id":93,"name":"Frost","steam_id":76561198083694664,"connected_time":4718000000000,"state":"active","ping":77},{"user_id":137,"name":"Clixon","steam_id":76561198138835736,"connected_time":2695000000000,"state":"active","ping":96},{"user_id":171,"name":"Aircraft Carrier Princess","steam_id":76561198348354629,"connected_time":237000000000,"state":"active","ping":72},{"user_id":154,"name":"DMM","steam_id":76561198065426171,"connected_time":1311000000000,"state":"active","ping":57},{"user_id":155,"name":"Vibey","steam_id":76561198342873474,"connected_time":1254000000000,"state":"active","ping":98},{"user_id":105,"name":"LegoSoldier7","steam_id":76561198354518276,"connected_time":4335000000000,"state":"active","ping":91},{"user_id":152,"name":"DOPEam1ne","steam_id":76561198112204774,"connected_time":1326000000000,"state":"active","ping":83},{"user_id":41,"name":"Lolxdloldx","steam_id":76561198136887125,"connected_time":8833000000000,"state":"active","ping":78},{"user_id":156,"name":"Blasterus","steam_id":76561198859486814,"connected_time":1164000000000,"state":"active","ping":98},{"user_id":167,"name":"RockBandOnWii","steam_id":76561198285410854,"connected_time":320000000000,"state":"active","ping":84},{"user_id":168,"name":"CylonPlays","steam_id":76561198014978060,"connected_time":316000000000,"state":"active","ping":81}]},{"server_id":5,"name":"Uncletopia | Frankfurt | 1 | All Maps","name_short":"frk-1","host":"frk-1.de.uncletopia.com","port":27015,"enabled":true,"region":"eu","cc":"de","latitude":50.110924,"longitude":8.682127,"reserved":0,"last_update":"0001-01-01T00:00:00Z","name_a2s":"Uncletopia | Frankfurt | 1 | All Maps","protocol":17,"map":"koth_harvest_final","folder":"tf","game":"Team Fortress","app_id":440,"player_count":24,"max_players":24,"Bots":0,"server_type":"Dedicated","server_os":"Linux","password":true,"vac":true,"version":"7757534","steam_id":85568392924469989,"keywords":["cp","nocrits","nodmgspread","uncletopia"],"game_id":440,"stv_port":27016,"stv_name":"Uncletopia | Frankfurt | 1 | All Maps | STV","players":[{"user_id":614,"name":"mercurial","steam_id":76561198046227550,"connected_time":6151000000000,"state":"active","ping":68},{"user_id":578,"name":"Syll","steam_id":76561198040736202,"connected_time":7182000000000,"state":"active","ping":94},{"user_id":672,"name":"Baron","steam_id":76561198021901783,"connected_time":1705000000000,"state":"active","ping":62},{"user_id":675,"name":"kamekame","steam_id":76561198047108054,"connected_time":1640000000000,"state":"active","ping":102},{"user_id":606,"name":"Tegnerud","steam_id":76561198214185612,"connected_time":6371000000000,"state":"active","ping":69},{"user_id":673,"name":"Teecho","steam_id":76561197995269610,"connected_time":1683000000000,"state":"active","ping":71},{"user_id":686,"name":"knees","steam_id":76561198005924647,"connected_time":1265000000000,"state":"active","ping":75},{"user_id":626,"name":"Kestrel","steam_id":76561198144033005,"connected_time":5395000000000,"state":"active","ping":64},{"user_id":689,"name":"mud","steam_id":76561198141497461,"connected_time":1045000000000,"state":"active","ping":63},{"user_id":694,"name":"noodlehairronaldoprime","steam_id":76561199471954402,"connected_time":1019000000000,"state":"active","ping":63},{"user_id":670,"name":"noll","steam_id":76561198114326822,"connected_time":1745000000000,"state":"active","ping":202},{"user_id":680,"name":"Mailer","steam_id":76561198062690074,"connected_time":1499000000000,"state":"active","ping":60},{"user_id":688,"name":"NT4Chan","steam_id":76561199482763562,"connected_time":1116000000000,"state":"active","ping":62},{"user_id":696,"name":"Keyo","steam_id":76561198018887589,"connected_time":338000000000,"state":"active","ping":69},{"user_id":651,"name":"Hoxton","steam_id":76561198129209505,"connected_time":3145000000000,"state":"active","ping":111},{"user_id":678,"name":"bromine drinker","steam_id":76561199209895540,"connected_time":1615000000000,"state":"active","ping":67},{"user_id":645,"name":"Flal","steam_id":76561198453819816,"connected_time":4176000000000,"state":"active","ping":59},{"user_id":685,"name":"Bond","steam_id":76561198070654906,"connected_time":1358000000000,"state":"active","ping":55},{"user_id":691,"name":"zoinks!","steam_id":76561198068645362,"connected_time":1033000000000,"state":"active","ping":55},{"user_id":695,"name":"Swaggot329","steam_id":76561198828503940,"connected_time":892000000000,"state":"active","ping":76},{"user_id":642,"name":"lvl. 50 honkler","steam_id":76561198061688660,"connected_time":4537000000000,"state":"active","ping":97},{"user_id":679,"name":"Toofy","steam_id":76561197989727907,"connected_time":1601000000000,"state":"active","ping":53},{"user_id":697,"name":"Balkespower","steam_id":76561198024869299,"connected_time":174000000000,"state":"active","ping":48},{"user_id":698,"name":"dum","steam_id":76561198053386482,"connected_time":32000000000,"state":"active","ping":192}]},{"server_id":110,"name":"Uncletopia | Frankfurt | 2 | All Maps","name_short":"frk-2","host":"frk-1.de.uncletopia.com","port":27025,"enabled":true,"region":"eu","cc":"de","latitude":50.110924,"longitude":8.682127,"reserved":0,"last_update":"0001-01-01T00:00:00Z","name_a2s":"Uncletopia | Frankfurt | 2 | All Maps","protocol":17,"map":"cp_dustbowl","folder":"tf","game":"Team Fortress","app_id":440,"player_count":0,"max_players":24,"Bots":0,"server_type":"Dedicated","server_os":"Linux","password":true,"vac":true,"version":"7757534","steam_id":85568392924469990,"keywords":["cp","nocrits","nodmgspread","uncletopia"],"game_id":440,"stv_port":27026,"stv_name":"Uncletopia | Frankfurt | 2 | All Maps | STV","players":null},{"server_id":308,"name":"Uncletopia | Frankfurt | 3 | All Maps","name_short":"frk-3","host":"frk-1.de.uncletopia.com","port":27035,"enabled":true,"region":"eu","cc":"de","latitude":50.110924,"longitude":8.682127,"reserved":0,"last_update":"0001-01-01T00:00:00Z","name_a2s":"Uncletopia | Frankfurt | 3 | All Maps","protocol":17,"map":"pl_frontier_final","folder":"tf","game":"Team Fortress","app_id":440,"player_count":24,"max_players":24,"Bots":0,"server_type":"Dedicated","server_os":"Linux","password":true,"vac":true,"version":"7757534","steam_id":85568392924504274,"keywords":["nocrits","nodmgspread","payload","uncletopia"],"game_id":440,"stv_port":27036,"stv_name":"Uncletopia | Frankfurt | 3 | All Maps | STV","players":[{"user_id":469,"name":"ungabunga","steam_id":76561198872044740,"connected_time":6012000000000,"state":"active","ping":62},{"user_id":526,"name":"Andris013","steam_id":76561198124645179,"connected_time":2686000000000,"state":"active","ping":77},{"user_id":540,"name":"galaxy","steam_id":76561198164819022,"connected_time":1314000000000,"state":"active","ping":67},{"user_id":546,"name":"HilVal","steam_id":76561198015228535,"connected_time":641000000000,"state":"active","ping":85},{"user_id":537,"name":"engie?","steam_id":76561198331852832,"connected_time":1649000000000,"state":"active","ping":58},{"user_id":538,"name":"Efemek","steam_id":76561199076133712,"connected_time":1596000000000,"state":"active","ping":100},{"user_id":545,"name":"Special Agent Big Smoke","steam_id":76561198154468827,"connected_time":756000000000,"state":"active","ping":74},{"user_id":503,"name":"Rez","steam_id":76561198410598772,"connected_time":3988000000000,"state":"active","ping":57},{"user_id":512,"name":"Le_TINTOUIN #Save-TF2","steam_id":76561198428385639,"connected_time":3615000000000,"state":"active","ping":70},{"user_id":490,"name":"Vidrox #savetf2","steam_id":76561199217854983,"connected_time":4286000000000,"state":"active","ping":92},{"user_id":461,"name":"Nyhde","steam_id":76561198012771416,"connected_time":6348000000000,"state":"active","ping":89},{"user_id":541,"name":"Riordan the Armpit Inspector","steam_id":76561198001346236,"connected_time":1305000000000,"state":"active","ping":74},{"user_id":505,"name":"mrbeast109385079350229083479082","steam_id":76561198370687830,"connected_time":3922000000000,"state":"active","ping":148},{"user_id":549,"name":"誰かが見ている","steam_id":76561198834913692,"connected_time":349000000000,"state":"active","ping":75},{"user_id":548,"name":"tallen","steam_id":76561198061708595,"connected_time":406000000000,"state":"active","ping":85},{"user_id":527,"name":"Graceium","steam_id":76561198271802336,"connected_time":2355000000000,"state":"active","ping":68},{"user_id":531,"name":"Name","steam_id":76561199111748012,"connected_time":1897000000000,"state":"active","ping":175},{"user_id":534,"name":"ProfessorCrack","steam_id":76561199035475627,"connected_time":1830000000000,"state":"active","ping":81},{"user_id":522,"name":"Radegast the Brown","steam_id":76561198075489505,"connected_time":2819000000000,"state":"active","ping":62},{"user_id":500,"name":"Frost","steam_id":76561199174561702,"connected_time":4078000000000,"state":"active","ping":69},{"user_id":518,"name":"cursedbygod♡","steam_id":76561198318291047,"connected_time":2936000000000,"state":"active","ping":126},{"user_id":523,"name":"Fritzpoltergeist","steam_id":76561198036562184,"connected_time":2795000000000,"state":"active","ping":78},{"user_id":539,"name":"Nemi","steam_id":76561198076797716,"connected_time":1572000000000,"state":"active","ping":55},{"user_id":544,"name":"tf2 snake","steam_id":76561198193971167,"connected_time":954000000000,"state":"active","ping":57}]},{"server_id":309,"name":"Uncletopia | Frankfurt | 4 | All Maps","name_short":"frk-4","host":"frk-1.de.uncletopia.com","port":27045,"enabled":true,"region":"eu","cc":"de","latitude":50.110924,"longitude":8.682127,"reserved":0,"last_update":"0001-01-01T00:00:00Z","name_a2s":"Uncletopia | Frankfurt | 4 | All Maps","protocol":17,"map":"ctf_turbine","folder":"tf","game":"Team Fortress","app_id":440,"player_count":24,"max_players":24,"Bots":0,"server_type":"Dedicated","server_os":"Linux","password":true,"vac":true,"version":"7757534","steam_id":85568392924504275,"keywords":["ctf","nocrits","nodmgspread","uncletopia"],"game_id":440,"stv_port":27046,"stv_name":"Uncletopia | Frankfurt | 4 | All Maps | STV","players":[{"user_id":73,"name":"skindiver376","steam_id":76561198056533071,"connected_time":4710000000000,"state":"active","ping":53},{"user_id":129,"name":"jolleter","steam_id":76561198891983664,"connected_time":198000000000,"state":"active","ping":69},{"user_id":106,"name":"Pepegi","steam_id":76561198001230113,"connected_time":1619000000000,"state":"active","ping":79},{"user_id":125,"name":"cotroD","steam_id":76561198130063938,"connected_time":330000000000,"state":"active","ping":85},{"user_id":126,"name":"The Pestilence","steam_id":76561199081252282,"connected_time":302000000000,"state":"active","ping":176},{"user_id":127,"name":"Sarinya","steam_id":76561198079919172,"connected_time":278000000000,"state":"active","ping":80},{"user_id":43,"name":"Spectral Sloth","steam_id":76561198170083139,"connected_time":5416000000000,"state":"active","ping":80},{"user_id":99,"name":"Burger King Dante","steam_id":76561198390314734,"connected_time":2137000000000,"state":"active","ping":60},{"user_id":105,"name":"Homosapien","steam_id":76561197972035953,"connected_time":1888000000000,"state":"active","ping":63},{"user_id":119,"name":"peso enjoyer","steam_id":76561198798177799,"connected_time":763000000000,"state":"active","ping":69},{"user_id":123,"name":"Zune","steam_id":76561198119382708,"connected_time":401000000000,"state":"active","ping":98},{"user_id":128,"name":"Commissar Grub","steam_id":76561197992544702,"connected_time":262000000000,"state":"active","ping":68},{"user_id":130,"name":"FluffySurge","steam_id":76561198048766569,"connected_time":197000000000,"state":"active","ping":57},{"user_id":131,"name":"Ostara","steam_id":76561198200054489,"connected_time":195000000000,"state":"active","ping":67},{"user_id":80,"name":"xTheDarkLight","steam_id":76561198239128298,"connected_time":4334000000000,"state":"active","ping":48},{"user_id":101,"name":"MrBanana","steam_id":76561198116021623,"connected_time":2045000000000,"state":"active","ping":93},{"user_id":132,"name":"Kelpy G gaming","steam_id":76561198056995633,"connected_time":192000000000,"state":"active","ping":69},{"user_id":110,"name":"DeCypher [She/Her]","steam_id":76561198171992619,"connected_time":1482000000000,"state":"active","ping":66},{"user_id":133,"name":"SLIME TIME","steam_id":76561198172260583,"connected_time":192000000000,"state":"active","ping":45},{"user_id":57,"name":"Ewelinka Zniszczenia","steam_id":76561198307374456,"connected_time":5125000000000,"state":"active","ping":72},{"user_id":88,"name":"Postmand Per","steam_id":76561198114985331,"connected_time":3396000000000,"state":"active","ping":45},{"user_id":134,"name":"ryft #freenioh","steam_id":76561198429138254,"connected_time":184000000000,"state":"active","ping":71},{"user_id":65,"name":"SpaceCake","steam_id":76561198151394497,"connected_time":5003000000000,"state":"active","ping":76},{"user_id":136,"name":"Shromide","steam_id":76561198140382935,"connected_time":115000000000,"state":"active","ping":70}]},{"server_id":310,"name":"Uncletopia | Frankfurt | 5 | All Maps","name_short":"frk-5","host":"frk-1.de.uncletopia.com","port":27055,"enabled":true,"region":"eu","cc":"de","latitude":50.110924,"longitude":8.682127,"reserved":0,"last_update":"0001-01-01T00:00:00Z","name_a2s":"Uncletopia | Frankfurt | 5 | All Maps","protocol":17,"map":"pl_frontier_final","folder":"tf","game":"Team Fortress","app_id":440,"player_count":24,"max_players":24,"Bots":0,"server_type":"Dedicated","server_os":"Linux","password":true,"vac":true,"version":"7757534","steam_id":85568392924504277,"keywords":["nocrits","nodmgspread","payload","uncletopia"],"game_id":440,"stv_port":27056,"stv_name":"Uncletopia | Frankfurt | 5 | All Maps | STV","players":[{"user_id":616,"name":"ScarredPixel123","steam_id":76561199165112703,"connected_time":181000000000,"state":"active","ping":72},{"user_id":593,"name":"Farmercy","steam_id":76561198000038039,"connected_time":2805000000000,"state":"active","ping":59},{"user_id":576,"name":"EGirl | Klarra","steam_id":76561198077745407,"connected_time":4370000000000,"state":"active","ping":69},{"user_id":545,"name":"British Disapproval","steam_id":76561198001375260,"connected_time":6096000000000,"state":"active","ping":68},{"user_id":385,"name":"bigwish | bmod.tf","steam_id":76561197997859723,"connected_time":15639000000000,"state":"active","ping":87},{"user_id":605,"name":"Voidbane","steam_id":76561198060591741,"connected_time":1152000000000,"state":"active","ping":180},{"user_id":612,"name":"milk man","steam_id":76561199091084794,"connected_time":834000000000,"state":"active","ping":163},{"user_id":599,"name":"Chuck van Chider","steam_id":76561198022104234,"connected_time":2392000000000,"state":"active","ping":65},{"user_id":604,"name":"Not Bebop","steam_id":76561199032279809,"connected_time":1610000000000,"state":"active","ping":73},{"user_id":573,"name":"Dooting","steam_id":76561199069121777,"connected_time":4539000000000,"state":"active","ping":76},{"user_id":595,"name":"Macro","steam_id":76561199442846226,"connected_time":2477000000000,"state":"active","ping":175},{"user_id":600,"name":"HelwiiHill","steam_id":76561198066730552,"connected_time":2380000000000,"state":"active","ping":83},{"user_id":587,"name":"Valkyr","steam_id":76561197994049208,"connected_time":3618000000000,"state":"active","ping":73},{"user_id":596,"name":"thepro-strong","steam_id":76561198047359132,"connected_time":2457000000000,"state":"active","ping":71},{"user_id":551,"name":"Caliban","steam_id":76561197999696839,"connected_time":5755000000000,"state":"active","ping":101},{"user_id":607,"name":"alan","steam_id":76561198306947435,"connected_time":1093000000000,"state":"active","ping":70},{"user_id":615,"name":"¬°Nice","steam_id":76561198387871867,"connected_time":408000000000,"state":"active","ping":81},{"user_id":606,"name":"TheEventGuy","steam_id":76561197972797744,"connected_time":1098000000000,"state":"active","ping":66},{"user_id":613,"name":"Mrbluuub","steam_id":76561199273847084,"connected_time":676000000000,"state":"active","ping":77},{"user_id":544,"name":"failwife","steam_id":76561198183999845,"connected_time":6166000000000,"state":"active","ping":68},{"user_id":580,"name":"Cookies and Bakies","steam_id":76561198017442928,"connected_time":4203000000000,"state":"active","ping":60},{"user_id":597,"name":"vividatant","steam_id":76561198367913885,"connected_time":2451000000000,"state":"active","ping":68},{"user_id":589,"name":"Dogdigger","steam_id":76561198032893130,"connected_time":3539000000000,"state":"active","ping":102},{"user_id":609,"name":"Woman (Real)","steam_id":76561199151823932,"connected_time":1087000000000,"state":"active","ping":74}]},{"server_id":311,"name":"Uncletopia | Frankfurt | 6 | All Maps","name_short":"frk-6","host":"frk-1.de.uncletopia.com","port":27065,"enabled":true,"region":"eu","cc":"de","latitude":50.110924,"longitude":8.682127,"reserved":0,"last_update":"0001-01-01T00:00:00Z","name_a2s":"Uncletopia | Frankfurt | 6 | All Maps","protocol":17,"map":"pl_badwater","folder":"tf","game":"Team Fortress","app_id":440,"player_count":24,"max_players":24,"Bots":0,"server_type":"Dedicated","server_os":"Linux","password":true,"vac":true,"version":"7757534","steam_id":85568392924504278,"keywords":["nocrits","nodmgspread","payload","uncletopia"],"game_id":440,"stv_port":27066,"stv_name":"Uncletopia | Frankfurt | 6 | All Maps | STV","players":[{"user_id":682,"name":"Soyboy","steam_id":76561198053885716,"connected_time":19000000000,"state":"spawning","ping":65},{"user_id":667,"name":"tralalaOuiOui","steam_id":76561197963471507,"connected_time":1294000000000,"state":"active","ping":58},{"user_id":671,"name":"GogoMaster24","steam_id":76561198100112989,"connected_time":929000000000,"state":"active","ping":74},{"user_id":632,"name":"MILKY","steam_id":76561199261620682,"connected_time":3885000000000,"state":"active","ping":94},{"user_id":657,"name":"Vershal Smershal","steam_id":76561198116223995,"connected_time":1705000000000,"state":"active","ping":60},{"user_id":633,"name":"JSX #savetf2","steam_id":76561198039097662,"connected_time":3863000000000,"state":"active","ping":66},{"user_id":629,"name":"Mi Manchi","steam_id":76561198171573129,"connected_time":4277000000000,"state":"active","ping":59},{"user_id":658,"name":"wouris","steam_id":76561198876188003,"connected_time":1701000000000,"state":"active","ping":56},{"user_id":675,"name":"Mitrev","steam_id":76561198157124880,"connected_time":285000000000,"state":"active","ping":72},{"user_id":681,"name":"adga","steam_id":76561198037563515,"connected_time":225000000000,"state":"active","ping":86},{"user_id":659,"name":"REN","steam_id":76561198000596385,"connected_time":1701000000000,"state":"active","ping":75},{"user_id":677,"name":"Dr Ludwig","steam_id":76561198426522902,"connected_time":258000000000,"state":"active","ping":67},{"user_id":673,"name":"d u k k i","steam_id":76561198071807437,"connected_time":722000000000,"state":"active","ping":79},{"user_id":649,"name":"yoursbzt","steam_id":76561198201866574,"connected_time":3332000000000,"state":"active","ping":80},{"user_id":664,"name":"Drekadóttir","steam_id":76561198119979169,"connected_time":1556000000000,"state":"active","ping":74},{"user_id":654,"name":"Hasamnas","steam_id":76561199125038537,"connected_time":2453000000000,"state":"active","ping":66},{"user_id":655,"name":"Perci","steam_id":76561198097789669,"connected_time":2327000000000,"state":"active","ping":61},{"user_id":678,"name":"Femboypawnguy","steam_id":76561198274894771,"connected_time":242000000000,"state":"active","ping":56},{"user_id":672,"name":"Lag","steam_id":76561198159360376,"connected_time":846000000000,"state":"active","ping":66},{"user_id":679,"name":"Tywhip","steam_id":76561199207545191,"connected_time":240000000000,"state":"active","ping":60},{"user_id":455,"name":"Jackriz","steam_id":76561198024882111,"connected_time":14617000000000,"state":"active","ping":75},{"user_id":680,"name":"breedable","steam_id":76561198010300032,"connected_time":234000000000,"state":"active","ping":70},{"user_id":549,"name":"Bajas","steam_id":76561198179339326,"connected_time":6982000000000,"state":"active","ping":82},{"user_id":607,"name":"The Shotgun","steam_id":76561198044008976,"connected_time":4965000000000,"state":"active","ping":75}]},{"server_id":23,"name":"Uncletopia | Frankfurt | 7 | Stopwatch Beta","name_short":"frk-7","host":"frk-1.de.uncletopia.com","port":27075,"enabled":true,"region":"eu","cc":"de","latitude":50.110924,"longitude":8.682127,"reserved":0,"last_update":"0001-01-01T00:00:00Z","name_a2s":"Uncletopia | Frankfurt | 7 | Stopwatch Beta","protocol":17,"map":"workshop/koth_ramjam_rc1.ugc459778887","folder":"tf","game":"Team Fortress","app_id":440,"player_count":0,"max_players":24,"Bots":0,"server_type":"Dedicated","server_os":"Linux","password":true,"vac":true,"version":"7757534","steam_id":85568392924742827,"keywords":["cp","nocrits","nodmgspread","uncletopia"],"game_id":440,"stv_port":27076,"stv_name":"Uncletopia | Frankfurt | 7 | Stopwatch Beta | STV","players":null},{"server_id":24,"name":"Uncletopia | Frankfurt | 8 | Community","name_short":"frk-8","host":"frk-1.de.uncletopia.com","port":27085,"enabled":true,"region":"eu","cc":"de","latitude":50.110924,"longitude":8.682127,"reserved":0,"last_update":"0001-01-01T00:00:00Z","name_a2s":"Uncletopia | Frankfurt | 8 | Community","protocol":17,"map":"workshop/pl_fifthcurve_rc1.ugc648227046","folder":"tf","game":"Team Fortress","app_id":440,"player_count":2,"max_players":24,"Bots":0,"server_type":"Dedicated","server_os":"Linux","password":true,"vac":true,"version":"7757534","steam_id":85568392924742828,"keywords":["nocrits","nodmgspread","payload","uncletopia"],"game_id":440,"stv_port":27086,"stv_name":"Uncletopia | Frankfurt | 8 | Community | STV","players":[{"user_id":58,"name":"Dor_atar","steam_id":76561198973980542,"connected_time":1427000000000,"state":"active","ping":59},{"user_id":57,"name":"Adolf Oliver Nipple","steam_id":76561199348740004,"connected_time":1934000000000,"state":"active","ping":49}]},{"server_id":202,"name":"Uncletopia | Hong Kong | 1 | All Maps","name_short":"hgk-1","host":"hgk-1.hk.uncletopia.com","port":27015,"enabled":true,"region":"asia","cc":"hk","latitude":22.302711,"longitude":114.177216,"reserved":0,"last_update":"0001-01-01T00:00:00Z","name_a2s":"Uncletopia | Hong Kong | 1 | All Maps","protocol":17,"map":"koth_lakeside_final","folder":"tf","game":"Team Fortress","app_id":440,"player_count":0,"max_players":24,"Bots":0,"server_type":"Dedicated","server_os":"Linux","password":true,"vac":true,"version":"7757534","steam_id":85568392924494504,"keywords":["cp","nocrits","nodmgspread","uncletopia"],"game_id":440,"stv_port":27016,"stv_name":"Uncletopia | Hong Kong | 1 | All Maps | STV","players":null},{"server_id":1,"name":"Uncletopia | Los Angeles | 1 | All Maps","name_short":"lax-1","host":"lax-1.us.uncletopia.com","port":27015,"enabled":true,"region":"us-west","cc":"us","latitude":33.94279,"longitude":-118.41004,"reserved":0,"last_update":"0001-01-01T00:00:00Z","name_a2s":"Uncletopia | Los Angeles | 1 | All Maps","protocol":17,"map":"koth_lakeside_final","folder":"tf","game":"Team Fortress","app_id":440,"player_count":0,"max_players":24,"Bots":0,"server_type":"Dedicated","server_os":"Linux","password":true,"vac":true,"version":"7757534","steam_id":85568392924469991,"keywords":["cp","nocrits","nodmgspread","uncletopia"],"game_id":440,"stv_port":27016,"stv_name":"Uncletopia | Los Angeles | 1 | All Maps | STV","players":null},{"server_id":112,"name":"Uncletopia | Los Angeles | 2 | All Maps","name_short":"lax-2","host":"lax-1.us.uncletopia.com","port":27025,"enabled":true,"region":"us-west","cc":"us","latitude":33.94279,"longitude":-118.41004,"reserved":0,"last_update":"0001-01-01T00:00:00Z","name_a2s":"Uncletopia | Los Angeles | 2 | All Maps","protocol":17,"map":"pl_barnblitz","folder":"tf","game":"Team Fortress","app_id":440,"player_count":24,"max_players":24,"Bots":0,"server_type":"Dedicated","server_os":"Linux","password":true,"vac":true,"version":"7757534","steam_id":85568392924469992,"keywords":["nocrits","nodmgspread","payload","uncletopia"],"game_id":440,"stv_port":27026,"stv_name":"Uncletopia | Los Angeles | 2 | All Maps | STV","players":[{"user_id":105,"name":"Marc G","steam_id":76561198062650363,"connected_time":3535000000000,"state":"active","ping":67},{"user_id":148,"name":"roach","steam_id":76561198354811369,"connected_time":421000000000,"state":"active","ping":48},{"user_id":147,"name":"Establish Dominance","steam_id":76561197994706942,"connected_time":498000000000,"state":"active","ping":44},{"user_id":144,"name":"Dark Lord","steam_id":76561198044199150,"connected_time":1165000000000,"state":"active","ping":128},{"user_id":152,"name":"PyroToaster","steam_id":76561198053057346,"connected_time":3000000000,"state":"spawning","ping":114},{"user_id":143,"name":"P.I.Staker","steam_id":76561198087096559,"connected_time":1203000000000,"state":"active","ping":70},{"user_id":151,"name":"bigninji","steam_id":76561199479630499,"connected_time":30000000000,"state":"active","ping":65},{"user_id":145,"name":"✪ Y V E S","steam_id":76561198299479796,"connected_time":1008000000000,"state":"active","ping":40},{"user_id":136,"name":"Grandpa 1MinecraftEmpire","steam_id":76561198069046338,"connected_time":1306000000000,"state":"active","ping":77},{"user_id":58,"name":"canakblasteran","steam_id":76561199472518822,"connected_time":4496000000000,"state":"active","ping":66},{"user_id":137,"name":"amaz","steam_id":76561198386233160,"connected_time":1269000000000,"state":"active","ping":88},{"user_id":130,"name":"Mickmissión","steam_id":76561199133527421,"connected_time":1494000000000,"state":"active","ping":60},{"user_id":138,"name":"Pudsla","steam_id":76561198258974036,"connected_time":1265000000000,"state":"active","ping":58},{"user_id":139,"name":"R-Bison Loyalist","steam_id":76561198032259680,"connected_time":1256000000000,"state":"active","ping":112},{"user_id":46,"name":"Drive-By-Fish-Guy","steam_id":76561198105513652,"connected_time":5681000000000,"state":"active","ping":55},{"user_id":73,"name":"andyiscolorless","steam_id":76561199239870921,"connected_time":4297000000000,"state":"active","ping":171},{"user_id":129,"name":"FireFighter_Jeffery","steam_id":76561198070823022,"connected_time":1608000000000,"state":"active","ping":67},{"user_id":128,"name":"L","steam_id":76561198046074220,"connected_time":1778000000000,"state":"active","ping":39},{"user_id":117,"name":"A Shiny Meat Bicycle","steam_id":76561198358757709,"connected_time":2917000000000,"state":"active","ping":124},{"user_id":146,"name":"[El Fail] MR.BadassMCLee","steam_id":76561198043787818,"connected_time":1005000000000,"state":"active","ping":62},{"user_id":141,"name":"Adawnby","steam_id":76561198103057295,"connected_time":1237000000000,"state":"active","ping":77},{"user_id":142,"name":"Biggie Grug","steam_id":76561198042998887,"connected_time":1235000000000,"state":"active","ping":91},{"user_id":150,"name":"The Caretaker","steam_id":76561198125241411,"connected_time":110000000000,"state":"active","ping":62},{"user_id":83,"name":"demomanfan2008","steam_id":76561198077030486,"connected_time":4083000000000,"state":"active","ping":61}]},{"server_id":324,"name":"Uncletopia | Los Angeles | 3 | All Maps","name_short":"lax-3","host":"lax-1.us.uncletopia.com","port":27035,"enabled":true,"region":"us-west","cc":"us","latitude":33.94279,"longitude":-118.41004,"reserved":0,"last_update":"0001-01-01T00:00:00Z","name_a2s":"Uncletopia | Los Angeles | 3 | All Maps","protocol":17,"map":"pl_barnblitz","folder":"tf","game":"Team Fortress","app_id":440,"player_count":0,"max_players":24,"Bots":0,"server_type":"Dedicated","server_os":"Linux","password":true,"vac":true,"version":"7757534","steam_id":85568392924510198,"keywords":["nocrits","nodmgspread","payload","uncletopia"],"game_id":440,"stv_port":27036,"stv_name":"Uncletopia | Los Angeles | 3 | All Maps | STV","players":null},{"server_id":25,"name":"Uncletopia | Los Angeles | 4 | Stopwatch Beta","name_short":"lax-4","host":"lax-1.us.uncletopia.com","port":27045,"enabled":true,"region":"us-west","cc":"us","latitude":33.94279,"longitude":-118.41004,"reserved":0,"last_update":"0001-01-01T00:00:00Z","name_a2s":"Uncletopia | Los Angeles | 4 | Stopwatch Beta","protocol":17,"map":"pl_swiftwater_final1","folder":"tf","game":"Team Fortress","app_id":440,"player_count":0,"max_players":24,"Bots":0,"server_type":"Dedicated","server_os":"Linux","password":true,"vac":true,"version":"7757534","steam_id":85568392924510199,"keywords":["nocrits","nodmgspread","payload","uncletopia"],"game_id":440,"stv_port":27046,"stv_name":"Uncletopia | Los Angeles | 4 | Stopwatch Beta | STV","players":null},{"server_id":11,"name":"Uncletopia | London | 1 | All Maps","name_short":"lon-1","host":"lon-1.uk.uncletopia.com","port":27015,"enabled":true,"region":"eu","cc":"gb","latitude":51.509865,"longitude":-0.118092,"reserved":0,"last_update":"0001-01-01T00:00:00Z","name_a2s":"Uncletopia | London | 1 | All Maps","protocol":17,"map":"pl_barnblitz","folder":"tf","game":"Team Fortress","app_id":440,"player_count":24,"max_players":24,"Bots":0,"server_type":"Dedicated","server_os":"Linux","password":true,"vac":true,"version":"7757534","steam_id":85568392924367362,"keywords":["nocrits","nodmgspread","payload","uncletopia"],"game_id":440,"stv_port":27016,"stv_name":"Uncletopia | London | 1 | All Maps | STV","players":[{"user_id":658,"name":"quentu-","steam_id":76561198087457220,"connected_time":2151000000000,"state":"active","ping":80},{"user_id":672,"name":"aether","steam_id":76561198178293861,"connected_time":1257000000000,"state":"active","ping":148},{"user_id":660,"name":"Mr. Mietsch","steam_id":76561198077516818,"connected_time":2055000000000,"state":"active","ping":57},{"user_id":681,"name":"jawA","steam_id":76561198070341774,"connected_time":797000000000,"state":"active","ping":87},{"user_id":669,"name":"Son Goku","steam_id":76561199383437138,"connected_time":1501000000000,"state":"active","ping":121},{"user_id":646,"name":"Joe","steam_id":76561197975480605,"connected_time":3110000000000,"state":"active","ping":43},{"user_id":686,"name":"MrChooChooGuy","steam_id":76561199123376340,"connected_time":442000000000,"state":"active","ping":74},{"user_id":693,"name":"Jenna Ortega Lover #32","steam_id":76561198143221900,"connected_time":125000000000,"state":"active","ping":124},{"user_id":689,"name":"Little Gremlin","steam_id":76561199017872113,"connected_time":374000000000,"state":"active","ping":65},{"user_id":667,"name":"Explosive Poptart","steam_id":76561198023918830,"connected_time":1868000000000,"state":"active","ping":45},{"user_id":675,"name":"Joy","steam_id":76561198155314925,"connected_time":1168000000000,"state":"active","ping":56},{"user_id":682,"name":"MR CrustyBacon","steam_id":76561198140442055,"connected_time":637000000000,"state":"active","ping":53},{"user_id":696,"name":"cherry coal","steam_id":76561198822725169,"connected_time":102000000000,"state":"active","ping":53},{"user_id":692,"name":"dec","steam_id":76561198009660168,"connected_time":217000000000,"state":"active","ping":49},{"user_id":690,"name":"no1-","steam_id":76561198067524060,"connected_time":288000000000,"state":"active","ping":83},{"user_id":694,"name":"LOBZIK","steam_id":76561198114830120,"connected_time":119000000000,"state":"active","ping":77},{"user_id":676,"name":"Night Fury","steam_id":76561197995207032,"connected_time":988000000000,"state":"active","ping":84},{"user_id":688,"name":"LarsInABox","steam_id":76561198028329262,"connected_time":430000000000,"state":"active","ping":72},{"user_id":634,"name":"Cheers Mate!","steam_id":76561198265192382,"connected_time":4803000000000,"state":"active","ping":68},{"user_id":664,"name":"Puro ♥","steam_id":76561198039016765,"connected_time":1939000000000,"state":"active","ping":98},{"user_id":684,"name":"Brain Tumor","steam_id":76561198805526881,"connected_time":528000000000,"state":"active","ping":146},{"user_id":677,"name":"leminsc8","steam_id":76561198825084995,"connected_time":959000000000,"state":"active","ping":46},{"user_id":695,"name":"Meddler","steam_id":76561198033001402,"connected_time":113000000000,"state":"active","ping":45},{"user_id":639,"name":"Stańczyk","steam_id":76561197998906563,"connected_time":4132000000000,"state":"active","ping":37}]},{"server_id":114,"name":"Uncletopia | London | 2 | All Maps","name_short":"lon-2","host":"lon-1.uk.uncletopia.com","port":27025,"enabled":true,"region":"eu","cc":"gb","latitude":51.509865,"longitude":-0.118092,"reserved":0,"last_update":"0001-01-01T00:00:00Z","name_a2s":"Uncletopia | London | 2 | All Maps","protocol":17,"map":"pl_swiftwater_final1","folder":"tf","game":"Team Fortress","app_id":440,"player_count":24,"max_players":24,"Bots":0,"server_type":"Dedicated","server_os":"Linux","password":true,"vac":true,"version":"7757534","steam_id":85568392924470941,"keywords":["nocrits","nodmgspread","payload","uncletopia"],"game_id":440,"stv_port":27026,"stv_name":"Uncletopia | London | 2 | All Maps | STV","players":[{"user_id":576,"name":"Drac","steam_id":76561198031636019,"connected_time":37000000000,"state":"active","ping":51},{"user_id":558,"name":"Terra","steam_id":76561198074482461,"connected_time":978000000000,"state":"active","ping":102},{"user_id":497,"name":"Pogmanson","steam_id":76561198919953445,"connected_time":4713000000000,"state":"active","ping":42},{"user_id":563,"name":"meriones","steam_id":76561198034234373,"connected_time":738000000000,"state":"active","ping":44},{"user_id":571,"name":"marco / s /","steam_id":76561198300120382,"connected_time":171000000000,"state":"active","ping":59},{"user_id":561,"name":"professional car consumer","steam_id":76561198977420882,"connected_time":882000000000,"state":"active","ping":39},{"user_id":562,"name":"Roachy","steam_id":76561198004508448,"connected_time":876000000000,"state":"active","ping":31},{"user_id":513,"name":"Shork","steam_id":76561198130195469,"connected_time":3603000000000,"state":"active","ping":84},{"user_id":540,"name":"Providence","steam_id":76561198003920270,"connected_time":1640000000000,"state":"active","ping":77},{"user_id":489,"name":"Een schaap zonder slaap","steam_id":76561198084808410,"connected_time":5667000000000,"state":"active","ping":55},{"user_id":518,"name":"Pershing[GER]","steam_id":76561197970330818,"connected_time":3365000000000,"state":"active","ping":67},{"user_id":572,"name":"Bumblebee","steam_id":76561198033551105,"connected_time":165000000000,"state":"active","ping":74},{"user_id":547,"name":"Erebus","steam_id":76561199061956673,"connected_time":1337000000000,"state":"active","ping":148},{"user_id":570,"name":"Enforcer02","steam_id":76561197966045944,"connected_time":189000000000,"state":"active","ping":60},{"user_id":548,"name":"B@yka","steam_id":76561198986736592,"connected_time":1326000000000,"state":"active","ping":65},{"user_id":470,"name":"wide appreciator","steam_id":76561198083286511,"connected_time":6761000000000,"state":"active","ping":35},{"user_id":565,"name":"Kolargole","steam_id":76561198159322070,"connected_time":375000000000,"state":"active","ping":57},{"user_id":496,"name":"Spinyapickle","steam_id":76561198086653667,"connected_time":5118000000000,"state":"active","ping":57},{"user_id":512,"name":"madman hesus","steam_id":76561198159702599,"connected_time":3729000000000,"state":"active","ping":84},{"user_id":575,"name":"Taijny","steam_id":76561198200178861,"connected_time":157000000000,"state":"active","ping":83},{"user_id":560,"name":"ugly","steam_id":76561199050412617,"connected_time":895000000000,"state":"active","ping":112},{"user_id":574,"name":"Luuk","steam_id":76561198088266026,"connected_time":162000000000,"state":"active","ping":44},{"user_id":550,"name":"cl_skinnyboi 1","steam_id":76561198042864708,"connected_time":1234000000000,"state":"active","ping":47},{"user_id":564,"name":"Trooper646","steam_id":76561198321421091,"connected_time":378000000000,"state":"active","ping":71}]},{"server_id":320,"name":"Uncletopia | London | 3 | All Maps","name_short":"lon-3","host":"lon-1.uk.uncletopia.com","port":27035,"enabled":true,"region":"eu","cc":"gb","latitude":51.509865,"longitude":-0.118092,"reserved":0,"last_update":"0001-01-01T00:00:00Z","name_a2s":"Uncletopia | London | 3 | All Maps","protocol":17,"map":"pl_frontier_final","folder":"tf","game":"Team Fortress","app_id":440,"player_count":23,"max_players":24,"Bots":0,"server_type":"Dedicated","server_os":"Linux","password":true,"vac":true,"version":"7757534","steam_id":85568392924510192,"keywords":["nocrits","nodmgspread","payload","uncletopia"],"game_id":440,"stv_port":27036,"stv_name":"Uncletopia | London | 3 | All Maps | STV","players":[{"user_id":613,"name":"Flying skyhigh","steam_id":76561198372971096,"connected_time":780000000000,"state":"active","ping":82},{"user_id":573,"name":"DocTwoEight","steam_id":76561198153488940,"connected_time":3310000000000,"state":"active","ping":68},{"user_id":605,"name":"Lethal","steam_id":76561198452042648,"connected_time":1786000000000,"state":"active","ping":70},{"user_id":591,"name":"Kowakum","steam_id":76561197998125950,"connected_time":2399000000000,"state":"active","ping":114},{"user_id":609,"name":"holykyckling","steam_id":76561198040661615,"connected_time":908000000000,"state":"active","ping":77},{"user_id":600,"name":"AWP Bodyshot :) ❤","steam_id":76561198029928533,"connected_time":2091000000000,"state":"active","ping":54},{"user_id":617,"name":"Soapy Bubbles","steam_id":76561198111652667,"connected_time":703000000000,"state":"active","ping":52},{"user_id":629,"name":"etc","steam_id":76561197998394797,"connected_time":39000000000,"state":"active","ping":55},{"user_id":593,"name":"Dr.Cranium","steam_id":76561197992726926,"connected_time":2372000000000,"state":"active","ping":113},{"user_id":602,"name":"Nag","steam_id":76561197970488206,"connected_time":1820000000000,"state":"active","ping":70},{"user_id":610,"name":"_Starlight_","steam_id":76561197993885738,"connected_time":908000000000,"state":"active","ping":82},{"user_id":597,"name":"bachusa1657","steam_id":76561198202175911,"connected_time":2310000000000,"state":"active","ping":78},{"user_id":614,"name":"Plastik","steam_id":76561198040285943,"connected_time":779000000000,"state":"active","ping":61},{"user_id":612,"name":"bassya","steam_id":76561198849524221,"connected_time":895000000000,"state":"active","ping":79},{"user_id":578,"name":"BELADIT","steam_id":76561198011911501,"connected_time":3145000000000,"state":"active","ping":75},{"user_id":596,"name":"Voks_","steam_id":76561198159687785,"connected_time":2340000000000,"state":"active","ping":61},{"user_id":625,"name":"BenteBent","steam_id":76561198297920637,"connected_time":223000000000,"state":"active","ping":27},{"user_id":627,"name":"Oxy:*","steam_id":76561198275120049,"connected_time":146000000000,"state":"active","ping":72},{"user_id":589,"name":"Amazon Prime Pipe Bomb","steam_id":76561198879107565,"connected_time":2478000000000,"state":"active","ping":61},{"user_id":628,"name":"{dogs}კობა77koba77[ASS]","steam_id":76561198154218182,"connected_time":138000000000,"state":"active","ping":43},{"user_id":582,"name":"Dr. Funkenstein","steam_id":76561197977816210,"connected_time":3033000000000,"state":"active","ping":49},{"user_id":585,"name":"THEJamiboi","steam_id":76561198034696965,"connected_time":2691000000000,"state":"active","ping":62}]},{"server_id":321,"name":"Uncletopia | London | 4 | All Maps","name_short":"lon-4","host":"lon-1.uk.uncletopia.com","port":27045,"enabled":true,"region":"eu","cc":"gb","latitude":51.509865,"longitude":-0.118092,"reserved":0,"last_update":"0001-01-01T00:00:00Z","name_a2s":"Uncletopia | London | 4 | All Maps","protocol":17,"map":"pl_barnblitz","folder":"tf","game":"Team Fortress","app_id":440,"player_count":24,"max_players":24,"Bots":0,"server_type":"Dedicated","server_os":"Linux","password":true,"vac":true,"version":"7757534","steam_id":85568392924510193,"keywords":["nocrits","nodmgspread","payload","uncletopia"],"game_id":440,"stv_port":27046,"stv_name":"Uncletopia | London | 4 | All Maps | STV","players":[{"user_id":77,"name":"finest fucker in dc","steam_id":76561199042470246,"connected_time":3814000000000,"state":"active","ping":59},{"user_id":100,"name":"Xpload","steam_id":76561198188505089,"connected_time":2085000000000,"state":"active","ping":33},{"user_id":129,"name":"ultralex","steam_id":76561198024910383,"connected_time":438000000000,"state":"active","ping":55},{"user_id":90,"name":"Pingutaro","steam_id":76561198112803718,"connected_time":2463000000000,"state":"active","ping":51},{"user_id":78,"name":"NitPig","steam_id":76561198212991935,"connected_time":3623000000000,"state":"active","ping":97},{"user_id":91,"name":"Muffin_Punk_Fighter #SaveTF2","steam_id":76561198125869659,"connected_time":2454000000000,"state":"active","ping":87},{"user_id":94,"name":"Explosive_kink","steam_id":76561198998702838,"connected_time":2352000000000,"state":"active","ping":56},{"user_id":132,"name":"slowdown heavy","steam_id":76561198025916703,"connected_time":128000000000,"state":"active","ping":68},{"user_id":121,"name":"Alarmed Felix","steam_id":76561198167208311,"connected_time":690000000000,"state":"active","ping":70},{"user_id":123,"name":"Pruff","steam_id":76561198377084417,"connected_time":652000000000,"state":"active","ping":74},{"user_id":98,"name":"Fatman","steam_id":76561197992925209,"connected_time":2133000000000,"state":"active","ping":59},{"user_id":114,"name":"Möppy #savetf2","steam_id":76561198020555530,"connected_time":1315000000000,"state":"active","ping":33},{"user_id":113,"name":"london server terrorist","steam_id":76561198256097786,"connected_time":1383000000000,"state":"active","ping":49},{"user_id":99,"name":"DooWooD","steam_id":76561198335810106,"connected_time":2101000000000,"state":"active","ping":77},{"user_id":101,"name":"Stern","steam_id":76561198065421312,"connected_time":2084000000000,"state":"active","ping":37},{"user_id":102,"name":"demolition2n3","steam_id":76561198356060442,"connected_time":2068000000000,"state":"active","ping":43},{"user_id":131,"name":"rummy","steam_id":76561197997573379,"connected_time":324000000000,"state":"active","ping":58},{"user_id":119,"name":"Five Finger Discount","steam_id":76561197994556857,"connected_time":831000000000,"state":"active","ping":66},{"user_id":128,"name":"AshieTheVixen","steam_id":76561199061018034,"connected_time":605000000000,"state":"active","ping":129},{"user_id":105,"name":"spronkus kronkus","steam_id":76561198260984512,"connected_time":2001000000000,"state":"active","ping":36},{"user_id":125,"name":"Cosmetic brain","steam_id":76561198055936410,"connected_time":646000000000,"state":"active","ping":84},{"user_id":130,"name":"Seaney","steam_id":76561198059138839,"connected_time":404000000000,"state":"active","ping":69},{"user_id":75,"name":"gagalak","steam_id":76561198089979108,"connected_time":3944000000000,"state":"active","ping":105},{"user_id":126,"name":"MR.CRAB","steam_id":76561198329833659,"connected_time":632000000000,"state":"active","ping":77}]},{"server_id":21,"name":"Uncletopia | London | 5 | All Maps","name_short":"lon-5","host":"lon-1.uk.uncletopia.com","port":27055,"enabled":true,"region":"eu","cc":"gb","latitude":51.509865,"longitude":-0.118092,"reserved":0,"last_update":"0001-01-01T00:00:00Z","name_a2s":"Uncletopia | London | 5 | All Maps","protocol":17,"map":"pl_borneo","folder":"tf","game":"Team Fortress","app_id":440,"player_count":24,"max_players":24,"Bots":0,"server_type":"Dedicated","server_os":"Linux","password":true,"vac":true,"version":"7757534","steam_id":85568392924742829,"keywords":["nocrits","nodmgspread","payload","uncletopia"],"game_id":440,"stv_port":27056,"stv_name":"Uncletopia | London | 5 | All Maps | STV","players":[{"user_id":448,"name":"Lurid","steam_id":76561198313976365,"connected_time":329000000000,"state":"active","ping":51},{"user_id":418,"name":"CORGI.EXE","steam_id":76561198077093432,"connected_time":1832000000000,"state":"active","ping":122},{"user_id":432,"name":"Fox","steam_id":76561198052541711,"connected_time":1281000000000,"state":"active","ping":61},{"user_id":409,"name":"Reprobus","steam_id":76561198332243756,"connected_time":2140000000000,"state":"active","ping":67},{"user_id":391,"name":"aGryphoN","steam_id":76561198245175308,"connected_time":2850000000000,"state":"active","ping":47},{"user_id":414,"name":"˹Fate's·Marionette˼","steam_id":76561198034197381,"connected_time":1987000000000,"state":"active","ping":55},{"user_id":447,"name":"Nap","steam_id":76561198189679321,"connected_time":349000000000,"state":"active","ping":62},{"user_id":445,"name":"Cuthbert","steam_id":76561198204649481,"connected_time":477000000000,"state":"active","ping":110},{"user_id":359,"name":"AftiksPL #femboygaming","steam_id":76561198875182686,"connected_time":4956000000000,"state":"active","ping":104},{"user_id":441,"name":"b ull","steam_id":76561199233979726,"connected_time":684000000000,"state":"active","ping":84},{"user_id":416,"name":"tone","steam_id":76561197975301462,"connected_time":1876000000000,"state":"active","ping":60},{"user_id":436,"name":"Muhtarius","steam_id":76561198127342553,"connected_time":1145000000000,"state":"active","ping":60},{"user_id":433,"name":"Fofenho","steam_id":76561198436817109,"connected_time":1218000000000,"state":"active","ping":47},{"user_id":434,"name":"Turnip","steam_id":76561198066309458,"connected_time":1181000000000,"state":"active","ping":138},{"user_id":387,"name":"u snooze u loose","steam_id":76561198040690770,"connected_time":3082000000000,"state":"active","ping":57},{"user_id":435,"name":"GnomeCow","steam_id":76561198374041040,"connected_time":1167000000000,"state":"active","ping":157},{"user_id":430,"name":"TheWerelizard","steam_id":76561198060638325,"connected_time":1353000000000,"state":"active","ping":49},{"user_id":437,"name":"Jebe ti?","steam_id":76561198143688700,"connected_time":1058000000000,"state":"active","ping":71},{"user_id":438,"name":"Koi-Koi","steam_id":76561198045527771,"connected_time":960000000000,"state":"active","ping":69},{"user_id":446,"name":"slightly drunk","steam_id":76561199184873889,"connected_time":475000000000,"state":"active","ping":69},{"user_id":424,"name":"giclure :;","steam_id":76561197986362828,"connected_time":1714000000000,"state":"active","ping":56},{"user_id":428,"name":"I sell exotic parrots","steam_id":76561199192434258,"connected_time":1484000000000,"state":"active","ping":91},{"user_id":427,"name":"Cpt_frost","steam_id":76561198218034817,"connected_time":1503000000000,"state":"active","ping":54},{"user_id":444,"name":"keri","steam_id":76561199066513442,"connected_time":563000000000,"state":"active","ping":70}]},{"server_id":22,"name":"Uncletopia | London | 6 | All Maps","name_short":"lon-6","host":"lon-1.uk.uncletopia.com","port":27065,"enabled":true,"region":"eu","cc":"gb","latitude":51.509865,"longitude":-0.118092,"reserved":0,"last_update":"0001-01-01T00:00:00Z","name_a2s":"Uncletopia | London | 6 | All Maps","protocol":17,"map":"koth_cascade","folder":"tf","game":"Team Fortress","app_id":440,"player_count":0,"max_players":24,"Bots":0,"server_type":"Dedicated","server_os":"Linux","password":true,"vac":true,"version":"7757534","steam_id":85568392924742830,"keywords":["cp","nocrits","nodmgspread","uncletopia"],"game_id":440,"stv_port":27066,"stv_name":"Uncletopia | London | 6 | All Maps | STV","players":null},{"server_id":40,"name":"Uncletopia | London | 7 | No Payload","name_short":"lon-7","host":"lon-1.uk.uncletopia.com","port":27075,"enabled":true,"region":"eu","cc":"gb","latitude":51.509865,"longitude":-0.118092,"reserved":0,"last_update":"0001-01-01T00:00:00Z","name_a2s":"Uncletopia | London | 7 | No Payload","protocol":17,"map":"koth_lakeside_final","folder":"tf","game":"Team Fortress","app_id":440,"player_count":23,"max_players":24,"Bots":0,"server_type":"Dedicated","server_os":"Linux","password":true,"vac":true,"version":"7757534","steam_id":85568392924964314,"keywords":["cp","nocrits","nodmgspread","uncletopia"],"game_id":440,"stv_port":27076,"stv_name":"Uncletopia | London | 7 | No Payload | STV","players":[{"user_id":172,"name":"awsomemcawsome","steam_id":76561198223232604,"connected_time":586000000000,"state":"active","ping":67},{"user_id":186,"name":"dudescore","steam_id":76561199091453555,"connected_time":44000000000,"state":"active","ping":203},{"user_id":177,"name":"Peterproma","steam_id":76561198353352702,"connected_time":420000000000,"state":"active","ping":77},{"user_id":187,"name":"Is She Real?","steam_id":76561198408219286,"connected_time":42000000000,"state":"active","ping":74},{"user_id":146,"name":"theloneflute","steam_id":76561198109316816,"connected_time":1919000000000,"state":"active","ping":130},{"user_id":159,"name":"OutOfDucks","steam_id":76561198166376227,"connected_time":1101000000000,"state":"active","ping":56},{"user_id":147,"name":"reatardhole","steam_id":76561198141217941,"connected_time":1918000000000,"state":"active","ping":141},{"user_id":170,"name":"Garden Freeman","steam_id":76561199073314677,"connected_time":614000000000,"state":"active","ping":79},{"user_id":90,"name":"Fish","steam_id":76561198182278770,"connected_time":5228000000000,"state":"active","ping":82},{"user_id":161,"name":"Petight","steam_id":76561197999438798,"connected_time":1071000000000,"state":"active","ping":43},{"user_id":138,"name":"beanlette","steam_id":76561198079709484,"connected_time":2507000000000,"state":"active","ping":97},{"user_id":165,"name":"Wattoz","steam_id":76561198127779511,"connected_time":1003000000000,"state":"active","ping":53},{"user_id":151,"name":"Dr_Test","steam_id":76561198358915360,"connected_time":1739000000000,"state":"active","ping":61},{"user_id":174,"name":"Sirpiggy","steam_id":76561198294985303,"connected_time":572000000000,"state":"active","ping":157},{"user_id":153,"name":"A stripper","steam_id":76561198034865891,"connected_time":1708000000000,"state":"active","ping":57},{"user_id":171,"name":"Ziy???","steam_id":76561197995765491,"connected_time":598000000000,"state":"active","ping":48},{"user_id":143,"name":"cock wizard","steam_id":76561198045826293,"connected_time":2357000000000,"state":"active","ping":41},{"user_id":155,"name":"they them behind the slaughter","steam_id":76561198057909728,"connected_time":1591000000000,"state":"active","ping":32},{"user_id":173,"name":"d1zitio","steam_id":76561198084056439,"connected_time":580000000000,"state":"active","ping":32},{"user_id":176,"name":"WiZzArD","steam_id":76561198116516935,"connected_time":542000000000,"state":"active","ping":68},{"user_id":178,"name":"Dwapking","steam_id":76561198039583834,"connected_time":388000000000,"state":"active","ping":42},{"user_id":188,"name":"morgan","steam_id":76561198322124999,"connected_time":19000000000,"state":"spawning","ping":182},{"user_id":190,"name":"Hotdog sandvich","steam_id":76561198177185310,"connected_time":0,"state":"spawning","ping":24}]},{"server_id":41,"name":"Uncletopia | London | 8 | Community","name_short":"lon-8","host":"lon-1.uk.uncletopia.com","port":27085,"enabled":true,"region":"eu","cc":"gb","latitude":51.509865,"longitude":-0.118092,"reserved":0,"last_update":"0001-01-01T00:00:00Z","name_a2s":"Uncletopia | London | 8 | Community","protocol":17,"map":"workshop/koth_ashville_final.ugc2130459942","folder":"tf","game":"Team Fortress","app_id":440,"player_count":0,"max_players":24,"Bots":0,"server_type":"Dedicated","server_os":"Linux","password":true,"vac":true,"version":"7757534","steam_id":85568392924964315,"keywords":["cp","nocrits","nodmgspread","uncletopia"],"game_id":440,"stv_port":27086,"stv_name":"Uncletopia | London | 8 | Community | STV","players":null},{"server_id":300,"name":"Uncletopia | Montréal | 1 | All Maps","name_short":"mtl-1","host":"mtl-1.ca.uncletopia.com","port":27015,"enabled":true,"region":"us-east","cc":"ca","latitude":45.50889,"longitude":-73.56167,"reserved":0,"last_update":"0001-01-01T00:00:00Z","name_a2s":"Uncletopia | Montréal | 1 | All Maps","protocol":17,"map":"pl_upward","folder":"tf","game":"Team Fortress","app_id":440,"player_count":22,"max_players":24,"Bots":0,"server_type":"Dedicated","server_os":"Linux","password":true,"vac":true,"version":"7757534","steam_id":85568392924500087,"keywords":["nocrits","nodmgspread","payload","uncletopia"],"game_id":440,"stv_port":27016,"stv_name":"Uncletopia | Montréal | 1 | All Maps | STV","players":[{"user_id":60,"name":"🅜🅔🅔🅚🅢🅣🅔\ufffd\ufffd\ufffd","steam_id":76561197999748343,"connected_time":3940000000000,"state":"spawning","ping":124},{"user_id":112,"name":"you forgot the sauce","steam_id":76561198387016713,"connected_time":787000000000,"state":"spawning","ping":57},{"user_id":89,"name":"cactus eater","steam_id":76561199107499844,"connected_time":2333000000000,"state":"spawning","ping":147},{"user_id":125,"name":"\u003c3Elise\u003c3","steam_id":76561198146435005,"connected_time":42000000000,"state":"spawning","ping":171},{"user_id":73,"name":"Communist Killing Candy Cactus\ufffd","steam_id":76561198074980635,"connected_time":3274000000000,"state":"spawning","ping":166},{"user_id":109,"name":"Hey, It's Me! Goku!","steam_id":76561199103120314,"connected_time":1031000000000,"state":"spawning","ping":140},{"user_id":113,"name":"Rocky","steam_id":76561198048158539,"connected_time":785000000000,"state":"spawning","ping":163},{"user_id":120,"name":"Recursive Gamer","steam_id":76561198042102952,"connected_time":339000000000,"state":"spawning","ping":136},{"user_id":34,"name":"Zoéyyy❤","steam_id":76561198368944263,"connected_time":5805000000000,"state":"spawning","ping":156},{"user_id":127,"name":"Corpse01","steam_id":76561198153671643,"connected_time":38000000000,"state":"spawning","ping":106},{"user_id":108,"name":"shadow6","steam_id":76561197979807910,"connected_time":1097000000000,"state":"spawning","ping":192},{"user_id":92,"name":"Apex60","steam_id":76561198041898090,"connected_time":2087000000000,"state":"spawning","ping":100},{"user_id":103,"name":"Buttons :)","steam_id":76561198139478534,"connected_time":1498000000000,"state":"spawning","ping":108},{"user_id":101,"name":"trepidotractatos","steam_id":76561198815950232,"connected_time":1540000000000,"state":"spawning","ping":76},{"user_id":83,"name":"GanZ","steam_id":76561199378883538,"connected_time":2494000000000,"state":"spawning","ping":70},{"user_id":128,"name":"Problem?","steam_id":76561198875392592,"connected_time":8000000000,"state":"connecting","ping":70},{"user_id":115,"name":"dog","steam_id":76561198090737207,"connected_time":735000000000,"state":"spawning","ping":184},{"user_id":116,"name":"Rickysuper_52","steam_id":76561198067865179,"connected_time":724000000000,"state":"spawning","ping":199},{"user_id":122,"name":"Jeugh","steam_id":76561198073498865,"connected_time":268000000000,"state":"spawning","ping":106},{"user_id":90,"name":"Mecha","steam_id":76561198014927379,"connected_time":2325000000000,"state":"spawning","ping":69},{"user_id":107,"name":"Splnter","steam_id":76561198874186629,"connected_time":1314000000000,"state":"spawning","ping":63},{"user_id":124,"name":"NeoN","steam_id":76561198117608366,"connected_time":248000000000,"state":"spawning","ping":73}]},{"server_id":301,"name":"Uncletopia | Montréal | 2 | All Maps","name_short":"mtl-2","host":"mtl-1.ca.uncletopia.com","port":27025,"enabled":true,"region":"us-east","cc":"ca","latitude":45.50889,"longitude":-73.56167,"reserved":0,"last_update":"0001-01-01T00:00:00Z","name_a2s":"Uncletopia | Montréal | 2 | All Maps","protocol":17,"map":"koth_lakeside_final","folder":"tf","game":"Team Fortress","app_id":440,"player_count":0,"max_players":24,"Bots":0,"server_type":"Dedicated","server_os":"Linux","password":true,"vac":true,"version":"7757534","steam_id":85568392924500088,"keywords":["cp","nocrits","nodmgspread","uncletopia"],"game_id":440,"stv_port":27026,"stv_name":"Uncletopia | Montréal | 2 | All Maps | STV","players":null},{"server_id":302,"name":"Uncletopia | Montréal | 3 | All Maps","name_short":"mtl-3","host":"mtl-1.ca.uncletopia.com","port":27035,"enabled":true,"region":"us-east","cc":"ca","latitude":45.50889,"longitude":-73.56167,"reserved":0,"last_update":"0001-01-01T00:00:00Z","name_a2s":"Uncletopia | Montréal | 3 | All Maps","protocol":17,"map":"pl_badwater","folder":"tf","game":"Team Fortress","app_id":440,"player_count":0,"max_players":24,"Bots":0,"server_type":"Dedicated","server_os":"Linux","password":true,"vac":true,"version":"7757534","steam_id":85568392924500089,"keywords":["nocrits","nodmgspread","payload","uncletopia"],"game_id":440,"stv_port":27036,"stv_name":"Uncletopia | Montréal | 3 | All Maps | STV","players":null},{"server_id":303,"name":"Uncletopia | Montréal | 4 | No Payload","name_short":"mtl-4","host":"mtl-1.ca.uncletopia.com","port":27045,"enabled":true,"region":"us-east","cc":"ca","latitude":45.50889,"longitude":-73.56167,"reserved":0,"last_update":"0001-01-01T00:00:00Z","name_a2s":"Uncletopia | Montréal | 4 | No Payload","protocol":17,"map":"pl_pier","folder":"tf","game":"Team Fortress","app_id":440,"player_count":0,"max_players":24,"Bots":0,"server_type":"Dedicated","server_os":"Linux","password":true,"vac":true,"version":"7757534","steam_id":85568392924500090,"keywords":["nocrits","nodmgspread","payload","uncletopia"],"game_id":440,"stv_port":27046,"stv_name":"Uncletopia | Montréal | 4 | No Payload | STV","players":null},{"server_id":13,"name":"Uncletopia | New York City | 1 | All Maps","name_short":"nyc-1","host":"nyc-1.us.uncletopia.com","port":27015,"enabled":true,"region":"us-east","cc":"us","latitude":40.73061,"longitude":-73.93524,"reserved":0,"last_update":"0001-01-01T00:00:00Z","name_a2s":"Uncletopia | New York City | 1 | All Maps","protocol":17,"map":"plr_hightower","folder":"tf","game":"Team Fortress","app_id":440,"player_count":21,"max_players":24,"Bots":0,"server_type":"Dedicated","server_os":"Linux","password":true,"vac":true,"version":"7757534","steam_id":85568392924469993,"keywords":["nocrits","nodmgspread","payload","uncletopia"],"game_id":440,"stv_port":27016,"stv_name":"Uncletopia | New York City | 1 | All Maps | STV","players":[{"user_id":329,"name":"highmechs","steam_id":76561198013650292,"connected_time":1742000000000,"state":"active","ping":105},{"user_id":330,"name":"Xtra","steam_id":76561198161189579,"connected_time":1729000000000,"state":"active","ping":44},{"user_id":347,"name":"backwoods missile","steam_id":76561199100342013,"connected_time":263000000000,"state":"active","ping":111},{"user_id":354,"name":"Grebnedulgo The Elder","steam_id":76561199123285878,"connected_time":94000000000,"state":"active","ping":67},{"user_id":350,"name":"Willem Dafoe","steam_id":76561198037453253,"connected_time":202000000000,"state":"active","ping":72},{"user_id":282,"name":"MrrPamplemousse","steam_id":76561198072241333,"connected_time":4767000000000,"state":"active","ping":60},{"user_id":339,"name":"h","steam_id":76561198319179446,"connected_time":928000000000,"state":"active","ping":96},{"user_id":306,"name":"Wahooka","steam_id":76561197962240925,"connected_time":3118000000000,"state":"active","ping":44},{"user_id":345,"name":"Worriedinsect","steam_id":76561199291879621,"connected_time":300000000000,"state":"active","ping":47},{"user_id":327,"name":"EpitapH","steam_id":76561198211642559,"connected_time":1810000000000,"state":"active","ping":62},{"user_id":342,"name":"Slondermin","steam_id":76561198320301349,"connected_time":505000000000,"state":"active","ping":65},{"user_id":346,"name":"Porcupine's Revenge!","steam_id":76561199121615234,"connected_time":278000000000,"state":"active","ping":55},{"user_id":328,"name":"thatbedrockblock","steam_id":76561199069286524,"connected_time":1803000000000,"state":"active","ping":128},{"user_id":353,"name":"Biggus Dickus","steam_id":76561198308907799,"connected_time":122000000000,"state":"active","ping":124},{"user_id":323,"name":"mingus dingus the powerful fetu","steam_id":76561198115189870,"connected_time":2034000000000,"state":"active","ping":89},{"user_id":297,"name":"Quantum","steam_id":76561199313767567,"connected_time":3760000000000,"state":"active","ping":97},{"user_id":333,"name":"The Muffin Man","steam_id":76561199088286427,"connected_time":1695000000000,"state":"active","ping":117},{"user_id":309,"name":"MECHANISM MALE","steam_id":76561198855935442,"connected_time":3078000000000,"state":"active","ping":90},{"user_id":334,"name":"NanoBite","steam_id":76561197999426452,"connected_time":1668000000000,"state":"active","ping":107},{"user_id":335,"name":"chris","steam_id":76561198343718879,"connected_time":1647000000000,"state":"active","ping":61},{"user_id":337,"name":"Illuminaughty","steam_id":76561199163662910,"connected_time":1104000000000,"state":"active","ping":86}]},{"server_id":14,"name":"Uncletopia | New York City | 2 | All Maps","name_short":"nyc-2","host":"nyc-1.us.uncletopia.com","port":27025,"enabled":true,"region":"us-east","cc":"us","latitude":40.73061,"longitude":-73.93524,"reserved":0,"last_update":"0001-01-01T00:00:00Z","name_a2s":"Uncletopia | New York City | 2 | All Maps","protocol":17,"map":"pl_upward","folder":"tf","game":"Team Fortress","app_id":440,"player_count":22,"max_players":24,"Bots":0,"server_type":"Dedicated","server_os":"Linux","password":true,"vac":true,"version":"7757534","steam_id":85568392924469994,"keywords":["nocrits","nodmgspread","payload","uncletopia"],"game_id":440,"stv_port":27026,"stv_name":"Uncletopia | New York City | 2 | All Maps | STV","players":[{"user_id":257,"name":"ahotspicelife","steam_id":76561199439263580,"connected_time":2246000000000,"state":"active","ping":68},{"user_id":278,"name":"The Notorious P.U.E.R.","steam_id":76561198046715542,"connected_time":54000000000,"state":"active","ping":58},{"user_id":279,"name":"Olifont","steam_id":76561198141162919,"connected_time":41000000000,"state":"active","ping":68},{"user_id":228,"name":"Queso2469","steam_id":76561197993024580,"connected_time":4062000000000,"state":"active","ping":41},{"user_id":275,"name":"cow fucker","steam_id":76561198260785238,"connected_time":599000000000,"state":"active","ping":114},{"user_id":244,"name":"glockinmyrawrie","steam_id":76561198986849199,"connected_time":2430000000000,"state":"active","ping":135},{"user_id":248,"name":"BiggSlorp","steam_id":76561199130776156,"connected_time":2355000000000,"state":"active","ping":53},{"user_id":263,"name":"Arti","steam_id":76561198062478505,"connected_time":1548000000000,"state":"active","ping":83},{"user_id":280,"name":"*","steam_id":76561198173047169,"connected_time":28000000000,"state":"active","ping":42},{"user_id":273,"name":"Medic Pocket Girlfriend","steam_id":76561198378587138,"connected_time":750000000000,"state":"active","ping":106},{"user_id":250,"name":"quint","steam_id":76561198046797995,"connected_time":2339000000000,"state":"active","ping":77},{"user_id":270,"name":"Gamer Girl Meth","steam_id":76561199276295259,"connected_time":1100000000000,"state":"active","ping":71},{"user_id":267,"name":"The Greendale Human Beings","steam_id":76561198055433422,"connected_time":1255000000000,"state":"active","ping":63},{"user_id":180,"name":"the taxi driver","steam_id":76561198830243167,"connected_time":9061000000000,"state":"active","ping":62},{"user_id":156,"name":"Green Icicle","steam_id":76561198069624529,"connected_time":10828000000000,"state":"active","ping":115},{"user_id":264,"name":"Atlas","steam_id":76561198127975050,"connected_time":1420000000000,"state":"active","ping":64},{"user_id":221,"name":"cosmonaut","steam_id":76561198116821551,"connected_time":5199000000000,"state":"active","ping":66},{"user_id":260,"name":"Rockcrusher","steam_id":76561199012666353,"connected_time":2013000000000,"state":"active","ping":69},{"user_id":253,"name":"bain dmg","steam_id":76561198102681457,"connected_time":2315000000000,"state":"active","ping":75},{"user_id":271,"name":"88","steam_id":76561198017539604,"connected_time":1096000000000,"state":"active","ping":76},{"user_id":265,"name":"0","steam_id":76561198046055673,"connected_time":1396000000000,"state":"active","ping":58},{"user_id":277,"name":"bopy","steam_id":76561198845789946,"connected_time":250000000000,"state":"active","ping":102}]},{"server_id":15,"name":"Uncletopia | New York City | 3 | Stopwatch Beta","name_short":"nyc-3","host":"nyc-1.us.uncletopia.com","port":27035,"enabled":true,"region":"us-east","cc":"us","latitude":40.73061,"longitude":-73.93524,"reserved":0,"last_update":"0001-01-01T00:00:00Z","name_a2s":"Uncletopia | New York City | 3 | Stopwatch Beta","protocol":17,"map":"pl_upward","folder":"tf","game":"Team Fortress","app_id":440,"player_count":0,"max_players":24,"Bots":0,"server_type":"Dedicated","server_os":"Linux","password":true,"vac":true,"version":"7757534","steam_id":85568392924742820,"keywords":["nocrits","nodmgspread","payload","uncletopia"],"game_id":440,"stv_port":27036,"stv_name":"Uncletopia | New York City | 3 | Stopwatch Beta | STV","players":null},{"server_id":16,"name":"Uncletopia | New York City | 4 | Community","name_short":"nyc-4","host":"nyc-1.us.uncletopia.com","port":27045,"enabled":true,"region":"us-east","cc":"us","latitude":40.73061,"longitude":-73.93524,"reserved":0,"last_update":"0001-01-01T00:00:00Z","name_a2s":"Uncletopia | New York City | 4 | Community","protocol":17,"map":"workshop/pl_divulgence_b4b.ugc2884808746","folder":"tf","game":"Team Fortress","app_id":440,"player_count":0,"max_players":24,"Bots":0,"server_type":"Dedicated","server_os":"Linux","password":true,"vac":true,"version":"7757534","steam_id":85568392924742821,"keywords":["nocrits","nodmgspread","payload","uncletopia"],"game_id":440,"stv_port":27046,"stv_name":"Uncletopia | New York City | 4 | Community | STV","players":null},{"server_id":142,"name":"Uncletopia | São Paulo | 1 | All Maps","name_short":"sao-1","host":"sao-1.br.uncletopia.com","port":27015,"enabled":true,"region":"sa","cc":"br","latitude":-23.533773,"longitude":-46.62529,"reserved":0,"last_update":"0001-01-01T00:00:00Z","name_a2s":"Uncletopia | São Paulo | 1 | All Maps","protocol":17,"map":"koth_viaduct","folder":"tf","game":"Team Fortress","app_id":440,"player_count":0,"max_players":24,"Bots":0,"server_type":"Dedicated","server_os":"Linux","password":true,"vac":true,"version":"7757534","steam_id":85568392924469996,"keywords":["cp","nocrits","nodmgspread","uncletopia"],"game_id":440,"stv_port":27016,"stv_name":"Uncletopia | São Paulo | 1 | All Maps | STV","players":null},{"server_id":143,"name":"Uncletopia | São Paulo | 2 | All Maps","name_short":"sao-2","host":"sao-2.br.uncletopia.com","port":27015,"enabled":true,"region":"sa","cc":"br","latitude":-23.533773,"longitude":-46.62529,"reserved":0,"last_update":"0001-01-01T00:00:00Z","name_a2s":"Uncletopia | São Paulo | 2 | All Maps","protocol":17,"map":"pl_upward","folder":"tf","game":"Team Fortress","app_id":440,"player_count":1,"max_players":24,"Bots":0,"server_type":"Dedicated","server_os":"Linux","password":true,"vac":true,"version":"7757534","steam_id":85568392924485349,"keywords":["nocrits","nodmgspread","payload","uncletopia"],"game_id":440,"stv_port":27016,"stv_name":"Uncletopia | São Paulo | 2 | All Maps | STV","players":[{"user_id":75,"name":"Pyro dos Bandeclay","steam_id":76561199430393909,"connected_time":550000000000,"state":"active","ping":38}]},{"server_id":7,"name":"Uncletopia | Seattle | 1 | All Maps","name_short":"sea-1","host":"sea-1.us.uncletopia.com","port":27015,"enabled":true,"region":"us-west","cc":"us","latitude":47.608013,"longitude":-122.33517,"reserved":0,"last_update":"0001-01-01T00:00:00Z","name_a2s":"Uncletopia | Seattle | 1 | All Maps","protocol":17,"map":"pl_upward","folder":"tf","game":"Team Fortress","app_id":440,"player_count":24,"max_players":24,"Bots":0,"server_type":"Dedicated","server_os":"Linux","password":true,"vac":true,"version":"7757534","steam_id":85568392924469997,"keywords":["nocrits","nodmgspread","payload","uncletopia"],"game_id":440,"stv_port":27016,"stv_name":"Uncletopia | Seattle | 1 | All Maps | STV","players":[{"user_id":259,"name":"NEBULA","steam_id":76561198086878595,"connected_time":1337000000000,"state":"active","ping":70},{"user_id":262,"name":"lavender","steam_id":76561199069518286,"connected_time":677000000000,"state":"active","ping":78},{"user_id":219,"name":"HiFivr","steam_id":76561198285190162,"connected_time":6033000000000,"state":"active","ping":72},{"user_id":239,"name":"soda","steam_id":76561198105924953,"connected_time":3450000000000,"state":"active","ping":77},{"user_id":211,"name":"jayeskae","steam_id":76561198144220801,"connected_time":6731000000000,"state":"active","ping":50},{"user_id":255,"name":"Apricot Annihilator","steam_id":76561198415401351,"connected_time":1903000000000,"state":"active","ping":71},{"user_id":267,"name":"Ducks","steam_id":76561198130038345,"connected_time":512000000000,"state":"active","ping":67},{"user_id":270,"name":"Themasterman75","steam_id":76561199385573293,"connected_time":73000000000,"state":"active","ping":73},{"user_id":240,"name":"Corpe","steam_id":76561198054490549,"connected_time":3449000000000,"state":"active","ping":56},{"user_id":234,"name":"Chiki","steam_id":76561198063590320,"connected_time":3915000000000,"state":"active","ping":116},{"user_id":264,"name":"momus","steam_id":76561198966979196,"connected_time":625000000000,"state":"active","ping":76},{"user_id":215,"name":"HaphazardHazel","steam_id":76561198316812693,"connected_time":6656000000000,"state":"active","ping":143},{"user_id":245,"name":"retard","steam_id":76561199126229651,"connected_time":3094000000000,"state":"active","ping":42},{"user_id":250,"name":"Luca","steam_id":76561198125087140,"connected_time":2920000000000,"state":"active","ping":47},{"user_id":220,"name":"dust | she/it","steam_id":76561198045218909,"connected_time":5912000000000,"state":"active","ping":42},{"user_id":266,"name":"Quarter Cheese","steam_id":76561198115814588,"connected_time":553000000000,"state":"active","ping":46},{"user_id":271,"name":"Cloud","steam_id":76561198272454184,"connected_time":2000000000,"state":"spawning","ping":142},{"user_id":256,"name":"aoka","steam_id":76561198838294547,"connected_time":1888000000000,"state":"active","ping":54},{"user_id":251,"name":"Mignyanne :3","steam_id":76561198048754056,"connected_time":1973000000000,"state":"active","ping":70},{"user_id":180,"name":"SibilantSerpent","steam_id":76561198154488754,"connected_time":10048000000000,"state":"active","ping":56},{"user_id":269,"name":"eldin","steam_id":76561198292352586,"connected_time":230000000000,"state":"active","ping":58},{"user_id":242,"name":"Perfect Cell","steam_id":76561198271939793,"connected_time":3312000000000,"state":"active","ping":47},{"user_id":244,"name":"oo","steam_id":76561198119626492,"connected_time":3097000000000,"state":"active","ping":86},{"user_id":261,"name":"evilOlive","steam_id":76561198106222025,"connected_time":1271000000000,"state":"active","ping":81}]},{"server_id":119,"name":"Uncletopia | Seattle | 2 | All Maps","name_short":"sea-2","host":"sea-1.us.uncletopia.com","port":27025,"enabled":true,"region":"us-west","cc":"us","latitude":47.608013,"longitude":-122.33517,"reserved":0,"last_update":"0001-01-01T00:00:00Z","name_a2s":"Uncletopia | Seattle | 2 | All Maps","protocol":17,"map":"pl_snowycoast","folder":"tf","game":"Team Fortress","app_id":440,"player_count":23,"max_players":24,"Bots":0,"server_type":"Dedicated","server_os":"Linux","password":true,"vac":true,"version":"7757534","steam_id":85568392924469998,"keywords":["nocrits","nodmgspread","payload","uncletopia"],"game_id":440,"stv_port":27026,"stv_name":"Uncletopia | Seattle | 2 | All Maps | STV","players":[{"user_id":95,"name":"AER0.exe","steam_id":76561198062940197,"connected_time":1355000000000,"state":"active","ping":43},{"user_id":115,"name":"jBracko","steam_id":76561198019261602,"connected_time":268000000000,"state":"active","ping":69},{"user_id":119,"name":"Cheese Fiend","steam_id":76561198053602591,"connected_time":139000000000,"state":"active","ping":79},{"user_id":88,"name":"Local","steam_id":76561198069537437,"connected_time":2001000000000,"state":"active","ping":78},{"user_id":81,"name":"dougrocks421","steam_id":76561198165063918,"connected_time":2588000000000,"state":"active","ping":41},{"user_id":116,"name":"CreativeUsername","steam_id":76561198186045503,"connected_time":248000000000,"state":"active","ping":94},{"user_id":101,"name":"♥Lyra♥","steam_id":76561198092853824,"connected_time":1118000000000,"state":"active","ping":62},{"user_id":76,"name":"DoctorHa","steam_id":76561198044026008,"connected_time":3120000000000,"state":"active","ping":87},{"user_id":102,"name":"Dr. drippenstein","steam_id":76561198209380493,"connected_time":1111000000000,"state":"active","ping":109},{"user_id":84,"name":"self sufficient kitten","steam_id":76561197960592612,"connected_time":2045000000000,"state":"active","ping":52},{"user_id":86,"name":"BasedGod","steam_id":76561198061177973,"connected_time":2016000000000,"state":"active","ping":60},{"user_id":122,"name":"Pastel","steam_id":76561198147847673,"connected_time":34000000000,"state":"active","ping":55},{"user_id":107,"name":"God's Drunkest Driver","steam_id":76561198165175875,"connected_time":948000000000,"state":"active","ping":106},{"user_id":82,"name":"tconnors1976","steam_id":76561198840033336,"connected_time":2127000000000,"state":"active","ping":127},{"user_id":94,"name":"Major_Pippy","steam_id":76561198004482878,"connected_time":1436000000000,"state":"active","ping":52},{"user_id":98,"name":"XxDragon4321xX","steam_id":76561198046705735,"connected_time":1204000000000,"state":"active","ping":91},{"user_id":103,"name":"TTV/YT Hunter","steam_id":76561198115812405,"connected_time":1075000000000,"state":"active","ping":130},{"user_id":104,"name":"The Super Mario Bros. Movie","steam_id":76561198871692156,"connected_time":1070000000000,"state":"active","ping":56},{"user_id":121,"name":"sophie","steam_id":76561198374224659,"connected_time":65000000000,"state":"active","ping":60},{"user_id":39,"name":"❤ Ashley ❤","steam_id":76561198056428303,"connected_time":5191000000000,"state":"active","ping":77},{"user_id":105,"name":"lyraaaaaaaaaaa","steam_id":76561198259331758,"connected_time":1063000000000,"state":"active","ping":75},{"user_id":45,"name":"Pat","steam_id":76561198283767547,"connected_time":5065000000000,"state":"active","ping":60},{"user_id":75,"name":"Fire_box41238","steam_id":76561199185673650,"connected_time":3243000000000,"state":"active","ping":57}]},{"server_id":406,"name":"Uncletopia | Seattle | 3 | Stopwatch Beta","name_short":"sea-3","host":"sea-1.us.uncletopia.com","port":27035,"enabled":true,"region":"us-west","cc":"us","latitude":47.608013,"longitude":-122.33517,"reserved":0,"last_update":"0001-01-01T00:00:00Z","name_a2s":"Uncletopia | Seattle | 3 | Stopwatch Beta","protocol":17,"map":"workshop/pl_badwater_pro_v12.ugc2142942074","folder":"tf","game":"Team Fortress","app_id":440,"player_count":0,"max_players":24,"Bots":0,"server_type":"Dedicated","server_os":"Linux","password":true,"vac":true,"version":"7757534","steam_id":85568392924515217,"keywords":["nocrits","nodmgspread","payload","uncletopia"],"game_id":440,"stv_port":27036,"stv_name":"Uncletopia | Seattle | 3 | Stopwatch Beta | STV","players":null},{"server_id":17,"name":"Uncletopia | San Francisco | 1 | All Maps","name_short":"sfo-1","host":"sfo-1.us.uncletopia.com","port":27015,"enabled":true,"region":"us-west","cc":"us","latitude":37.77397,"longitude":-122.4313,"reserved":0,"last_update":"0001-01-01T00:00:00Z","name_a2s":"Uncletopia | San Francisco | 1 | All Maps","protocol":17,"map":"koth_cascade","folder":"tf","game":"Team Fortress","app_id":440,"player_count":2,"max_players":24,"Bots":0,"server_type":"Dedicated","server_os":"Linux","password":true,"vac":true,"version":"7757534","steam_id":85568392924469999,"keywords":["cp","nocrits","nodmgspread","uncletopia"],"game_id":440,"stv_port":27016,"stv_name":"Uncletopia | San Francisco | 1 | All Maps | STV","players":[{"user_id":6,"name":"Xelon","steam_id":76561199446100128,"connected_time":180000000000,"state":"active","ping":70},{"user_id":7,"name":"soy emeryito","steam_id":76561199275253700,"connected_time":168000000000,"state":"active","ping":69}]},{"server_id":18,"name":"Uncletopia | San Francisco | 2 | All Maps","name_short":"sfo-2","host":"sfo-1.us.uncletopia.com","port":27025,"enabled":true,"region":"us-west","cc":"us","latitude":37.77397,"longitude":-122.4313,"reserved":0,"last_update":"0001-01-01T00:00:00Z","name_a2s":"Uncletopia | San Francisco | 2 | All Maps","protocol":17,"map":"koth_highpass","folder":"tf","game":"Team Fortress","app_id":440,"player_count":0,"max_players":24,"Bots":0,"server_type":"Dedicated","server_os":"Linux","password":true,"vac":true,"version":"7757534","steam_id":85568392924470000,"keywords":["cp","nocrits","nodmgspread","uncletopia"],"game_id":440,"stv_port":27026,"stv_name":"Uncletopia | San Francisco | 2 | All Maps | STV","players":null},{"server_id":19,"name":"Uncletopia | San Francisco | 3 | Stopwatch Beta","name_short":"sfo-3","host":"sfo-1.us.uncletopia.com","port":27035,"enabled":true,"region":"us-west","cc":"us","latitude":37.77397,"longitude":-122.4313,"reserved":0,"last_update":"0001-01-01T00:00:00Z","name_a2s":"Uncletopia | San Francisco | 3 | Stopwatch Beta","protocol":17,"map":"workshop/koth_clearcut_b15.ugc2107050255","folder":"tf","game":"Team Fortress","app_id":440,"player_count":0,"max_players":24,"Bots":0,"server_type":"Dedicated","server_os":"Linux","password":true,"vac":true,"version":"7757534","steam_id":85568392924742824,"keywords":["cp","nocrits","nodmgspread","uncletopia"],"game_id":440,"stv_port":27036,"stv_name":"Uncletopia | San Francisco | 3 | Stopwatch Beta | STV","players":null},{"server_id":20,"name":"Uncletopia | San Francisco | 4 | Community","name_short":"sfo-4","host":"sfo-1.us.uncletopia.com","port":27045,"enabled":true,"region":"us-west","cc":"us","latitude":37.77397,"longitude":-122.4313,"reserved":0,"last_update":"0001-01-01T00:00:00Z","name_a2s":"Uncletopia | San Francisco | 4 | Community","protocol":17,"map":"workshop/pl_cactuscanyon_redux_final2.ugc2579644293","folder":"tf","game":"Team Fortress","app_id":440,"player_count":24,"max_players":24,"Bots":0,"server_type":"Dedicated","server_os":"Linux","password":true,"vac":true,"version":"7757534","steam_id":85568392924742826,"keywords":["nocrits","nodmgspread","payload","uncletopia"],"game_id":440,"stv_port":27046,"stv_name":"Uncletopia | San Francisco | 4 | Community | STV","players":[{"user_id":178,"name":"Walrus","steam_id":76561198001799905,"connected_time":1147000000000,"state":"active","ping":50},{"user_id":158,"name":"slopplovebomb","steam_id":76561198273535584,"connected_time":2160000000000,"state":"active","ping":67},{"user_id":181,"name":"TATARA","steam_id":76561199098759517,"connected_time":906000000000,"state":"active","ping":160},{"user_id":172,"name":"Zesty Italian","steam_id":76561198117835053,"connected_time":1536000000000,"state":"active","ping":75},{"user_id":177,"name":"FrostyBoiGrim [Honcho Guy]","steam_id":76561198114335037,"connected_time":1206000000000,"state":"active","ping":46},{"user_id":185,"name":"autumnal.messenger","steam_id":76561199345816635,"connected_time":449000000000,"state":"active","ping":72},{"user_id":184,"name":"Quietsharp","steam_id":76561198277968438,"connected_time":546000000000,"state":"active","ping":60},{"user_id":182,"name":"JawnyMac","steam_id":76561198179529599,"connected_time":626000000000,"state":"active","ping":56},{"user_id":164,"name":"Summertime in Paris","steam_id":76561198128321057,"connected_time":1879000000000,"state":"active","ping":87},{"user_id":160,"name":"TinyGayGuitar","steam_id":76561198130737316,"connected_time":2136000000000,"state":"active","ping":82},{"user_id":111,"name":"Wacks","steam_id":76561198079476100,"connected_time":5741000000000,"state":"active","ping":56},{"user_id":186,"name":"nav","steam_id":76561198872608266,"connected_time":310000000000,"state":"active","ping":145},{"user_id":144,"name":"IKOVKY/TTV","steam_id":76561198138035040,"connected_time":2868000000000,"state":"active","ping":100},{"user_id":161,"name":"glue","steam_id":76561198382076026,"connected_time":2112000000000,"state":"active","ping":45},{"user_id":174,"name":"Serene Salamander","steam_id":76561198001094770,"connected_time":1320000000000,"state":"active","ping":69},{"user_id":147,"name":"brea?","steam_id":76561198025130409,"connected_time":2810000000000,"state":"active","ping":99},{"user_id":168,"name":"Sleuth","steam_id":76561198418288939,"connected_time":1579000000000,"state":"active","ping":50},{"user_id":179,"name":"max poop retention","steam_id":76561199050461421,"connected_time":1142000000000,"state":"active","ping":88},{"user_id":132,"name":"hoOmIN","steam_id":76561198334947079,"connected_time":3822000000000,"state":"active","ping":55},{"user_id":133,"name":"Clexus_","steam_id":76561198056703176,"connected_time":3815000000000,"state":"active","ping":77},{"user_id":134,"name":"GOON \u003e:)","steam_id":76561198327993003,"connected_time":3794000000000,"state":"active","ping":85},{"user_id":149,"name":"Big Time Bobby","steam_id":76561198935266162,"connected_time":2793000000000,"state":"active","ping":101},{"user_id":170,"name":"Rusty","steam_id":76561198055585129,"connected_time":1566000000000,"state":"active","ping":69},{"user_id":151,"name":"BirBinGo","steam_id":76561198356529600,"connected_time":2734000000000,"state":"active","ping":136}]},{"server_id":141,"name":"Uncletopia | Sydney | 1 | All Maps","name_short":"syd-1","host":"syd-1.au.uncletopia.com","port":27015,"enabled":true,"region":"au","cc":"au","latitude":-33.865143,"longitude":151.2099,"reserved":0,"last_update":"0001-01-01T00:00:00Z","name_a2s":"Uncletopia | Sydney | 1 | All Maps","protocol":17,"map":"koth_viaduct","folder":"tf","game":"Team Fortress","app_id":440,"player_count":0,"max_players":24,"Bots":0,"server_type":"Dedicated","server_os":"Linux","password":true,"vac":true,"version":"7757534","steam_id":85568392924470001,"keywords":["cp","nocrits","nodmgspread","uncletopia"],"game_id":440,"stv_port":27016,"stv_name":"Uncletopia | Sydney | 1 | All Maps | STV","players":null},{"server_id":123,"name":"Uncletopia | Sydney | 2 | All Maps","name_short":"syd-2","host":"syd-1.au.uncletopia.com","port":27025,"enabled":true,"region":"au","cc":"au","latitude":-33.865143,"longitude":151.2099,"reserved":0,"last_update":"0001-01-01T00:00:00Z","name_a2s":"Uncletopia | Sydney | 2 | All Maps","protocol":17,"map":"cp_process_final","folder":"tf","game":"Team Fortress","app_id":440,"player_count":0,"max_players":24,"Bots":0,"server_type":"Dedicated","server_os":"Linux","password":true,"vac":true,"version":"7757534","steam_id":85568392924470002,"keywords":["cp","nocrits","nodmgspread","uncletopia"],"game_id":440,"stv_port":27026,"stv_name":"Uncletopia | Sydney | 2 | All Maps | STV","players":null},{"server_id":395,"name":"Uncletopia | Sydney | 3 | All Maps","name_short":"syd-3","host":"syd-1.au.uncletopia.com","port":27035,"enabled":true,"region":"au","cc":"au","latitude":-33.865143,"longitude":151.2099,"reserved":0,"last_update":"0001-01-01T00:00:00Z","name_a2s":"Uncletopia | Sydney | 3 | All Maps","protocol":17,"map":"pl_swiftwater_final1","folder":"tf","game":"Team Fortress","app_id":440,"player_count":0,"max_players":24,"Bots":0,"server_type":"Dedicated","server_os":"Linux","password":true,"vac":true,"version":"7757534","steam_id":85568392925194467,"keywords":["nocrits","nodmgspread","payload","uncletopia"],"game_id":440,"stv_port":27036,"stv_name":"Uncletopia | Sydney | 3 | All Maps | STV","players":null},{"server_id":396,"name":"Uncletopia | Sydney | 4 | All Maps","name_short":"syd-4","host":"syd-1.au.uncletopia.com","port":27045,"enabled":true,"region":"au","cc":"au","latitude":-33.865143,"longitude":151.2099,"reserved":0,"last_update":"0001-01-01T00:00:00Z","name_a2s":"Uncletopia | Sydney | 4 | All Maps","protocol":17,"map":"koth_highpass","folder":"tf","game":"Team Fortress","app_id":440,"player_count":0,"max_players":24,"Bots":0,"server_type":"Dedicated","server_os":"Linux","password":true,"vac":true,"version":"7757534","steam_id":85568392925397958,"keywords":["cp","nocrits","nodmgspread","uncletopia"],"game_id":440,"stv_port":27046,"stv_name":"Uncletopia | Sydney | 4 | All Maps | STV","players":null},{"server_id":58,"name":"Uncletopia | Sydney | 5 | Stopwatch Beta","name_short":"syd-5","host":"syd-1.au.uncletopia.com","port":27055,"enabled":true,"region":"au","cc":"au","latitude":-33.865143,"longitude":151.2099,"reserved":0,"last_update":"0001-01-01T00:00:00Z","name_a2s":"Uncletopia | Sydney | 5 | Stopwatch Beta","protocol":17,"map":"koth_cascade","folder":"tf","game":"Team Fortress","app_id":440,"player_count":0,"max_players":24,"Bots":0,"server_type":"Dedicated","server_os":"Linux","password":true,"vac":true,"version":"7757534","steam_id":85568392925397959,"keywords":["cp","nocrits","nodmgspread","uncletopia"],"game_id":440,"stv_port":27056,"stv_name":"Uncletopia | Sydney | 5 | Stopwatch Beta | STV","players":null},{"server_id":59,"name":"Uncletopia | Sydney | 6 | Community","name_short":"syd-6","host":"syd-1.au.uncletopia.com","port":27065,"enabled":true,"region":"au","cc":"au","latitude":-33.865143,"longitude":151.2099,"reserved":0,"last_update":"0001-01-01T00:00:00Z","name_a2s":"Uncletopia | Sydney | 6 | Community","protocol":17,"map":"cp_snakewater_final1","folder":"tf","game":"Team Fortress","app_id":440,"player_count":0,"max_players":24,"Bots":0,"server_type":"Dedicated","server_os":"Linux","password":true,"vac":true,"version":"7757534","steam_id":85568392925397960,"keywords":["cp","nocrits","nodmgspread","uncletopia"],"game_id":440,"stv_port":27066,"stv_name":"Uncletopia | Sydney | 6 | Community | STV","players":null},{"server_id":49,"name":"Uncletopia | Warsaw | 1 | All Maps","name_short":"waw-1","host":"waw-1.pl.uncletopia.com","port":27015,"enabled":true,"region":"eu","cc":"pl","latitude":52.2297,"longitude":21.017532,"reserved":0,"last_update":"0001-01-01T00:00:00Z","name_a2s":"","protocol":0,"map":"","folder":"","game":"","app_id":0,"player_count":0,"max_players":0,"Bots":0,"server_type":"","server_os":"","password":false,"vac":false,"version":"","steam_id":0,"keywords":null,"game_id":0,"stv_port":0,"stv_name":"","players":null},{"server_id":50,"name":"Uncletopia | Warsaw | 2 | All Maps","name_short":"waw-2","host":"waw-1.pl.uncletopia.com","port":27025,"enabled":true,"region":"eu","cc":"pl","latitude":52.2297,"longitude":21.017532,"reserved":0,"last_update":"0001-01-01T00:00:00Z","name_a2s":"Uncletopia | Warsaw | 2 | All Maps","protocol":17,"map":"koth_highpass","folder":"tf","game":"Team Fortress","app_id":440,"player_count":0,"max_players":24,"Bots":0,"server_type":"Dedicated","server_os":"Linux","password":true,"vac":true,"version":"7757534","steam_id":85568392925397851,"keywords":["cp","nocrits","nodmgspread","uncletopia"],"game_id":440,"stv_port":27026,"stv_name":"Uncletopia | Warsaw | 2 | All Maps | STV","players":null},{"server_id":51,"name":"Uncletopia | Warsaw | 3 | All Maps","name_short":"waw-3","host":"waw-1.pl.uncletopia.com","port":27035,"enabled":true,"region":"eu","cc":"pl","latitude":52.2297,"longitude":21.017532,"reserved":0,"last_update":"0001-01-01T00:00:00Z","name_a2s":"Uncletopia | Warsaw | 3 | All Maps","protocol":17,"map":"cp_altitude","folder":"tf","game":"Team Fortress","app_id":440,"player_count":5,"max_players":24,"Bots":0,"server_type":"Dedicated","server_os":"Linux","password":true,"vac":true,"version":"7757534","steam_id":85568392925397852,"keywords":["cp","nocrits","nodmgspread","uncletopia"],"game_id":440,"stv_port":27036,"stv_name":"Uncletopia | Warsaw | 3 | All Maps | STV","players":[{"user_id":157,"name":"Kjat","steam_id":76561198839433592,"connected_time":1437000000000,"state":"active","ping":73},{"user_id":147,"name":"Random-Soul","steam_id":76561198887698759,"connected_time":3980000000000,"state":"active","ping":98},{"user_id":155,"name":"michaelwittmannt212","steam_id":76561198925558456,"connected_time":2540000000000,"state":"active","ping":237},{"user_id":153,"name":"Very stiff dispenser","steam_id":76561198236441040,"connected_time":2645000000000,"state":"active","ping":80},{"user_id":154,"name":"kill me","steam_id":76561199407698465,"connected_time":2603000000000,"state":"active","ping":99}]},{"server_id":52,"name":"Uncletopia | Warsaw | 4 | All Maps","name_short":"waw-4","host":"waw-1.pl.uncletopia.com","port":27045,"enabled":true,"region":"eu","cc":"pl","latitude":52.2297,"longitude":21.017532,"reserved":0,"last_update":"0001-01-01T00:00:00Z","name_a2s":"Uncletopia | Warsaw | 4 | All Maps","protocol":17,"map":"koth_lakeside_final","folder":"tf","game":"Team Fortress","app_id":440,"player_count":0,"max_players":24,"Bots":0,"server_type":"Dedicated","server_os":"Linux","password":true,"vac":true,"version":"7757534","steam_id":85568392925397853,"keywords":["cp","nocrits","nodmgspread","uncletopia"],"game_id":440,"stv_port":27046,"stv_name":"Uncletopia | Warsaw | 4 | All Maps | STV","players":null},{"server_id":53,"name":"Uncletopia | Warsaw | 5 | Stopwatch Beta","name_short":"waw-5","host":"waw-1.pl.uncletopia.com","port":27055,"enabled":true,"region":"eu","cc":"pl","latitude":52.2297,"longitude":21.017532,"reserved":0,"last_update":"0001-01-01T00:00:00Z","name_a2s":"Uncletopia | Warsaw | 5 | Stopwatch Beta","protocol":17,"map":"pl_borneo","folder":"tf","game":"Team Fortress","app_id":440,"player_count":0,"max_players":24,"Bots":0,"server_type":"Dedicated","server_os":"Linux","password":true,"vac":true,"version":"7757534","steam_id":85568392925397854,"keywords":["nocrits","nodmgspread","payload","uncletopia"],"game_id":440,"stv_port":27056,"stv_name":"Uncletopia | Warsaw | 5 | Stopwatch Beta | STV","players":null},{"server_id":54,"name":"Uncletopia | Warsaw | 6 | Community","name_short":"waw-6","host":"waw-1.pl.uncletopia.com","port":27065,"enabled":true,"region":"eu","cc":"pl","latitude":52.2297,"longitude":21.017532,"reserved":0,"last_update":"0001-01-01T00:00:00Z","name_a2s":"Uncletopia | Warsaw | 6 | Community","protocol":17,"map":"workshop/cp_glacier_rc6.ugc2905735376","folder":"tf","game":"Team Fortress","app_id":440,"player_count":0,"max_players":24,"Bots":0,"server_type":"Dedicated","server_os":"Linux","password":true,"vac":true,"version":"7757534","steam_id":85568392925397856,"keywords":["cp","nocrits","nodmgspread","uncletopia"],"game_id":440,"stv_port":27066,"stv_name":"Uncletopia | Warsaw | 6 | Community | STV","players":null}]}