{"status":true,"message":"","result":[{"server_id":9,"name":"Uncletopia | Atlanta | 1 | All Maps","name_short":"atl-1","host":"atl-1.us.uncletopia.com","port":27015,"enabled":true,"region":"us-east","cc":"us","latitude":33.753746,"longitude":-84.38633,"reserved":0,"last_update":"0001-01-01T00:00:00Z","name_a2s":"Uncletopia | Atlanta | 1 | All Maps","protocol":17,"map":"cp_sunshine","folder":"tf","game":"Team Fortress","app_id":440,"player_count":24,"max_players":24,"Bots":0,"server_type":"Dedicated","server_os":"Linux","password":true,"vac":true,"version":"7742253","steam_id":85568392924469982,"keywords":["cp","nocrits","nodmgspread","uncletopia"],"game_id":440,"stv_port":27016,"stv_name":"Uncletopia | Atlanta | 1 | All Maps | STV","players":[{"user_id":342,"name":"Snorty","steam_id":76561198114304454,"connected_time":587000000000,"state":"active","ping":76},{"user_id":327,"name":"MoistWaffle The Real","steam_id":76561198839829504,"connected_time":1653000000000,"state":"active","ping":48},{"user_id":328,"name":"DiscoTraveler","steam_id":76561199240168088,"connected_time":1633000000000,"state":"active","ping":58},{"user_id":335,"name":"JaketheDog217","steam_id":76561198424859448,"connected_time":1119000000000,"state":"active","ping":85},{"user_id":336,"name":"Godfinger","steam_id":76561198426346549,"connected_time":1094000000000,"state":"active","ping":62},{"user_id":309,"name":"Veilos","steam_id":76561198071897172,"connected_time":2995000000000,"state":"active","ping":74},{"user_id":340,"name":"HE‚ÄôS IN THE GODDAMN WALLS","steam_id":76561198363267009,"connected_time":648000000000,"state":"active","ping":63},{"user_id":301,"name":"PomsonPug","steam_id":76561198049093575,"connected_time":3559000000000,"state":"active","ping":80},{"user_id":317,"name":"Travis","steam_id":76561198121819162,"connected_time":2235000000000,"state":"active","ping":78},{"user_id":337,"name":"Minegamer105","steam_id":76561198253320644,"connected_time":1047000000000,"state":"active","ping":67},{"user_id":290,"name":"Crescent","steam_id":76561198095124633,"connected_time":4460000000000,"state":"active","ping":58},{"user_id":347,"name":"fi_ji","steam_id":76561198126087725,"connected_time":141000000000,"state":"active","ping":76},{"user_id":339,"name":"Zofia","steam_id":76561198237736150,"connected_time":813000000000,"state":"active","ping":57},{"user_id":329,"name":"[]{}#^*+=","steam_id":76561198127039453,"connected_time":1618000000000,"state":"active","ping":91},{"user_id":305,"name":"DrStarBucksCoffee","steam_id":76561198037372470,"connected_time":3466000000000,"state":"active","ping":85},{"user_id":343,"name":"PancreazOverdoz","steam_id":76561199234377456,"connected_time":513000000000,"state":"active","ping":81},{"user_id":323,"name":"punkly","steam_id":76561198129831492,"connected_time":1940000000000,"state":"active","ping":60},{"user_id":348,"name":"√òNZŒû","steam_id":76561198435303428,"connected_time":129000000000,"state":"active","ping":104},{"user_id":330,"name":"BwillyM5","steam_id":76561197970364220,"connected_time":1502000000000,"state":"active","ping":61},{"user_id":331,"name":"Chex","steam_id":76561198978688451,"connected_time":1458000000000,"state":"active","ping":48},{"user_id":345,"name":"Hun Nar","steam_id":76561198290916002,"connected_time":319000000000,"state":"active","ping":83},{"user_id":247,"name":"Wilhelmktx","steam_id":76561198158102295,"connected_time":6599000000000,"state":"active","ping":72},{"user_id":271,"name":"Razz","steam_id":76561198158027533,"connected_time":5188000000000,"state":"active","ping":70},{"user_id":311,"name":"Xyton","steam_id":76561198088032054,"connected_time":2951000000000,"state":"active","ping":48}]},{"server_id":400,"name":"Uncletopia | Atlanta | 3 | Stopwatch Beta","name_short":"atl-3","host":"atl-1.us.uncletopia.com","port":27035,"enabled":true,"region":"us-east","cc":"us","latitude":33.753746,"longitude":-84.38633,"reserved":0,"last_update":"0001-01-01T00:00:00Z","name_a2s":"Uncletopia | Atlanta | 3 | Stopwatch Beta","protocol":17,"map":"pl_pier","folder":"tf","game":"Team Fortress","app_id":440,"player_count":0,"max_players":24,"Bots":0,"server_type":"Dedicated","server_os":"Linux","password":true,"vac":true,"version":"7742253","steam_id":85568392924515187,"keywords":["nocrits","nodmgspread","payload","uncletopia"],"game_id":440,"stv_port":27036,"stv_name":"Uncletopia | Atlanta | 3 | Stopwatch Beta | STV","players":null},{"server_id":401,"name":"Uncletopia | Atlanta | 4 | No Payload","name_short":"atl-4","host":"atl-1.us.uncletopia.com","port":27045,"enabled":true,"region":"us-east","cc":"us","latitude":33.753746,"longitude":-84.38633,"reserved":0,"last_update":"0001-01-01T00:00:00Z","name_a2s":"Uncletopia | Atlanta | 4 | No Payload","protocol":17,"map":"pl_pier","folder":"tf","game":"Team Fortress","app_id":440,"player_count":0,"max_players":24,"Bots":0,"server_type":"Dedicated","server_os":"Linux","password":true,"vac":true,"version":"7723704","steam_id":85568392924515188,"keywords":["nocrits","nodmgspread","payload","uncletopia"],"game_id":440,"stv_port":27046,"stv_name":"Uncletopia | Atlanta | 4 | No Payload | STV","players":null},{"server_id":2,"name":"Uncletopia | Chicago | 1 | All Maps","name_short":"chi-1","host":"chi-1.us.uncletopia.com","port":27015,"enabled":true,"region":"us-central","cc":"us","latitude":41.881832,"longitude":-87.62318,"reserved":0,"last_update":"0001-01-01T00:00:00Z","name_a2s":"Uncletopia | Chicago | 1 | All Maps","protocol":17,"map":"pl_snowycoast","folder":"tf","game":"Team Fortress","app_id":440,"player_count":24,"max_players":24,"Bots":0,"server_type":"Dedicated","server_os":"Linux","password":true,"vac":true,"version":"7742253","steam_id":85568392924469984,"keywords":["nocrits","nodmgspread","payload","uncletopia"],"game_id":440,"stv_port":27016,"stv_name":"Uncletopia | Chicago | 1 | All Maps | STV","players":[{"user_id":277,"name":"PKBEAST_7","steam_id":76561198177136537,"connected_time":4990000000000,"state":"active","ping":82},{"user_id":316,"name":"hideyochest","steam_id":76561198090366059,"connected_time":2055000000000,"state":"active","ping":56},{"user_id":304,"name":"Merchants of Misery","steam_id":76561199188142396,"connected_time":2608000000000,"state":"active","ping":75},{"user_id":342,"name":"Censing Auto, The Challenger","steam_id":76561198060926681,"connected_time":346000000000,"state":"active","ping":59},{"user_id":337,"name":"dan","steam_id":76561197984998426,"connected_time":520000000000,"state":"active","ping":98},{"user_id":335,"name":"Female Gamer","steam_id":76561199366482682,"connected_time":573000000000,"state":"active","ping":98},{"user_id":332,"name":"Jun","steam_id":76561198006299609,"connected_time":1065000000000,"state":"active","ping":48},{"user_id":236,"name":"the deadliest pyroshark","steam_id":76561198374227766,"connected_time":8507000000000,"state":"active","ping":74},{"user_id":331,"name":"jan kili","steam_id":76561198289894834,"connected_time":1072000000000,"state":"active","ping":67},{"user_id":309,"name":"Slavaskyanovamirakevchei","steam_id":76561198141218864,"connected_time":2391000000000,"state":"active","ping":80},{"user_id":336,"name":"SuaveFrenchman","steam_id":76561198043762683,"connected_time":562000000000,"state":"active","ping":95},{"user_id":338,"name":"steakfarmasian","steam_id":76561198212754036,"connected_time":510000000000,"state":"active","ping":64},{"user_id":317,"name":"Gingoguy","steam_id":76561198088931297,"connected_time":2040000000000,"state":"active","ping":53},{"user_id":333,"name":"Kosmic","steam_id":76561198948650368,"connected_time":1059000000000,"state":"active","ping":75},{"user_id":265,"name":"I Rush ‚Åß‚ÅßRussians","steam_id":76561198119454013,"connected_time":5322000000000,"state":"active","ping":75},{"user_id":340,"name":"Furry Saul Goodman","steam_id":76561198069580305,"connected_time":501000000000,"state":"active","ping":45},{"user_id":334,"name":"Ali Bubba","steam_id":76561198451112022,"connected_time":846000000000,"state":"active","ping":86},{"user_id":292,"name":"Errrmmett","steam_id":76561198041314051,"connected_time":3873000000000,"state":"active","ping":60},{"user_id":320,"name":"Thiccums","steam_id":76561198291586739,"connected_time":2031000000000,"state":"active","ping":94},{"user_id":297,"name":"Z4lTte","steam_id":76561198283258068,"connected_time":3146000000000,"state":"active","ping":65},{"user_id":322,"name":"Toest","steam_id":76561198076061844,"connected_time":1855000000000,"state":"active","ping":54},{"user_id":328,"name":"stardusttt","steam_id":76561198413930183,"connected_time":1297000000000,"state":"active","ping":65},{"user_id":341,"name":"Dakota Sutcliffe","steam_id":76561198170660959,"connected_time":492000000000,"state":"active","ping":73},{"user_id":302,"name":"Broccoli","steam_id":76561198006251462,"connected_time":2695000000000,"state":"active","ping":140}]},{"server_id":106,"name":"Uncletopia | Chicago | 2 | All Maps","name_short":"chi-2","host":"chi-1.us.uncletopia.com","port":27025,"enabled":true,"region":"us-central","cc":"us","latitude":41.881832,"longitude":-87.62318,"reserved":0,"last_update":"0001-01-01T00:00:00Z","name_a2s":"Uncletopia | Chicago | 2 | All Maps","protocol":17,"map":"pl_badwater","folder":"tf","game":"Team Fortress","app_id":440,"player_count":21,"max_players":24,"Bots":0,"server_type":"Dedicated","server_os":"Linux","password":true,"vac":true,"version":"7742253","steam_id":85568392924469985,"keywords":["nocrits","nodmgspread","payload","uncletopia"],"game_id":440,"stv_port":27026,"stv_name":"Uncletopia | Chicago | 2 | All Maps | STV","players":[{"user_id":128,"name":"flexer_2000","steam_id":76561198084422657,"connected_time":3873000000000,"state":"active","ping":84},{"user_id":101,"name":"JustSomeInternetGuy","steam_id":76561199066037843,"connected_time":5127000000000,"state":"active","ping":61},{"user_id":136,"name":"Seele","steam_id":76561198067833803,"connected_time":3403000000000,"state":"active","ping":61},{"user_id":165,"name":"wahooka","steam_id":76561197981211922,"connected_time":230000000000,"state":"active","ping":64},{"user_id":137,"name":"Obelix","steam_id":76561198274715109,"connected_time":3401000000000,"state":"active","ping":71},{"user_id":160,"name":"pencilneck","steam_id":76561198865971290,"connected_time":861000000000,"state":"active","ping":68},{"user_id":150,"name":"evan_is_sauce","steam_id":76561199086802383,"connected_time":2015000000000,"state":"active","ping":115},{"user_id":151,"name":"three three","steam_id":76561198177354155,"connected_time":1773000000000,"state":"active","ping":44},{"user_id":107,"name":"Oh, it's Zach","steam_id":76561198103309672,"connected_time":4852000000000,"state":"active","ping":48},{"user_id":161,"name":"Kawflynn","steam_id":76561198029885678,"connected_time":851000000000,"state":"active","ping":69},{"user_id":141,"name":"hoboholden","steam_id":76561198799370303,"connected_time":3349000000000,"state":"active","ping":105},{"user_id":142,"name":"BreadBug","steam_id":76561198797355574,"connected_time":3346000000000,"state":"active","ping":57},{"user_id":162,"name":"Waterboy","steam_id":76561197989347906,"connected_time":843000000000,"state":"active","ping":75},{"user_id":157,"name":"Do Moose go Moo?","steam_id":76561198073550620,"connected_time":1332000000000,"state":"active","ping":45},{"user_id":145,"name":"BeKnown","steam_id":76561198344338970,"connected_time":2455000000000,"state":"active","ping":86},{"user_id":113,"name":"Your Fwend","steam_id":76561198154773643,"connected_time":4581000000000,"state":"active","ping":61},{"user_id":143,"name":"Nolan","steam_id":76561198169648081,"connected_time":2998000000000,"state":"active","ping":64},{"user_id":124,"name":"deech","steam_id":76561198066429444,"connected_time":4205000000000,"state":"active","ping":60},{"user_id":149,"name":"Sailor Jupiter","steam_id":76561198125094648,"connected_time":2044000000000,"state":"active","ping":55},{"user_id":119,"name":"System","steam_id":76561198148087137,"connected_time":4444000000000,"state":"active","ping":74},{"user_id":159,"name":"deepmeta","steam_id":76561199053600691,"connected_time":1005000000000,"state":"active","ping":63}]},{"server_id":402,"name":"Uncletopia | Chicago | 3 | All Maps","name_short":"chi-3","host":"chi-1.us.uncletopia.com","port":27035,"enabled":true,"region":"us-central","cc":"us","latitude":41.881832,"longitude":-87.62318,"reserved":0,"last_update":"0001-01-01T00:00:00Z","name_a2s":"Uncletopia | Chicago | 3 | All Maps","protocol":17,"map":"pl_badwater","folder":"tf","game":"Team Fortress","app_id":440,"player_count":24,"max_players":24,"Bots":0,"server_type":"Dedicated","server_os":"Linux","password":true,"vac":true,"version":"7742253","steam_id":85568392924515191,"keywords":["nocrits","nodmgspread","payload","uncletopia"],"game_id":440,"stv_port":27036,"stv_name":"Uncletopia | Chicago | 3 | All Maps | STV","players":[{"user_id":153,"name":"RyanDCB [Real]","steam_id":76561198040138739,"connected_time":1180000000000,"state":"active","ping":57},{"user_id":136,"name":"Evenaris","steam_id":76561198087544319,"connected_time":3109000000000,"state":"active","ping":91},{"user_id":121,"name":"Hylic","steam_id":76561199051314589,"connected_time":3661000000000,"state":"active","ping":71},{"user_id":125,"name":"hauntaholic","steam_id":76561198095051652,"connected_time":3434000000000,"state":"active","ping":64},{"user_id":154,"name":"***","steam_id":76561198160976692,"connected_time":1158000000000,"state":"active","ping":70},{"user_id":127,"name":"For Jack","steam_id":76561198322674283,"connected_time":3417000000000,"state":"active","ping":70},{"user_id":156,"name":"The Sinister Potion","steam_id":76561198131280715,"connected_time":1147000000000,"state":"active","ping":80},{"user_id":115,"name":"der","steam_id":76561198060762287,"connected_time":3955000000000,"state":"active","ping":90},{"user_id":164,"name":"Bread Baker","steam_id":76561198185335103,"connected_time":163000000000,"state":"active","ping":55},{"user_id":151,"name":"TomatoChair","steam_id":76561199083959877,"connected_time":1240000000000,"state":"active","ping":90},{"user_id":152,"name":"footoftheday","steam_id":76561198052712449,"connected_time":1230000000000,"state":"active","ping":69},{"user_id":155,"name":"Candy Sparkles","steam_id":76561198126871264,"connected_time":1157000000000,"state":"active","ping":77},{"user_id":114,"name":"moneyspeaks21","steam_id":76561198189429665,"connected_time":4140000000000,"state":"active","ping":75},{"user_id":161,"name":"J3SUS","steam_id":76561198368965383,"connected_time":215000000000,"state":"active","ping":64},{"user_id":162,"name":"Rein","steam_id":76561198300340427,"connected_time":213000000000,"state":"active","ping":62},{"user_id":142,"name":"Turbot","steam_id":76561198032325267,"connected_time":2562000000000,"state":"active","ping":155},{"user_id":157,"name":"Laszlo","steam_id":76561199247573953,"connected_time":1133000000000,"state":"active","ping":64},{"user_id":145,"name":"Bonk","steam_id":76561198116945752,"connected_time":1685000000000,"state":"active","ping":67},{"user_id":163,"name":"The Fortress From Team Fortress","steam_id":76561198081422503,"connected_time":196000000000,"state":"active","ping":75},{"user_id":116,"name":"trilobita","steam_id":76561198428215606,"connected_time":3922000000000,"state":"active","ping":76},{"user_id":123,"name":"skidzz","steam_id":76561198257068611,"connected_time":3477000000000,"state":"active","ping":85},{"user_id":158,"name":"FiveHoursLater...","steam_id":76561198092608339,"connected_time":1127000000000,"state":"active","ping":85},{"user_id":131,"name":"Super Noob","steam_id":76561199179611350,"connected_time":3379000000000,"state":"active","ping":67},{"user_id":160,"name":"NaCl","steam_id":76561199131136820,"connected_time":357000000000,"state":"active","ping":63}]},{"server_id":403,"name":"Uncletopia | Chicago | 4 | All Maps","name_short":"chi-4","host":"chi-1.us.uncletopia.com","port":27045,"enabled":true,"region":"us-central","cc":"us","latitude":41.881832,"longitude":-87.62318,"reserved":0,"last_update":"0001-01-01T00:00:00Z","name_a2s":"Uncletopia | Chicago | 4 | All Maps","protocol":17,"map":"cp_sunshine","folder":"tf","game":"Team Fortress","app_id":440,"player_count":0,"max_players":24,"Bots":0,"server_type":"Dedicated","server_os":"Linux","password":true,"vac":true,"version":"7742253","steam_id":85568392924515193,"keywords":["cp","nocrits","nodmgspread","uncletopia"],"game_id":440,"stv_port":27046,"stv_name":"Uncletopia | Chicago | 4 | All Maps | STV","players":null},{"server_id":36,"name":"Uncletopia | Chicago | 5 | All Maps","name_short":"chi-5","host":"chi-2.us.uncletopia.com","port":27015,"enabled":true,"region":"us-central","cc":"us","latitude":41.881832,"longitude":-87.62318,"reserved":0,"last_update":"0001-01-01T00:00:00Z","name_a2s":"Uncletopia | Chicago | 5 | All Maps","protocol":17,"map":"koth_lakeside_final","folder":"tf","game":"Team Fortress","app_id":440,"player_count":9,"max_players":24,"Bots":0,"server_type":"Dedicated","server_os":"Linux","password":true,"vac":true,"version":"7742253","steam_id":85568392924866362,"keywords":["cp","nocrits","nodmgspread","uncletopia"],"game_id":440,"stv_port":27016,"stv_name":"Uncletopia | Chicago | 5 | All Maps | STV","players":[{"user_id":6,"name":"daemon","steam_id":76561198001541433,"connected_time":338000000000,"state":"active","ping":57},{"user_id":7,"name":"Œõlxium","steam_id":76561198131272900,"connected_time":335000000000,"state":"active","ping":64},{"user_id":8,"name":"--_Cook_--","steam_id":76561198080855748,"connected_time":312000000000,"state":"active","ping":69},{"user_id":9,"name":"lauren/","steam_id":76561198048745798,"connected_time":268000000000,"state":"active","ping":45},{"user_id":11,"name":"Capatat","steam_id":76561198863586248,"connected_time":232000000000,"state":"active","ping":107},{"user_id":12,"name":"C papi","steam_id":76561198027779564,"connected_time":211000000000,"state":"active","ping":60},{"user_id":13,"name":"KingCreeper08","steam_id":76561198353154907,"connected_time":207000000000,"state":"active","ping":106},{"user_id":14,"name":"Blue Collar","steam_id":76561198354781722,"connected_time":202000000000,"state":"active","ping":78},{"user_id":15,"name":"extinct111","steam_id":76561199013696367,"connected_time":144000000000,"state":"active","ping":64}]},{"server_id":37,"name":"Uncletopia | Chicago | 6 | All Maps","name_short":"chi-6","host":"chi-2.us.uncletopia.com","port":27025,"enabled":true,"region":"us-central","cc":"us","latitude":41.881832,"longitude":-87.62318,"reserved":0,"last_update":"0001-01-01T00:00:00Z","name_a2s":"Uncletopia | Chicago | 6 | All Maps","protocol":17,"map":"pl_barnblitz","folder":"tf","game":"Team Fortress","app_id":440,"player_count":24,"max_players":24,"Bots":0,"server_type":"Dedicated","server_os":"Linux","password":true,"vac":true,"version":"7742253","steam_id":85568392924866363,"keywords":["nocrits","nodmgspread","payload","uncletopia"],"game_id":440,"stv_port":27026,"stv_name":"Uncletopia | Chicago | 6 | All Maps | STV","players":[{"user_id":5,"name":"Lucon","steam_id":76561198067147724,"connected_time":3010000000000,"state":"active","ping":59},{"user_id":33,"name":"mouselifter45","steam_id":76561198272354852,"connected_time":1599000000000,"state":"active","ping":41},{"user_id":7,"name":"ForShovelry1","steam_id":76561198149395527,"connected_time":2793000000000,"state":"active","ping":63},{"user_id":36,"name":"Bee","steam_id":76561198074681324,"connected_time":1424000000000,"state":"active","ping":62},{"user_id":11,"name":"Lord Theodore XIII","steam_id":76561198085842797,"connected_time":2461000000000,"state":"active","ping":76},{"user_id":15,"name":"SgtMaj Soggy Titties","steam_id":76561198067732216,"connected_time":2307000000000,"state":"active","ping":46},{"user_id":56,"name":"The Goose","steam_id":76561199006093549,"connected_time":217000000000,"state":"active","ping":62},{"user_id":47,"name":":)","steam_id":76561198093921290,"connected_time":778000000000,"state":"active","ping":46},{"user_id":18,"name":"Dark_Eagle","steam_id":76561198397908108,"connected_time":2133000000000,"state":"active","ping":66},{"user_id":19,"name":"SNGmagician","steam_id":76561198025905802,"connected_time":2049000000000,"state":"active","ping":132},{"user_id":42,"name":"Loosecannon33","steam_id":76561198068462331,"connected_time":1238000000000,"state":"active","ping":63},{"user_id":24,"name":"Bunni_","steam_id":76561198111062905,"connected_time":1880000000000,"state":"active","ping":89},{"user_id":25,"name":"Tuxedo Terrorist","steam_id":76561198153510094,"connected_time":1858000000000,"state":"active","ping":53},{"user_id":50,"name":"sork","steam_id":76561198082446459,"connected_time":752000000000,"state":"active","ping":73},{"user_id":27,"name":"Sentry Gun (NotThePotato)","steam_id":76561199214934899,"connected_time":1819000000000,"state":"active","ping":82},{"user_id":28,"name":"Omen","steam_id":76561199013330941,"connected_time":1800000000000,"state":"active","ping":70},{"user_id":39,"name":"Sous-Chef","steam_id":76561198075705827,"connected_time":1339000000000,"state":"active","ping":79},{"user_id":49,"name":"Socialism Enjoyer","steam_id":76561197991817974,"connected_time":777000000000,"state":"active","ping":64},{"user_id":51,"name":"Fat Spy with Unusual Pan","steam_id":76561199027576969,"connected_time":746000000000,"state":"active","ping":159},{"user_id":44,"name":"Try Gardening","steam_id":76561198120311340,"connected_time":1211000000000,"state":"active","ping":42},{"user_id":40,"name":"Corbe","steam_id":76561198353893927,"connected_time":1323000000000,"state":"active","ping":82},{"user_id":41,"name":"poiuytrewqwqwqwqwqwqwqwqwqwqwqw","steam_id":76561199105253001,"connected_time":1311000000000,"state":"active","ping":67},{"user_id":43,"name":"A Cuppa Cat","steam_id":76561198401288612,"connected_time":1233000000000,"state":"active","ping":67},{"user_id":53,"name":"ac3. thread","steam_id":76561199114474224,"connected_time":442000000000,"state":"active","ping":111}]},{"server_id":38,"name":"Uncletopia | Chicago | 7 | Stopwatch Beta","name_short":"chi-7","host":"chi-2.us.uncletopia.com","port":27035,"enabled":true,"region":"us-central","cc":"us","latitude":41.881832,"longitude":-87.62318,"reserved":0,"last_update":"0001-01-01T00:00:00Z","name_a2s":"Uncletopia | Chicago | 7 | Stopwatch Beta","protocol":17,"map":"koth_lakeside_final","folder":"tf","game":"Team Fortress","app_id":440,"player_count":0,"max_players":24,"Bots":0,"server_type":"Dedicated","server_os":"Linux","password":true,"vac":true,"version":"7742253","steam_id":85568392924866364,"keywords":["cp","nocrits","nodmgspread","uncletopia"],"game_id":440,"stv_port":27036,"stv_name":"Uncletopia | Chicago | 7 | Stopwatch Beta | STV","players":null},{"server_id":39,"name":"Uncletopia | Chicago | 8 | Community","name_short":"chi-8","host":"chi-2.us.uncletopia.com","port":27045,"enabled":true,"region":"us-central","cc":"us","latitude":41.881832,"longitude":-87.62318,"reserved":0,"last_update":"0001-01-01T00:00:00Z","name_a2s":"Uncletopia | Chicago | 8 | Community","protocol":17,"map":"koth_lakeside_final","folder":"tf","game":"Team Fortress","app_id":440,"player_count":0,"max_players":24,"Bots":0,"server_type":"Dedicated","server_os":"Linux","password":true,"vac":true,"version":"7742253","steam_id":85568392924866365,"keywords":["cp","nocrits","nodmgspread","uncletopia"],"game_id":440,"stv_port":27046,"stv_name":"Uncletopia | Chicago | 8 | Community | STV","players":null},{"server_id":8,"name":"Uncletopia | Dallas | 1 | All Maps","name_short":"dal-1","host":"dal-1.us.uncletopia.com","port":27015,"enabled":true,"region":"us-central","cc":"us","latitude":32.779167,"longitude":-96.80889,"reserved":0,"last_update":"0001-01-01T00:00:00Z","name_a2s":"Uncletopia | Dallas | 1 | All Maps","protocol":17,"map":"pl_badwater","folder":"tf","game":"Team Fortress","app_id":440,"player_count":23,"max_players":24,"Bots":0,"server_type":"Dedicated","server_os":"Linux","password":true,"vac":true,"version":"7742253","steam_id":85568392924469986,"keywords":["nocrits","nodmgspread","payload","uncletopia"],"game_id":440,"stv_port":27016,"stv_name":"Uncletopia | Dallas | 1 | All Maps | STV","players":[{"user_id":140,"name":"Derblitz","steam_id":76561198040953176,"connected_time":696000000000,"state":"active","ping":81},{"user_id":104,"name":"Anon","steam_id":76561198109740776,"connected_time":4574000000000,"state":"active","ping":86},{"user_id":129,"name":"[LINUX] F2P=S*(M/B)+H || Spy!","steam_id":76561198093538786,"connected_time":2906000000000,"state":"active","ping":45},{"user_id":114,"name":"kermitcreeper(ZAZA)","steam_id":76561199222829972,"connected_time":4257000000000,"state":"active","ping":60},{"user_id":147,"name":"Kenku","steam_id":76561199086762926,"connected_time":378000000000,"state":"active","ping":67},{"user_id":148,"name":"Mason","steam_id":76561199057309626,"connected_time":116000000000,"state":"active","ping":92},{"user_id":149,"name":"Muffim","steam_id":76561198056704533,"connected_time":11000000000,"state":"active","ping":60},{"user_id":116,"name":"Moonflower ‚ú¶","steam_id":76561198191782483,"connected_time":4205000000000,"state":"active","ping":48},{"user_id":142,"name":"The Prankster‚Ñ¢","steam_id":76561199123285878,"connected_time":480000000000,"state":"active","ping":86},{"user_id":85,"name":"Rat Smacker","steam_id":76561199090197628,"connected_time":5760000000000,"state":"active","ping":66},{"user_id":132,"name":"!MONSTR_GRRL!","steam_id":76561198265633146,"connected_time":2647000000000,"state":"active","ping":83},{"user_id":130,"name":"BrightOrangeMango","steam_id":76561198023144607,"connected_time":2729000000000,"state":"active","ping":72},{"user_id":111,"name":"Elena Manetta","steam_id":76561197998344054,"connected_time":4387000000000,"state":"active","ping":76},{"user_id":119,"name":"‚òÜNebula-Belt‚òÜ","steam_id":76561198151250806,"connected_time":3381000000000,"state":"active","ping":104},{"user_id":134,"name":"Riff","steam_id":76561198066921423,"connected_time":2546000000000,"state":"active","ping":61},{"user_id":97,"name":"Sergeant-Z","steam_id":76561198220204121,"connected_time":5271000000000,"state":"active","ping":130},{"user_id":103,"name":"Mario trapped in a piano","steam_id":76561198116765135,"connected_time":4581000000000,"state":"active","ping":104},{"user_id":135,"name":"The cum wars","steam_id":76561198208369443,"connected_time":2433000000000,"state":"active","ping":42},{"user_id":139,"name":"Jello","steam_id":76561198890633732,"connected_time":1108000000000,"state":"active","ping":60},{"user_id":125,"name":"Dillon","steam_id":76561198191469611,"connected_time":3266000000000,"state":"active","ping":99},{"user_id":113,"name":"catface","steam_id":76561198096347625,"connected_time":4354000000000,"state":"active","ping":81},{"user_id":137,"name":"KittyCatMeowMeow","steam_id":76561198211632819,"connected_time":1483000000000,"state":"active","ping":47},{"user_id":146,"name":"RedTheFoxisWow","steam_id":76561198827275380,"connected_time":436000000000,"state":"active","ping":67}]},{"server_id":108,"name":"Uncletopia | Dallas | 2 | All Maps","name_short":"dal-2","host":"dal-1.us.uncletopia.com","port":27025,"enabled":true,"region":"us-central","cc":"us","latitude":32.779167,"longitude":-96.80889,"reserved":0,"last_update":"0001-01-01T00:00:00Z","name_a2s":"Uncletopia | Dallas | 2 | All Maps","protocol":17,"map":"pl_frontier_final","folder":"tf","game":"Team Fortress","app_id":440,"player_count":0,"max_players":24,"Bots":0,"server_type":"Dedicated","server_os":"Linux","password":true,"vac":true,"version":"7742253","steam_id":85568392924469988,"keywords":["nocrits","nodmgspread","payload","uncletopia"],"game_id":440,"stv_port":27026,"stv_name":"Uncletopia | Dallas | 2 | All Maps | STV","players":null},{"server_id":5,"name":"Uncletopia | Frankfurt | 1 | All Maps","name_short":"frk-1","host":"frk-1.de.uncletopia.com","port":27015,"enabled":true,"region":"eu","cc":"de","latitude":50.110924,"longitude":8.682127,"reserved":0,"last_update":"0001-01-01T00:00:00Z","name_a2s":"Uncletopia | Frankfurt | 1 | All Maps","protocol":17,"map":"pl_wutville_event","folder":"tf","game":"Team Fortress","app_id":440,"player_count":24,"max_players":24,"Bots":0,"server_type":"Dedicated","server_os":"Linux","password":true,"vac":true,"version":"7742253","steam_id":85568392924469989,"keywords":["nocrits","nodmgspread","payload","uncletopia"],"game_id":440,"stv_port":27016,"stv_name":"Uncletopia | Frankfurt | 1 | All Maps | STV","players":[{"user_id":699,"name":"Marioalexsan","steam_id":76561198125512367,"connected_time":4595000000000,"state":"active","ping":69},{"user_id":709,"name":"Toucan Phoenix","steam_id":76561198314587216,"connected_time":4108000000000,"state":"active","ping":73},{"user_id":736,"name":"3 Netherite incident","steam_id":76561199082027723,"connected_time":413000000000,"state":"active","ping":55},{"user_id":743,"name":"PLATYPUS","steam_id":76561198255796625,"connected_time":5000000000,"state":"spawning","ping":211},{"user_id":678,"name":"|20BB)\u003eMach","steam_id":76561198952487564,"connected_time":5817000000000,"state":"active","ping":72},{"user_id":737,"name":"Lukas","steam_id":76561198009118452,"connected_time":376000000000,"state":"active","ping":54},{"user_id":714,"name":"Adam Sandler","steam_id":76561198310408309,"connected_time":2884000000000,"state":"active","ping":60},{"user_id":732,"name":"DocTwoEight","steam_id":76561198153488940,"connected_time":909000000000,"state":"active","ping":66},{"user_id":719,"name":"Ducky[WADZ]üê§","steam_id":76561198060341245,"connected_time":2183000000000,"state":"active","ping":40},{"user_id":739,"name":"D4n","steam_id":76561198947987691,"connected_time":298000000000,"state":"active","ping":51},{"user_id":721,"name":"Biscaya","steam_id":76561198065618474,"connected_time":1419000000000,"state":"active","ping":46},{"user_id":667,"name":"JJstar","steam_id":76561199087720713,"connected_time":6701000000000,"state":"active","ping":88},{"user_id":717,"name":"loveless","steam_id":76561198142256651,"connected_time":2358000000000,"state":"active","ping":88},{"user_id":741,"name":"MR.CRAB","steam_id":76561198329833659,"connected_time":61000000000,"state":"active","ping":75},{"user_id":603,"name":"Rudebwoyyy","steam_id":76561199387956486,"connected_time":10413000000000,"state":"active","ping":56},{"user_id":700,"name":"Hedj","steam_id":76561198108369687,"connected_time":4590000000000,"state":"active","ping":45},{"user_id":660,"name":"PLUTO","steam_id":76561198312436128,"connected_time":6737000000000,"state":"active","ping":122},{"user_id":742,"name":"breadlikeme.","steam_id":76561198133532980,"connected_time":61000000000,"state":"active","ping":60},{"user_id":705,"name":"Dungus","steam_id":76561198042774930,"connected_time":4363000000000,"state":"active","ping":76},{"user_id":713,"name":"Orville Wilcox","steam_id":76561198210512053,"connected_time":3469000000000,"state":"active","ping":53},{"user_id":740,"name":"Swift","steam_id":76561197998799889,"connected_time":268000000000,"state":"active","ping":60},{"user_id":686,"name":"Whirlwind","steam_id":76561198942024930,"connected_time":5626000000000,"state":"active","ping":104},{"user_id":697,"name":"leminsc8","steam_id":76561198825084995,"connected_time":4787000000000,"state":"active","ping":35},{"user_id":647,"name":"LarsInABox","steam_id":76561198028329262,"connected_time":8028000000000,"state":"active","ping":74}]},{"server_id":110,"name":"Uncletopia | Frankfurt | 2 | All Maps","name_short":"frk-2","host":"frk-1.de.uncletopia.com","port":27025,"enabled":true,"region":"eu","cc":"de","latitude":50.110924,"longitude":8.682127,"reserved":0,"last_update":"0001-01-01T00:00:00Z","name_a2s":"Uncletopia | Frankfurt | 2 | All Maps","protocol":17,"map":"pl_frontier_final","folder":"tf","game":"Team Fortress","app_id":440,"player_count":23,"max_players":24,"Bots":0,"server_type":"Dedicated","server_os":"Linux","password":true,"vac":true,"version":"7742253","steam_id":85568392924469990,"keywords":["nocrits","nodmgspread","payload","uncletopia"],"game_id":440,"stv_port":27026,"stv_name":"Uncletopia | Frankfurt | 2 | All Maps | STV","players":[{"user_id":624,"name":"Dkz","steam_id":76561197970673402,"connected_time":2070000000000,"state":"active","ping":51},{"user_id":650,"name":"Pruff","steam_id":76561198377084417,"connected_time":499000000000,"state":"active","ping":60},{"user_id":620,"name":"Kenny","steam_id":76561198107911141,"connected_time":2443000000000,"state":"active","ping":47},{"user_id":520,"name":"ivanmixo","steam_id":76561198160213989,"connected_time":8621000000000,"state":"active","ping":60},{"user_id":622,"name":"marcelwellmann","steam_id":76561198868282827,"connected_time":2199000000000,"state":"active","ping":63},{"user_id":644,"name":"frosty","steam_id":76561198094560834,"connected_time":548000000000,"state":"active","ping":55},{"user_id":654,"name":"Coffee","steam_id":76561198833315038,"connected_time":11000000000,"state":"spawning","ping":59},{"user_id":612,"name":"glyph","steam_id":76561197980736364,"connected_time":3273000000000,"state":"active","ping":72},{"user_id":652,"name":"Burrito","steam_id":76561198023919089,"connected_time":235000000000,"state":"active","ping":79},{"user_id":597,"name":"Zelmor","steam_id":76561197997708311,"connected_time":3939000000000,"state":"active","ping":45},{"user_id":655,"name":"mordecai.nmc","steam_id":76561197997223851,"connected_time":7000000000,"state":"spawning","ping":59},{"user_id":656,"name":"what can swim? a little stone","steam_id":76561198123131045,"connected_time":3000000000,"state":"spawning","ping":62},{"user_id":653,"name":"jeff","steam_id":76561198025815509,"connected_time":139000000000,"state":"active","ping":56},{"user_id":628,"name":"Talent","steam_id":76561198153880354,"connected_time":1979000000000,"state":"active","ping":49},{"user_id":632,"name":"Yos","steam_id":76561199056318258,"connected_time":1899000000000,"state":"active","ping":79},{"user_id":633,"name":"o_o","steam_id":76561198113045011,"connected_time":1894000000000,"state":"active","ping":90},{"user_id":651,"name":"Borat","steam_id":76561198122226417,"connected_time":295000000000,"state":"active","ping":47},{"user_id":646,"name":"Jar","steam_id":76561198156384007,"connected_time":537000000000,"state":"active","ping":62},{"user_id":565,"name":"Miton","steam_id":76561197970323209,"connected_time":6378000000000,"state":"active","ping":75},{"user_id":592,"name":"O. Wilson","steam_id":76561198090751331,"connected_time":3968000000000,"state":"active","ping":63},{"user_id":643,"name":"Loud Pack","steam_id":76561198122181176,"connected_time":565000000000,"state":"active","ping":50},{"user_id":647,"name":"Lennox","steam_id":76561198069063554,"connected_time":536000000000,"state":"active","ping":45},{"user_id":648,"name":"sbkcoder","steam_id":76561199045062081,"connected_time":513000000000,"state":"active","ping":152}]},{"server_id":308,"name":"Uncletopia | Frankfurt | 3 | All Maps","name_short":"frk-3","host":"frk-1.de.uncletopia.com","port":27035,"enabled":true,"region":"eu","cc":"de","latitude":50.110924,"longitude":8.682127,"reserved":0,"last_update":"0001-01-01T00:00:00Z","name_a2s":"Uncletopia | Frankfurt | 3 | All Maps","protocol":17,"map":"cp_steel","folder":"tf","game":"Team Fortress","app_id":440,"player_count":24,"max_players":24,"Bots":0,"server_type":"Dedicated","server_os":"Linux","password":true,"vac":true,"version":"7742253","steam_id":85568392924504274,"keywords":["cp","nocrits","nodmgspread","uncletopia"],"game_id":440,"stv_port":27036,"stv_name":"Uncletopia | Frankfurt | 3 | All Maps | STV","players":[{"user_id":505,"name":"Saint","steam_id":76561198303326214,"connected_time":4004000000000,"state":"active","ping":70},{"user_id":527,"name":"gatt","steam_id":76561198130597877,"connected_time":3430000000000,"state":"active","ping":63},{"user_id":580,"name":"Harpenden, Harpenden, Harpenden","steam_id":76561198118138546,"connected_time":531000000000,"state":"active","ping":61},{"user_id":568,"name":"Koleisus","steam_id":76561198045374646,"connected_time":905000000000,"state":"active","ping":59},{"user_id":536,"name":"Frazzles","steam_id":76561199228009586,"connected_time":2607000000000,"state":"active","ping":63},{"user_id":575,"name":"Wallster","steam_id":76561198329647787,"connected_time":688000000000,"state":"active","ping":67},{"user_id":510,"name":"opaacic","steam_id":76561199158514501,"connected_time":3854000000000,"state":"active","ping":73},{"user_id":560,"name":"nairolf","steam_id":76561198007055352,"connected_time":1267000000000,"state":"active","ping":49},{"user_id":573,"name":"Pootis","steam_id":76561198215703496,"connected_time":712000000000,"state":"active","ping":55},{"user_id":574,"name":"super idolÁöÑÁ¨ëÂÆπÈÉΩÊ≤°‰Ω†ÁöÑ","steam_id":76561198103181033,"connected_time":710000000000,"state":"active","ping":60},{"user_id":567,"name":"Ale1199","steam_id":76561198994871986,"connected_time":1033000000000,"state":"active","ping":71},{"user_id":584,"name":"Smog","steam_id":76561198102562006,"connected_time":1000000000,"state":"spawning","ping":45},{"user_id":551,"name":"Hardway","steam_id":76561198272529254,"connected_time":1638000000000,"state":"active","ping":62},{"user_id":476,"name":"Powa","steam_id":76561198069424168,"connected_time":6530000000000,"state":"active","ping":56},{"user_id":561,"name":"Kati","steam_id":76561198007231088,"connected_time":1235000000000,"state":"active","ping":53},{"user_id":579,"name":"StingsFlow","steam_id":76561198012674442,"connected_time":572000000000,"state":"active","ping":77},{"user_id":531,"name":"SoulDipper","steam_id":76561199099298530,"connected_time":3251000000000,"state":"active","ping":138},{"user_id":559,"name":"UnkillableDemonKing","steam_id":76561198050369473,"connected_time":1452000000000,"state":"active","ping":63},{"user_id":583,"name":"Dolphin2011","steam_id":76561197997323419,"connected_time":143000000000,"state":"active","ping":90},{"user_id":569,"name":"scantron","steam_id":76561199103959197,"connected_time":851000000000,"state":"active","ping":109},{"user_id":578,"name":"rajAs","steam_id":76561198035928111,"connected_time":649000000000,"state":"active","ping":76},{"user_id":581,"name":"soil.dirt.earth","steam_id":76561198014377623,"connected_time":444000000000,"state":"active","ping":65},{"user_id":526,"name":"Dr.Nefario","steam_id":76561198874586020,"connected_time":3663000000000,"state":"active","ping":68},{"user_id":541,"name":"Truck-Sama's Victim","steam_id":76561198826861582,"connected_time":2370000000000,"state":"active","ping":81}]},{"server_id":309,"name":"Uncletopia | Frankfurt | 4 | All Maps","name_short":"frk-4","host":"frk-1.de.uncletopia.com","port":27045,"enabled":true,"region":"eu","cc":"de","latitude":50.110924,"longitude":8.682127,"reserved":0,"last_update":"0001-01-01T00:00:00Z","name_a2s":"Uncletopia | Frankfurt | 4 | All Maps","protocol":17,"map":"pl_upward","folder":"tf","game":"Team Fortress","app_id":440,"player_count":24,"max_players":24,"Bots":0,"server_type":"Dedicated","server_os":"Linux","password":true,"vac":true,"version":"7742253","steam_id":85568392924504275,"keywords":["nocrits","nodmgspread","payload","uncletopia"],"game_id":440,"stv_port":27046,"stv_name":"Uncletopia | Frankfurt | 4 | All Maps | STV","players":[{"user_id":629,"name":"Pyrolander","steam_id":76561198050785450,"connected_time":538000000000,"state":"active","ping":55},{"user_id":620,"name":"timothytrombone456","steam_id":76561197995676953,"connected_time":1075000000000,"state":"active","ping":45},{"user_id":635,"name":"Echo of Abyss","steam_id":76561198981841782,"connected_time":125000000000,"state":"active","ping":75},{"user_id":613,"name":"ttv.twitch.tv/watchLive","steam_id":76561198047359132,"connected_time":1758000000000,"state":"active","ping":70},{"user_id":574,"name":"KillerQueen (he/they/she)","steam_id":76561199019399725,"connected_time":4077000000000,"state":"active","ping":64},{"user_id":611,"name":"Fenev","steam_id":76561198030640908,"connected_time":1939000000000,"state":"active","ping":50},{"user_id":634,"name":"{ST} Oxythemoron","steam_id":76561198060089965,"connected_time":151000000000,"state":"active","ping":188},{"user_id":630,"name":"¬¨¬∞Nice","steam_id":76561198387871867,"connected_time":498000000000,"state":"active","ping":179},{"user_id":624,"name":"tone","steam_id":76561197975301462,"connected_time":1030000000000,"state":"active","ping":87},{"user_id":560,"name":"dddd","steam_id":76561198120894372,"connected_time":4849000000000,"state":"active","ping":108},{"user_id":625,"name":"Freedster","steam_id":76561198140069666,"connected_time":1022000000000,"state":"active","ping":151},{"user_id":561,"name":"Mukasa csgetto.games","steam_id":76561198268918157,"connected_time":4809000000000,"state":"active","ping":90},{"user_id":600,"name":"DeCypher","steam_id":76561198171992619,"connected_time":2770000000000,"state":"active","ping":62},{"user_id":616,"name":"Crayfry","steam_id":76561198146525237,"connected_time":1498000000000,"state":"active","ping":151},{"user_id":460,"name":"Ar|es","steam_id":76561198819160313,"connected_time":11764000000000,"state":"active","ping":76},{"user_id":609,"name":"Totally Something","steam_id":76561198916824935,"connected_time":2298000000000,"state":"active","ping":56},{"user_id":617,"name":"TheEventGuy","steam_id":76561197972797744,"connected_time":1486000000000,"state":"active","ping":54},{"user_id":569,"name":"shoras","steam_id":76561198019680159,"connected_time":4430000000000,"state":"active","ping":90},{"user_id":619,"name":"ÿ®ÿ±ŸáŸÜŸá ÿÆŸàÿ¥ÿ≠ÿßŸÑ","steam_id":76561198327135462,"connected_time":1209000000000,"state":"active","ping":183},{"user_id":604,"name":"Batunga","steam_id":76561198174496709,"connected_time":2674000000000,"state":"active","ping":62},{"user_id":615,"name":"Sneaky boi","steam_id":76561199195985387,"connected_time":1664000000000,"state":"active","ping":82},{"user_id":575,"name":"Chaos Soup","steam_id":76561198346417565,"connected_time":4044000000000,"state":"active","ping":70},{"user_id":632,"name":"homeinvasion$","steam_id":76561199111905021,"connected_time":280000000000,"state":"active","ping":106},{"user_id":626,"name":"Windows Vista Cruiser","steam_id":76561198064102233,"connected_time":1022000000000,"state":"active","ping":65}]},{"server_id":310,"name":"Uncletopia | Frankfurt | 5 | All Maps","name_short":"frk-5","host":"frk-1.de.uncletopia.com","port":27055,"enabled":true,"region":"eu","cc":"de","latitude":50.110924,"longitude":8.682127,"reserved":0,"last_update":"0001-01-01T00:00:00Z","name_a2s":"Uncletopia | Frankfurt | 5 | All Maps","protocol":17,"map":"pl_badwater","folder":"tf","game":"Team Fortress","app_id":440,"player_count":24,"max_players":24,"Bots":0,"server_type":"Dedicated","server_os":"Linux","password":true,"vac":true,"version":"7742253","steam_id":85568392924504277,"keywords":["nocrits","nodmgspread","payload","uncletopia"],"game_id":440,"stv_port":27056,"stv_name":"Uncletopia | Frankfurt | 5 | All Maps | STV","players":[{"user_id":541,"name":"CruelGospel","steam_id":76561197990884259,"connected_time":1504000000000,"state":"active","ping":85},{"user_id":543,"name":"purplecan","steam_id":76561199208283508,"connected_time":1129000000000,"state":"active","ping":60},{"user_id":545,"name":"Trollface [·¥ô-Œº]","steam_id":76561198418538887,"connected_time":956000000000,"state":"active","ping":91},{"user_id":554,"name":"tofort","steam_id":76561199063206833,"connected_time":531000000000,"state":"active","ping":74},{"user_id":553,"name":"KLAMA  ‚ù§","steam_id":76561198351549661,"connected_time":628000000000,"state":"active","ping":67},{"user_id":544,"name":"(wm) Das Fleisch","steam_id":76561198001250715,"connected_time":962000000000,"state":"active","ping":72},{"user_id":542,"name":"Sensa","steam_id":76561198170939811,"connected_time":1312000000000,"state":"active","ping":59},{"user_id":546,"name":"subway vergil","steam_id":76561199110064166,"connected_time":955000000000,"state":"active","ping":73},{"user_id":534,"name":"yummy cheesecake","steam_id":76561198808819694,"connected_time":1890000000000,"state":"active","ping":49},{"user_id":547,"name":"Muppburg","steam_id":76561198031070682,"connected_time":906000000000,"state":"active","ping":73},{"user_id":555,"name":"20BB Raxor","steam_id":76561198239927434,"connected_time":506000000000,"state":"active","ping":90},{"user_id":531,"name":"rolling_tim","steam_id":76561198373668332,"connected_time":2111000000000,"state":"active","ping":61},{"user_id":532,"name":".apo","steam_id":76561198003042239,"connected_time":2099000000000,"state":"active","ping":53},{"user_id":508,"name":"Mottinen","steam_id":76561198223868928,"connected_time":3952000000000,"state":"active","ping":76},{"user_id":557,"name":"Carrot","steam_id":76561198119340863,"connected_time":133000000000,"state":"active","ping":55},{"user_id":510,"name":"ToniGAM3S","steam_id":76561198128605351,"connected_time":3889000000000,"state":"active","ping":65},{"user_id":552,"name":"After8","steam_id":76561198090750865,"connected_time":869000000000,"state":"active","ping":72},{"user_id":549,"name":"Malphite","steam_id":76561198073313660,"connected_time":898000000000,"state":"active","ping":66},{"user_id":504,"name":"where is my egg?","steam_id":76561198172542535,"connected_time":4026000000000,"state":"active","ping":130},{"user_id":550,"name":"Jesus","steam_id":76561198119288049,"connected_time":888000000000,"state":"active","ping":50},{"user_id":496,"name":"DanteFromDmc5","steam_id":76561198390314734,"connected_time":4329000000000,"state":"active","ping":62},{"user_id":538,"name":"It hurts when i pee (real)","steam_id":76561198139404261,"connected_time":1701000000000,"state":"active","ping":59},{"user_id":540,"name":"Meltryllis","steam_id":76561198157773041,"connected_time":1544000000000,"state":"active","ping":94},{"user_id":527,"name":"Tofu'","steam_id":76561197984621343,"connected_time":2938000000000,"state":"active","ping":55}]},{"server_id":311,"name":"Uncletopia | Frankfurt | 6 | All Maps","name_short":"frk-6","host":"frk-1.de.uncletopia.com","port":27065,"enabled":true,"region":"eu","cc":"de","latitude":50.110924,"longitude":8.682127,"reserved":0,"last_update":"0001-01-01T00:00:00Z","name_a2s":"Uncletopia | Frankfurt | 6 | All Maps","protocol":17,"map":"koth_lakeside_final","folder":"tf","game":"Team Fortress","app_id":440,"player_count":24,"max_players":24,"Bots":0,"server_type":"Dedicated","server_os":"Linux","password":true,"vac":true,"version":"7742253","steam_id":85568392924504278,"keywords":["cp","nocrits","nodmgspread","uncletopia"],"game_id":440,"stv_port":27066,"stv_name":"Uncletopia | Frankfurt | 6 | All Maps | STV","players":[{"user_id":133,"name":"Raboute","steam_id":76561198040814507,"connected_time":5001000000000,"state":"active","ping":46},{"user_id":173,"name":"Lav","steam_id":76561198991138683,"connected_time":2385000000000,"state":"active","ping":81},{"user_id":132,"name":"yuh","steam_id":76561199005555839,"connected_time":5271000000000,"state":"active","ping":72},{"user_id":206,"name":"Gardvord","steam_id":76561198120715753,"connected_time":435000000000,"state":"active","ping":68},{"user_id":205,"name":"cereals","steam_id":76561198058656179,"connected_time":472000000000,"state":"active","ping":52},{"user_id":207,"name":"lillkalle5","steam_id":76561198846227200,"connected_time":429000000000,"state":"active","ping":66},{"user_id":161,"name":"Lucian","steam_id":76561198102459034,"connected_time":3120000000000,"state":"active","ping":60},{"user_id":187,"name":".bRdyyy","steam_id":76561198057256978,"connected_time":1465000000000,"state":"active","ping":45},{"user_id":122,"name":"Billy Genie","steam_id":76561198061724014,"connected_time":5945000000000,"state":"active","ping":46},{"user_id":208,"name":"Hexagon","steam_id":76561198151205758,"connected_time":419000000000,"state":"active","ping":56},{"user_id":209,"name":"splarvis","steam_id":76561198007792525,"connected_time":417000000000,"state":"active","ping":60},{"user_id":162,"name":"glyphoglossus molossus","steam_id":76561198191291749,"connected_time":3101000000000,"state":"active","ping":67},{"user_id":197,"name":"cum 2","steam_id":76561198010075638,"connected_time":830000000000,"state":"active","ping":74},{"user_id":154,"name":"Yakashii","steam_id":76561198073297078,"connected_time":3552000000000,"state":"active","ping":64},{"user_id":199,"name":"Chiefuz","steam_id":76561198015535215,"connected_time":786000000000,"state":"active","ping":60},{"user_id":200,"name":"Cobb Salads","steam_id":76561197971140507,"connected_time":758000000000,"state":"active","ping":66},{"user_id":203,"name":"Scipionemiliano","steam_id":76561198027646559,"connected_time":622000000000,"state":"active","ping":112},{"user_id":212,"name":"Acxsa","steam_id":76561198098979449,"connected_time":221000000000,"state":"active","ping":72},{"user_id":191,"name":"Br4inP0w3r","steam_id":76561198133592621,"connected_time":1362000000000,"state":"active","ping":83},{"user_id":213,"name":"TheFox.tf","steam_id":76561197996851702,"connected_time":184000000000,"state":"active","ping":71},{"user_id":214,"name":"Raven","steam_id":76561198087296188,"connected_time":180000000000,"state":"active","ping":64},{"user_id":156,"name":"Patrick Ratrick","steam_id":76561198086190783,"connected_time":3239000000000,"state":"active","ping":61},{"user_id":192,"name":"John Daly","steam_id":76561197993849325,"connected_time":1324000000000,"state":"active","ping":78},{"user_id":216,"name":"Celisium","steam_id":76561198071537396,"connected_time":119000000000,"state":"active","ping":82}]},{"server_id":23,"name":"Uncletopia | Frankfurt | 7 | Stopwatch Beta","name_short":"frk-7","host":"frk-1.de.uncletopia.com","port":27075,"enabled":true,"region":"eu","cc":"de","latitude":50.110924,"longitude":8.682127,"reserved":0,"last_update":"0001-01-01T00:00:00Z","name_a2s":"Uncletopia | Frankfurt | 7 | Stopwatch Beta","protocol":17,"map":"workshop/pl_badwater_pro_v12.ugc2142942074","folder":"tf","game":"Team Fortress","app_id":440,"player_count":0,"max_players":24,"Bots":0,"server_type":"Dedicated","server_os":"Linux","password":true,"vac":true,"version":"7742253","steam_id":85568392924742827,"keywords":["nocrits","nodmgspread","payload","uncletopia"],"game_id":440,"stv_port":27076,"stv_name":"Uncletopia | Frankfurt | 7 | Stopwatch Beta | STV","players":null},{"server_id":24,"name":"Uncletopia | Frankfurt | 8 | Community","name_short":"frk-8","host":"frk-1.de.uncletopia.com","port":27085,"enabled":true,"region":"eu","cc":"de","latitude":50.110924,"longitude":8.682127,"reserved":0,"last_update":"0001-01-01T00:00:00Z","name_a2s":"Uncletopia | Frankfurt | 8 | Community","protocol":17,"map":"workshop/cp_reckoner_rc6.ugc674719999","folder":"tf","game":"Team Fortress","app_id":440,"player_count":0,"max_players":24,"Bots":0,"server_type":"Dedicated","server_os":"Linux","password":true,"vac":true,"version":"7742253","steam_id":85568392924742828,"keywords":["cp","nocrits","nodmgspread","uncletopia"],"game_id":440,"stv_port":27086,"stv_name":"Uncletopia | Frankfurt | 8 | Community | STV","players":null},{"server_id":202,"name":"Uncletopia | Hong Kong | 1 | All Maps","name_short":"hgk-1","host":"hgk-1.hk.uncletopia.com","port":27015,"enabled":true,"region":"asia","cc":"hk","latitude":22.302711,"longitude":114.177216,"reserved":0,"last_update":"0001-01-01T00:00:00Z","name_a2s":"Uncletopia | Hong Kong | 1 | All Maps","protocol":17,"map":"pl_swiftwater_final1","folder":"tf","game":"Team Fortress","app_id":440,"player_count":0,"max_players":24,"Bots":0,"server_type":"Dedicated","server_os":"Linux","password":true,"vac":true,"version":"7742253","steam_id":85568392924494504,"keywords":["nocrits","nodmgspread","payload","uncletopia"],"game_id":440,"stv_port":27016,"stv_name":"Uncletopia | Hong Kong | 1 | All Maps | STV","players":null},{"server_id":1,"name":"Uncletopia | Los Angeles | 1 | All Maps","name_short":"lax-1","host":"lax-1.us.uncletopia.com","port":27015,"enabled":true,"region":"us-west","cc":"us","latitude":33.94279,"longitude":-118.41004,"reserved":0,"last_update":"0001-01-01T00:00:00Z","name_a2s":"Uncletopia | Los Angeles | 1 | All Maps","protocol":17,"map":"pl_upward","folder":"tf","game":"Team Fortress","app_id":440,"player_count":24,"max_players":24,"Bots":0,"server_type":"Dedicated","server_os":"Linux","password":true,"vac":true,"version":"7742253","steam_id":85568392924469991,"keywords":["nocrits","nodmgspread","payload","uncletopia"],"game_id":440,"stv_port":27016,"stv_name":"Uncletopia | Los Angeles | 1 | All Maps | STV","players":[{"user_id":8,"name":"arkham ‚ô•","steam_id":76561198218773932,"connected_time":2236000000000,"state":"active","ping":51},{"user_id":27,"name":"Hernandez$","steam_id":76561198019324588,"connected_time":627000000000,"state":"active","ping":50},{"user_id":36,"name":"Prime","steam_id":76561198218218705,"connected_time":128000000000,"state":"active","ping":66},{"user_id":9,"name":"player 2","steam_id":76561198158952440,"connected_time":1988000000000,"state":"active","ping":68},{"user_id":22,"name":"The Squid Gamer‚Ñ¢","steam_id":76561198340621517,"connected_time":681000000000,"state":"active","ping":73},{"user_id":12,"name":"Altruisticailuridae","steam_id":76561198335295596,"connected_time":1407000000000,"state":"active","ping":55},{"user_id":19,"name":"Bigby","steam_id":76561199056842761,"connected_time":785000000000,"state":"active","ping":45},{"user_id":14,"name":"jungus","steam_id":76561198129862008,"connected_time":1322000000000,"state":"active","ping":45},{"user_id":16,"name":"festivized autism girl","steam_id":76561198008908085,"connected_time":1169000000000,"state":"active","ping":34},{"user_id":17,"name":"ayaya?","steam_id":76561199000188109,"connected_time":910000000000,"state":"active","ping":48},{"user_id":18,"name":"ERRAfan72","steam_id":76561198025747866,"connected_time":897000000000,"state":"active","ping":72},{"user_id":38,"name":"Anyar","steam_id":76561198160174097,"connected_time":111000000000,"state":"active","ping":85},{"user_id":40,"name":"Harold","steam_id":76561198057317770,"connected_time":95000000000,"state":"active","ping":47},{"user_id":23,"name":"Gamehero637","steam_id":76561198880355236,"connected_time":678000000000,"state":"active","ping":47},{"user_id":24,"name":"bansheerubber","steam_id":76561198042009362,"connected_time":675000000000,"state":"active","ping":56},{"user_id":25,"name":"Deno! Í∞ÑÎ∂Ä","steam_id":76561198041113335,"connected_time":658000000000,"state":"active","ping":82},{"user_id":41,"name":"Back with the milk","steam_id":76561199020105501,"connected_time":85000000000,"state":"active","ping":111},{"user_id":42,"name":"meow","steam_id":76561198298140571,"connected_time":56000000000,"state":"active","ping":56},{"user_id":29,"name":"Schnitz","steam_id":76561198265484253,"connected_time":543000000000,"state":"active","ping":46},{"user_id":30,"name":"plat","steam_id":76561198974178569,"connected_time":528000000000,"state":"active","ping":70},{"user_id":35,"name":"Biggest Dude In Town 4U","steam_id":76561198070281464,"connected_time":230000000000,"state":"active","ping":92},{"user_id":43,"name":"MR.meeseeks","steam_id":76561198294943420,"connected_time":31000000000,"state":"active","ping":92},{"user_id":39,"name":"ToastyNuts","steam_id":76561198064465418,"connected_time":110000000000,"state":"active","ping":84},{"user_id":34,"name":"paChewychomp","steam_id":76561198068738250,"connected_time":376000000000,"state":"active","ping":78}]},{"server_id":112,"name":"Uncletopia | Los Angeles | 2 | All Maps","name_short":"lax-2","host":"lax-1.us.uncletopia.com","port":27025,"enabled":true,"region":"us-west","cc":"us","latitude":33.94279,"longitude":-118.41004,"reserved":0,"last_update":"0001-01-01T00:00:00Z","name_a2s":"Uncletopia | Los Angeles | 2 | All Maps","protocol":17,"map":"cp_snakewater_final1","folder":"tf","game":"Team Fortress","app_id":440,"player_count":0,"max_players":24,"Bots":0,"server_type":"Dedicated","server_os":"Linux","password":true,"vac":true,"version":"7742253","steam_id":85568392924469992,"keywords":["cp","nocrits","nodmgspread","uncletopia"],"game_id":440,"stv_port":27026,"stv_name":"Uncletopia | Los Angeles | 2 | All Maps | STV","players":null},{"server_id":324,"name":"Uncletopia | Los Angeles | 3 | All Maps","name_short":"lax-3","host":"lax-1.us.uncletopia.com","port":27035,"enabled":true,"region":"us-west","cc":"us","latitude":33.94279,"longitude":-118.41004,"reserved":0,"last_update":"0001-01-01T00:00:00Z","name_a2s":"Uncletopia | Los Angeles | 3 | All Maps","protocol":17,"map":"cp_mountainlab","folder":"tf","game":"Team Fortress","app_id":440,"player_count":0,"max_players":24,"Bots":0,"server_type":"Dedicated","server_os":"Linux","password":true,"vac":true,"version":"7742253","steam_id":85568392924510198,"keywords":["cp","nocrits","nodmgspread","uncletopia"],"game_id":440,"stv_port":27036,"stv_name":"Uncletopia | Los Angeles | 3 | All Maps | STV","players":null},{"server_id":25,"name":"Uncletopia | Los Angeles | 4 | Stopwatch Beta","name_short":"lax-4","host":"lax-1.us.uncletopia.com","port":27045,"enabled":true,"region":"us-west","cc":"us","latitude":33.94279,"longitude":-118.41004,"reserved":0,"last_update":"0001-01-01T00:00:00Z","name_a2s":"Uncletopia | Los Angeles | 4 | Stopwatch Beta","protocol":17,"map":"workshop/koth_clearcut_b15.ugc2107050255","folder":"tf","game":"Team Fortress","app_id":440,"player_count":0,"max_players":24,"Bots":0,"server_type":"Dedicated","server_os":"Linux","password":true,"vac":true,"version":"7742253","steam_id":85568392924510199,"keywords":["cp","nocrits","nodmgspread","uncletopia"],"game_id":440,"stv_port":27046,"stv_name":"Uncletopia | Los Angeles | 4 | Stopwatch Beta | STV","players":null},{"server_id":11,"name":"Uncletopia | London | 1 | All Maps","name_short":"lon-1","host":"lon-1.uk.uncletopia.com","port":27015,"enabled":true,"region":"eu","cc":"gb","latitude":51.509865,"longitude":-0.118092,"reserved":0,"last_update":"0001-01-01T00:00:00Z","name_a2s":"Uncletopia | London | 1 | All Maps","protocol":17,"map":"pl_snowycoast","folder":"tf","game":"Team Fortress","app_id":440,"player_count":24,"max_players":24,"Bots":0,"server_type":"Dedicated","server_os":"Linux","password":true,"vac":true,"version":"7742253","steam_id":85568392924367362,"keywords":["nocrits","nodmgspread","payload","uncletopia"],"game_id":440,"stv_port":27016,"stv_name":"Uncletopia | London | 1 | All Maps | STV","players":[{"user_id":722,"name":"SOPHIIEE","steam_id":76561198443798981,"connected_time":2804000000000,"state":"active","ping":58},{"user_id":731,"name":"turntechCathead","steam_id":76561198351249088,"connected_time":1702000000000,"state":"active","ping":65},{"user_id":755,"name":"-œÄ- BakaD","steam_id":76561197960559169,"connected_time":247000000000,"state":"active","ping":115},{"user_id":756,"name":"SPACEDOG//TRASHDOG","steam_id":76561199005845405,"connected_time":245000000000,"state":"active","ping":47},{"user_id":715,"name":"K√§pt'n","steam_id":76561198082347638,"connected_time":3623000000000,"state":"active","ping":76},{"user_id":760,"name":"Activating the Barrier","steam_id":76561198174510235,"connected_time":182000000000,"state":"active","ping":54},{"user_id":752,"name":"Sgreff","steam_id":76561198036304365,"connected_time":387000000000,"state":"active","ping":42},{"user_id":753,"name":"Kruthal","steam_id":76561198245726582,"connected_time":369000000000,"state":"active","ping":76},{"user_id":681,"name":"klaus","steam_id":76561198150394201,"connected_time":5892000000000,"state":"active","ping":93},{"user_id":739,"name":"Silverdarlin","steam_id":76561198118540970,"connected_time":1424000000000,"state":"active","ping":55},{"user_id":694,"name":"KPhii","steam_id":76561198970587061,"connected_time":4802000000000,"state":"active","ping":67},{"user_id":698,"name":"Son Goku","steam_id":76561199383437138,"connected_time":4731000000000,"state":"active","ping":120},{"user_id":761,"name":"Posho","steam_id":76561198062396436,"connected_time":135000000000,"state":"active","ping":43},{"user_id":757,"name":"JUSTIN BIEBER","steam_id":76561198113616823,"connected_time":230000000000,"state":"active","ping":64},{"user_id":729,"name":"gweeber","steam_id":76561198377617358,"connected_time":1709000000000,"state":"active","ping":62},{"user_id":749,"name":"dec","steam_id":76561198009660168,"connected_time":834000000000,"state":"active","ping":59},{"user_id":758,"name":"iorga3987","steam_id":76561199214029519,"connected_time":222000000000,"state":"active","ping":68},{"user_id":759,"name":"Tort","steam_id":76561198329646769,"connected_time":207000000000,"state":"active","ping":44},{"user_id":733,"name":"sigma female","steam_id":76561198298576765,"connected_time":1691000000000,"state":"active","ping":69},{"user_id":750,"name":"Shadow WarrioR","steam_id":76561198096082368,"connected_time":575000000000,"state":"active","ping":105},{"user_id":719,"name":"Johnny Cockroach","steam_id":76561198049648277,"connected_time":3048000000000,"state":"active","ping":107},{"user_id":737,"name":"ay","steam_id":76561198033695429,"connected_time":1564000000000,"state":"active","ping":43},{"user_id":720,"name":"tob:ias","steam_id":76561198832146626,"connected_time":3046000000000,"state":"active","ping":51},{"user_id":735,"name":"stonebum","steam_id":76561198057004606,"connected_time":1652000000000,"state":"active","ping":58}]},{"server_id":114,"name":"Uncletopia | London | 2 | All Maps","name_short":"lon-2","host":"lon-1.uk.uncletopia.com","port":27025,"enabled":true,"region":"eu","cc":"gb","latitude":51.509865,"longitude":-0.118092,"reserved":0,"last_update":"0001-01-01T00:00:00Z","name_a2s":"Uncletopia | London | 2 | All Maps","protocol":17,"map":"koth_lakeside_final","folder":"tf","game":"Team Fortress","app_id":440,"player_count":24,"max_players":24,"Bots":0,"server_type":"Dedicated","server_os":"Linux","password":true,"vac":true,"version":"7742253","steam_id":85568392924470941,"keywords":["cp","nocrits","nodmgspread","uncletopia"],"game_id":440,"stv_port":27026,"stv_name":"Uncletopia | London | 2 | All Maps | STV","players":[{"user_id":585,"name":"tactical783","steam_id":76561199051688560,"connected_time":9295000000000,"state":"active","ping":66},{"user_id":720,"name":"Fesesnisco","steam_id":76561198171213241,"connected_time":1245000000000,"state":"active","ping":64},{"user_id":721,"name":"Nobody","steam_id":76561199069072194,"connected_time":1238000000000,"state":"active","ping":54},{"user_id":753,"name":"Gin-Gi","steam_id":76561198108332859,"connected_time":269000000000,"state":"active","ping":53},{"user_id":690,"name":"Jaffa_King7","steam_id":76561199061854803,"connected_time":2310000000000,"state":"active","ping":83},{"user_id":752,"name":"‚òÉ‚ùÜFLVRRY‚òÉ‚ùÜ","steam_id":76561199072765441,"connected_time":303000000000,"state":"active","ping":34},{"user_id":713,"name":"egirl guy","steam_id":76561198170609049,"connected_time":1456000000000,"state":"active","ping":72},{"user_id":701,"name":"Kosher Twink","steam_id":76561198397024973,"connected_time":1951000000000,"state":"active","ping":44},{"user_id":741,"name":"HanhiGaming","steam_id":76561198877007477,"connected_time":745000000000,"state":"active","ping":90},{"user_id":757,"name":"Mushroom :-D","steam_id":76561198097786860,"connected_time":184000000000,"state":"active","ping":81},{"user_id":714,"name":"DJ L3G3ND","steam_id":76561198186112647,"connected_time":1437000000000,"state":"active","ping":51},{"user_id":718,"name":"Cheshireycat","steam_id":76561198067204908,"connected_time":1276000000000,"state":"active","ping":60},{"user_id":755,"name":"zdX","steam_id":76561198163735277,"connected_time":224000000000,"state":"active","ping":68},{"user_id":719,"name":"pizzaboob","steam_id":76561198097507847,"connected_time":1263000000000,"state":"active","ping":79},{"user_id":728,"name":"high priest","steam_id":76561198344887031,"connected_time":1001000000000,"state":"active","ping":57},{"user_id":745,"name":"FULCRUM faded than a ho","steam_id":76561198274959371,"connected_time":531000000000,"state":"active","ping":119},{"user_id":756,"name":"AsuX","steam_id":76561197990333289,"connected_time":200000000000,"state":"active","ping":61},{"user_id":749,"name":"manKe","steam_id":76561198008564860,"connected_time":442000000000,"state":"active","ping":60},{"user_id":736,"name":"lofi hip hop beats","steam_id":76561198348048790,"connected_time":934000000000,"state":"active","ping":46},{"user_id":742,"name":"Sunshine Moon","steam_id":76561198022604491,"connected_time":647000000000,"state":"active","ping":45},{"user_id":737,"name":"Cirox","steam_id":76561198383142404,"connected_time":932000000000,"state":"active","ping":85},{"user_id":738,"name":"Salesman","steam_id":76561198045527771,"connected_time":930000000000,"state":"active","ping":64},{"user_id":750,"name":"PayPal","steam_id":76561198153779215,"connected_time":433000000000,"state":"active","ping":64},{"user_id":751,"name":"rummy","steam_id":76561197997573379,"connected_time":425000000000,"state":"active","ping":44}]},{"server_id":320,"name":"Uncletopia | London | 3 | All Maps","name_short":"lon-3","host":"lon-1.uk.uncletopia.com","port":27035,"enabled":true,"region":"eu","cc":"gb","latitude":51.509865,"longitude":-0.118092,"reserved":0,"last_update":"0001-01-01T00:00:00Z","name_a2s":"Uncletopia | London | 3 | All Maps","protocol":17,"map":"cp_mountainlab","folder":"tf","game":"Team Fortress","app_id":440,"player_count":0,"max_players":24,"Bots":0,"server_type":"Dedicated","server_os":"Linux","password":true,"vac":true,"version":"7742253","steam_id":85568392924510192,"keywords":["cp","nocrits","nodmgspread","uncletopia"],"game_id":440,"stv_port":27036,"stv_name":"Uncletopia | London | 3 | All Maps | STV","players":null},{"server_id":321,"name":"Uncletopia | London | 4 | All Maps","name_short":"lon-4","host":"lon-1.uk.uncletopia.com","port":27045,"enabled":true,"region":"eu","cc":"gb","latitude":51.509865,"longitude":-0.118092,"reserved":0,"last_update":"0001-01-01T00:00:00Z","name_a2s":"Uncletopia | London | 4 | All Maps","protocol":17,"map":"cp_steel","folder":"tf","game":"Team Fortress","app_id":440,"player_count":23,"max_players":24,"Bots":0,"server_type":"Dedicated","server_os":"Linux","password":true,"vac":true,"version":"7742253","steam_id":85568392924510193,"keywords":["cp","nocrits","nodmgspread","uncletopia"],"game_id":440,"stv_port":27046,"stv_name":"Uncletopia | London | 4 | All Maps | STV","players":[{"user_id":290,"name":"xd./. arsJ","steam_id":76561199001056589,"connected_time":791000000000,"state":"active","ping":78},{"user_id":303,"name":"JENNY","steam_id":76561198072302273,"connected_time":166000000000,"state":"active","ping":47},{"user_id":289,"name":"catch me","steam_id":76561198339842948,"connected_time":970000000000,"state":"active","ping":117},{"user_id":241,"name":"big hoops","steam_id":76561198004703799,"connected_time":3636000000000,"state":"active","ping":45},{"user_id":253,"name":"Yolkolai","steam_id":76561198143696927,"connected_time":2979000000000,"state":"active","ping":49},{"user_id":243,"name":"pitbull gaming","steam_id":76561198052412362,"connected_time":3612000000000,"state":"active","ping":60},{"user_id":246,"name":"[Q]","steam_id":76561198018729683,"connected_time":3419000000000,"state":"active","ping":45},{"user_id":295,"name":"Coac","steam_id":76561198085265740,"connected_time":372000000000,"state":"active","ping":73},{"user_id":296,"name":"Flex Finster","steam_id":76561198061632224,"connected_time":304000000000,"state":"active","ping":56},{"user_id":297,"name":".4b","steam_id":76561198249832770,"connected_time":271000000000,"state":"active","ping":49},{"user_id":301,"name":"Frank","steam_id":76561198086672774,"connected_time":217000000000,"state":"active","ping":49},{"user_id":300,"name":"Kamanie","steam_id":76561198135448255,"connected_time":221000000000,"state":"active","ping":60},{"user_id":254,"name":"arcSolver","steam_id":76561198212013944,"connected_time":2979000000000,"state":"active","ping":49},{"user_id":255,"name":"Bungalow Jones","steam_id":76561198089895031,"connected_time":2968000000000,"state":"active","ping":59},{"user_id":292,"name":"Trioud","steam_id":76561198093992054,"connected_time":650000000000,"state":"active","ping":46},{"user_id":307,"name":"bongo cat leader","steam_id":76561198864968829,"connected_time":117000000000,"state":"active","ping":47},{"user_id":304,"name":"Lux","steam_id":76561198060417740,"connected_time":150000000000,"state":"active","ping":45},{"user_id":305,"name":"decriminalise goblins","steam_id":76561198048257605,"connected_time":139000000000,"state":"active","ping":53},{"user_id":266,"name":"BonnieDrag","steam_id":76561199149216429,"connected_time":2606000000000,"state":"active","ping":88},{"user_id":306,"name":"Tortoise Guy","steam_id":76561199047825610,"connected_time":133000000000,"state":"active","ping":82},{"user_id":308,"name":"Bilaterial Newt","steam_id":76561198074655679,"connected_time":105000000000,"state":"active","ping":94},{"user_id":309,"name":"many thanks","steam_id":76561198089003514,"connected_time":98000000000,"state":"active","ping":55},{"user_id":310,"name":"f0x","steam_id":76561198072921704,"connected_time":58000000000,"state":"active","ping":60}]},{"server_id":21,"name":"Uncletopia | London | 5 | All Maps","name_short":"lon-5","host":"lon-1.uk.uncletopia.com","port":27055,"enabled":true,"region":"eu","cc":"gb","latitude":51.509865,"longitude":-0.118092,"reserved":0,"last_update":"0001-01-01T00:00:00Z","name_a2s":"Uncletopia | London | 5 | All Maps","protocol":17,"map":"pl_pier","folder":"tf","game":"Team Fortress","app_id":440,"player_count":24,"max_players":24,"Bots":0,"server_type":"Dedicated","server_os":"Linux","password":true,"vac":true,"version":"7742253","steam_id":85568392924742829,"keywords":["nocrits","nodmgspread","payload","uncletopia"],"game_id":440,"stv_port":27056,"stv_name":"Uncletopia | London | 5 | All Maps | STV","players":[{"user_id":311,"name":"Burbie","steam_id":76561198046069449,"connected_time":1958000000000,"state":"active","ping":55},{"user_id":333,"name":"FoOzTV","steam_id":76561197998636728,"connected_time":645000000000,"state":"active","ping":63},{"user_id":328,"name":"Avv. Cholla Ragione","steam_id":76561198278194944,"connected_time":1009000000000,"state":"active","ping":74},{"user_id":340,"name":"chunked out of your bean","steam_id":76561198148074472,"connected_time":245000000000,"state":"active","ping":59},{"user_id":341,"name":"Dolcelatte","steam_id":76561198038501770,"connected_time":195000000000,"state":"active","ping":60},{"user_id":318,"name":"Saint","steam_id":76561198003296382,"connected_time":1286000000000,"state":"active","ping":74},{"user_id":274,"name":"Volcyy","steam_id":76561198063979124,"connected_time":5146000000000,"state":"active","ping":45},{"user_id":334,"name":"Richard Hammond","steam_id":76561199223016965,"connected_time":625000000000,"state":"active","ping":52},{"user_id":321,"name":"Tails8521","steam_id":76561198051747164,"connected_time":1246000000000,"state":"active","ping":59},{"user_id":322,"name":"78","steam_id":76561198208328357,"connected_time":1242000000000,"state":"active","ping":88},{"user_id":329,"name":"–ë–∏—Ä–∫–∏–Ω","steam_id":76561198271350885,"connected_time":976000000000,"state":"active","ping":84},{"user_id":218,"name":"EGirl | Klarra","steam_id":76561198077745407,"connected_time":8186000000000,"state":"active","ping":71},{"user_id":314,"name":"Cuthbert","steam_id":76561198204649481,"connected_time":1778000000000,"state":"active","ping":96},{"user_id":335,"name":"jovi_","steam_id":76561198449280552,"connected_time":574000000000,"state":"active","ping":56},{"user_id":301,"name":"Ruben Zo","steam_id":76561198063855616,"connected_time":3110000000000,"state":"active","ping":84},{"user_id":336,"name":"meriones","steam_id":76561198034234373,"connected_time":556000000000,"state":"active","ping":43},{"user_id":283,"name":"Fat Pigeon","steam_id":76561198817940142,"connected_time":4722000000000,"state":"active","ping":52},{"user_id":299,"name":"lupe.-","steam_id":76561198079813788,"connected_time":3333000000000,"state":"active","ping":61},{"user_id":337,"name":"Vezage","steam_id":76561198064916164,"connected_time":550000000000,"state":"active","ping":75},{"user_id":230,"name":"X-tis","steam_id":76561198043837480,"connected_time":8017000000000,"state":"active","ping":71},{"user_id":304,"name":"Sotviing","steam_id":76561198154311159,"connected_time":2275000000000,"state":"active","ping":76},{"user_id":284,"name":"LasagnaLarry22","steam_id":76561198089478290,"connected_time":4707000000000,"state":"active","ping":40},{"user_id":298,"name":"Uncle Owen","steam_id":76561198157999291,"connected_time":3505000000000,"state":"active","ping":91},{"user_id":339,"name":"Egg Guzzler","steam_id":76561199109194893,"connected_time":439000000000,"state":"active","ping":161}]},{"server_id":22,"name":"Uncletopia | London | 6 | All Maps","name_short":"lon-6","host":"lon-1.uk.uncletopia.com","port":27065,"enabled":true,"region":"eu","cc":"gb","latitude":51.509865,"longitude":-0.118092,"reserved":0,"last_update":"0001-01-01T00:00:00Z","name_a2s":"Uncletopia | London | 6 | All Maps","protocol":17,"map":"cp_sunshine","folder":"tf","game":"Team Fortress","app_id":440,"player_count":11,"max_players":24,"Bots":0,"server_type":"Dedicated","server_os":"Linux","password":true,"vac":true,"version":"7742253","steam_id":85568392924742830,"keywords":["cp","nocrits","nodmgspread","uncletopia"],"game_id":440,"stv_port":27066,"stv_name":"Uncletopia | London | 6 | All Maps | STV","players":[{"user_id":418,"name":"Nickbro101","steam_id":76561198044271692,"connected_time":66000000000,"state":"active","ping":50},{"user_id":408,"name":"AwterSix","steam_id":76561198042561678,"connected_time":408000000000,"state":"active","ping":53},{"user_id":410,"name":"Áõä‰ª£ÊµÖÈªÑ","steam_id":76561199225554577,"connected_time":109000000000,"state":"active","ping":122},{"user_id":411,"name":"Arturias","steam_id":76561198188720263,"connected_time":108000000000,"state":"active","ping":46},{"user_id":412,"name":"‚Ç≠√§Ã∑≈Çƒê…Ü‚Ç¶","steam_id":76561198166352975,"connected_time":100000000000,"state":"active","ping":59},{"user_id":372,"name":"Wigion the first","steam_id":76561198899108901,"connected_time":4104000000000,"state":"active","ping":37},{"user_id":413,"name":"Rishi Sunak","steam_id":76561199122208451,"connected_time":100000000000,"state":"connecting","ping":0},{"user_id":416,"name":"strangely","steam_id":76561198030697131,"connected_time":86000000000,"state":"active","ping":30},{"user_id":419,"name":"Hiritosaku","steam_id":76561198069659496,"connected_time":53000000000,"state":"active","ping":75},{"user_id":417,"name":"Mario3ghj","steam_id":76561198069804561,"connected_time":81000000000,"state":"active","ping":82},{"user_id":388,"name":"nvmHastee","steam_id":76561199371458295,"connected_time":3279000000000,"state":"active","ping":78}]},{"server_id":40,"name":"Uncletopia | London | 7 | No Payload","name_short":"lon-7","host":"lon-1.uk.uncletopia.com","port":27075,"enabled":true,"region":"eu","cc":"gb","latitude":51.509865,"longitude":-0.118092,"reserved":0,"last_update":"0001-01-01T00:00:00Z","name_a2s":"Uncletopia | London | 7 | No Payload","protocol":17,"map":"cp_foundry","folder":"tf","game":"Team Fortress","app_id":440,"player_count":24,"max_players":24,"Bots":0,"server_type":"Dedicated","server_os":"Linux","password":true,"vac":true,"version":"7742253","steam_id":85568392924964314,"keywords":["cp","nocrits","nodmgspread","uncletopia"],"game_id":440,"stv_port":27076,"stv_name":"Uncletopia | London | 7 | No Payload | STV","players":[{"user_id":101,"name":"„ÉÉ","steam_id":76561198068953887,"connected_time":4334000000000,"state":"active","ping":56},{"user_id":121,"name":"OUTLAWl_","steam_id":76561198071667744,"connected_time":3191000000000,"state":"active","ping":58},{"user_id":150,"name":"century","steam_id":76561198091656119,"connected_time":1050000000000,"state":"active","ping":43},{"user_id":120,"name":"Nameless_Mann","steam_id":76561198015543601,"connected_time":3269000000000,"state":"active","ping":80},{"user_id":160,"name":"Koko","steam_id":76561198160358848,"connected_time":266000000000,"state":"active","ping":68},{"user_id":157,"name":"PaperPlay","steam_id":76561198046838964,"connected_time":384000000000,"state":"active","ping":108},{"user_id":98,"name":"ACG_Dubsy","steam_id":76561198797308565,"connected_time":4489000000000,"state":"active","ping":52},{"user_id":100,"name":"Mongoose","steam_id":76561199125198593,"connected_time":4349000000000,"state":"active","ping":59},{"user_id":128,"name":"Adam","steam_id":76561198024698968,"connected_time":3007000000000,"state":"active","ping":63},{"user_id":156,"name":"JohkupohkuXD","steam_id":76561198391108762,"connected_time":486000000000,"state":"active","ping":85},{"user_id":140,"name":"SuperflameGP","steam_id":76561198256506294,"connected_time":1532000000000,"state":"active","ping":57},{"user_id":153,"name":"Remia Tafelsaus Whisky Cocktail","steam_id":76561198156818705,"connected_time":830000000000,"state":"active","ping":61},{"user_id":122,"name":"Lil Big","steam_id":76561198138426317,"connected_time":3180000000000,"state":"active","ping":67},{"user_id":77,"name":"Videomaniac","steam_id":76561199238019761,"connected_time":5100000000000,"state":"active","ping":109},{"user_id":130,"name":"Deargon","steam_id":76561198012265311,"connected_time":2977000000000,"state":"active","ping":78},{"user_id":141,"name":"spaghetti","steam_id":76561198265006065,"connected_time":1526000000000,"state":"active","ping":42},{"user_id":132,"name":"dairy","steam_id":76561198117033273,"connected_time":2636000000000,"state":"active","ping":60},{"user_id":53,"name":"nyanezt","steam_id":76561198253734265,"connected_time":6475000000000,"state":"active","ping":104},{"user_id":151,"name":"S_ApplePie","steam_id":76561198106947669,"connected_time":1006000000000,"state":"active","ping":80},{"user_id":159,"name":"Bad Scout","steam_id":76561199445433639,"connected_time":338000000000,"state":"active","ping":57},{"user_id":135,"name":"oto0559","steam_id":76561198024716361,"connected_time":2057000000000,"state":"active","ping":81},{"user_id":161,"name":"St√ºmpy","steam_id":76561198255904077,"connected_time":184000000000,"state":"active","ping":69},{"user_id":154,"name":"Chris hansen (from dateline NBC","steam_id":76561198218771440,"connected_time":830000000000,"state":"active","ping":151},{"user_id":129,"name":"|Bobby|","steam_id":76561198154208319,"connected_time":3004000000000,"state":"active","ping":62}]},{"server_id":41,"name":"Uncletopia | London | 8 | Community","name_short":"lon-8","host":"lon-1.uk.uncletopia.com","port":27085,"enabled":true,"region":"eu","cc":"gb","latitude":51.509865,"longitude":-0.118092,"reserved":0,"last_update":"0001-01-01T00:00:00Z","name_a2s":"Uncletopia | London | 8 | Community","protocol":17,"map":"workshop/koth_ashville_final.ugc2130459942","folder":"tf","game":"Team Fortress","app_id":440,"player_count":0,"max_players":24,"Bots":0,"server_type":"Dedicated","server_os":"Linux","password":true,"vac":true,"version":"7742253","steam_id":85568392924964315,"keywords":["cp","nocrits","nodmgspread","uncletopia"],"game_id":440,"stv_port":27086,"stv_name":"Uncletopia | London | 8 | Community | STV","players":null},{"server_id":300,"name":"Uncletopia | Montr√©al | 1 | All Maps","name_short":"mtl-1","host":"mtl-1.ca.uncletopia.com","port":27015,"enabled":true,"region":"us-east","cc":"ca","latitude":45.50889,"longitude":-73.56167,"reserved":0,"last_update":"0001-01-01T00:00:00Z","name_a2s":"Uncletopia | Montr√©al | 1 | All Maps","protocol":17,"map":"pl_badwater","folder":"tf","game":"Team Fortress","app_id":440,"player_count":0,"max_players":24,"Bots":0,"server_type":"Dedicated","server_os":"Linux","password":true,"vac":true,"version":"7742253","steam_id":85568392924500087,"keywords":["nocrits","nodmgspread","payload","uncletopia"],"game_id":440,"stv_port":27016,"stv_name":"Uncletopia | Montr√©al | 1 | All Maps | STV","players":null},{"server_id":301,"name":"Uncletopia | Montr√©al | 2 | All Maps","name_short":"mtl-2","host":"mtl-1.ca.uncletopia.com","port":27025,"enabled":true,"region":"us-east","cc":"ca","latitude":45.50889,"longitude":-73.56167,"reserved":0,"last_update":"0001-01-01T00:00:00Z","name_a2s":"Uncletopia | Montr√©al | 2 | All Maps","protocol":17,"map":"koth_highpass","folder":"tf","game":"Team Fortress","app_id":440,"player_count":0,"max_players":24,"Bots":0,"server_type":"Dedicated","server_os":"Linux","password":true,"vac":true,"version":"7742253","steam_id":85568392924500088,"keywords":["cp","nocrits","nodmgspread","uncletopia"],"game_id":440,"stv_port":27026,"stv_name":"Uncletopia | Montr√©al | 2 | All Maps | STV","players":null},{"server_id":302,"name":"Uncletopia | Montr√©al | 3 | All Maps","name_short":"mtl-3","host":"mtl-1.ca.uncletopia.com","port":27035,"enabled":true,"region":"us-east","cc":"ca","latitude":45.50889,"longitude":-73.56167,"reserved":0,"last_update":"0001-01-01T00:00:00Z","name_a2s":"Uncletopia | Montr√©al | 3 | All Maps","protocol":17,"map":"cp_mountainlab","folder":"tf","game":"Team Fortress","app_id":440,"player_count":0,"max_players":24,"Bots":0,"server_type":"Dedicated","server_os":"Linux","password":true,"vac":true,"version":"7742253","steam_id":85568392924500089,"keywords":["cp","nocrits","nodmgspread","uncletopia"],"game_id":440,"stv_port":27036,"stv_name":"Uncletopia | Montr√©al | 3 | All Maps | STV","players":null},{"server_id":303,"name":"Uncletopia | Montr√©al | 4 | No Payload","name_short":"mtl-4","host":"mtl-1.ca.uncletopia.com","port":27045,"enabled":true,"region":"us-east","cc":"ca","latitude":45.50889,"longitude":-73.56167,"reserved":0,"last_update":"0001-01-01T00:00:00Z","name_a2s":"Uncletopia | Montr√©al | 4 | No Payload","protocol":17,"map":"plr_bananabay","folder":"tf","game":"Team Fortress","app_id":440,"player_count":0,"max_players":24,"Bots":0,"server_type":"Dedicated","server_os":"Linux","password":true,"vac":true,"version":"7742253","steam_id":85568392924500090,"keywords":["nocrits","nodmgspread","payload","uncletopia"],"game_id":440,"stv_port":27046,"stv_name":"Uncletopia | Montr√©al | 4 | No Payload | STV","players":null},{"server_id":13,"name":"Uncletopia | New York City | 1 | All Maps","name_short":"nyc-1","host":"nyc-1.us.uncletopia.com","port":27015,"enabled":true,"region":"us-east","cc":"us","latitude":40.73061,"longitude":-73.93524,"reserved":0,"last_update":"0001-01-01T00:00:00Z","name_a2s":"Uncletopia | New York City | 1 | All Maps","protocol":17,"map":"cp_dustbowl","folder":"tf","game":"Team Fortress","app_id":440,"player_count":19,"max_players":24,"Bots":0,"server_type":"Dedicated","server_os":"Linux","password":true,"vac":true,"version":"7742253","steam_id":85568392924469993,"keywords":["cp","nocrits","nodmgspread","uncletopia"],"game_id":440,"stv_port":27016,"stv_name":"Uncletopia | New York City | 1 | All Maps | STV","players":[{"user_id":425,"name":"urmotherisafinewoman","steam_id":76561198284326069,"connected_time":76000000000,"state":"spawning","ping":69},{"user_id":327,"name":"Kasane","steam_id":76561198209006780,"connected_time":6824000000000,"state":"active","ping":78},{"user_id":413,"name":"Delahaunt√®","steam_id":76561198117148323,"connected_time":1350000000000,"state":"active","ping":62},{"user_id":349,"name":"A Puppy","steam_id":76561198828184456,"connected_time":4563000000000,"state":"active","ping":49},{"user_id":427,"name":"crippling fumo addiction","steam_id":76561198115874625,"connected_time":42000000000,"state":"active","ping":51},{"user_id":420,"name":"Devoid","steam_id":76561198254039012,"connected_time":681000000000,"state":"active","ping":116},{"user_id":418,"name":"Hamee333","steam_id":76561199388127663,"connected_time":915000000000,"state":"active","ping":85},{"user_id":426,"name":"the rhode island toe sniffer","steam_id":76561199134895220,"connected_time":72000000000,"state":"active","ping":49},{"user_id":401,"name":"Yakub","steam_id":76561198068856323,"connected_time":1866000000000,"state":"active","ping":84},{"user_id":402,"name":"‚Ñ±","steam_id":76561198122735973,"connected_time":1822000000000,"state":"active","ping":58},{"user_id":422,"name":"Avg. Santa Believer (Nice list)","steam_id":76561198040444697,"connected_time":634000000000,"state":"active","ping":45},{"user_id":416,"name":"Aerox","steam_id":76561198871081935,"connected_time":1174000000000,"state":"spawning","ping":45},{"user_id":392,"name":"Wang of Wall St","steam_id":76561198047460598,"connected_time":2636000000000,"state":"active","ping":68},{"user_id":396,"name":"F0restFerret","steam_id":76561199112458876,"connected_time":2245000000000,"state":"spawning","ping":157},{"user_id":405,"name":"JoCaleb02","steam_id":76561198272389829,"connected_time":1801000000000,"state":"active","ping":70},{"user_id":309,"name":"Mad Cow‚Äª","steam_id":76561198132498594,"connected_time":8607000000000,"state":"active","ping":67},{"user_id":412,"name":"McAspie","steam_id":76561198079700167,"connected_time":1549000000000,"state":"spawning","ping":92},{"user_id":417,"name":"Brown_Dream","steam_id":76561198975766145,"connected_time":979000000000,"state":"active","ping":68},{"user_id":419,"name":"Bait","steam_id":76561198336489647,"connected_time":702000000000,"state":"active","ping":76}]},{"server_id":14,"name":"Uncletopia | New York City | 2 | All Maps","name_short":"nyc-2","host":"nyc-1.us.uncletopia.com","port":27025,"enabled":true,"region":"us-east","cc":"us","latitude":40.73061,"longitude":-73.93524,"reserved":0,"last_update":"0001-01-01T00:00:00Z","name_a2s":"Uncletopia | New York City | 2 | All Maps","protocol":17,"map":"plr_nightfall_final","folder":"tf","game":"Team Fortress","app_id":440,"player_count":24,"max_players":24,"Bots":0,"server_type":"Dedicated","server_os":"Linux","password":true,"vac":true,"version":"7742253","steam_id":85568392924469994,"keywords":["nocrits","nodmgspread","payload","uncletopia"],"game_id":440,"stv_port":27026,"stv_name":"Uncletopia | New York City | 2 | All Maps | STV","players":[{"user_id":402,"name":"Kamakura","steam_id":76561198871892477,"connected_time":1295000000000,"state":"active","ping":98},{"user_id":404,"name":"Gooster","steam_id":76561198255311543,"connected_time":1259000000000,"state":"active","ping":79},{"user_id":405,"name":"Jill the Owl","steam_id":76561197999210583,"connected_time":1255000000000,"state":"active","ping":62},{"user_id":416,"name":"santas.secret.sauce","steam_id":76561198042464635,"connected_time":785000000000,"state":"active","ping":90},{"user_id":399,"name":"nhbiker","steam_id":76561198081277675,"connected_time":1400000000000,"state":"active","ping":57},{"user_id":406,"name":"babe","steam_id":76561199057373810,"connected_time":1248000000000,"state":"active","ping":46},{"user_id":407,"name":"WX-78","steam_id":76561199117263527,"connected_time":1241000000000,"state":"active","ping":57},{"user_id":389,"name":"Lupin III","steam_id":76561198054723601,"connected_time":2092000000000,"state":"active","ping":52},{"user_id":387,"name":"drdoofus123","steam_id":76561198016826181,"connected_time":2236000000000,"state":"active","ping":71},{"user_id":415,"name":"bloafyt","steam_id":76561199160422863,"connected_time":902000000000,"state":"active","ping":114},{"user_id":393,"name":"asimus","steam_id":76561199141433499,"connected_time":1730000000000,"state":"active","ping":106},{"user_id":408,"name":"jr_rusty","steam_id":76561198313937899,"connected_time":1221000000000,"state":"active","ping":168},{"user_id":301,"name":"srv","steam_id":76561198026589960,"connected_time":8162000000000,"state":"active","ping":67},{"user_id":409,"name":"Polpetta777","steam_id":76561198044331477,"connected_time":1161000000000,"state":"active","ping":43},{"user_id":398,"name":"UWBW","steam_id":76561198007524241,"connected_time":1454000000000,"state":"active","ping":81},{"user_id":380,"name":"ndvr","steam_id":76561199379200102,"connected_time":2384000000000,"state":"active","ping":42},{"user_id":354,"name":"[Tupac Shakur \u0026 Aoko Aozaki.]","steam_id":76561198294013916,"connected_time":4973000000000,"state":"active","ping":44},{"user_id":420,"name":"Subborbital","steam_id":76561198360416189,"connected_time":518000000000,"state":"active","ping":47},{"user_id":413,"name":"coldsmoke","steam_id":76561197993299304,"connected_time":1097000000000,"state":"active","ping":160},{"user_id":418,"name":"Infinite Hyperdeath","steam_id":76561198168946002,"connected_time":722000000000,"state":"active","ping":45},{"user_id":419,"name":"Anomet","steam_id":76561198060246255,"connected_time":624000000000,"state":"active","ping":70},{"user_id":326,"name":"Xx_PR3TTY_R4VE_G!R1_xX","steam_id":76561199059016425,"connected_time":6817000000000,"state":"active","ping":63},{"user_id":386,"name":"POPE GONZALES FRANCIS","steam_id":76561198860246781,"connected_time":2295000000000,"state":"active","ping":133},{"user_id":412,"name":"Zach_The_Flower","steam_id":76561199151266003,"connected_time":1126000000000,"state":"active","ping":93}]},{"server_id":15,"name":"Uncletopia | New York City | 3 | Stopwatch Beta","name_short":"nyc-3","host":"nyc-1.us.uncletopia.com","port":27035,"enabled":true,"region":"us-east","cc":"us","latitude":40.73061,"longitude":-73.93524,"reserved":0,"last_update":"0001-01-01T00:00:00Z","name_a2s":"Uncletopia | New York City | 3 | Stopwatch Beta","protocol":17,"map":"workshop/pl_badwater_pro_v12.ugc2142942074","folder":"tf","game":"Team Fortress","app_id":440,"player_count":1,"max_players":24,"Bots":0,"server_type":"Dedicated","server_os":"Linux","password":true,"vac":true,"version":"7742253","steam_id":85568392924742820,"keywords":["nocrits","nodmgspread","payload","uncletopia"],"game_id":440,"stv_port":27036,"stv_name":"Uncletopia | New York City | 3 | Stopwatch Beta | STV","players":[{"user_id":14,"name":"DJ Absolute Garbage","steam_id":76561198068000747,"connected_time":155000000000,"state":"active","ping":42}]},{"server_id":16,"name":"Uncletopia | New York City | 4 | Community","name_short":"nyc-4","host":"nyc-1.us.uncletopia.com","port":27045,"enabled":true,"region":"us-east","cc":"us","latitude":40.73061,"longitude":-73.93524,"reserved":0,"last_update":"0001-01-01T00:00:00Z","name_a2s":"Uncletopia | New York City | 4 | Community","protocol":17,"map":"workshop/koth_ramjam_rc1.ugc459778887","folder":"tf","game":"Team Fortress","app_id":440,"player_count":0,"max_players":24,"Bots":0,"server_type":"Dedicated","server_os":"Linux","password":true,"vac":true,"version":"7742253","steam_id":85568392924742821,"keywords":["cp","nocrits","nodmgspread","uncletopia"],"game_id":440,"stv_port":27046,"stv_name":"Uncletopia | New York City | 4 | Community | STV","players":null},{"server_id":142,"name":"Uncletopia | S√£o Paulo | 1 | All Maps","name_short":"sao-1","host":"sao-1.br.uncletopia.com","port":27015,"enabled":true,"region":"sa","cc":"br","latitude":-23.533773,"longitude":-46.62529,"reserved":0,"last_update":"0001-01-01T00:00:00Z","name_a2s":"Uncletopia | S√£o Paulo | 1 | All Maps","protocol":17,"map":"koth_viaduct","folder":"tf","game":"Team Fortress","app_id":440,"player_count":0,"max_players":24,"Bots":0,"server_type":"Dedicated","server_os":"Linux","password":true,"vac":true,"version":"7742253","steam_id":85568392924469996,"keywords":["cp","nocrits","nodmgspread","uncletopia"],"game_id":440,"stv_port":27016,"stv_name":"Uncletopia | S√£o Paulo | 1 | All Maps | STV","players":null},{"server_id":143,"name":"Uncletopia | S√£o Paulo | 2 | All Maps","name_short":"sao-2","host":"sao-2.br.uncletopia.com","port":27015,"enabled":true,"region":"sa","cc":"br","latitude":-23.533773,"longitude":-46.62529,"reserved":0,"last_update":"0001-01-01T00:00:00Z","name_a2s":"Uncletopia | S√£o Paulo | 2 | All Maps","protocol":17,"map":"pl_frontier_final","folder":"tf","game":"Team Fortress","app_id":440,"player_count":0,"max_players":24,"Bots":0,"server_type":"Dedicated","server_os":"Linux","password":true,"vac":true,"version":"7742253","steam_id":85568392924485349,"keywords":["nocrits","nodmgspread","payload","uncletopia"],"game_id":440,"stv_port":27016,"stv_name":"Uncletopia | S√£o Paulo | 2 | All Maps | STV","players":null},{"server_id":7,"name":"Uncletopia | Seattle | 1 | All Maps","name_short":"sea-1","host":"sea-1.us.uncletopia.com","port":27015,"enabled":true,"region":"us-west","cc":"us","latitude":47.608013,"longitude":-122.33517,"reserved":0,"last_update":"0001-01-01T00:00:00Z","name_a2s":"Uncletopia | Seattle | 1 | All Maps","protocol":17,"map":"pl_upward","folder":"tf","game":"Team Fortress","app_id":440,"player_count":24,"max_players":24,"Bots":0,"server_type":"Dedicated","server_os":"Linux","password":true,"vac":true,"version":"7742253","steam_id":85568392924469997,"keywords":["nocrits","nodmgspread","payload","uncletopia"],"game_id":440,"stv_port":27016,"stv_name":"Uncletopia | Seattle | 1 | All Maps | STV","players":[{"user_id":360,"name":"bodie._.","steam_id":76561198079474904,"connected_time":306000000000,"state":"active","ping":60},{"user_id":361,"name":"The Pepsi¬Æ Superbowl¬Æ!","steam_id":76561198080828981,"connected_time":306000000000,"state":"active","ping":62},{"user_id":304,"name":"SlurpyTheDog","steam_id":76561198799733154,"connected_time":5000000000000,"state":"active","ping":118},{"user_id":348,"name":"Summon Ketamine Ape","steam_id":76561198143132686,"connected_time":1816000000000,"state":"active","ping":61},{"user_id":355,"name":"strawberry","steam_id":76561198101926397,"connected_time":1395000000000,"state":"active","ping":93},{"user_id":365,"name":"oxbudy","steam_id":76561198022120207,"connected_time":240000000000,"state":"active","ping":75},{"user_id":356,"name":"JesterJasper","steam_id":76561198025338925,"connected_time":1394000000000,"state":"active","ping":45},{"user_id":357,"name":"BoomieMcBoomPants","steam_id":76561198144516828,"connected_time":1380000000000,"state":"active","ping":74},{"user_id":346,"name":"i am ethan","steam_id":76561198128868891,"connected_time":1922000000000,"state":"active","ping":62},{"user_id":358,"name":"trashboat","steam_id":76561199067882406,"connected_time":1076000000000,"state":"active","ping":86},{"user_id":337,"name":"Julien","steam_id":76561199389584938,"connected_time":2302000000000,"state":"active","ping":36},{"user_id":229,"name":"Aardappel","steam_id":76561198030894676,"connected_time":11561000000000,"state":"active","ping":66},{"user_id":373,"name":"xenolith","steam_id":76561198041496496,"connected_time":39000000000,"state":"active","ping":120},{"user_id":309,"name":"Jade","steam_id":76561198151596927,"connected_time":4654000000000,"state":"active","ping":107},{"user_id":300,"name":"PopcornBucketGames","steam_id":76561199089562026,"connected_time":5342000000000,"state":"active","ping":49},{"user_id":201,"name":"Sloppy Joe (Extra Sauce)","steam_id":76561198359703432,"connected_time":12819000000000,"state":"active","ping":78},{"user_id":374,"name":"some nerd","steam_id":76561198297272878,"connected_time":22000000000,"state":"spawning","ping":81},{"user_id":345,"name":"Classic Muzz","steam_id":76561198835514043,"connected_time":1958000000000,"state":"active","ping":83},{"user_id":363,"name":"Bagged Milk","steam_id":76561198814181124,"connected_time":291000000000,"state":"active","ping":77},{"user_id":367,"name":"SpookieTheSkeleton","steam_id":76561198191112263,"connected_time":174000000000,"state":"active","ping":100},{"user_id":362,"name":"scarfhero","steam_id":76561198257541502,"connected_time":302000000000,"state":"active","ping":60},{"user_id":359,"name":"Gimmick","steam_id":76561198065873462,"connected_time":750000000000,"state":"active","ping":76},{"user_id":369,"name":"ninjacatmiaumiau","steam_id":76561199232931319,"connected_time":157000000000,"state":"active","ping":94},{"user_id":323,"name":"Fh","steam_id":76561198000903511,"connected_time":3343000000000,"state":"active","ping":60}]},{"server_id":119,"name":"Uncletopia | Seattle | 2 | All Maps","name_short":"sea-2","host":"sea-1.us.uncletopia.com","port":27025,"enabled":true,"region":"us-west","cc":"us","latitude":47.608013,"longitude":-122.33517,"reserved":0,"last_update":"0001-01-01T00:00:00Z","name_a2s":"Uncletopia | Seattle | 2 | All Maps","protocol":17,"map":"pl_barnblitz","folder":"tf","game":"Team Fortress","app_id":440,"player_count":24,"max_players":24,"Bots":0,"server_type":"Dedicated","server_os":"Linux","password":true,"vac":true,"version":"7742253","steam_id":85568392924469998,"keywords":["nocrits","nodmgspread","payload","uncletopia"],"game_id":440,"stv_port":27026,"stv_name":"Uncletopia | Seattle | 2 | All Maps | STV","players":[{"user_id":178,"name":"Scampy","steam_id":76561198001506924,"connected_time":1544000000000,"state":"active","ping":56},{"user_id":191,"name":"bilbo saggins","steam_id":76561198371120297,"connected_time":448000000000,"state":"active","ping":122},{"user_id":197,"name":"Otium and Negotium","steam_id":76561198167894050,"connected_time":343000000000,"state":"active","ping":112},{"user_id":187,"name":"FireQuiz","steam_id":76561198107357249,"connected_time":894000000000,"state":"active","ping":59},{"user_id":182,"name":"T√ºCold","steam_id":76561198111278197,"connected_time":1286000000000,"state":"active","ping":57},{"user_id":186,"name":"Fermenting Kiwi","steam_id":76561198253303497,"connected_time":972000000000,"state":"active","ping":82},{"user_id":166,"name":"MagicSooup","steam_id":76561198988280325,"connected_time":2273000000000,"state":"active","ping":63},{"user_id":198,"name":"Merconium","steam_id":76561197960551851,"connected_time":281000000000,"state":"active","ping":126},{"user_id":193,"name":"blxze","steam_id":76561198024020129,"connected_time":411000000000,"state":"active","ping":50},{"user_id":175,"name":"Zenire","steam_id":76561199087298510,"connected_time":1640000000000,"state":"active","ping":62},{"user_id":171,"name":"*literally heresy*","steam_id":76561198129718241,"connected_time":1945000000000,"state":"active","ping":119},{"user_id":181,"name":"resting neutral face","steam_id":76561197999259502,"connected_time":1348000000000,"state":"active","ping":67},{"user_id":169,"name":"krootonitron","steam_id":76561198114113037,"connected_time":2143000000000,"state":"active","ping":60},{"user_id":194,"name":"KatyAnna","steam_id":76561197992684543,"connected_time":409000000000,"state":"active","ping":125},{"user_id":125,"name":"Brynkiwi","steam_id":76561198052177917,"connected_time":5890000000000,"state":"active","ping":87},{"user_id":177,"name":"Cloaker","steam_id":76561199129136800,"connected_time":1616000000000,"state":"active","ping":53},{"user_id":136,"name":"nolife","steam_id":76561198414300607,"connected_time":5005000000000,"state":"active","ping":80},{"user_id":183,"name":"cubified cubes","steam_id":76561198319442494,"connected_time":1195000000000,"state":"active","ping":90},{"user_id":170,"name":"Hey, That's Mildly Adequate","steam_id":76561198068175108,"connected_time":2131000000000,"state":"active","ping":57},{"user_id":199,"name":"Bruce Leeroy","steam_id":76561198010708247,"connected_time":204000000000,"state":"active","ping":117},{"user_id":165,"name":"Lily Thorn","steam_id":76561198305488625,"connected_time":2476000000000,"state":"active","ping":63},{"user_id":184,"name":"Buckytr","steam_id":76561198096335025,"connected_time":1178000000000,"state":"active","ping":63},{"user_id":190,"name":"riri ·óú·¥ó·óú","steam_id":76561198055462404,"connected_time":721000000000,"state":"active","ping":67},{"user_id":185,"name":"Dabois","steam_id":76561199147193419,"connected_time":1057000000000,"state":"active","ping":87}]},{"server_id":406,"name":"Uncletopia | Seattle | 3 | Stopwatch Beta","name_short":"sea-3","host":"sea-1.us.uncletopia.com","port":27035,"enabled":true,"region":"us-west","cc":"us","latitude":47.608013,"longitude":-122.33517,"reserved":0,"last_update":"0001-01-01T00:00:00Z","name_a2s":"Uncletopia | Seattle | 3 | Stopwatch Beta","protocol":17,"map":"cp_altitude","folder":"tf","game":"Team Fortress","app_id":440,"player_count":0,"max_players":24,"Bots":0,"server_type":"Dedicated","server_os":"Linux","password":true,"vac":true,"version":"7742253","steam_id":85568392924515217,"keywords":["cp","nocrits","nodmgspread","uncletopia"],"game_id":440,"stv_port":27036,"stv_name":"Uncletopia | Seattle | 3 | Stopwatch Beta | STV","players":null},{"server_id":17,"name":"Uncletopia | San Francisco | 1 | All Maps","name_short":"sfo-1","host":"sfo-1.us.uncletopia.com","port":27015,"enabled":true,"region":"us-west","cc":"us","latitude":37.77397,"longitude":-122.4313,"reserved":0,"last_update":"0001-01-01T00:00:00Z","name_a2s":"Uncletopia | San Francisco | 1 | All Maps","protocol":17,"map":"koth_highpass","folder":"tf","game":"Team Fortress","app_id":440,"player_count":0,"max_players":24,"Bots":0,"server_type":"Dedicated","server_os":"Linux","password":true,"vac":true,"version":"7742253","steam_id":85568392924469999,"keywords":["cp","nocrits","nodmgspread","uncletopia"],"game_id":440,"stv_port":27016,"stv_name":"Uncletopia | San Francisco | 1 | All Maps | STV","players":null},{"server_id":18,"name":"Uncletopia | San Francisco | 2 | All Maps","name_short":"sfo-2","host":"sfo-1.us.uncletopia.com","port":27025,"enabled":true,"region":"us-west","cc":"us","latitude":37.77397,"longitude":-122.4313,"reserved":0,"last_update":"0001-01-01T00:00:00Z","name_a2s":"Uncletopia | San Francisco | 2 | All Maps","protocol":17,"map":"cp_altitude","folder":"tf","game":"Team Fortress","app_id":440,"player_count":0,"max_players":24,"Bots":0,"server_type":"Dedicated","server_os":"Linux","password":true,"vac":true,"version":"7742253","steam_id":85568392924470000,"keywords":["cp","nocrits","nodmgspread","uncletopia"],"game_id":440,"stv_port":27026,"stv_name":"Uncletopia | San Francisco | 2 | All Maps | STV","players":null},{"server_id":19,"name":"Uncletopia | San Francisco | 3 | Stopwatch Beta","name_short":"sfo-3","host":"sfo-1.us.uncletopia.com","port":27035,"enabled":true,"region":"us-west","cc":"us","latitude":37.77397,"longitude":-122.4313,"reserved":0,"last_update":"0001-01-01T00:00:00Z","name_a2s":"Uncletopia | San Francisco | 3 | Stopwatch Beta","protocol":17,"map":"cp_snakewater_final1","folder":"tf","game":"Team Fortress","app_id":440,"player_count":0,"max_players":24,"Bots":0,"server_type":"Dedicated","server_os":"Linux","password":true,"vac":true,"version":"7742253","steam_id":85568392924742824,"keywords":["cp","nocrits","nodmgspread","uncletopia"],"game_id":440,"stv_port":27036,"stv_name":"Uncletopia | San Francisco | 3 | Stopwatch Beta | STV","players":null},{"server_id":20,"name":"Uncletopia | San Francisco | 4 | Community","name_short":"sfo-4","host":"sfo-1.us.uncletopia.com","port":27045,"enabled":true,"region":"us-west","cc":"us","latitude":37.77397,"longitude":-122.4313,"reserved":0,"last_update":"0001-01-01T00:00:00Z","name_a2s":"Uncletopia | San Francisco | 4 | Community","protocol":17,"map":"workshop/rd_asteroid_redux_b1.ugc2154902912","folder":"tf","game":"Team Fortress","app_id":440,"player_count":0,"max_players":24,"Bots":0,"server_type":"Dedicated","server_os":"Linux","password":true,"vac":true,"version":"7742253","steam_id":85568392924742826,"keywords":["beta","nocrits","nodmgspread","rd","uncletopia"],"game_id":440,"stv_port":27046,"stv_name":"Uncletopia | San Francisco | 4 | Community | STV","players":null},{"server_id":141,"name":"Uncletopia | Sydney | 1 | All Maps","name_short":"syd-1","host":"syd-1.au.uncletopia.com","port":27015,"enabled":true,"region":"au","cc":"au","latitude":-33.865143,"longitude":151.2099,"reserved":0,"last_update":"0001-01-01T00:00:00Z","name_a2s":"Uncletopia | Sydney | 1 | All Maps","protocol":17,"map":"pl_pier","folder":"tf","game":"Team Fortress","app_id":440,"player_count":9,"max_players":24,"Bots":0,"server_type":"Dedicated","server_os":"Linux","password":true,"vac":true,"version":"7742253","steam_id":85568392924470001,"keywords":["nocrits","nodmgspread","payload","uncletopia"],"game_id":440,"stv_port":27016,"stv_name":"Uncletopia | Sydney | 1 | All Maps | STV","players":[{"user_id":5,"name":"Jontohil2","steam_id":76561198114091810,"connected_time":481000000000,"state":"active","ping":146},{"user_id":6,"name":"Megaboomlord","steam_id":76561198375065539,"connected_time":446000000000,"state":"active","ping":76},{"user_id":7,"name":"Konuro Silver","steam_id":76561198039852187,"connected_time":437000000000,"state":"active","ping":249},{"user_id":8,"name":"OFFICIALcraigbishop","steam_id":76561198836003115,"connected_time":424000000000,"state":"active","ping":60},{"user_id":9,"name":"DIDE","steam_id":76561198211013187,"connected_time":414000000000,"state":"active","ping":288},{"user_id":10,"name":"MALE_07","steam_id":76561198956395483,"connected_time":300000000000,"state":"active","ping":289},{"user_id":11,"name":"summer fun","steam_id":76561198289852805,"connected_time":248000000000,"state":"active","ping":83},{"user_id":13,"name":"Bagel","steam_id":76561199031854720,"connected_time":228000000000,"state":"active","ping":59},{"user_id":14,"name":"SteveyWonder","steam_id":76561198168234878,"connected_time":120000000000,"state":"active","ping":284}]},{"server_id":123,"name":"Uncletopia | Sydney | 2 | All Maps","name_short":"syd-2","host":"syd-1.au.uncletopia.com","port":27025,"enabled":true,"region":"au","cc":"au","latitude":-33.865143,"longitude":151.2099,"reserved":0,"last_update":"0001-01-01T00:00:00Z","name_a2s":"Uncletopia | Sydney | 2 | All Maps","protocol":17,"map":"koth_viaduct","folder":"tf","game":"Team Fortress","app_id":440,"player_count":2,"max_players":24,"Bots":0,"server_type":"Dedicated","server_os":"Linux","password":true,"vac":true,"version":"7742253","steam_id":85568392924470002,"keywords":["cp","nocrits","nodmgspread","uncletopia"],"game_id":440,"stv_port":27026,"stv_name":"Uncletopia | Sydney | 2 | All Maps | STV","players":[{"user_id":4,"name":"111111adama","steam_id":76561199149781531,"connected_time":2833000000000,"state":"active","ping":72},{"user_id":5,"name":"carrot monster","steam_id":76561199056025092,"connected_time":2206000000000,"state":"active","ping":44}]},{"server_id":395,"name":"Uncletopia | Sydney | 3 | All Maps","name_short":"syd-3","host":"syd-1.au.uncletopia.com","port":27035,"enabled":true,"region":"au","cc":"au","latitude":-33.865143,"longitude":151.2099,"reserved":0,"last_update":"0001-01-01T00:00:00Z","name_a2s":"Uncletopia | Sydney | 3 | All Maps","protocol":17,"map":"koth_viaduct","folder":"tf","game":"Team Fortress","app_id":440,"player_count":0,"max_players":24,"Bots":0,"server_type":"Dedicated","server_os":"Linux","password":true,"vac":true,"version":"7742253","steam_id":85568392925194467,"keywords":["cp","nocrits","nodmgspread","uncletopia"],"game_id":440,"stv_port":27036,"stv_name":"Uncletopia | Sydney | 3 | All Maps | STV","players":null},{"server_id":396,"name":"Uncletopia | Sydney | 4 | All Maps","name_short":"syd-4","host":"syd-1.au.uncletopia.com","port":27045,"enabled":true,"region":"au","cc":"au","latitude":-33.865143,"longitude":151.2099,"reserved":0,"last_update":"0001-01-01T00:00:00Z","name_a2s":"Uncletopia | Sydney | 4 | All Maps","protocol":17,"map":"pl_frontier_final","folder":"tf","game":"Team Fortress","app_id":440,"player_count":0,"max_players":24,"Bots":0,"server_type":"Dedicated","server_os":"Linux","password":true,"vac":true,"version":"7742253","steam_id":85568392925397958,"keywords":["nocrits","nodmgspread","payload","uncletopia"],"game_id":440,"stv_port":27046,"stv_name":"Uncletopia | Sydney | 4 | All Maps | STV","players":null},{"server_id":58,"name":"Uncletopia | Sydney | 5 | Stopwatch Beta","name_short":"syd-5","host":"syd-1.au.uncletopia.com","port":27055,"enabled":true,"region":"au","cc":"au","latitude":-33.865143,"longitude":151.2099,"reserved":0,"last_update":"0001-01-01T00:00:00Z","name_a2s":"Uncletopia | Sydney | 5 | Stopwatch Beta","protocol":17,"map":"cp_sunshine","folder":"tf","game":"Team Fortress","app_id":440,"player_count":0,"max_players":24,"Bots":0,"server_type":"Dedicated","server_os":"Linux","password":true,"vac":true,"version":"7742253","steam_id":85568392925397959,"keywords":["cp","nocrits","nodmgspread","uncletopia"],"game_id":440,"stv_port":27056,"stv_name":"Uncletopia | Sydney | 5 | Stopwatch Beta | STV","players":null},{"server_id":59,"name":"Uncletopia | Sydney | 6 | Community","name_short":"syd-6","host":"syd-1.au.uncletopia.com","port":27065,"enabled":true,"region":"au","cc":"au","latitude":-33.865143,"longitude":151.2099,"reserved":0,"last_update":"0001-01-01T00:00:00Z","name_a2s":"Uncletopia | Sydney | 6 | Community","protocol":17,"map":"cp_dustbowl","folder":"tf","game":"Team Fortress","app_id":440,"player_count":0,"max_players":24,"Bots":0,"server_type":"Dedicated","server_os":"Linux","password":true,"vac":true,"version":"7742253","steam_id":85568392925397960,"keywords":["cp","nocrits","nodmgspread","uncletopia"],"game_id":440,"stv_port":27066,"stv_name":"Uncletopia | Sydney | 6 | Community | STV","players":null},{"server_id":49,"name":"Uncletopia | Warsaw | 1 | All Maps","name_short":"waw-1","host":"waw-1.pl.uncletopia.com","port":27015,"enabled":true,"region":"eu","cc":"pl","latitude":52.2297,"longitude":21.017532,"reserved":0,"last_update":"0001-01-01T00:00:00Z","name_a2s":"","protocol":0,"map":"","folder":"","game":"","app_id":0,"player_count":0,"max_players":0,"Bots":0,"server_type":"","server_os":"","password":false,"vac":false,"version":"","steam_id":0,"keywords":null,"game_id":0,"stv_port":0,"stv_name":"","players":null},{"server_id":50,"name":"Uncletopia | Warsaw | 2 | All Maps","name_short":"waw-2","host":"waw-1.pl.uncletopia.com","port":27025,"enabled":true,"region":"eu","cc":"pl","latitude":52.2297,"longitude":21.017532,"reserved":0,"last_update":"0001-01-01T00:00:00Z","name_a2s":"Uncletopia | Warsaw | 2 | All Maps","protocol":17,"map":"pl_upward","folder":"tf","game":"Team Fortress","app_id":440,"player_count":21,"max_players":24,"Bots":0,"server_type":"Dedicated","server_os":"Linux","password":true,"vac":true,"version":"7742253","steam_id":85568392925397851,"keywords":["nocrits","nodmgspread","payload","uncletopia"],"game_id":440,"stv_port":27026,"stv_name":"Uncletopia | Warsaw | 2 | All Maps | STV","players":[{"user_id":308,"name":"Ziltoid","steam_id":76561198020753675,"connected_time":299000000000,"state":"active","ping":74},{"user_id":246,"name":"geo_eo112","steam_id":76561198157082747,"connected_time":4643000000000,"state":"active","ping":89},{"user_id":257,"name":"Baklava Enjoyer","steam_id":76561198990679631,"connected_time":3446000000000,"state":"active","ping":89},{"user_id":259,"name":"DaSzil","steam_id":76561198275605418,"connected_time":3389000000000,"state":"active","ping":105},{"user_id":314,"name":"coolmath","steam_id":76561198386297305,"connected_time":1000000000,"state":"spawning","ping":147},{"user_id":265,"name":"Syd","steam_id":76561198020515027,"connected_time":2785000000000,"state":"active","ping":61},{"user_id":301,"name":"FluffyDick93","steam_id":76561199203026327,"connected_time":670000000000,"state":"active","ping":94},{"user_id":310,"name":"Fart of Doom","steam_id":76561198042593027,"connected_time":87000000000,"state":"active","ping":100},{"user_id":266,"name":"SigniFire_","steam_id":76561199226683960,"connected_time":2780000000000,"state":"active","ping":89},{"user_id":309,"name":"Superiumentarius","steam_id":76561198081642249,"connected_time":265000000000,"state":"active","ping":69},{"user_id":305,"name":"Zzziiighghmuund","steam_id":76561198798167787,"connected_time":413000000000,"state":"active","ping":90},{"user_id":311,"name":"how did you die?","steam_id":76561198263260743,"connected_time":85000000000,"state":"active","ping":165},{"user_id":288,"name":"right foot creep","steam_id":76561199063439583,"connected_time":1551000000000,"state":"active","ping":119},{"user_id":289,"name":"blinsin","steam_id":76561198042493692,"connected_time":1538000000000,"state":"active","ping":112},{"user_id":230,"name":"Osmo","steam_id":76561199286764992,"connected_time":5725000000000,"state":"active","ping":68},{"user_id":270,"name":"Mr.Cupcake","steam_id":76561198152711174,"connected_time":2664000000000,"state":"active","ping":46},{"user_id":290,"name":"Eep","steam_id":76561198356840051,"connected_time":1502000000000,"state":"active","ping":93},{"user_id":224,"name":"the joy of recycling","steam_id":76561198138509827,"connected_time":6446000000000,"state":"active","ping":90},{"user_id":293,"name":"ADNAVSEAM","steam_id":76561198057771947,"connected_time":1408000000000,"state":"active","ping":74},{"user_id":312,"name":"Cristi Dorinel","steam_id":76561198833346726,"connected_time":79000000000,"state":"active","ping":92},{"user_id":226,"name":"htraB","steam_id":76561198043122677,"connected_time":6397000000000,"state":"active","ping":73}]},{"server_id":51,"name":"Uncletopia | Warsaw | 3 | All Maps","name_short":"waw-3","host":"waw-1.pl.uncletopia.com","port":27035,"enabled":true,"region":"eu","cc":"pl","latitude":52.2297,"longitude":21.017532,"reserved":0,"last_update":"0001-01-01T00:00:00Z","name_a2s":"Uncletopia | Warsaw | 3 | All Maps","protocol":17,"map":"ctf_2fort","folder":"tf","game":"Team Fortress","app_id":440,"player_count":0,"max_players":24,"Bots":0,"server_type":"Dedicated","server_os":"Linux","password":true,"vac":true,"version":"7742253","steam_id":85568392925397852,"keywords":["ctf","nocrits","nodmgspread","uncletopia"],"game_id":440,"stv_port":27036,"stv_name":"Uncletopia | Warsaw | 3 | All Maps | STV","players":null},{"server_id":52,"name":"Uncletopia | Warsaw | 4 | All Maps","name_short":"waw-4","host":"waw-1.pl.uncletopia.com","port":27045,"enabled":true,"region":"eu","cc":"pl","latitude":52.2297,"longitude":21.017532,"reserved":0,"last_update":"0001-01-01T00:00:00Z","name_a2s":"Uncletopia | Warsaw | 4 | All Maps","protocol":17,"map":"cp_altitude","folder":"tf","game":"Team Fortress","app_id":440,"player_count":0,"max_players":24,"Bots":0,"server_type":"Dedicated","server_os":"Linux","password":true,"vac":true,"version":"7742253","steam_id":85568392925397853,"keywords":["cp","nocrits","nodmgspread","uncletopia"],"game_id":440,"stv_port":27046,"stv_name":"Uncletopia | Warsaw | 4 | All Maps | STV","players":null},{"server_id":53,"name":"Uncletopia | Warsaw | 5 | Stopwatch Beta","name_short":"waw-5","host":"waw-1.pl.uncletopia.com","port":27055,"enabled":true,"region":"eu","cc":"pl","latitude":52.2297,"longitude":21.017532,"reserved":0,"last_update":"0001-01-01T00:00:00Z","name_a2s":"Uncletopia | Warsaw | 5 | Stopwatch Beta","protocol":17,"map":"workshop/koth_ramjam_rc1.ugc459778887","folder":"tf","game":"Team Fortress","app_id":440,"player_count":0,"max_players":24,"Bots":0,"server_type":"Dedicated","server_os":"Linux","password":true,"vac":true,"version":"7742253","steam_id":85568392925397854,"keywords":["cp","nocrits","nodmgspread","uncletopia"],"game_id":440,"stv_port":27056,"stv_name":"Uncletopia | Warsaw | 5 | Stopwatch Beta | STV","players":null},{"server_id":54,"name":"Uncletopia | Warsaw | 6 | Community","name_short":"waw-6","host":"waw-1.pl.uncletopia.com","port":27065,"enabled":true,"region":"eu","cc":"pl","latitude":52.2297,"longitude":21.017532,"reserved":0,"last_update":"0001-01-01T00:00:00Z","name_a2s":"Uncletopia | Warsaw | 6 | Community","protocol":17,"map":"koth_highpass","folder":"tf","game":"Team Fortress","app_id":440,"player_count":0,"max_players":24,"Bots":0,"server_type":"Dedicated","server_os":"Linux","password":true,"vac":true,"version":"7742253","steam_id":85568392925397856,"keywords":["cp","nocrits","nodmgspread","uncletopia"],"game_id":440,"stv_port":27066,"stv_name":"Uncletopia | Warsaw | 6 | Community | STV","players":null}]}