{"status":true,"message":"","result":[{"server_id":9,"name":"Uncletopia | Atlanta | 1 | All Maps","name_short":"atl-1","host":"atl-1.us.uncletopia.com","port":27015,"enabled":true,"region":"us-east","cc":"us","latitude":33.753746,"longitude":-84.38633,"reserved":0,"last_update":"0001-01-01T00:00:00Z","name_a2s":"Uncletopia | Atlanta | 1 | All Maps","protocol":17,"map":"pl_badwater","folder":"tf","game":"Team Fortress","app_id":440,"player_count":23,"max_players":24,"Bots":0,"server_type":"Dedicated","server_os":"Linux","password":true,"vac":true,"version":"7757534","steam_id":85568392924469982,"keywords":["nocrits","nodmgspread","payload","uncletopia"],"game_id":440,"stv_port":27016,"stv_name":"Uncletopia | Atlanta | 1 | All Maps | STV","players":[{"user_id":180,"name":"Zen Skye","steam_id":76561198114452552,"connected_time":9255000000000,"state":"active","ping":86},{"user_id":283,"name":"ATL1 | Kramer","steam_id":76561198083595936,"connected_time":6359000000000,"state":"active","ping":69},{"user_id":325,"name":"BLU1 | Flint","steam_id":76561198066547582,"connected_time":899000000000,"state":"active","ping":111},{"user_id":328,"name":"Uganda Knuckles lll","steam_id":76561199121276474,"connected_time":717000000000,"state":"active","ping":78},{"user_id":301,"name":"BLU1 Save your wifi","steam_id":76561198286147372,"connected_time":4655000000000,"state":"active","ping":56},{"user_id":312,"name":"Cherry Coke","steam_id":76561198178233006,"connected_time":3660000000000,"state":"active","ping":80},{"user_id":326,"name":"Spy_Is_Pye","steam_id":76561199439622967,"connected_time":770000000000,"state":"active","ping":76},{"user_id":306,"name":"scrambledeggs3","steam_id":76561198066112579,"connected_time":3890000000000,"state":"active","ping":80},{"user_id":318,"name":"RED1 | mayhem","steam_id":76561199246637881,"connected_time":2642000000000,"state":"active","ping":52},{"user_id":323,"name":"smells like dust and moonlight","steam_id":76561198048110137,"connected_time":1144000000000,"state":"active","ping":72},{"user_id":330,"name":"Yeeterman131","steam_id":76561199092229681,"connected_time":368000000000,"state":"active","ping":119},{"user_id":18,"name":"RED1 | eish","steam_id":76561198089463603,"connected_time":11349000000000,"state":"active","ping":120},{"user_id":314,"name":"RED1 | Le4n!!!","steam_id":76561198045522596,"connected_time":3050000000000,"state":"active","ping":70},{"user_id":322,"name":"Egghead","steam_id":76561199196781450,"connected_time":2598000000000,"state":"active","ping":80},{"user_id":308,"name":"quality_ch3ck","steam_id":76561198361132101,"connected_time":3875000000000,"state":"active","ping":98},{"user_id":332,"name":"The New Jersey Devils","steam_id":76561198970380577,"connected_time":34000000000,"state":"active","ping":97},{"user_id":229,"name":"BLU1 | cola","steam_id":76561198374390458,"connected_time":8496000000000,"state":"active","ping":59},{"user_id":298,"name":"‡∏∏","steam_id":76561198084134025,"connected_time":4971000000000,"state":"active","ping":123},{"user_id":329,"name":"SeaBass","steam_id":76561198278914206,"connected_time":553000000000,"state":"active","ping":58},{"user_id":311,"name":"DFR loot","steam_id":76561198069954956,"connected_time":3860000000000,"state":"active","ping":50},{"user_id":179,"name":"miraakz420","steam_id":76561199013850154,"connected_time":9283000000000,"state":"active","ping":76},{"user_id":315,"name":"BLU1 | Shame","steam_id":76561198100490994,"connected_time":2969000000000,"state":"active","ping":62},{"user_id":331,"name":"Architect","steam_id":76561198122112707,"connected_time":313000000000,"state":"active","ping":60}]},{"server_id":400,"name":"Uncletopia | Atlanta | 3 | Community","name_short":"atl-3","host":"atl-1.us.uncletopia.com","port":27035,"enabled":true,"region":"us-east","cc":"us","latitude":33.753746,"longitude":-84.38633,"reserved":0,"last_update":"0001-01-01T00:00:00Z","name_a2s":"Uncletopia | Atlanta | 3 | Community","protocol":17,"map":"workshop/pl_highwood_b13.ugc1769496557","folder":"tf","game":"Team Fortress","app_id":440,"player_count":0,"max_players":24,"Bots":0,"server_type":"Dedicated","server_os":"Linux","password":true,"vac":true,"version":"7757534","steam_id":85568392924515187,"keywords":["nocrits","nodmgspread","payload","uncletopia"],"game_id":440,"stv_port":27036,"stv_name":"Uncletopia | Atlanta | 3 | Community | STV","players":null},{"server_id":401,"name":"Uncletopia | Atlanta | 4 | No Payload","name_short":"atl-4","host":"atl-1.us.uncletopia.com","port":27045,"enabled":true,"region":"us-east","cc":"us","latitude":33.753746,"longitude":-84.38633,"reserved":0,"last_update":"0001-01-01T00:00:00Z","name_a2s":"Uncletopia | Atlanta | 4 | No Payload","protocol":17,"map":"pl_pier","folder":"tf","game":"Team Fortress","app_id":440,"player_count":0,"max_players":24,"Bots":0,"server_type":"Dedicated","server_os":"Linux","password":true,"vac":true,"version":"7723704","steam_id":85568392924515188,"keywords":["nocrits","nodmgspread","payload","uncletopia"],"game_id":440,"stv_port":27046,"stv_name":"Uncletopia | Atlanta | 4 | No Payload | STV","players":null},{"server_id":2,"name":"Uncletopia | Chicago | 1 | All Maps","name_short":"chi-1","host":"chi-1.us.uncletopia.com","port":27015,"enabled":true,"region":"us-central","cc":"us","latitude":41.881832,"longitude":-87.62318,"reserved":0,"last_update":"0001-01-01T00:00:00Z","name_a2s":"Uncletopia | Chicago | 1 | All Maps","protocol":17,"map":"pl_enclosure_final","folder":"tf","game":"Team Fortress","app_id":440,"player_count":24,"max_players":24,"Bots":0,"server_type":"Dedicated","server_os":"Linux","password":true,"vac":true,"version":"7757534","steam_id":85568392924469984,"keywords":["nocrits","nodmgspread","payload","uncletopia"],"game_id":440,"stv_port":27016,"stv_name":"Uncletopia | Chicago | 1 | All Maps | STV","players":[{"user_id":283,"name":"NovaSc6ut","steam_id":76561198277163301,"connected_time":1995000000000,"state":"active","ping":67},{"user_id":300,"name":"GiraffeMan","steam_id":76561198042104084,"connected_time":1672000000000,"state":"active","ping":72},{"user_id":317,"name":"Piyono","steam_id":76561197962188504,"connected_time":1086000000000,"state":"active","ping":72},{"user_id":333,"name":"milfs hmu","steam_id":76561198123477485,"connected_time":106000000000,"state":"active","ping":98},{"user_id":249,"name":"SpeedyElephant","steam_id":76561198049419309,"connected_time":2689000000000,"state":"active","ping":77},{"user_id":230,"name":"optimisticdude","steam_id":76561198174124153,"connected_time":3444000000000,"state":"active","ping":70},{"user_id":209,"name":"spring rolls","steam_id":76561198059409038,"connected_time":5228000000000,"state":"active","ping":73},{"user_id":326,"name":"‚òº kevin \"berserker\" hall","steam_id":76561198074180953,"connected_time":339000000000,"state":"active","ping":72},{"user_id":312,"name":"Robert","steam_id":76561198113983792,"connected_time":1243000000000,"state":"active","ping":95},{"user_id":304,"name":"Kasimir","steam_id":76561198013840333,"connected_time":1612000000000,"state":"active","ping":91},{"user_id":316,"name":"CFDv20","steam_id":76561198450073779,"connected_time":1162000000000,"state":"active","ping":86},{"user_id":262,"name":"Nick","steam_id":76561198819975431,"connected_time":2414000000000,"state":"active","ping":93},{"user_id":226,"name":"Cleric","steam_id":76561198045887994,"connected_time":3674000000000,"state":"active","ping":50},{"user_id":327,"name":"Big Sauce","steam_id":76561198046654750,"connected_time":328000000000,"state":"active","ping":70},{"user_id":320,"name":"GoozeNugget","steam_id":76561198077257617,"connected_time":721000000000,"state":"active","ping":97},{"user_id":263,"name":"Dispenser (Twan)","steam_id":76561197991064908,"connected_time":2393000000000,"state":"active","ping":61},{"user_id":328,"name":"Murder of Crows","steam_id":76561198171267781,"connected_time":321000000000,"state":"active","ping":91},{"user_id":329,"name":"Silly Scientist","steam_id":76561199199886079,"connected_time":281000000000,"state":"active","ping":73},{"user_id":321,"name":"jimmy skillet","steam_id":76561198067232126,"connected_time":532000000000,"state":"active","ping":75},{"user_id":330,"name":"wesker can hit it tbh","steam_id":76561197968351430,"connected_time":276000000000,"state":"active","ping":95},{"user_id":315,"name":"Rubber Child","steam_id":76561198144654350,"connected_time":1189000000000,"state":"active","ping":92},{"user_id":246,"name":"the deadliest pyroshark","steam_id":76561198374227766,"connected_time":2749000000000,"state":"active","ping":76},{"user_id":219,"name":"uberheights","steam_id":76561198236008378,"connected_time":4226000000000,"state":"active","ping":68},{"user_id":332,"name":"Bormjles","steam_id":76561197999774320,"connected_time":238000000000,"state":"active","ping":126}]},{"server_id":106,"name":"Uncletopia | Chicago | 2 | All Maps","name_short":"chi-2","host":"chi-1.us.uncletopia.com","port":27025,"enabled":true,"region":"us-central","cc":"us","latitude":41.881832,"longitude":-87.62318,"reserved":0,"last_update":"0001-01-01T00:00:00Z","name_a2s":"Uncletopia | Chicago | 2 | All Maps","protocol":17,"map":"pl_badwater","folder":"tf","game":"Team Fortress","app_id":440,"player_count":24,"max_players":24,"Bots":0,"server_type":"Dedicated","server_os":"Linux","password":true,"vac":true,"version":"7757534","steam_id":85568392924469985,"keywords":["nocrits","nodmgspread","payload","uncletopia"],"game_id":440,"stv_port":27026,"stv_name":"Uncletopia | Chicago | 2 | All Maps | STV","players":[{"user_id":350,"name":"Twitch.tv/markblood2023tm","steam_id":76561198171746702,"connected_time":714000000000,"state":"active","ping":72},{"user_id":363,"name":"WalterWinsMN","steam_id":76561198394505211,"connected_time":228000000000,"state":"active","ping":67},{"user_id":336,"name":"god approaches","steam_id":76561198081617990,"connected_time":1549000000000,"state":"active","ping":103},{"user_id":351,"name":"dom","steam_id":76561198066114874,"connected_time":693000000000,"state":"active","ping":105},{"user_id":361,"name":"PenutButterPirate","steam_id":76561198252962312,"connected_time":255000000000,"state":"active","ping":74},{"user_id":338,"name":"Tannenbaum Trotsky","steam_id":76561199101638460,"connected_time":1530000000000,"state":"active","ping":72},{"user_id":334,"name":"Baka!‚ë®‚ë®‚ë®‚ë®","steam_id":76561198152948254,"connected_time":2392000000000,"state":"active","ping":75},{"user_id":339,"name":"pumba","steam_id":76561198207881077,"connected_time":1508000000000,"state":"active","ping":82},{"user_id":299,"name":"killerdragon130","steam_id":76561198899790922,"connected_time":4789000000000,"state":"active","ping":98},{"user_id":322,"name":"Sal Vulcano","steam_id":76561198016677665,"connected_time":3290000000000,"state":"active","ping":64},{"user_id":364,"name":"evangel","steam_id":76561198137096044,"connected_time":198000000000,"state":"active","ping":101},{"user_id":362,"name":"emmett","steam_id":76561198096016270,"connected_time":248000000000,"state":"active","ping":60},{"user_id":355,"name":"LoGrove","steam_id":76561197969305602,"connected_time":655000000000,"state":"active","ping":79},{"user_id":358,"name":"Scrotum Stealer","steam_id":76561198362839738,"connected_time":485000000000,"state":"active","ping":62},{"user_id":320,"name":"eloressa","steam_id":76561198120330867,"connected_time":3310000000000,"state":"active","ping":52},{"user_id":344,"name":"KOOLAID","steam_id":76561198062775462,"connected_time":1373000000000,"state":"active","ping":100},{"user_id":297,"name":"igotmail","steam_id":76561198070631899,"connected_time":4960000000000,"state":"active","ping":70},{"user_id":359,"name":"Bandit","steam_id":76561198328421159,"connected_time":482000000000,"state":"active","ping":64},{"user_id":360,"name":"catwithextracod","steam_id":76561199192645209,"connected_time":295000000000,"state":"active","ping":65},{"user_id":306,"name":"Pennis the Menace","steam_id":76561198254878037,"connected_time":4308000000000,"state":"active","ping":72},{"user_id":346,"name":"A Fruit","steam_id":76561198951830050,"connected_time":1337000000000,"state":"active","ping":76},{"user_id":295,"name":"[DATS‚û°] Sugar Meowth","steam_id":76561197995251793,"connected_time":5339000000000,"state":"active","ping":93},{"user_id":314,"name":"Baby gaming","steam_id":76561198867319323,"connected_time":3715000000000,"state":"active","ping":69},{"user_id":337,"name":"Jammies","steam_id":76561199026734167,"connected_time":1549000000000,"state":"active","ping":75}]},{"server_id":402,"name":"Uncletopia | Chicago | 3 | All Maps","name_short":"chi-3","host":"chi-1.us.uncletopia.com","port":27035,"enabled":true,"region":"us-central","cc":"us","latitude":41.881832,"longitude":-87.62318,"reserved":0,"last_update":"0001-01-01T00:00:00Z","name_a2s":"Uncletopia | Chicago | 3 | All Maps","protocol":17,"map":"cp_dustbowl","folder":"tf","game":"Team Fortress","app_id":440,"player_count":23,"max_players":24,"Bots":0,"server_type":"Dedicated","server_os":"Linux","password":true,"vac":true,"version":"7757534","steam_id":85568392924515191,"keywords":["cp","nocrits","nodmgspread","uncletopia"],"game_id":440,"stv_port":27036,"stv_name":"Uncletopia | Chicago | 3 | All Maps | STV","players":[{"user_id":289,"name":"Fargo","steam_id":76561198044703931,"connected_time":483000000000,"state":"active","ping":69},{"user_id":256,"name":"Smorg","steam_id":76561198368999744,"connected_time":2592000000000,"state":"active","ping":48},{"user_id":282,"name":"KingEgamer_03","steam_id":76561199283258364,"connected_time":1143000000000,"state":"active","ping":56},{"user_id":262,"name":"Mr. Mayo","steam_id":76561198320766540,"connected_time":1726000000000,"state":"active","ping":103},{"user_id":263,"name":"Low Tide","steam_id":76561199084933863,"connected_time":1710000000000,"state":"active","ping":94},{"user_id":300,"name":"derz","steam_id":76561198010742216,"connected_time":4000000000,"state":"spawning","ping":41},{"user_id":296,"name":"Sun","steam_id":76561197972713439,"connected_time":286000000000,"state":"active","ping":86},{"user_id":267,"name":"hej","steam_id":76561197996366940,"connected_time":1673000000000,"state":"active","ping":46},{"user_id":235,"name":"Billychicken54","steam_id":76561198022365463,"connected_time":4276000000000,"state":"active","ping":64},{"user_id":290,"name":"1 Great Wooden Dad","steam_id":76561198377126974,"connected_time":464000000000,"state":"active","ping":68},{"user_id":266,"name":"Bob The Builder","steam_id":76561199058980884,"connected_time":1684000000000,"state":"active","ping":97},{"user_id":293,"name":"AGagagaga","steam_id":76561199008585183,"connected_time":420000000000,"state":"active","ping":84},{"user_id":286,"name":"SouerLuigi","steam_id":76561198261896480,"connected_time":765000000000,"state":"active","ping":75},{"user_id":261,"name":"Swshbcklr","steam_id":76561197969421355,"connected_time":1740000000000,"state":"active","ping":45},{"user_id":287,"name":"Congcrab","steam_id":76561198078687685,"connected_time":638000000000,"state":"active","ping":109},{"user_id":295,"name":"deskmedic","steam_id":76561198295640486,"connected_time":355000000000,"state":"active","ping":95},{"user_id":268,"name":"Lord GabeN","steam_id":76561198140862723,"connected_time":1669000000000,"state":"active","ping":68},{"user_id":147,"name":"MedRed‚Ñ¢ #IATAH","steam_id":76561198002962970,"connected_time":10767000000000,"state":"active","ping":99},{"user_id":297,"name":"jellybean","steam_id":76561199015095730,"connected_time":270000000000,"state":"active","ping":78},{"user_id":274,"name":"Dj_Chalupa","steam_id":76561199068429604,"connected_time":1486000000000,"state":"active","ping":66},{"user_id":292,"name":"Lt. Slayer","steam_id":76561198066754651,"connected_time":460000000000,"state":"active","ping":60},{"user_id":299,"name":"Herr Doktor","steam_id":76561198025473302,"connected_time":32000000000,"state":"spawning","ping":256},{"user_id":298,"name":"poey","steam_id":76561198865346767,"connected_time":243000000000,"state":"active","ping":100}]},{"server_id":403,"name":"Uncletopia | Chicago | 4 | All Maps","name_short":"chi-4","host":"chi-1.us.uncletopia.com","port":27045,"enabled":true,"region":"us-central","cc":"us","latitude":41.881832,"longitude":-87.62318,"reserved":0,"last_update":"0001-01-01T00:00:00Z","name_a2s":"Uncletopia | Chicago | 4 | All Maps","protocol":17,"map":"pl_barnblitz","folder":"tf","game":"Team Fortress","app_id":440,"player_count":23,"max_players":24,"Bots":0,"server_type":"Dedicated","server_os":"Linux","password":true,"vac":true,"version":"7757534","steam_id":85568392924515193,"keywords":["nocrits","nodmgspread","payload","uncletopia"],"game_id":440,"stv_port":27046,"stv_name":"Uncletopia | Chicago | 4 | All Maps | STV","players":[{"user_id":308,"name":"raissa","steam_id":76561198097637080,"connected_time":1207000000000,"state":"active","ping":90},{"user_id":312,"name":"Uncle Iroh","steam_id":76561198131467867,"connected_time":809000000000,"state":"active","ping":89},{"user_id":313,"name":"Xen","steam_id":76561198025311844,"connected_time":797000000000,"state":"active","ping":91},{"user_id":250,"name":"Warzard","steam_id":76561199154051413,"connected_time":5481000000000,"state":"active","ping":110},{"user_id":315,"name":"IronHeaver","steam_id":76561198044557973,"connected_time":650000000000,"state":"active","ping":85},{"user_id":291,"name":"Wug","steam_id":76561198084112264,"connected_time":2305000000000,"state":"active","ping":75},{"user_id":285,"name":"rollback prices","steam_id":76561198000564263,"connected_time":2503000000000,"state":"active","ping":75},{"user_id":303,"name":"lanoc","steam_id":76561198055415367,"connected_time":1459000000000,"state":"active","ping":60},{"user_id":295,"name":"MrPoopy","steam_id":76561199456009540,"connected_time":2190000000000,"state":"active","ping":88},{"user_id":268,"name":"butch cowboy monkey","steam_id":76561198097175164,"connected_time":3927000000000,"state":"active","ping":79},{"user_id":293,"name":"4+1MyriadFuturesCosMo@BousouFC","steam_id":76561198181929019,"connected_time":2222000000000,"state":"active","ping":48},{"user_id":316,"name":"Goretron","steam_id":76561198001320198,"connected_time":612000000000,"state":"active","ping":85},{"user_id":309,"name":"wepry","steam_id":76561198114091417,"connected_time":987000000000,"state":"active","ping":83},{"user_id":301,"name":"exer","steam_id":76561197973093864,"connected_time":1812000000000,"state":"active","ping":71},{"user_id":321,"name":"Cooki","steam_id":76561198051705314,"connected_time":367000000000,"state":"active","ping":70},{"user_id":310,"name":"MR. MODE","steam_id":76561198046775352,"connected_time":968000000000,"state":"active","ping":92},{"user_id":280,"name":"King","steam_id":76561198010019214,"connected_time":3270000000000,"state":"active","ping":47},{"user_id":317,"name":"Silverio","steam_id":76561197999425381,"connected_time":584000000000,"state":"active","ping":71},{"user_id":306,"name":"SHADOW (he/him)","steam_id":76561198207768148,"connected_time":1217000000000,"state":"active","ping":111},{"user_id":318,"name":"hooley","steam_id":76561198041923067,"connected_time":582000000000,"state":"active","ping":74},{"user_id":279,"name":"Goku","steam_id":76561198064143198,"connected_time":3342000000000,"state":"active","ping":46},{"user_id":319,"name":"watchfull","steam_id":76561198433266742,"connected_time":562000000000,"state":"active","ping":96},{"user_id":320,"name":"Random","steam_id":76561198318879454,"connected_time":497000000000,"state":"active","ping":59}]},{"server_id":36,"name":"Uncletopia | Chicago | 5 | All Maps","name_short":"chi-5","host":"chi-2.us.uncletopia.com","port":27015,"enabled":true,"region":"us-central","cc":"us","latitude":41.881832,"longitude":-87.62318,"reserved":0,"last_update":"0001-01-01T00:00:00Z","name_a2s":"Uncletopia | Chicago | 5 | All Maps","protocol":17,"map":"pl_upward","folder":"tf","game":"Team Fortress","app_id":440,"player_count":24,"max_players":24,"Bots":0,"server_type":"Dedicated","server_os":"Linux","password":true,"vac":true,"version":"7757534","steam_id":85568392924866362,"keywords":["nocrits","nodmgspread","payload","uncletopia"],"game_id":440,"stv_port":27016,"stv_name":"Uncletopia | Chicago | 5 | All Maps | STV","players":[{"user_id":201,"name":"Pie‚Ñ¢","steam_id":76561198158312625,"connected_time":4480000000000,"state":"active","ping":117},{"user_id":177,"name":"Wilhelmktx","steam_id":76561198158102295,"connected_time":7530000000000,"state":"active","ping":51},{"user_id":248,"name":"cow","steam_id":76561198117331762,"connected_time":2126000000000,"state":"active","ping":38},{"user_id":255,"name":"yodieland","steam_id":76561198143727547,"connected_time":1750000000000,"state":"active","ping":101},{"user_id":262,"name":"ecks","steam_id":76561197978114705,"connected_time":817000000000,"state":"active","ping":60},{"user_id":239,"name":"too funky ·óúÀ¨·óú","steam_id":76561199120399776,"connected_time":2349000000000,"state":"active","ping":67},{"user_id":276,"name":"daxter4hire","steam_id":76561198250722116,"connected_time":351000000000,"state":"active","ping":71},{"user_id":203,"name":"lp","steam_id":76561198058469527,"connected_time":4395000000000,"state":"active","ping":63},{"user_id":264,"name":"Zelumie","steam_id":76561198147335801,"connected_time":790000000000,"state":"active","ping":59},{"user_id":204,"name":"Queen  Latifa gaming","steam_id":76561198060296782,"connected_time":4378000000000,"state":"active","ping":102},{"user_id":265,"name":"Tyrone","steam_id":76561198189429665,"connected_time":712000000000,"state":"active","ping":75},{"user_id":267,"name":"god's drunkest driver","steam_id":76561198212115640,"connected_time":627000000000,"state":"active","ping":105},{"user_id":261,"name":"KaizerCalamaki","steam_id":76561198028206911,"connected_time":891000000000,"state":"active","ping":52},{"user_id":120,"name":"Razz","steam_id":76561198158027533,"connected_time":11524000000000,"state":"active","ping":45},{"user_id":247,"name":"ShortenedName","steam_id":76561198079337360,"connected_time":2193000000000,"state":"active","ping":71},{"user_id":268,"name":"Raydn","steam_id":76561198418414338,"connected_time":616000000000,"state":"active","ping":79},{"user_id":97,"name":"Rex","steam_id":76561198138365053,"connected_time":13185000000000,"state":"active","ping":120},{"user_id":278,"name":"Infinite Hyperdeath","steam_id":76561198168946002,"connected_time":18000000000,"state":"spawning","ping":59},{"user_id":257,"name":"Lemur2016","steam_id":76561198194372906,"connected_time":1440000000000,"state":"active","ping":64},{"user_id":256,"name":"Sage","steam_id":76561198143101697,"connected_time":1574000000000,"state":"active","ping":100},{"user_id":229,"name":"Lanky_Kong","steam_id":76561198077441779,"connected_time":3013000000000,"state":"active","ping":100},{"user_id":269,"name":"Jaydyn","steam_id":76561198140326797,"connected_time":593000000000,"state":"active","ping":83},{"user_id":271,"name":"I Lead MLB In \"Bats Eaten\"","steam_id":76561198034079853,"connected_time":537000000000,"state":"active","ping":68},{"user_id":210,"name":"Skullypoo","steam_id":76561198067912022,"connected_time":4325000000000,"state":"active","ping":69}]},{"server_id":37,"name":"Uncletopia | Chicago | 6 | All Maps","name_short":"chi-6","host":"chi-2.us.uncletopia.com","port":27025,"enabled":true,"region":"us-central","cc":"us","latitude":41.881832,"longitude":-87.62318,"reserved":0,"last_update":"0001-01-01T00:00:00Z","name_a2s":"Uncletopia | Chicago | 6 | All Maps","protocol":17,"map":"cp_dustbowl","folder":"tf","game":"Team Fortress","app_id":440,"player_count":24,"max_players":24,"Bots":0,"server_type":"Dedicated","server_os":"Linux","password":true,"vac":true,"version":"7757534","steam_id":85568392924866363,"keywords":["cp","nocrits","nodmgspread","uncletopia"],"game_id":440,"stv_port":27026,"stv_name":"Uncletopia | Chicago | 6 | All Maps | STV","players":[{"user_id":271,"name":"mcdoubble","steam_id":76561198089126832,"connected_time":753000000000,"state":"active","ping":91},{"user_id":191,"name":"Landrow","steam_id":76561199156068210,"connected_time":5713000000000,"state":"active","ping":114},{"user_id":262,"name":"Alex The Magician","steam_id":76561197981626783,"connected_time":1019000000000,"state":"active","ping":73},{"user_id":276,"name":"pencilneck","steam_id":76561198865971290,"connected_time":455000000000,"state":"active","ping":94},{"user_id":268,"name":"kino","steam_id":76561199417907044,"connected_time":967000000000,"state":"active","ping":62},{"user_id":263,"name":"Weeb Mane","steam_id":76561198139378320,"connected_time":1010000000000,"state":"active","ping":65},{"user_id":250,"name":"HOPELESS G4M3R","steam_id":76561198047020662,"connected_time":2378000000000,"state":"active","ping":55},{"user_id":264,"name":"VaporJpg","steam_id":76561198216433876,"connected_time":983000000000,"state":"active","ping":84},{"user_id":221,"name":"BasketChase","steam_id":76561198121518191,"connected_time":4550000000000,"state":"active","ping":83},{"user_id":239,"name":"theRainyMute","steam_id":76561198127625760,"connected_time":2601000000000,"state":"active","ping":65},{"user_id":259,"name":"Wendig05","steam_id":76561199122360649,"connected_time":1294000000000,"state":"active","ping":116},{"user_id":245,"name":"BernardBull","steam_id":76561198036138813,"connected_time":2538000000000,"state":"active","ping":91},{"user_id":265,"name":"Lots0","steam_id":76561198043143145,"connected_time":983000000000,"state":"active","ping":103},{"user_id":267,"name":"Papa Frank","steam_id":76561198384896691,"connected_time":972000000000,"state":"active","ping":66},{"user_id":281,"name":"The Freak","steam_id":76561198838479131,"connected_time":189000000000,"state":"active","ping":63},{"user_id":280,"name":"$3.99 Shrimps","steam_id":76561198077272494,"connected_time":229000000000,"state":"active","ping":48},{"user_id":279,"name":"Pasta","steam_id":76561198170042173,"connected_time":276000000000,"state":"active","ping":94},{"user_id":273,"name":"Prof. Abedul","steam_id":76561198146171581,"connected_time":646000000000,"state":"active","ping":106},{"user_id":270,"name":"Black Hole Sus (Amongus)","steam_id":76561198006261751,"connected_time":955000000000,"state":"active","ping":43},{"user_id":277,"name":"stevenlidz","steam_id":76561198995962208,"connected_time":451000000000,"state":"active","ping":148},{"user_id":252,"name":"shake","steam_id":76561199064204750,"connected_time":2142000000000,"state":"active","ping":82},{"user_id":278,"name":"SuperFresh","steam_id":76561198200723198,"connected_time":444000000000,"state":"active","ping":47},{"user_id":248,"name":"DigitalTheProto","steam_id":76561198380873323,"connected_time":2524000000000,"state":"active","ping":45},{"user_id":255,"name":"jcsicble","steam_id":76561199164462172,"connected_time":1946000000000,"state":"active","ping":81}]},{"server_id":38,"name":"Uncletopia | Chicago | 7 | Stopwatch Beta","name_short":"chi-7","host":"chi-2.us.uncletopia.com","port":27035,"enabled":true,"region":"us-central","cc":"us","latitude":41.881832,"longitude":-87.62318,"reserved":0,"last_update":"0001-01-01T00:00:00Z","name_a2s":"Uncletopia | Chicago | 7 | Stopwatch Beta","protocol":17,"map":"workshop/pl_summercoast_rc8e.ugc1761528829","folder":"tf","game":"Team Fortress","app_id":440,"player_count":0,"max_players":24,"Bots":0,"server_type":"Dedicated","server_os":"Linux","password":true,"vac":true,"version":"7757534","steam_id":85568392924866364,"keywords":["nocrits","nodmgspread","payload","uncletopia"],"game_id":440,"stv_port":27036,"stv_name":"Uncletopia | Chicago | 7 | Stopwatch Beta | STV","players":null},{"server_id":39,"name":"Uncletopia | Chicago | 8 | Community","name_short":"chi-8","host":"chi-2.us.uncletopia.com","port":27045,"enabled":true,"region":"us-central","cc":"us","latitude":41.881832,"longitude":-87.62318,"reserved":0,"last_update":"0001-01-01T00:00:00Z","name_a2s":"Uncletopia | Chicago | 8 | Community","protocol":17,"map":"workshop/cp_glassworks_rc6a.ugc454118349","folder":"tf","game":"Team Fortress","app_id":440,"player_count":24,"max_players":24,"Bots":0,"server_type":"Dedicated","server_os":"Linux","password":true,"vac":true,"version":"7757534","steam_id":85568392924866365,"keywords":["cp","nocrits","nodmgspread","uncletopia"],"game_id":440,"stv_port":27046,"stv_name":"Uncletopia | Chicago | 8 | Community | STV","players":[{"user_id":340,"name":"Galactamarx","steam_id":76561198028065755,"connected_time":1885000000000,"state":"active","ping":141},{"user_id":349,"name":"WannaSeeA","steam_id":76561198097701042,"connected_time":652000000000,"state":"active","ping":78},{"user_id":330,"name":"bunnyman14","steam_id":76561198042673345,"connected_time":2805000000000,"state":"active","ping":62},{"user_id":298,"name":"Evan","steam_id":76561198081165364,"connected_time":6100000000000,"state":"active","ping":75},{"user_id":358,"name":"Ask me about my bowel movements","steam_id":76561197993151595,"connected_time":181000000000,"state":"active","ping":87},{"user_id":350,"name":"lil bro","steam_id":76561198031675881,"connected_time":559000000000,"state":"active","ping":53},{"user_id":332,"name":"honked off the bobo","steam_id":76561198123287268,"connected_time":2782000000000,"state":"active","ping":54},{"user_id":361,"name":"EmeraldCola","steam_id":76561198066663687,"connected_time":87000000000,"state":"active","ping":71},{"user_id":336,"name":"Sad Dent","steam_id":76561198103189993,"connected_time":2720000000000,"state":"active","ping":118},{"user_id":344,"name":"StunningGaming","steam_id":76561198091855849,"connected_time":1709000000000,"state":"active","ping":85},{"user_id":287,"name":"Neophyte","steam_id":76561198027183394,"connected_time":7254000000000,"state":"active","ping":92},{"user_id":352,"name":"Censing Auto, The Challenger","steam_id":76561198060926681,"connected_time":553000000000,"state":"active","ping":64},{"user_id":357,"name":"SPACE COUP","steam_id":76561198081123470,"connected_time":351000000000,"state":"active","ping":74},{"user_id":214,"name":"Zin","steam_id":76561199041369507,"connected_time":11189000000000,"state":"active","ping":80},{"user_id":289,"name":"truck freak [euclid]","steam_id":76561198062712676,"connected_time":7186000000000,"state":"active","ping":101},{"user_id":345,"name":"Some wet dude","steam_id":76561198143744178,"connected_time":1378000000000,"state":"active","ping":118},{"user_id":348,"name":"Wallbounce","steam_id":76561199387174134,"connected_time":835000000000,"state":"active","ping":79},{"user_id":354,"name":"majorbobfunction","steam_id":76561198042464632,"connected_time":516000000000,"state":"active","ping":48},{"user_id":328,"name":"Laura Palmer Gaming","steam_id":76561198282965733,"connected_time":3249000000000,"state":"active","ping":67},{"user_id":326,"name":"Lord Scrubling","steam_id":76561198263744445,"connected_time":3419000000000,"state":"active","ping":77},{"user_id":333,"name":"Tick","steam_id":76561198184161214,"connected_time":2756000000000,"state":"active","ping":45},{"user_id":343,"name":"Aztea","steam_id":76561198982089893,"connected_time":1849000000000,"state":"active","ping":96},{"user_id":355,"name":"Animal Slices","steam_id":76561198137545511,"connected_time":484000000000,"state":"active","ping":60},{"user_id":335,"name":"RED1 | Lylith","steam_id":76561198386687546,"connected_time":2732000000000,"state":"active","ping":67}]},{"server_id":8,"name":"Uncletopia | Dallas | 1 | All Maps","name_short":"dal-1","host":"dal-1.us.uncletopia.com","port":27015,"enabled":true,"region":"us-central","cc":"us","latitude":32.779167,"longitude":-96.80889,"reserved":0,"last_update":"0001-01-01T00:00:00Z","name_a2s":"Uncletopia | Dallas | 1 | All Maps","protocol":17,"map":"pl_swiftwater_final1","folder":"tf","game":"Team Fortress","app_id":440,"player_count":24,"max_players":24,"Bots":0,"server_type":"Dedicated","server_os":"Linux","password":true,"vac":true,"version":"7757534","steam_id":85568392924469986,"keywords":["nocrits","nodmgspread","payload","uncletopia"],"game_id":440,"stv_port":27016,"stv_name":"Uncletopia | Dallas | 1 | All Maps | STV","players":[{"user_id":230,"name":"Scrumlet","steam_id":76561198339806643,"connected_time":3562000000000,"state":"active","ping":72},{"user_id":275,"name":"LORDMARF","steam_id":76561198143122675,"connected_time":915000000000,"state":"active","ping":57},{"user_id":253,"name":"Bamvie","steam_id":76561198880489665,"connected_time":2302000000000,"state":"active","ping":43},{"user_id":276,"name":"Phillip Jeffries","steam_id":76561198064052174,"connected_time":909000000000,"state":"active","ping":88},{"user_id":256,"name":"eletric_blue","steam_id":76561198821187816,"connected_time":1865000000000,"state":"active","ping":49},{"user_id":234,"name":"Rabbitone","steam_id":76561198132691749,"connected_time":3470000000000,"state":"active","ping":73},{"user_id":257,"name":"Otter! ü¶¶","steam_id":76561198416273006,"connected_time":1859000000000,"state":"active","ping":103},{"user_id":258,"name":"DerRitterWolf","steam_id":76561198991964631,"connected_time":1855000000000,"state":"active","ping":119},{"user_id":259,"name":"k1tty","steam_id":76561198869348268,"connected_time":1838000000000,"state":"active","ping":77},{"user_id":212,"name":"GLG.Liz","steam_id":76561198021957956,"connected_time":5104000000000,"state":"active","ping":46},{"user_id":260,"name":"compulsive","steam_id":76561198212421513,"connected_time":1817000000000,"state":"active","ping":75},{"user_id":261,"name":"dawg","steam_id":76561198019444443,"connected_time":1784000000000,"state":"active","ping":90},{"user_id":263,"name":"Furious George","steam_id":76561198405111646,"connected_time":1755000000000,"state":"active","ping":86},{"user_id":277,"name":"Jacck916","steam_id":76561198176874157,"connected_time":864000000000,"state":"active","ping":113},{"user_id":250,"name":"borzier","steam_id":76561198069190432,"connected_time":2683000000000,"state":"active","ping":74},{"user_id":274,"name":"Cartwright","steam_id":76561197975491705,"connected_time":936000000000,"state":"active","ping":81},{"user_id":266,"name":"D√¨y√π sh«êzhƒõ, Gouon.","steam_id":76561198103503066,"connected_time":1730000000000,"state":"active","ping":93},{"user_id":269,"name":"JustAWisp","steam_id":76561198311924005,"connected_time":1696000000000,"state":"active","ping":86},{"user_id":213,"name":"Krow","steam_id":76561198010392099,"connected_time":5099000000000,"state":"active","ping":58},{"user_id":268,"name":"Zedifo","steam_id":76561198044032070,"connected_time":1701000000000,"state":"active","ping":143},{"user_id":242,"name":"Two-Ton Heavy Thing","steam_id":76561198201724274,"connected_time":3379000000000,"state":"active","ping":88},{"user_id":208,"name":"GLG MUTT","steam_id":76561198147785541,"connected_time":6040000000000,"state":"active","ping":63},{"user_id":270,"name":"fish fingers","steam_id":76561199078516567,"connected_time":1684000000000,"state":"active","ping":126},{"user_id":271,"name":"heimdall","steam_id":76561198069380992,"connected_time":1680000000000,"state":"active","ping":69}]},{"server_id":108,"name":"Uncletopia | Dallas | 2 | All Maps","name_short":"dal-2","host":"dal-1.us.uncletopia.com","port":27025,"enabled":true,"region":"us-central","cc":"us","latitude":32.779167,"longitude":-96.80889,"reserved":0,"last_update":"0001-01-01T00:00:00Z","name_a2s":"Uncletopia | Dallas | 2 | All Maps","protocol":17,"map":"pl_badwater","folder":"tf","game":"Team Fortress","app_id":440,"player_count":23,"max_players":24,"Bots":0,"server_type":"Dedicated","server_os":"Linux","password":true,"vac":true,"version":"7757534","steam_id":85568392924469988,"keywords":["nocrits","nodmgspread","payload","uncletopia"],"game_id":440,"stv_port":27026,"stv_name":"Uncletopia | Dallas | 2 | All Maps | STV","players":[{"user_id":232,"name":"Quaker Oats","steam_id":76561197992800293,"connected_time":5361000000000,"state":"active","ping":84},{"user_id":292,"name":"the ocky way","steam_id":76561198114165577,"connected_time":1385000000000,"state":"active","ping":94},{"user_id":279,"name":"xZackAttack27x","steam_id":76561198035446639,"connected_time":2017000000000,"state":"active","ping":38},{"user_id":301,"name":"Squiby","steam_id":76561198310246132,"connected_time":844000000000,"state":"active","ping":43},{"user_id":303,"name":"mahgad","steam_id":76561198797828475,"connected_time":340000000000,"state":"active","ping":86},{"user_id":302,"name":"trash beast","steam_id":76561198015792736,"connected_time":801000000000,"state":"active","ping":83},{"user_id":290,"name":"Etomb","steam_id":76561198210017208,"connected_time":1396000000000,"state":"active","ping":100},{"user_id":223,"name":"BROMBRE","steam_id":76561198011062026,"connected_time":5440000000000,"state":"active","ping":47},{"user_id":273,"name":"Texmap","steam_id":76561198050444933,"connected_time":2185000000000,"state":"active","ping":62},{"user_id":305,"name":"TheTruthOfTheCessationOfDukkha","steam_id":76561198214370515,"connected_time":182000000000,"state":"active","ping":72},{"user_id":306,"name":"Lowkey Lopes","steam_id":76561198003181343,"connected_time":152000000000,"state":"active","ping":90},{"user_id":296,"name":"Coosnut","steam_id":76561198061106216,"connected_time":1224000000000,"state":"active","ping":56},{"user_id":276,"name":"Op banana","steam_id":76561198303231451,"connected_time":2066000000000,"state":"active","ping":43},{"user_id":293,"name":"Legit_Jaxer","steam_id":76561198172234053,"connected_time":1359000000000,"state":"active","ping":89},{"user_id":278,"name":"rubb3r","steam_id":76561198096874230,"connected_time":2037000000000,"state":"active","ping":62},{"user_id":294,"name":"gangbangingjose.democrat","steam_id":76561198825658971,"connected_time":1359000000000,"state":"active","ping":83},{"user_id":264,"name":"Star","steam_id":76561199065107600,"connected_time":3105000000000,"state":"active","ping":102},{"user_id":304,"name":"GarretGood","steam_id":76561198071881495,"connected_time":247000000000,"state":"active","ping":95},{"user_id":280,"name":"Dentivent","steam_id":76561197971953043,"connected_time":1996000000000,"state":"active","ping":92},{"user_id":286,"name":"SPREAD CHRISTMAS CHEER AND JOY","steam_id":76561198800386026,"connected_time":1576000000000,"state":"active","ping":94},{"user_id":299,"name":"Whapper","steam_id":76561198044029606,"connected_time":1142000000000,"state":"active","ping":88},{"user_id":271,"name":"Pebbled","steam_id":76561199390347605,"connected_time":2306000000000,"state":"active","ping":117},{"user_id":284,"name":"donkey kong master","steam_id":76561198142732734,"connected_time":1723000000000,"state":"active","ping":69}]},{"server_id":5,"name":"Uncletopia | Frankfurt | 1 | All Maps","name_short":"frk-1","host":"frk-1.de.uncletopia.com","port":27015,"enabled":true,"region":"eu","cc":"de","latitude":50.110924,"longitude":8.682127,"reserved":0,"last_update":"0001-01-01T00:00:00Z","name_a2s":"Uncletopia | Frankfurt | 1 | All Maps","protocol":17,"map":"pl_pier","folder":"tf","game":"Team Fortress","app_id":440,"player_count":0,"max_players":24,"Bots":0,"server_type":"Dedicated","server_os":"Linux","password":true,"vac":true,"version":"7757534","steam_id":85568392924469989,"keywords":["nocrits","nodmgspread","payload","uncletopia"],"game_id":440,"stv_port":27016,"stv_name":"Uncletopia | Frankfurt | 1 | All Maps | STV","players":null},{"server_id":110,"name":"Uncletopia | Frankfurt | 2 | All Maps","name_short":"frk-2","host":"frk-1.de.uncletopia.com","port":27025,"enabled":true,"region":"eu","cc":"de","latitude":50.110924,"longitude":8.682127,"reserved":0,"last_update":"0001-01-01T00:00:00Z","name_a2s":"Uncletopia | Frankfurt | 2 | All Maps","protocol":17,"map":"pl_pier","folder":"tf","game":"Team Fortress","app_id":440,"player_count":0,"max_players":24,"Bots":0,"server_type":"Dedicated","server_os":"Linux","password":true,"vac":true,"version":"7757534","steam_id":85568392924469990,"keywords":["nocrits","nodmgspread","payload","uncletopia"],"game_id":440,"stv_port":27026,"stv_name":"Uncletopia | Frankfurt | 2 | All Maps | STV","players":null},{"server_id":308,"name":"Uncletopia | Frankfurt | 3 | All Maps","name_short":"frk-3","host":"frk-1.de.uncletopia.com","port":27035,"enabled":true,"region":"eu","cc":"de","latitude":50.110924,"longitude":8.682127,"reserved":0,"last_update":"0001-01-01T00:00:00Z","name_a2s":"Uncletopia | Frankfurt | 3 | All Maps","protocol":17,"map":"cp_sunshine","folder":"tf","game":"Team Fortress","app_id":440,"player_count":0,"max_players":24,"Bots":0,"server_type":"Dedicated","server_os":"Linux","password":true,"vac":true,"version":"7757534","steam_id":85568392924504274,"keywords":["cp","nocrits","nodmgspread","uncletopia"],"game_id":440,"stv_port":27036,"stv_name":"Uncletopia | Frankfurt | 3 | All Maps | STV","players":null},{"server_id":309,"name":"Uncletopia | Frankfurt | 4 | All Maps","name_short":"frk-4","host":"frk-1.de.uncletopia.com","port":27045,"enabled":true,"region":"eu","cc":"de","latitude":50.110924,"longitude":8.682127,"reserved":0,"last_update":"0001-01-01T00:00:00Z","name_a2s":"Uncletopia | Frankfurt | 4 | All Maps","protocol":17,"map":"pl_upward","folder":"tf","game":"Team Fortress","app_id":440,"player_count":0,"max_players":24,"Bots":0,"server_type":"Dedicated","server_os":"Linux","password":true,"vac":true,"version":"7757534","steam_id":85568392924504275,"keywords":["nocrits","nodmgspread","payload","uncletopia"],"game_id":440,"stv_port":27046,"stv_name":"Uncletopia | Frankfurt | 4 | All Maps | STV","players":null},{"server_id":310,"name":"Uncletopia | Frankfurt | 5 | All Maps","name_short":"frk-5","host":"frk-1.de.uncletopia.com","port":27055,"enabled":true,"region":"eu","cc":"de","latitude":50.110924,"longitude":8.682127,"reserved":0,"last_update":"0001-01-01T00:00:00Z","name_a2s":"Uncletopia | Frankfurt | 5 | All Maps","protocol":17,"map":"koth_viaduct","folder":"tf","game":"Team Fortress","app_id":440,"player_count":0,"max_players":24,"Bots":0,"server_type":"Dedicated","server_os":"Linux","password":true,"vac":true,"version":"7757534","steam_id":85568392924504277,"keywords":["cp","nocrits","nodmgspread","uncletopia"],"game_id":440,"stv_port":27056,"stv_name":"Uncletopia | Frankfurt | 5 | All Maps | STV","players":null},{"server_id":311,"name":"Uncletopia | Frankfurt | 6 | All Maps","name_short":"frk-6","host":"frk-1.de.uncletopia.com","port":27065,"enabled":true,"region":"eu","cc":"de","latitude":50.110924,"longitude":8.682127,"reserved":0,"last_update":"0001-01-01T00:00:00Z","name_a2s":"Uncletopia | Frankfurt | 6 | All Maps","protocol":17,"map":"koth_highpass","folder":"tf","game":"Team Fortress","app_id":440,"player_count":0,"max_players":24,"Bots":0,"server_type":"Dedicated","server_os":"Linux","password":true,"vac":true,"version":"7757534","steam_id":85568392924504278,"keywords":["cp","nocrits","nodmgspread","uncletopia"],"game_id":440,"stv_port":27066,"stv_name":"Uncletopia | Frankfurt | 6 | All Maps | STV","players":null},{"server_id":23,"name":"Uncletopia | Frankfurt | 7 | Stopwatch Beta","name_short":"frk-7","host":"frk-1.de.uncletopia.com","port":27075,"enabled":true,"region":"eu","cc":"de","latitude":50.110924,"longitude":8.682127,"reserved":0,"last_update":"0001-01-01T00:00:00Z","name_a2s":"Uncletopia | Frankfurt | 7 | Stopwatch Beta","protocol":17,"map":"pl_frontier_final","folder":"tf","game":"Team Fortress","app_id":440,"player_count":0,"max_players":24,"Bots":0,"server_type":"Dedicated","server_os":"Linux","password":true,"vac":true,"version":"7757534","steam_id":85568392924742827,"keywords":["nocrits","nodmgspread","payload","uncletopia"],"game_id":440,"stv_port":27076,"stv_name":"Uncletopia | Frankfurt | 7 | Stopwatch Beta | STV","players":null},{"server_id":24,"name":"Uncletopia | Frankfurt | 8 | Community","name_short":"frk-8","host":"frk-1.de.uncletopia.com","port":27085,"enabled":true,"region":"eu","cc":"de","latitude":50.110924,"longitude":8.682127,"reserved":0,"last_update":"0001-01-01T00:00:00Z","name_a2s":"Uncletopia | Frankfurt | 8 | Community","protocol":17,"map":"workshop/pl_barnblitz_pro7.ugc582280235","folder":"tf","game":"Team Fortress","app_id":440,"player_count":0,"max_players":24,"Bots":0,"server_type":"Dedicated","server_os":"Linux","password":true,"vac":true,"version":"7757534","steam_id":85568392924742828,"keywords":["nocrits","nodmgspread","payload","uncletopia"],"game_id":440,"stv_port":27086,"stv_name":"Uncletopia | Frankfurt | 8 | Community | STV","players":null},{"server_id":202,"name":"Uncletopia | Hong Kong | 1 | All Maps","name_short":"hgk-1","host":"hgk-1.hk.uncletopia.com","port":27015,"enabled":true,"region":"asia","cc":"hk","latitude":22.302711,"longitude":114.177216,"reserved":0,"last_update":"0001-01-01T00:00:00Z","name_a2s":"Uncletopia | Hong Kong | 1 | All Maps","protocol":17,"map":"cp_mountainlab","folder":"tf","game":"Team Fortress","app_id":440,"player_count":0,"max_players":24,"Bots":0,"server_type":"Dedicated","server_os":"Linux","password":true,"vac":true,"version":"7757534","steam_id":85568392924494504,"keywords":["cp","nocrits","nodmgspread","uncletopia"],"game_id":440,"stv_port":27016,"stv_name":"Uncletopia | Hong Kong | 1 | All Maps | STV","players":null},{"server_id":1,"name":"Uncletopia | Los Angeles | 1 | All Maps","name_short":"lax-1","host":"lax-1.us.uncletopia.com","port":27015,"enabled":true,"region":"us-west","cc":"us","latitude":33.94279,"longitude":-118.41004,"reserved":0,"last_update":"0001-01-01T00:00:00Z","name_a2s":"Uncletopia | Los Angeles | 1 | All Maps","protocol":17,"map":"cp_altitude","folder":"tf","game":"Team Fortress","app_id":440,"player_count":0,"max_players":24,"Bots":0,"server_type":"Dedicated","server_os":"Linux","password":true,"vac":true,"version":"7757534","steam_id":85568392924469991,"keywords":["cp","nocrits","nodmgspread","uncletopia"],"game_id":440,"stv_port":27016,"stv_name":"Uncletopia | Los Angeles | 1 | All Maps | STV","players":null},{"server_id":112,"name":"Uncletopia | Los Angeles | 2 | All Maps","name_short":"lax-2","host":"lax-1.us.uncletopia.com","port":27025,"enabled":true,"region":"us-west","cc":"us","latitude":33.94279,"longitude":-118.41004,"reserved":0,"last_update":"0001-01-01T00:00:00Z","name_a2s":"Uncletopia | Los Angeles | 2 | All Maps","protocol":17,"map":"koth_sawmill","folder":"tf","game":"Team Fortress","app_id":440,"player_count":24,"max_players":24,"Bots":0,"server_type":"Dedicated","server_os":"Linux","password":true,"vac":true,"version":"7757534","steam_id":85568392924469992,"keywords":["cp","nocrits","nodmgspread","uncletopia"],"game_id":440,"stv_port":27026,"stv_name":"Uncletopia | Los Angeles | 2 | All Maps | STV","players":[{"user_id":195,"name":"anipe10","steam_id":76561199084698417,"connected_time":1197000000000,"state":"active","ping":61},{"user_id":186,"name":"Hunter","steam_id":76561198333521287,"connected_time":1452000000000,"state":"active","ping":63},{"user_id":172,"name":"doobiebob","steam_id":76561198071963742,"connected_time":2850000000000,"state":"active","ping":54},{"user_id":203,"name":"gulch","steam_id":76561199227946025,"connected_time":454000000000,"state":"active","ping":100},{"user_id":187,"name":"Zabiii","steam_id":76561198168263517,"connected_time":1417000000000,"state":"active","ping":57},{"user_id":182,"name":"dash23‚Ñ¢","steam_id":76561198314951185,"connected_time":2431000000000,"state":"active","ping":86},{"user_id":159,"name":"LACTAID","steam_id":76561198276585202,"connected_time":4593000000000,"state":"active","ping":56},{"user_id":197,"name":"Gyr0sphere","steam_id":76561198183900735,"connected_time":1066000000000,"state":"active","ping":64},{"user_id":176,"name":"AFKTrust","steam_id":76561198212933285,"connected_time":2672000000000,"state":"active","ping":64},{"user_id":204,"name":"Robert","steam_id":76561198091171326,"connected_time":323000000000,"state":"active","ping":75},{"user_id":198,"name":"KFC‚ò≠","steam_id":76561199206815320,"connected_time":1055000000000,"state":"active","ping":40},{"user_id":200,"name":"Knock on the sky and listen","steam_id":76561198077597130,"connected_time":819000000000,"state":"active","ping":67},{"user_id":160,"name":"VPratt","steam_id":76561198351195424,"connected_time":4587000000000,"state":"active","ping":61},{"user_id":210,"name":"Cute Gatito","steam_id":76561198351147780,"connected_time":104000000000,"state":"active","ping":60},{"user_id":207,"name":"cedar","steam_id":76561199114675299,"connected_time":172000000000,"state":"active","ping":108},{"user_id":201,"name":"Finder","steam_id":76561198964948886,"connected_time":712000000000,"state":"active","ping":76},{"user_id":192,"name":"Macho Ravioli","steam_id":76561198135494174,"connected_time":1230000000000,"state":"active","ping":57},{"user_id":209,"name":"Brando","steam_id":76561198078306678,"connected_time":128000000000,"state":"active","ping":63},{"user_id":183,"name":"ThunderGunner","steam_id":76561198097721532,"connected_time":1482000000000,"state":"active","ping":50},{"user_id":193,"name":"WolverineMiner","steam_id":76561199096679945,"connected_time":1225000000000,"state":"active","ping":74},{"user_id":194,"name":"Gameonator108","steam_id":76561199089224205,"connected_time":1222000000000,"state":"active","ping":99},{"user_id":184,"name":"Metal Something","steam_id":76561198043858513,"connected_time":1481000000000,"state":"active","ping":122},{"user_id":202,"name":"Dim Strike","steam_id":76561199087298816,"connected_time":662000000000,"state":"active","ping":49},{"user_id":165,"name":"weed lesbian","steam_id":76561198042263805,"connected_time":4287000000000,"state":"active","ping":83}]},{"server_id":324,"name":"Uncletopia | Los Angeles | 3 | All Maps","name_short":"lax-3","host":"lax-1.us.uncletopia.com","port":27035,"enabled":true,"region":"us-west","cc":"us","latitude":33.94279,"longitude":-118.41004,"reserved":0,"last_update":"0001-01-01T00:00:00Z","name_a2s":"Uncletopia | Los Angeles | 3 | All Maps","protocol":17,"map":"pl_frontier_final","folder":"tf","game":"Team Fortress","app_id":440,"player_count":23,"max_players":24,"Bots":0,"server_type":"Dedicated","server_os":"Linux","password":true,"vac":true,"version":"7757534","steam_id":85568392924510198,"keywords":["nocrits","nodmgspread","payload","uncletopia"],"game_id":440,"stv_port":27036,"stv_name":"Uncletopia | Los Angeles | 3 | All Maps | STV","players":[{"user_id":309,"name":"shrimpboi783","steam_id":76561199091069924,"connected_time":563000000000,"state":"active","ping":64},{"user_id":289,"name":"Juri Han","steam_id":76561198041678517,"connected_time":1585000000000,"state":"active","ping":68},{"user_id":306,"name":"Altruisticailuridae","steam_id":76561198335295596,"connected_time":794000000000,"state":"active","ping":51},{"user_id":260,"name":"Mitty","steam_id":76561198014177684,"connected_time":3739000000000,"state":"active","ping":60},{"user_id":261,"name":"Agent Q","steam_id":76561198830829003,"connected_time":3728000000000,"state":"active","ping":82},{"user_id":262,"name":"The Robot Menace","steam_id":76561198043390413,"connected_time":3708000000000,"state":"active","ping":85},{"user_id":263,"name":"„ÄåJimbo Reference„Äç","steam_id":76561198016078541,"connected_time":3700000000000,"state":"active","ping":55},{"user_id":312,"name":"NaCl Inc Inspector Elemy. W","steam_id":76561199013378091,"connected_time":98000000000,"state":"active","ping":48},{"user_id":226,"name":"Hero Smasher","steam_id":76561198150681669,"connected_time":6477000000000,"state":"active","ping":50},{"user_id":313,"name":"car gas is yummy","steam_id":76561199045901994,"connected_time":77000000000,"state":"active","ping":59},{"user_id":310,"name":"FightyPNW","steam_id":76561198981808810,"connected_time":544000000000,"state":"active","ping":83},{"user_id":242,"name":"moe5x","steam_id":76561198316877833,"connected_time":5102000000000,"state":"active","ping":111},{"user_id":291,"name":"Room","steam_id":76561199174579733,"connected_time":1535000000000,"state":"active","ping":124},{"user_id":314,"name":"Justin","steam_id":76561198110865423,"connected_time":61000000000,"state":"active","ping":46},{"user_id":305,"name":"rumidog","steam_id":76561198046896005,"connected_time":929000000000,"state":"active","ping":127},{"user_id":315,"name":"Hakuyer","steam_id":76561198098618247,"connected_time":46000000000,"state":"active","ping":77},{"user_id":316,"name":"Kevv","steam_id":76561199116734860,"connected_time":33000000000,"state":"active","ping":119},{"user_id":293,"name":"the meat man","steam_id":76561198037921140,"connected_time":1515000000000,"state":"active","ping":36},{"user_id":295,"name":"Kzjytsugn","steam_id":76561198130241974,"connected_time":1436000000000,"state":"active","ping":75},{"user_id":311,"name":"brobtlcehc","steam_id":76561198043558709,"connected_time":231000000000,"state":"active","ping":75},{"user_id":297,"name":"nescoceo","steam_id":76561198040801160,"connected_time":1373000000000,"state":"active","ping":50},{"user_id":250,"name":"Hindmost","steam_id":76561199081837220,"connected_time":4736000000000,"state":"active","ping":98},{"user_id":317,"name":"Florist","steam_id":76561198009121060,"connected_time":25000000000,"state":"active","ping":76}]},{"server_id":25,"name":"Uncletopia | Los Angeles | 4 | Stopwatch Beta","name_short":"lax-4","host":"lax-1.us.uncletopia.com","port":27045,"enabled":true,"region":"us-west","cc":"us","latitude":33.94279,"longitude":-118.41004,"reserved":0,"last_update":"0001-01-01T00:00:00Z","name_a2s":"Uncletopia | Los Angeles | 4 | Stopwatch Beta","protocol":17,"map":"workshop/pl_summercoast_rc8e.ugc1761528829","folder":"tf","game":"Team Fortress","app_id":440,"player_count":0,"max_players":24,"Bots":0,"server_type":"Dedicated","server_os":"Linux","password":true,"vac":true,"version":"7757534","steam_id":85568392924510199,"keywords":["nocrits","nodmgspread","payload","uncletopia"],"game_id":440,"stv_port":27046,"stv_name":"Uncletopia | Los Angeles | 4 | Stopwatch Beta | STV","players":null},{"server_id":11,"name":"Uncletopia | London | 1 | All Maps","name_short":"lon-1","host":"lon-1.uk.uncletopia.com","port":27015,"enabled":true,"region":"eu","cc":"gb","latitude":51.509865,"longitude":-0.118092,"reserved":0,"last_update":"0001-01-01T00:00:00Z","name_a2s":"Uncletopia | London | 1 | All Maps","protocol":17,"map":"pl_badwater","folder":"tf","game":"Team Fortress","app_id":440,"player_count":21,"max_players":24,"Bots":0,"server_type":"Dedicated","server_os":"Linux","password":true,"vac":true,"version":"7757534","steam_id":85568392924367362,"keywords":["nocrits","nodmgspread","payload","uncletopia"],"game_id":440,"stv_port":27016,"stv_name":"Uncletopia | London | 1 | All Maps | STV","players":[{"user_id":199,"name":"–ù–ê–†–£–¢–û","steam_id":76561198010357589,"connected_time":3090000000000,"state":"active","ping":72},{"user_id":195,"name":"stun","steam_id":76561198276681691,"connected_time":4111000000000,"state":"active","ping":44},{"user_id":188,"name":"Rave Robber","steam_id":76561199414716848,"connected_time":5706000000000,"state":"active","ping":70},{"user_id":151,"name":"New","steam_id":76561198402195911,"connected_time":8102000000000,"state":"active","ping":110},{"user_id":219,"name":"Tery","steam_id":76561198044799321,"connected_time":7000000000,"state":"active","ping":195},{"user_id":138,"name":"Johnny Cockroach","steam_id":76561198049648277,"connected_time":8323000000000,"state":"active","ping":104},{"user_id":214,"name":"upisfree","steam_id":76561198064037857,"connected_time":779000000000,"state":"active","ping":151},{"user_id":212,"name":"Schmodda on YT","steam_id":76561198147273788,"connected_time":1444000000000,"state":"active","ping":50},{"user_id":191,"name":"frosty","steam_id":76561198094560834,"connected_time":4784000000000,"state":"active","ping":44},{"user_id":213,"name":"SuperBob103","steam_id":76561199175360012,"connected_time":1432000000000,"state":"active","ping":47},{"user_id":196,"name":"rez777ka","steam_id":76561198107605938,"connected_time":3253000000000,"state":"active","ping":98},{"user_id":193,"name":"–∏–≤–∞–Ω","steam_id":76561198072730591,"connected_time":4364000000000,"state":"active","ping":55},{"user_id":210,"name":"‚ù§Mr.M‚ù§","steam_id":76561198071053911,"connected_time":1651000000000,"state":"active","ping":59},{"user_id":216,"name":"I want my dog back","steam_id":76561198318748304,"connected_time":250000000000,"state":"active","ping":166},{"user_id":206,"name":"kbbq","steam_id":76561198346638308,"connected_time":2131000000000,"state":"active","ping":58},{"user_id":217,"name":"U1F","steam_id":76561198053700703,"connected_time":164000000000,"state":"active","ping":82},{"user_id":218,"name":"Goblin Gaming","steam_id":76561199087406024,"connected_time":91000000000,"state":"active","ping":76},{"user_id":166,"name":"BrainLacking","steam_id":76561198965574196,"connected_time":7162000000000,"state":"active","ping":53},{"user_id":185,"name":"Borat","steam_id":76561198122226417,"connected_time":5784000000000,"state":"active","ping":40},{"user_id":204,"name":"dorak","steam_id":76561198818037965,"connected_time":2146000000000,"state":"active","ping":118},{"user_id":208,"name":"Sabour","steam_id":76561197963965445,"connected_time":2127000000000,"state":"active","ping":70}]},{"server_id":114,"name":"Uncletopia | London | 2 | All Maps","name_short":"lon-2","host":"lon-1.uk.uncletopia.com","port":27025,"enabled":true,"region":"eu","cc":"gb","latitude":51.509865,"longitude":-0.118092,"reserved":0,"last_update":"0001-01-01T00:00:00Z","name_a2s":"Uncletopia | London | 2 | All Maps","protocol":17,"map":"cp_sunshine","folder":"tf","game":"Team Fortress","app_id":440,"player_count":0,"max_players":24,"Bots":0,"server_type":"Dedicated","server_os":"Linux","password":true,"vac":true,"version":"7757534","steam_id":85568392924470941,"keywords":["cp","nocrits","nodmgspread","uncletopia"],"game_id":440,"stv_port":27026,"stv_name":"Uncletopia | London | 2 | All Maps | STV","players":null},{"server_id":320,"name":"Uncletopia | London | 3 | All Maps","name_short":"lon-3","host":"lon-1.uk.uncletopia.com","port":27035,"enabled":true,"region":"eu","cc":"gb","latitude":51.509865,"longitude":-0.118092,"reserved":0,"last_update":"0001-01-01T00:00:00Z","name_a2s":"Uncletopia | London | 3 | All Maps","protocol":17,"map":"koth_viaduct","folder":"tf","game":"Team Fortress","app_id":440,"player_count":0,"max_players":24,"Bots":0,"server_type":"Dedicated","server_os":"Linux","password":true,"vac":true,"version":"7757534","steam_id":85568392924510192,"keywords":["cp","nocrits","nodmgspread","uncletopia"],"game_id":440,"stv_port":27036,"stv_name":"Uncletopia | London | 3 | All Maps | STV","players":null},{"server_id":321,"name":"Uncletopia | London | 4 | All Maps","name_short":"lon-4","host":"lon-1.uk.uncletopia.com","port":27045,"enabled":true,"region":"eu","cc":"gb","latitude":51.509865,"longitude":-0.118092,"reserved":0,"last_update":"0001-01-01T00:00:00Z","name_a2s":"Uncletopia | London | 4 | All Maps","protocol":17,"map":"koth_viaduct","folder":"tf","game":"Team Fortress","app_id":440,"player_count":0,"max_players":24,"Bots":0,"server_type":"Dedicated","server_os":"Linux","password":true,"vac":true,"version":"7757534","steam_id":85568392924510193,"keywords":["cp","nocrits","nodmgspread","uncletopia"],"game_id":440,"stv_port":27046,"stv_name":"Uncletopia | London | 4 | All Maps | STV","players":null},{"server_id":21,"name":"Uncletopia | London | 5 | All Maps","name_short":"lon-5","host":"lon-1.uk.uncletopia.com","port":27055,"enabled":true,"region":"eu","cc":"gb","latitude":51.509865,"longitude":-0.118092,"reserved":0,"last_update":"0001-01-01T00:00:00Z","name_a2s":"Uncletopia | London | 5 | All Maps","protocol":17,"map":"koth_viaduct","folder":"tf","game":"Team Fortress","app_id":440,"player_count":0,"max_players":24,"Bots":0,"server_type":"Dedicated","server_os":"Linux","password":true,"vac":true,"version":"7757534","steam_id":85568392924742829,"keywords":["cp","nocrits","nodmgspread","uncletopia"],"game_id":440,"stv_port":27056,"stv_name":"Uncletopia | London | 5 | All Maps | STV","players":null},{"server_id":22,"name":"Uncletopia | London | 6 | All Maps","name_short":"lon-6","host":"lon-1.uk.uncletopia.com","port":27065,"enabled":true,"region":"eu","cc":"gb","latitude":51.509865,"longitude":-0.118092,"reserved":0,"last_update":"0001-01-01T00:00:00Z","name_a2s":"Uncletopia | London | 6 | All Maps","protocol":17,"map":"koth_cascade","folder":"tf","game":"Team Fortress","app_id":440,"player_count":0,"max_players":24,"Bots":0,"server_type":"Dedicated","server_os":"Linux","password":true,"vac":true,"version":"7757534","steam_id":85568392924742830,"keywords":["cp","nocrits","nodmgspread","uncletopia"],"game_id":440,"stv_port":27066,"stv_name":"Uncletopia | London | 6 | All Maps | STV","players":null},{"server_id":40,"name":"Uncletopia | London | 7 | No Payload","name_short":"lon-7","host":"lon-1.uk.uncletopia.com","port":27075,"enabled":true,"region":"eu","cc":"gb","latitude":51.509865,"longitude":-0.118092,"reserved":0,"last_update":"0001-01-01T00:00:00Z","name_a2s":"Uncletopia | London | 7 | No Payload","protocol":17,"map":"koth_sawmill","folder":"tf","game":"Team Fortress","app_id":440,"player_count":0,"max_players":24,"Bots":0,"server_type":"Dedicated","server_os":"Linux","password":true,"vac":true,"version":"7757534","steam_id":85568392924964314,"keywords":["cp","nocrits","nodmgspread","uncletopia"],"game_id":440,"stv_port":27076,"stv_name":"Uncletopia | London | 7 | No Payload | STV","players":null},{"server_id":41,"name":"Uncletopia | London | 8 | Community","name_short":"lon-8","host":"lon-1.uk.uncletopia.com","port":27085,"enabled":true,"region":"eu","cc":"gb","latitude":51.509865,"longitude":-0.118092,"reserved":0,"last_update":"0001-01-01T00:00:00Z","name_a2s":"Uncletopia | London | 8 | Community","protocol":17,"map":"workshop/koth_trenchfoot_b1a.ugc731436616","folder":"tf","game":"Team Fortress","app_id":440,"player_count":0,"max_players":24,"Bots":0,"server_type":"Dedicated","server_os":"Linux","password":true,"vac":true,"version":"7757534","steam_id":85568392924964315,"keywords":["cp","nocrits","nodmgspread","uncletopia"],"game_id":440,"stv_port":27086,"stv_name":"Uncletopia | London | 8 | Community | STV","players":null},{"server_id":300,"name":"Uncletopia | Montr√©al | 1 | All Maps","name_short":"mtl-1","host":"mtl-1.ca.uncletopia.com","port":27015,"enabled":true,"region":"us-east","cc":"ca","latitude":45.50889,"longitude":-73.56167,"reserved":0,"last_update":"0001-01-01T00:00:00Z","name_a2s":"Uncletopia | Montr√©al | 1 | All Maps","protocol":17,"map":"koth_lakeside_final","folder":"tf","game":"Team Fortress","app_id":440,"player_count":0,"max_players":24,"Bots":0,"server_type":"Dedicated","server_os":"Linux","password":true,"vac":true,"version":"7757534","steam_id":85568392924500087,"keywords":["cp","nocrits","nodmgspread","uncletopia"],"game_id":440,"stv_port":27016,"stv_name":"Uncletopia | Montr√©al | 1 | All Maps | STV","players":null},{"server_id":301,"name":"Uncletopia | Montr√©al | 2 | All Maps","name_short":"mtl-2","host":"mtl-1.ca.uncletopia.com","port":27025,"enabled":true,"region":"us-east","cc":"ca","latitude":45.50889,"longitude":-73.56167,"reserved":0,"last_update":"0001-01-01T00:00:00Z","name_a2s":"Uncletopia | Montr√©al | 2 | All Maps","protocol":17,"map":"pl_snowycoast","folder":"tf","game":"Team Fortress","app_id":440,"player_count":0,"max_players":24,"Bots":0,"server_type":"Dedicated","server_os":"Linux","password":true,"vac":true,"version":"7757534","steam_id":85568392924500088,"keywords":["nocrits","nodmgspread","payload","uncletopia"],"game_id":440,"stv_port":27026,"stv_name":"Uncletopia | Montr√©al | 2 | All Maps | STV","players":null},{"server_id":302,"name":"Uncletopia | Montr√©al | 3 | All Maps","name_short":"mtl-3","host":"mtl-1.ca.uncletopia.com","port":27035,"enabled":true,"region":"us-east","cc":"ca","latitude":45.50889,"longitude":-73.56167,"reserved":0,"last_update":"0001-01-01T00:00:00Z","name_a2s":"Uncletopia | Montr√©al | 3 | All Maps","protocol":17,"map":"pl_badwater","folder":"tf","game":"Team Fortress","app_id":440,"player_count":0,"max_players":24,"Bots":0,"server_type":"Dedicated","server_os":"Linux","password":true,"vac":true,"version":"7757534","steam_id":85568392924500089,"keywords":["nocrits","nodmgspread","payload","uncletopia"],"game_id":440,"stv_port":27036,"stv_name":"Uncletopia | Montr√©al | 3 | All Maps | STV","players":null},{"server_id":303,"name":"Uncletopia | Montr√©al | 4 | No Payload","name_short":"mtl-4","host":"mtl-1.ca.uncletopia.com","port":27045,"enabled":true,"region":"us-east","cc":"ca","latitude":45.50889,"longitude":-73.56167,"reserved":0,"last_update":"0001-01-01T00:00:00Z","name_a2s":"Uncletopia | Montr√©al | 4 | No Payload","protocol":17,"map":"cp_badlands","folder":"tf","game":"Team Fortress","app_id":440,"player_count":0,"max_players":24,"Bots":0,"server_type":"Dedicated","server_os":"Linux","password":true,"vac":true,"version":"7757534","steam_id":85568392924500090,"keywords":["cp","nocrits","nodmgspread","uncletopia"],"game_id":440,"stv_port":27046,"stv_name":"Uncletopia | Montr√©al | 4 | No Payload | STV","players":null},{"server_id":13,"name":"Uncletopia | New York City | 1 | All Maps","name_short":"nyc-1","host":"nyc-1.us.uncletopia.com","port":27015,"enabled":true,"region":"us-east","cc":"us","latitude":40.73061,"longitude":-73.93524,"reserved":0,"last_update":"0001-01-01T00:00:00Z","name_a2s":"Uncletopia | New York City | 1 | All Maps","protocol":17,"map":"cp_dustbowl","folder":"tf","game":"Team Fortress","app_id":440,"player_count":24,"max_players":24,"Bots":0,"server_type":"Dedicated","server_os":"Linux","password":true,"vac":true,"version":"7757534","steam_id":85568392924469993,"keywords":["cp","nocrits","nodmgspread","uncletopia"],"game_id":440,"stv_port":27016,"stv_name":"Uncletopia | New York City | 1 | All Maps | STV","players":[{"user_id":341,"name":"Redninja22","steam_id":76561198284320774,"connected_time":3843000000000,"state":"active","ping":75},{"user_id":393,"name":"kel","steam_id":76561199153923345,"connected_time":119000000000,"state":"active","ping":93},{"user_id":371,"name":"5FuriousNutSlaps","steam_id":76561197996665296,"connected_time":2082000000000,"state":"active","ping":143},{"user_id":367,"name":"Gen","steam_id":76561198258126130,"connected_time":2209000000000,"state":"active","ping":79},{"user_id":340,"name":"Allie","steam_id":76561198272401589,"connected_time":3958000000000,"state":"active","ping":84},{"user_id":306,"name":"Sapphireblitz","steam_id":76561198272635379,"connected_time":6409000000000,"state":"active","ping":76},{"user_id":373,"name":"Uncle Majic the Hip Hop Magicia","steam_id":76561198107924303,"connected_time":1898000000000,"state":"active","ping":47},{"user_id":363,"name":"PLATYPUS","steam_id":76561198255796625,"connected_time":2327000000000,"state":"active","ping":120},{"user_id":335,"name":"primordialheath","steam_id":76561199386942638,"connected_time":4150000000000,"state":"active","ping":83},{"user_id":386,"name":"Pizza Party","steam_id":76561198165730754,"connected_time":1032000000000,"state":"active","ping":60},{"user_id":354,"name":"The Fog","steam_id":76561198129302416,"connected_time":2971000000000,"state":"active","ping":58},{"user_id":379,"name":"Socialism Enjoyer","steam_id":76561197991817974,"connected_time":1462000000000,"state":"active","ping":122},{"user_id":382,"name":"FandelFenix","steam_id":76561198304922710,"connected_time":1384000000000,"state":"active","ping":51},{"user_id":390,"name":"Sergent CANARD","steam_id":76561198072127089,"connected_time":883000000000,"state":"active","ping":133},{"user_id":391,"name":"Three Eggs, Shunned","steam_id":76561198416948344,"connected_time":880000000000,"state":"active","ping":55},{"user_id":324,"name":"[HF] Glitchboy18","steam_id":76561199006872357,"connected_time":5022000000000,"state":"active","ping":86},{"user_id":358,"name":"StonedGiant","steam_id":76561197984386932,"connected_time":2378000000000,"state":"active","ping":78},{"user_id":385,"name":"Frajer","steam_id":76561198059129680,"connected_time":1249000000000,"state":"active","ping":60},{"user_id":376,"name":"Dzhoshua","steam_id":76561198071915251,"connected_time":1793000000000,"state":"active","ping":81},{"user_id":369,"name":"Makerbubu43","steam_id":76561199027173897,"connected_time":2171000000000,"state":"active","ping":39},{"user_id":336,"name":"rizzard","steam_id":76561199027636552,"connected_time":4115000000000,"state":"active","ping":81},{"user_id":384,"name":"superdeathmegasupremskullman201","steam_id":76561198296539957,"connected_time":1341000000000,"state":"active","ping":62},{"user_id":388,"name":"Vem","steam_id":76561198117273112,"connected_time":1009000000000,"state":"active","ping":71},{"user_id":351,"name":"CobyNoHoes","steam_id":76561198122236594,"connected_time":3121000000000,"state":"active","ping":76}]},{"server_id":14,"name":"Uncletopia | New York City | 2 | All Maps","name_short":"nyc-2","host":"nyc-1.us.uncletopia.com","port":27025,"enabled":true,"region":"us-east","cc":"us","latitude":40.73061,"longitude":-73.93524,"reserved":0,"last_update":"0001-01-01T00:00:00Z","name_a2s":"Uncletopia | New York City | 2 | All Maps","protocol":17,"map":"pl_snowycoast","folder":"tf","game":"Team Fortress","app_id":440,"player_count":23,"max_players":24,"Bots":0,"server_type":"Dedicated","server_os":"Linux","password":true,"vac":true,"version":"7757534","steam_id":85568392924469994,"keywords":["nocrits","nodmgspread","payload","uncletopia"],"game_id":440,"stv_port":27026,"stv_name":"Uncletopia | New York City | 2 | All Maps | STV","players":[{"user_id":71,"name":"D9","steam_id":76561197999151357,"connected_time":8621000000000,"state":"active","ping":90},{"user_id":163,"name":"Sin","steam_id":76561198940055557,"connected_time":655000000000,"state":"active","ping":46},{"user_id":131,"name":"starfungus","steam_id":76561198158312789,"connected_time":3320000000000,"state":"active","ping":82},{"user_id":167,"name":"Mackola","steam_id":76561198125958792,"connected_time":325000000000,"state":"active","ping":60},{"user_id":135,"name":"Chewbacca","steam_id":76561198041927925,"connected_time":3080000000000,"state":"active","ping":57},{"user_id":165,"name":"grind","steam_id":76561198801214349,"connected_time":393000000000,"state":"active","ping":65},{"user_id":139,"name":"pipebombrater","steam_id":76561199029030831,"connected_time":2770000000000,"state":"active","ping":57},{"user_id":110,"name":"PastetheRabbit","steam_id":76561198152219815,"connected_time":5006000000000,"state":"active","ping":70},{"user_id":171,"name":"frank","steam_id":76561198045436159,"connected_time":191000000000,"state":"active","ping":66},{"user_id":162,"name":"shadowjango","steam_id":76561198001475833,"connected_time":802000000000,"state":"active","ping":75},{"user_id":147,"name":"giura","steam_id":76561197986794525,"connected_time":2022000000000,"state":"active","ping":107},{"user_id":168,"name":"Viokik","steam_id":76561198408846602,"connected_time":314000000000,"state":"active","ping":46},{"user_id":164,"name":"tom fool","steam_id":76561198311704368,"connected_time":401000000000,"state":"active","ping":63},{"user_id":166,"name":"MetaKrakalaka","steam_id":76561199095316646,"connected_time":391000000000,"state":"active","ping":62},{"user_id":161,"name":"deepwoken","steam_id":76561198055439054,"connected_time":832000000000,"state":"active","ping":56},{"user_id":173,"name":"Slashes","steam_id":76561197968573499,"connected_time":181000000000,"state":"active","ping":38},{"user_id":170,"name":"you should recycle","steam_id":76561198119478199,"connected_time":215000000000,"state":"active","ping":39},{"user_id":156,"name":"Fallbourn","steam_id":76561197994851732,"connected_time":1601000000000,"state":"active","ping":87},{"user_id":172,"name":"Psychosis","steam_id":76561198078659070,"connected_time":185000000000,"state":"active","ping":71},{"user_id":174,"name":"M@verick","steam_id":76561198006363519,"connected_time":62000000000,"state":"active","ping":69},{"user_id":105,"name":"Antifa Alligator","steam_id":76561197988170816,"connected_time":5318000000000,"state":"active","ping":93},{"user_id":157,"name":"Megadesk","steam_id":76561198078219641,"connected_time":1306000000000,"state":"active","ping":83},{"user_id":140,"name":"BigOrca54","steam_id":76561198181360271,"connected_time":2730000000000,"state":"active","ping":75}]},{"server_id":15,"name":"Uncletopia | New York City | 3 | Stopwatch Beta","name_short":"nyc-3","host":"nyc-1.us.uncletopia.com","port":27035,"enabled":true,"region":"us-east","cc":"us","latitude":40.73061,"longitude":-73.93524,"reserved":0,"last_update":"0001-01-01T00:00:00Z","name_a2s":"Uncletopia | New York City | 3 | Stopwatch Beta","protocol":17,"map":"workshop/koth_bagel_rc5.ugc2514036946","folder":"tf","game":"Team Fortress","app_id":440,"player_count":13,"max_players":24,"Bots":0,"server_type":"Dedicated","server_os":"Linux","password":true,"vac":true,"version":"7757534","steam_id":85568392924742820,"keywords":["cp","nocrits","nodmgspread","uncletopia"],"game_id":440,"stv_port":27036,"stv_name":"Uncletopia | New York City | 3 | Stopwatch Beta | STV","players":[{"user_id":9,"name":"Phantom Bolt","steam_id":76561198154727867,"connected_time":3160000000000,"state":"active","ping":69},{"user_id":10,"name":"DragonLuigi","steam_id":76561198053274899,"connected_time":3147000000000,"state":"active","ping":123},{"user_id":26,"name":"MJ","steam_id":76561198212047005,"connected_time":907000000000,"state":"active","ping":74},{"user_id":37,"name":"minihoog","steam_id":76561198102156780,"connected_time":134000000000,"state":"active","ping":62},{"user_id":13,"name":"SuperAngel","steam_id":76561198861482461,"connected_time":1829000000000,"state":"active","ping":55},{"user_id":15,"name":"SquidOnion","steam_id":76561198188814845,"connected_time":1723000000000,"state":"active","ping":61},{"user_id":16,"name":"Kirbo","steam_id":76561198113369815,"connected_time":1699000000000,"state":"active","ping":81},{"user_id":34,"name":"I C U P","steam_id":76561198349252490,"connected_time":504000000000,"state":"active","ping":64},{"user_id":27,"name":"Jumpin over your head","steam_id":76561198140517330,"connected_time":808000000000,"state":"active","ping":98},{"user_id":35,"name":"Mayspark","steam_id":76561198266497823,"connected_time":381000000000,"state":"active","ping":84},{"user_id":20,"name":"WeArMature","steam_id":76561198046116420,"connected_time":1536000000000,"state":"active","ping":140},{"user_id":21,"name":"ShaqtusHD (She/Her)","steam_id":76561199138286233,"connected_time":1458000000000,"state":"active","ping":65},{"user_id":36,"name":"FancyDoughnuts ( Clutch Cargo)","steam_id":76561198126974584,"connected_time":201000000000,"state":"active","ping":37}]},{"server_id":16,"name":"Uncletopia | New York City | 4 | Community","name_short":"nyc-4","host":"nyc-1.us.uncletopia.com","port":27045,"enabled":true,"region":"us-east","cc":"us","latitude":40.73061,"longitude":-73.93524,"reserved":0,"last_update":"0001-01-01T00:00:00Z","name_a2s":"Uncletopia | New York City | 4 | Community","protocol":17,"map":"workshop/pl_vigil_rc9.ugc1266210012","folder":"tf","game":"Team Fortress","app_id":440,"player_count":0,"max_players":24,"Bots":0,"server_type":"Dedicated","server_os":"Linux","password":true,"vac":true,"version":"7757534","steam_id":85568392924742821,"keywords":["nocrits","nodmgspread","payload","uncletopia"],"game_id":440,"stv_port":27046,"stv_name":"Uncletopia | New York City | 4 | Community | STV","players":null},{"server_id":142,"name":"Uncletopia | S√£o Paulo | 1 | All Maps","name_short":"sao-1","host":"sao-1.br.uncletopia.com","port":27015,"enabled":true,"region":"sa","cc":"br","latitude":-23.533773,"longitude":-46.62529,"reserved":0,"last_update":"0001-01-01T00:00:00Z","name_a2s":"Uncletopia | S√£o Paulo | 1 | All Maps","protocol":17,"map":"pl_frontier_final","folder":"tf","game":"Team Fortress","app_id":440,"player_count":0,"max_players":24,"Bots":0,"server_type":"Dedicated","server_os":"Linux","password":true,"vac":true,"version":"7757534","steam_id":85568392924469996,"keywords":["nocrits","nodmgspread","payload","uncletopia"],"game_id":440,"stv_port":27016,"stv_name":"Uncletopia | S√£o Paulo | 1 | All Maps | STV","players":null},{"server_id":143,"name":"Uncletopia | S√£o Paulo | 2 | All Maps","name_short":"sao-2","host":"sao-2.br.uncletopia.com","port":27015,"enabled":true,"region":"sa","cc":"br","latitude":-23.533773,"longitude":-46.62529,"reserved":0,"last_update":"0001-01-01T00:00:00Z","name_a2s":"Uncletopia | S√£o Paulo | 2 | All Maps","protocol":17,"map":"pl_borneo","folder":"tf","game":"Team Fortress","app_id":440,"player_count":0,"max_players":24,"Bots":0,"server_type":"Dedicated","server_os":"Linux","password":true,"vac":true,"version":"7757534","steam_id":85568392924485349,"keywords":["nocrits","nodmgspread","payload","uncletopia"],"game_id":440,"stv_port":27016,"stv_name":"Uncletopia | S√£o Paulo | 2 | All Maps | STV","players":null},{"server_id":7,"name":"Uncletopia | Seattle | 1 | All Maps","name_short":"sea-1","host":"sea-1.us.uncletopia.com","port":27015,"enabled":true,"region":"us-west","cc":"us","latitude":47.608013,"longitude":-122.33517,"reserved":0,"last_update":"0001-01-01T00:00:00Z","name_a2s":"Uncletopia | Seattle | 1 | All Maps","protocol":17,"map":"cp_steel","folder":"tf","game":"Team Fortress","app_id":440,"player_count":24,"max_players":24,"Bots":0,"server_type":"Dedicated","server_os":"Linux","password":true,"vac":true,"version":"7757534","steam_id":85568392924469997,"keywords":["cp","nocrits","nodmgspread","uncletopia"],"game_id":440,"stv_port":27016,"stv_name":"Uncletopia | Seattle | 1 | All Maps | STV","players":[{"user_id":155,"name":"Ôº≥Ôº¨Ôº∂Ôº¥Ôº£Ôº®Ôº°Ôº≠Ôº∞","steam_id":76561198883157736,"connected_time":8091000000000,"state":"active","ping":60},{"user_id":188,"name":"Mignyanne :3","steam_id":76561198048754056,"connected_time":5120000000000,"state":"active","ping":61},{"user_id":228,"name":"HetchHetchy","steam_id":76561198128125728,"connected_time":125000000000,"state":"active","ping":87},{"user_id":214,"name":"Lord Hater","steam_id":76561199158148782,"connected_time":2633000000000,"state":"active","ping":68},{"user_id":212,"name":"Haydob13","steam_id":76561198110378191,"connected_time":3140000000000,"state":"active","ping":58},{"user_id":200,"name":"young sheldon","steam_id":76561198380018244,"connected_time":3664000000000,"state":"active","ping":60},{"user_id":213,"name":"Julien","steam_id":76561199389584938,"connected_time":3028000000000,"state":"active","ping":45},{"user_id":230,"name":"Elias","steam_id":76561198031295139,"connected_time":102000000000,"state":"active","ping":51},{"user_id":215,"name":"Uta","steam_id":76561198271964253,"connected_time":2377000000000,"state":"active","ping":65},{"user_id":158,"name":"rat gets the cheese","steam_id":76561198031234032,"connected_time":8043000000000,"state":"active","ping":95},{"user_id":204,"name":"Qas","steam_id":76561198067564482,"connected_time":3529000000000,"state":"active","ping":99},{"user_id":223,"name":"Bendidy","steam_id":76561198041964300,"connected_time":1377000000000,"state":"active","ping":71},{"user_id":167,"name":"FANG","steam_id":76561199094739690,"connected_time":7279000000000,"state":"active","ping":97},{"user_id":227,"name":"Attrition","steam_id":76561197969881916,"connected_time":134000000000,"state":"active","ping":60},{"user_id":226,"name":"LWebb","steam_id":76561199162936929,"connected_time":944000000000,"state":"active","ping":117},{"user_id":199,"name":"jungus","steam_id":76561198129862008,"connected_time":3687000000000,"state":"active","ping":81},{"user_id":229,"name":"Hedgee","steam_id":76561199027359473,"connected_time":116000000000,"state":"active","ping":90},{"user_id":217,"name":"snub","steam_id":76561198312106312,"connected_time":2262000000000,"state":"active","ping":112},{"user_id":209,"name":"Smile","steam_id":76561198110008786,"connected_time":3287000000000,"state":"active","ping":47},{"user_id":216,"name":"ThePriceIsRice","steam_id":76561198079069543,"connected_time":2268000000000,"state":"active","ping":61},{"user_id":221,"name":"AmiableNebula","steam_id":76561198094306627,"connected_time":2025000000000,"state":"active","ping":79},{"user_id":222,"name":"Clemont007","steam_id":76561198030935625,"connected_time":1489000000000,"state":"active","ping":77},{"user_id":224,"name":"Glenn","steam_id":76561198059313367,"connected_time":1214000000000,"state":"active","ping":45},{"user_id":182,"name":"DASmallWorlds - Â§ßÂ≠∏‰∏≠","steam_id":76561198139546606,"connected_time":6207000000000,"state":"active","ping":54}]},{"server_id":119,"name":"Uncletopia | Seattle | 2 | All Maps","name_short":"sea-2","host":"sea-1.us.uncletopia.com","port":27025,"enabled":true,"region":"us-west","cc":"us","latitude":47.608013,"longitude":-122.33517,"reserved":0,"last_update":"0001-01-01T00:00:00Z","name_a2s":"Uncletopia | Seattle | 2 | All Maps","protocol":17,"map":"plr_hightower","folder":"tf","game":"Team Fortress","app_id":440,"player_count":24,"max_players":24,"Bots":0,"server_type":"Dedicated","server_os":"Linux","password":true,"vac":true,"version":"7757534","steam_id":85568392924469998,"keywords":["nocrits","nodmgspread","payload","uncletopia"],"game_id":440,"stv_port":27026,"stv_name":"Uncletopia | Seattle | 2 | All Maps | STV","players":[{"user_id":320,"name":"Mike's Pimento Cheese Sandwich","steam_id":76561198978499219,"connected_time":102000000000,"state":"active","ping":75},{"user_id":271,"name":"A UsedNom","steam_id":76561198402832756,"connected_time":2539000000000,"state":"active","ping":68},{"user_id":313,"name":"2 Point Tom","steam_id":76561198087617008,"connected_time":472000000000,"state":"active","ping":46},{"user_id":305,"name":"Nugakku","steam_id":76561198082346219,"connected_time":979000000000,"state":"active","ping":90},{"user_id":315,"name":"WinterCat","steam_id":76561199071923869,"connected_time":399000000000,"state":"active","ping":73},{"user_id":312,"name":"Bringer O' Mali'","steam_id":76561198831463267,"connected_time":579000000000,"state":"active","ping":58},{"user_id":298,"name":"Red Orbama","steam_id":76561198047002366,"connected_time":1196000000000,"state":"active","ping":45},{"user_id":276,"name":"OOOHHH ELDEN RING","steam_id":76561198285515237,"connected_time":2484000000000,"state":"active","ping":55},{"user_id":292,"name":"dosimeter","steam_id":76561198039608940,"connected_time":1346000000000,"state":"active","ping":57},{"user_id":293,"name":"myo0mity","steam_id":76561199018184096,"connected_time":1313000000000,"state":"active","ping":92},{"user_id":278,"name":"laggy mcstab","steam_id":76561198106379962,"connected_time":2463000000000,"state":"active","ping":54},{"user_id":232,"name":"Vevo","steam_id":76561198316753540,"connected_time":5524000000000,"state":"active","ping":91},{"user_id":319,"name":"DeseanGameing","steam_id":76561198253038943,"connected_time":255000000000,"state":"active","ping":135},{"user_id":257,"name":"Mike Hawk","steam_id":76561198045053326,"connected_time":4028000000000,"state":"active","ping":49},{"user_id":307,"name":"B1ueup","steam_id":76561198277467181,"connected_time":956000000000,"state":"active","ping":129},{"user_id":317,"name":"xbox record that","steam_id":76561198150117455,"connected_time":356000000000,"state":"active","ping":82},{"user_id":295,"name":"NovaScotianDuckRetriever","steam_id":76561198061867269,"connected_time":1268000000000,"state":"active","ping":34},{"user_id":299,"name":"Vetresol","steam_id":76561198174828486,"connected_time":1105000000000,"state":"active","ping":53},{"user_id":318,"name":"Dill","steam_id":76561197995325198,"connected_time":348000000000,"state":"active","ping":92},{"user_id":302,"name":"Rixarlin","steam_id":76561198871148306,"connected_time":1005000000000,"state":"active","ping":60},{"user_id":234,"name":"itsgearfear","steam_id":76561198801849281,"connected_time":5519000000000,"state":"active","ping":130},{"user_id":308,"name":"Lynks","steam_id":76561198260492386,"connected_time":956000000000,"state":"active","ping":74},{"user_id":309,"name":"Heisenberg","steam_id":76561198165841050,"connected_time":942000000000,"state":"active","ping":60},{"user_id":262,"name":"asterismz","steam_id":76561198271895997,"connected_time":3512000000000,"state":"active","ping":70}]},{"server_id":406,"name":"Uncletopia | Seattle | 3 | Stopwatch Beta","name_short":"sea-3","host":"sea-1.us.uncletopia.com","port":27035,"enabled":true,"region":"us-west","cc":"us","latitude":47.608013,"longitude":-122.33517,"reserved":0,"last_update":"0001-01-01T00:00:00Z","name_a2s":"Uncletopia | Seattle | 3 | Stopwatch Beta","protocol":17,"map":"pl_borneo","folder":"tf","game":"Team Fortress","app_id":440,"player_count":1,"max_players":24,"Bots":0,"server_type":"Dedicated","server_os":"Linux","password":true,"vac":true,"version":"7757534","steam_id":85568392924515217,"keywords":["nocrits","nodmgspread","payload","uncletopia"],"game_id":440,"stv_port":27036,"stv_name":"Uncletopia | Seattle | 3 | Stopwatch Beta | STV","players":[{"user_id":15,"name":"viciousbeatmaker","steam_id":76561198086876652,"connected_time":6000000000,"state":"spawning","ping":77}]},{"server_id":17,"name":"Uncletopia | San Francisco | 1 | All Maps","name_short":"sfo-1","host":"sfo-1.us.uncletopia.com","port":27015,"enabled":true,"region":"us-west","cc":"us","latitude":37.77397,"longitude":-122.4313,"reserved":0,"last_update":"0001-01-01T00:00:00Z","name_a2s":"Uncletopia | San Francisco | 1 | All Maps","protocol":17,"map":"pl_upward","folder":"tf","game":"Team Fortress","app_id":440,"player_count":24,"max_players":24,"Bots":0,"server_type":"Dedicated","server_os":"Linux","password":true,"vac":true,"version":"7757534","steam_id":85568392924469999,"keywords":["nocrits","nodmgspread","payload","uncletopia"],"game_id":440,"stv_port":27016,"stv_name":"Uncletopia | San Francisco | 1 | All Maps | STV","players":[{"user_id":116,"name":"Superman123389","steam_id":76561198267472539,"connected_time":2818000000000,"state":"active","ping":78},{"user_id":166,"name":"DaBeatGoOff?","steam_id":76561198106507400,"connected_time":33000000000,"state":"active","ping":99},{"user_id":144,"name":"trackpad gaming | f2p","steam_id":76561198840414371,"connected_time":888000000000,"state":"active","ping":62},{"user_id":159,"name":"dave strider","steam_id":76561198065112186,"connected_time":211000000000,"state":"active","ping":70},{"user_id":142,"name":"Biznickel","steam_id":76561199422511230,"connected_time":1010000000000,"state":"active","ping":71},{"user_id":133,"name":"pathulhu","steam_id":76561198323941614,"connected_time":2203000000000,"state":"active","ping":85},{"user_id":143,"name":"Battery_Included","steam_id":76561198067164431,"connected_time":1005000000000,"state":"active","ping":48},{"user_id":160,"name":"Jojo","steam_id":76561198864691307,"connected_time":211000000000,"state":"active","ping":113},{"user_id":145,"name":"Hot Milk + Sweet Delight","steam_id":76561197988989149,"connected_time":864000000000,"state":"active","ping":84},{"user_id":88,"name":"Blows","steam_id":76561198065349185,"connected_time":5585000000000,"state":"active","ping":59},{"user_id":134,"name":"Yoyo-Wo","steam_id":76561198880520205,"connected_time":2160000000000,"state":"active","ping":91},{"user_id":146,"name":"Lae","steam_id":76561198185527278,"connected_time":838000000000,"state":"active","ping":135},{"user_id":161,"name":"The Lemming","steam_id":76561198033354309,"connected_time":200000000000,"state":"active","ping":69},{"user_id":152,"name":"Sammy!","steam_id":76561198184171743,"connected_time":553000000000,"state":"active","ping":62},{"user_id":126,"name":"Allah's drunkest separtist","steam_id":76561198144604567,"connected_time":2403000000000,"state":"active","ping":65},{"user_id":151,"name":"How's your morale?","steam_id":76561198035698704,"connected_time":734000000000,"state":"active","ping":46},{"user_id":162,"name":"MayoBlaster","steam_id":76561198035894236,"connected_time":196000000000,"state":"active","ping":100},{"user_id":153,"name":"Sir Nope (TSS)","steam_id":76561198035935649,"connected_time":305000000000,"state":"active","ping":56},{"user_id":163,"name":"Jos√©","steam_id":76561199000982454,"connected_time":159000000000,"state":"active","ping":181},{"user_id":148,"name":"Frugal Fella","steam_id":76561198162668339,"connected_time":833000000000,"state":"active","ping":118},{"user_id":149,"name":"USP Victorville","steam_id":76561198117025741,"connected_time":829000000000,"state":"active","ping":159},{"user_id":140,"name":"zinnk","steam_id":76561198092081825,"connected_time":1170000000000,"state":"active","ping":37},{"user_id":141,"name":"Maid 'n' China","steam_id":76561198423392976,"connected_time":1039000000000,"state":"active","ping":49},{"user_id":167,"name":"SushiPaste","steam_id":76561198092461977,"connected_time":17000000000,"state":"active","ping":123}]},{"server_id":18,"name":"Uncletopia | San Francisco | 2 | All Maps","name_short":"sfo-2","host":"sfo-1.us.uncletopia.com","port":27025,"enabled":true,"region":"us-west","cc":"us","latitude":37.77397,"longitude":-122.4313,"reserved":0,"last_update":"0001-01-01T00:00:00Z","name_a2s":"Uncletopia | San Francisco | 2 | All Maps","protocol":17,"map":"pl_snowycoast","folder":"tf","game":"Team Fortress","app_id":440,"player_count":24,"max_players":24,"Bots":0,"server_type":"Dedicated","server_os":"Linux","password":true,"vac":true,"version":"7757534","steam_id":85568392924470000,"keywords":["nocrits","nodmgspread","payload","uncletopia"],"game_id":440,"stv_port":27026,"stv_name":"Uncletopia | San Francisco | 2 | All Maps | STV","players":[{"user_id":249,"name":"Green_GarBear","steam_id":76561199468912415,"connected_time":1627000000000,"state":"active","ping":60},{"user_id":257,"name":"RlyTomato","steam_id":76561198011644876,"connected_time":1209000000000,"state":"active","ping":74},{"user_id":270,"name":"THGAwesome","steam_id":76561198162847218,"connected_time":69000000000,"state":"active","ping":124},{"user_id":263,"name":"Warworn Ween","steam_id":76561197991493267,"connected_time":329000000000,"state":"active","ping":116},{"user_id":271,"name":"Lmnop","steam_id":76561198038458838,"connected_time":57000000000,"state":"active","ping":105},{"user_id":248,"name":"Bologna","steam_id":76561197995820757,"connected_time":1628000000000,"state":"active","ping":113},{"user_id":265,"name":"Wesker the guitar man","steam_id":76561198060795545,"connected_time":181000000000,"state":"active","ping":178},{"user_id":196,"name":"EatSomeBEES","steam_id":76561198047334307,"connected_time":5071000000000,"state":"active","ping":71},{"user_id":256,"name":"NaughtyLittleBug","steam_id":76561198183874050,"connected_time":1394000000000,"state":"active","ping":105},{"user_id":272,"name":"Shonin","steam_id":76561198966143854,"connected_time":10000000000,"state":"spawning","ping":42},{"user_id":212,"name":"Vortigaunt","steam_id":76561198058653274,"connected_time":4351000000000,"state":"active","ping":91},{"user_id":268,"name":"Shlartblorf","steam_id":76561198884378616,"connected_time":120000000000,"state":"active","ping":117},{"user_id":211,"name":"Black Mesa Scientist","steam_id":76561198064466577,"connected_time":4449000000000,"state":"active","ping":76},{"user_id":251,"name":"lev","steam_id":76561198246752166,"connected_time":1573000000000,"state":"active","ping":50},{"user_id":223,"name":"LazyDoll","steam_id":76561198053186338,"connected_time":3769000000000,"state":"active","ping":71},{"user_id":252,"name":"Big Yoshi","steam_id":76561199160576376,"connected_time":1570000000000,"state":"active","ping":87},{"user_id":258,"name":"God","steam_id":76561198148447846,"connected_time":1152000000000,"state":"active","ping":57},{"user_id":253,"name":"Shmebulock","steam_id":76561198046941925,"connected_time":1521000000000,"state":"active","ping":120},{"user_id":237,"name":"Papa_Ace","steam_id":76561198432149900,"connected_time":2700000000000,"state":"active","ping":68},{"user_id":213,"name":"xivRocky","steam_id":76561198083184351,"connected_time":4220000000000,"state":"active","ping":85},{"user_id":235,"name":"Grayson","steam_id":76561198072228259,"connected_time":2914000000000,"state":"active","ping":85},{"user_id":254,"name":"unnamed56565","steam_id":76561199082953233,"connected_time":1486000000000,"state":"active","ping":61},{"user_id":269,"name":"Kuzi","steam_id":76561199360988431,"connected_time":115000000000,"state":"active","ping":57},{"user_id":261,"name":"Squawk31","steam_id":76561198031100696,"connected_time":508000000000,"state":"active","ping":121}]},{"server_id":19,"name":"Uncletopia | San Francisco | 3 | Stopwatch Beta","name_short":"sfo-3","host":"sfo-1.us.uncletopia.com","port":27035,"enabled":true,"region":"us-west","cc":"us","latitude":37.77397,"longitude":-122.4313,"reserved":0,"last_update":"0001-01-01T00:00:00Z","name_a2s":"Uncletopia | San Francisco | 3 | Stopwatch Beta","protocol":17,"map":"pl_borneo","folder":"tf","game":"Team Fortress","app_id":440,"player_count":0,"max_players":24,"Bots":0,"server_type":"Dedicated","server_os":"Linux","password":true,"vac":true,"version":"7757534","steam_id":85568392924742824,"keywords":["nocrits","nodmgspread","payload","uncletopia"],"game_id":440,"stv_port":27036,"stv_name":"Uncletopia | San Francisco | 3 | Stopwatch Beta | STV","players":null},{"server_id":20,"name":"Uncletopia | San Francisco | 4 | Community","name_short":"sfo-4","host":"sfo-1.us.uncletopia.com","port":27045,"enabled":true,"region":"us-west","cc":"us","latitude":37.77397,"longitude":-122.4313,"reserved":0,"last_update":"0001-01-01T00:00:00Z","name_a2s":"Uncletopia | San Francisco | 4 | Community","protocol":17,"map":"workshop/cp_croissant_final.ugc458840209","folder":"tf","game":"Team Fortress","app_id":440,"player_count":24,"max_players":24,"Bots":0,"server_type":"Dedicated","server_os":"Linux","password":true,"vac":true,"version":"7757534","steam_id":85568392924742826,"keywords":["cp","nocrits","nodmgspread","uncletopia"],"game_id":440,"stv_port":27046,"stv_name":"Uncletopia | San Francisco | 4 | Community | STV","players":[{"user_id":88,"name":"merge without looking","steam_id":76561198056702628,"connected_time":1715000000000,"state":"active","ping":74},{"user_id":46,"name":"Steejans","steam_id":76561198053211279,"connected_time":4267000000000,"state":"active","ping":65},{"user_id":67,"name":"HEX","steam_id":76561198331229114,"connected_time":3105000000000,"state":"active","ping":150},{"user_id":60,"name":"Dr. Kamirubich","steam_id":76561198136169355,"connected_time":3822000000000,"state":"active","ping":115},{"user_id":80,"name":"zrsp1","steam_id":76561199030845505,"connected_time":2254000000000,"state":"active","ping":127},{"user_id":81,"name":"AKKAWI","steam_id":76561198203159952,"connected_time":2232000000000,"state":"active","ping":58},{"user_id":70,"name":"roseytyler","steam_id":76561198363632970,"connected_time":2941000000000,"state":"active","ping":121},{"user_id":33,"name":"usasan","steam_id":76561198044654399,"connected_time":5082000000000,"state":"active","ping":60},{"user_id":82,"name":"cute_little_foxy","steam_id":76561198980929735,"connected_time":2219000000000,"state":"active","ping":129},{"user_id":23,"name":"Pile of Spinach","steam_id":76561198043068841,"connected_time":5446000000000,"state":"active","ping":68},{"user_id":100,"name":"Thequirka","steam_id":76561198968058652,"connected_time":218000000000,"state":"active","ping":64},{"user_id":97,"name":"emily","steam_id":76561198051872256,"connected_time":1098000000000,"state":"active","ping":110},{"user_id":85,"name":"xX„Éï„Ç°„Ç§„Ç¢„Éâ„É©„Ç¥„É≥xX","steam_id":76561198259852704,"connected_time":1789000000000,"state":"active","ping":59},{"user_id":93,"name":"EggsAndBacon","steam_id":76561198031789082,"connected_time":1434000000000,"state":"active","ping":102},{"user_id":99,"name":"xxelenchiladas2004xxprogamer_yt","steam_id":76561199074844412,"connected_time":345000000000,"state":"active","ping":110},{"user_id":44,"name":"Lactose ‡πëÔ≠•","steam_id":76561198208256987,"connected_time":4291000000000,"state":"active","ping":73},{"user_id":69,"name":"Dr.Long","steam_id":76561198930316713,"connected_time":2967000000000,"state":"active","ping":129},{"user_id":71,"name":"‚åÇsmarb‚åÇ","steam_id":76561199197198840,"connected_time":2889000000000,"state":"active","ping":84},{"user_id":96,"name":"Larn","steam_id":76561198085039834,"connected_time":1210000000000,"state":"active","ping":90},{"user_id":50,"name":"Lerp","steam_id":76561198045035297,"connected_time":4183000000000,"state":"active","ping":71},{"user_id":101,"name":"Isopentyl Ethanoate","steam_id":76561198116389072,"connected_time":167000000000,"state":"active","ping":83},{"user_id":52,"name":"the grape thief","steam_id":76561198862785401,"connected_time":4144000000000,"state":"active","ping":61},{"user_id":53,"name":"JimmySquid","steam_id":76561198254242530,"connected_time":4139000000000,"state":"active","ping":111},{"user_id":84,"name":"Pyro Main(Not a furry)","steam_id":76561199178575029,"connected_time":2034000000000,"state":"active","ping":96}]},{"server_id":141,"name":"Uncletopia | Sydney | 1 | All Maps","name_short":"syd-1","host":"syd-1.au.uncletopia.com","port":27015,"enabled":true,"region":"au","cc":"au","latitude":-33.865143,"longitude":151.2099,"reserved":0,"last_update":"0001-01-01T00:00:00Z","name_a2s":"Uncletopia | Sydney | 1 | All Maps","protocol":17,"map":"cp_process_final","folder":"tf","game":"Team Fortress","app_id":440,"player_count":24,"max_players":24,"Bots":0,"server_type":"Dedicated","server_os":"Linux","password":true,"vac":true,"version":"7757534","steam_id":85568392924470001,"keywords":["cp","nocrits","nodmgspread","uncletopia"],"game_id":440,"stv_port":27016,"stv_name":"Uncletopia | Sydney | 1 | All Maps | STV","players":[{"user_id":202,"name":"scout tf2","steam_id":76561198251386932,"connected_time":413000000000,"state":"active","ping":70},{"user_id":177,"name":"mighty beans","steam_id":76561198066380455,"connected_time":2227000000000,"state":"active","ping":41},{"user_id":167,"name":"KnowZero","steam_id":76561198095752015,"connected_time":3037000000000,"state":"active","ping":58},{"user_id":190,"name":"CREATURES LIE HERE FeelsStrongM","steam_id":76561199184547017,"connected_time":1302000000000,"state":"active","ping":39},{"user_id":203,"name":"badmn","steam_id":76561198056462343,"connected_time":408000000000,"state":"active","ping":56},{"user_id":180,"name":"bagurgher","steam_id":76561198198491197,"connected_time":2078000000000,"state":"active","ping":56},{"user_id":175,"name":"jack","steam_id":76561199090168813,"connected_time":2362000000000,"state":"active","ping":51},{"user_id":198,"name":"Zilvera","steam_id":76561198065801850,"connected_time":583000000000,"state":"active","ping":50},{"user_id":186,"name":"maplepancakes","steam_id":76561198214432533,"connected_time":1854000000000,"state":"active","ping":52},{"user_id":166,"name":"mvharris","steam_id":76561198193124397,"connected_time":3570000000000,"state":"active","ping":71},{"user_id":206,"name":"the rot doesn't consume","steam_id":76561198866538028,"connected_time":106000000000,"state":"active","ping":79},{"user_id":199,"name":"KiwiJiwi","steam_id":76561198262081410,"connected_time":581000000000,"state":"active","ping":72},{"user_id":204,"name":"Charles","steam_id":76561198907160049,"connected_time":381000000000,"state":"active","ping":51},{"user_id":189,"name":"SaltierThanYou","steam_id":76561198444395188,"connected_time":1518000000000,"state":"active","ping":86},{"user_id":200,"name":"SNeaky McBeaky","steam_id":76561198098025993,"connected_time":567000000000,"state":"active","ping":67},{"user_id":162,"name":"shrivel","steam_id":76561198129577552,"connected_time":4032000000000,"state":"active","ping":81},{"user_id":194,"name":"bird","steam_id":76561198258514103,"connected_time":690000000000,"state":"active","ping":63},{"user_id":195,"name":"Oysenberry","steam_id":76561198125443335,"connected_time":690000000000,"state":"active","ping":38},{"user_id":205,"name":"JayTheLlamaKing","steam_id":76561198836354249,"connected_time":336000000000,"state":"active","ping":93},{"user_id":170,"name":"Corgo","steam_id":76561198162174985,"connected_time":2822000000000,"state":"active","ping":53},{"user_id":207,"name":"Dr Barry Mundy PhD","steam_id":76561198034512686,"connected_time":57000000000,"state":"active","ping":46},{"user_id":131,"name":"Blondie","steam_id":76561198257286963,"connected_time":6350000000000,"state":"active","ping":68},{"user_id":201,"name":"in the balls","steam_id":76561199084857134,"connected_time":564000000000,"state":"active","ping":51}]},{"server_id":123,"name":"Uncletopia | Sydney | 2 | All Maps","name_short":"syd-2","host":"syd-1.au.uncletopia.com","port":27025,"enabled":true,"region":"au","cc":"au","latitude":-33.865143,"longitude":151.2099,"reserved":0,"last_update":"0001-01-01T00:00:00Z","name_a2s":"Uncletopia | Sydney | 2 | All Maps","protocol":17,"map":"koth_suijin","folder":"tf","game":"Team Fortress","app_id":440,"player_count":1,"max_players":24,"Bots":0,"server_type":"Dedicated","server_os":"Linux","password":true,"vac":true,"version":"7757534","steam_id":85568392924470002,"keywords":["cp","nocrits","nodmgspread","uncletopia"],"game_id":440,"stv_port":27026,"stv_name":"Uncletopia | Sydney | 2 | All Maps | STV","players":[{"user_id":40,"name":"Crunchy Bug","steam_id":76561199083645515,"connected_time":3000000000,"state":"spawning","ping":46}]},{"server_id":395,"name":"Uncletopia | Sydney | 3 | All Maps","name_short":"syd-3","host":"syd-1.au.uncletopia.com","port":27035,"enabled":true,"region":"au","cc":"au","latitude":-33.865143,"longitude":151.2099,"reserved":0,"last_update":"0001-01-01T00:00:00Z","name_a2s":"Uncletopia | Sydney | 3 | All Maps","protocol":17,"map":"pl_barnblitz","folder":"tf","game":"Team Fortress","app_id":440,"player_count":0,"max_players":24,"Bots":0,"server_type":"Dedicated","server_os":"Linux","password":true,"vac":true,"version":"7757534","steam_id":85568392925194467,"keywords":["nocrits","nodmgspread","payload","uncletopia"],"game_id":440,"stv_port":27036,"stv_name":"Uncletopia | Sydney | 3 | All Maps | STV","players":null},{"server_id":396,"name":"Uncletopia | Sydney | 4 | All Maps","name_short":"syd-4","host":"syd-1.au.uncletopia.com","port":27045,"enabled":true,"region":"au","cc":"au","latitude":-33.865143,"longitude":151.2099,"reserved":0,"last_update":"0001-01-01T00:00:00Z","name_a2s":"Uncletopia | Sydney | 4 | All Maps","protocol":17,"map":"koth_lakeside_final","folder":"tf","game":"Team Fortress","app_id":440,"player_count":0,"max_players":24,"Bots":0,"server_type":"Dedicated","server_os":"Linux","password":true,"vac":true,"version":"7757534","steam_id":85568392925397958,"keywords":["cp","nocrits","nodmgspread","uncletopia"],"game_id":440,"stv_port":27046,"stv_name":"Uncletopia | Sydney | 4 | All Maps | STV","players":null},{"server_id":58,"name":"Uncletopia | Sydney | 5 | Stopwatch Beta","name_short":"syd-5","host":"syd-1.au.uncletopia.com","port":27055,"enabled":true,"region":"au","cc":"au","latitude":-33.865143,"longitude":151.2099,"reserved":0,"last_update":"0001-01-01T00:00:00Z","name_a2s":"Uncletopia | Sydney | 5 | Stopwatch Beta","protocol":17,"map":"cp_snakewater_final1","folder":"tf","game":"Team Fortress","app_id":440,"player_count":0,"max_players":24,"Bots":0,"server_type":"Dedicated","server_os":"Linux","password":true,"vac":true,"version":"7757534","steam_id":85568392925397959,"keywords":["cp","nocrits","nodmgspread","uncletopia"],"game_id":440,"stv_port":27056,"stv_name":"Uncletopia | Sydney | 5 | Stopwatch Beta | STV","players":null},{"server_id":59,"name":"Uncletopia | Sydney | 6 | Community","name_short":"syd-6","host":"syd-1.au.uncletopia.com","port":27065,"enabled":true,"region":"au","cc":"au","latitude":-33.865143,"longitude":151.2099,"reserved":0,"last_update":"0001-01-01T00:00:00Z","name_a2s":"Uncletopia | Sydney | 6 | Community","protocol":17,"map":"workshop/cp_sulfur_rc2.ugc619869471","folder":"tf","game":"Team Fortress","app_id":440,"player_count":0,"max_players":24,"Bots":0,"server_type":"Dedicated","server_os":"Linux","password":true,"vac":true,"version":"7757534","steam_id":85568392925397960,"keywords":["cp","nocrits","nodmgspread","uncletopia"],"game_id":440,"stv_port":27066,"stv_name":"Uncletopia | Sydney | 6 | Community | STV","players":null},{"server_id":49,"name":"Uncletopia | Warsaw | 1 | All Maps","name_short":"waw-1","host":"waw-1.pl.uncletopia.com","port":27015,"enabled":true,"region":"eu","cc":"pl","latitude":52.2297,"longitude":21.017532,"reserved":0,"last_update":"0001-01-01T00:00:00Z","name_a2s":"","protocol":0,"map":"","folder":"","game":"","app_id":0,"player_count":0,"max_players":0,"Bots":0,"server_type":"","server_os":"","password":false,"vac":false,"version":"","steam_id":0,"keywords":null,"game_id":0,"stv_port":0,"stv_name":"","players":null},{"server_id":50,"name":"Uncletopia | Warsaw | 2 | All Maps","name_short":"waw-2","host":"waw-1.pl.uncletopia.com","port":27025,"enabled":true,"region":"eu","cc":"pl","latitude":52.2297,"longitude":21.017532,"reserved":0,"last_update":"0001-01-01T00:00:00Z","name_a2s":"Uncletopia | Warsaw | 2 | All Maps","protocol":17,"map":"cp_process_final","folder":"tf","game":"Team Fortress","app_id":440,"player_count":0,"max_players":24,"Bots":0,"server_type":"Dedicated","server_os":"Linux","password":true,"vac":true,"version":"7757534","steam_id":85568392925397851,"keywords":["cp","nocrits","nodmgspread","uncletopia"],"game_id":440,"stv_port":27026,"stv_name":"Uncletopia | Warsaw | 2 | All Maps | STV","players":null},{"server_id":51,"name":"Uncletopia | Warsaw | 3 | All Maps","name_short":"waw-3","host":"waw-1.pl.uncletopia.com","port":27035,"enabled":true,"region":"eu","cc":"pl","latitude":52.2297,"longitude":21.017532,"reserved":0,"last_update":"0001-01-01T00:00:00Z","name_a2s":"Uncletopia | Warsaw | 3 | All Maps","protocol":17,"map":"pl_barnblitz","folder":"tf","game":"Team Fortress","app_id":440,"player_count":0,"max_players":24,"Bots":0,"server_type":"Dedicated","server_os":"Linux","password":true,"vac":true,"version":"7757534","steam_id":85568392925397852,"keywords":["nocrits","nodmgspread","payload","uncletopia"],"game_id":440,"stv_port":27036,"stv_name":"Uncletopia | Warsaw | 3 | All Maps | STV","players":null},{"server_id":52,"name":"Uncletopia | Warsaw | 4 | All Maps","name_short":"waw-4","host":"waw-1.pl.uncletopia.com","port":27045,"enabled":true,"region":"eu","cc":"pl","latitude":52.2297,"longitude":21.017532,"reserved":0,"last_update":"0001-01-01T00:00:00Z","name_a2s":"Uncletopia | Warsaw | 4 | All Maps","protocol":17,"map":"koth_lakeside_final","folder":"tf","game":"Team Fortress","app_id":440,"player_count":0,"max_players":24,"Bots":0,"server_type":"Dedicated","server_os":"Linux","password":true,"vac":true,"version":"7757534","steam_id":85568392925397853,"keywords":["cp","nocrits","nodmgspread","uncletopia"],"game_id":440,"stv_port":27046,"stv_name":"Uncletopia | Warsaw | 4 | All Maps | STV","players":null},{"server_id":53,"name":"Uncletopia | Warsaw | 5 | Stopwatch Beta","name_short":"waw-5","host":"waw-1.pl.uncletopia.com","port":27055,"enabled":true,"region":"eu","cc":"pl","latitude":52.2297,"longitude":21.017532,"reserved":0,"last_update":"0001-01-01T00:00:00Z","name_a2s":"Uncletopia | Warsaw | 5 | Stopwatch Beta","protocol":17,"map":"pl_barnblitz","folder":"tf","game":"Team Fortress","app_id":440,"player_count":0,"max_players":24,"Bots":0,"server_type":"Dedicated","server_os":"Linux","password":true,"vac":true,"version":"7757534","steam_id":85568392925397854,"keywords":["nocrits","nodmgspread","payload","uncletopia"],"game_id":440,"stv_port":27056,"stv_name":"Uncletopia | Warsaw | 5 | Stopwatch Beta | STV","players":null},{"server_id":54,"name":"Uncletopia | Warsaw | 6 | Community","name_short":"waw-6","host":"waw-1.pl.uncletopia.com","port":27065,"enabled":true,"region":"eu","cc":"pl","latitude":52.2297,"longitude":21.017532,"reserved":0,"last_update":"0001-01-01T00:00:00Z","name_a2s":"Uncletopia | Warsaw | 6 | Community","protocol":17,"map":"pl_swiftwater_final1","folder":"tf","game":"Team Fortress","app_id":440,"player_count":0,"max_players":24,"Bots":0,"server_type":"Dedicated","server_os":"Linux","password":true,"vac":true,"version":"7757534","steam_id":85568392925397856,"keywords":["nocrits","nodmgspread","payload","uncletopia"],"game_id":440,"stv_port":27066,"stv_name":"Uncletopia | Warsaw | 6 | Community | STV","players":null}]}