{"status":true,"message":"","result":[{"server_id":9,"name":"Uncletopia | Atlanta | 1 | All Maps","name_short":"atl-1","host":"atl-1.us.uncletopia.com","port":27015,"enabled":true,"region":"us-east","cc":"us","latitude":33.753746,"longitude":-84.38633,"reserved":0,"last_update":"0001-01-01T00:00:00Z","name_a2s":"Uncletopia | Atlanta | 1 | All Maps","protocol":17,"map":"cp_dustbowl","folder":"tf","game":"Team Fortress","app_id":440,"player_count":24,"max_players":24,"Bots":0,"server_type":"Dedicated","server_os":"Linux","password":true,"vac":true,"version":"7757534","steam_id":85568392924469982,"keywords":["cp","nocrits","nodmgspread","uncletopia"],"game_id":440,"stv_port":27016,"stv_name":"Uncletopia | Atlanta | 1 | All Maps | STV","players":[{"user_id":206,"name":"B0otstrut beel","steam_id":76561198202457221,"connected_time":5168000000000,"state":"active","ping":71},{"user_id":238,"name":"G-G-G-GAMERSHOT","steam_id":76561198798980951,"connected_time":1580000000000,"state":"active","ping":59},{"user_id":259,"name":"silentpieceofbacon","steam_id":76561198869323351,"connected_time":475000000000,"state":"active","ping":82},{"user_id":237,"name":"Viva Discordia","steam_id":76561199350870177,"connected_time":1795000000000,"state":"active","ping":75},{"user_id":250,"name":"Im High","steam_id":76561198049954886,"connected_time":994000000000,"state":"active","ping":66},{"user_id":256,"name":"Cheese","steam_id":76561199207081299,"connected_time":517000000000,"state":"active","ping":95},{"user_id":239,"name":"Lost","steam_id":76561198093713427,"connected_time":1580000000000,"state":"active","ping":75},{"user_id":245,"name":"white ray","steam_id":76561198026664629,"connected_time":1348000000000,"state":"active","ping":59},{"user_id":227,"name":"Jin Gulilo","steam_id":76561198065151242,"connected_time":3122000000000,"state":"active","ping":77},{"user_id":13,"name":"puppy","steam_id":76561197964635660,"connected_time":20574000000000,"state":"active","ping":61},{"user_id":257,"name":"Open_Canopy","steam_id":76561198377958490,"connected_time":517000000000,"state":"active","ping":85},{"user_id":253,"name":"Maestro","steam_id":76561198157325020,"connected_time":731000000000,"state":"active","ping":60},{"user_id":196,"name":"Oddball","steam_id":76561198040440984,"connected_time":5648000000000,"state":"active","ping":87},{"user_id":260,"name":"Ëä±„ÅÆÊ¥æÊâã„Å™Èºª","steam_id":76561198042735130,"connected_time":462000000000,"state":"active","ping":119},{"user_id":229,"name":"MyamE","steam_id":76561198133278462,"connected_time":2950000000000,"state":"active","ping":75},{"user_id":254,"name":"Tony Pizza","steam_id":76561198044331477,"connected_time":661000000000,"state":"active","ping":73},{"user_id":218,"name":"Chorizo","steam_id":76561198208080773,"connected_time":4307000000000,"state":"active","ping":121},{"user_id":230,"name":"Trinima","steam_id":76561198359215935,"connected_time":2916000000000,"state":"active","ping":87},{"user_id":262,"name":"Pumpkin Spice","steam_id":76561199016285746,"connected_time":329000000000,"state":"active","ping":77},{"user_id":255,"name":"Thor engineer is a bloody spy!","steam_id":76561198384098648,"connected_time":580000000000,"state":"active","ping":63},{"user_id":121,"name":"cin  ‚ô°‚Äß‚ÇäÀö","steam_id":76561198139802458,"connected_time":14124000000000,"state":"active","ping":87},{"user_id":231,"name":"eat cheese and sin","steam_id":76561197999948296,"connected_time":2678000000000,"state":"active","ping":75},{"user_id":244,"name":"bluehoodie77","steam_id":76561199441768573,"connected_time":1496000000000,"state":"active","ping":137}]},{"server_id":104,"name":"Uncletopia | Atlanta | 2 | All Maps","name_short":"atl-2","host":"atl-1.us.uncletopia.com","port":27025,"enabled":true,"region":"us-east","cc":"us","latitude":33.753746,"longitude":-84.38633,"reserved":0,"last_update":"0001-01-01T00:00:00Z","name_a2s":"Uncletopia | Atlanta | 2 | All Maps","protocol":17,"map":"pl_goldrush","folder":"tf","game":"Team Fortress","app_id":440,"player_count":24,"max_players":24,"Bots":0,"server_type":"Dedicated","server_os":"Linux","password":true,"vac":true,"version":"7757534","steam_id":85568392924469983,"keywords":["nocrits","nodmgspread","payload","uncletopia"],"game_id":440,"stv_port":27026,"stv_name":"Uncletopia | Atlanta | 2 | All Maps | STV","players":[{"user_id":103,"name":"Elpipiribao","steam_id":76561198825371499,"connected_time":1786000000000,"state":"active","ping":128},{"user_id":115,"name":"creeeeeee","steam_id":76561198392539722,"connected_time":463000000000,"state":"active","ping":77},{"user_id":120,"name":"Doctor Vegeta","steam_id":76561198353898356,"connected_time":302000000000,"state":"active","ping":99},{"user_id":104,"name":"Coup de Grass","steam_id":76561198011643226,"connected_time":1761000000000,"state":"active","ping":59},{"user_id":42,"name":"Room_237","steam_id":76561199135081315,"connected_time":6800000000000,"state":"active","ping":79},{"user_id":114,"name":"snapski_HJA","steam_id":76561198007052727,"connected_time":647000000000,"state":"active","ping":61},{"user_id":116,"name":"oddlyobtuselemon1654","steam_id":76561198877069773,"connected_time":424000000000,"state":"active","ping":71},{"user_id":117,"name":"mepng","steam_id":76561199018758598,"connected_time":410000000000,"state":"active","ping":76},{"user_id":76,"name":"iamoctopii","steam_id":76561198876901076,"connected_time":4019000000000,"state":"active","ping":115},{"user_id":112,"name":"Ata","steam_id":76561198349085545,"connected_time":1326000000000,"state":"active","ping":79},{"user_id":84,"name":"Scorch","steam_id":76561198167024005,"connected_time":3527000000000,"state":"active","ping":65},{"user_id":85,"name":"–ØawrFatcat","steam_id":76561198017698926,"connected_time":3523000000000,"state":"active","ping":86},{"user_id":119,"name":"diesel_carsuite","steam_id":76561198229903328,"connected_time":374000000000,"state":"active","ping":78},{"user_id":121,"name":"xZackAttack27x","steam_id":76561198035446639,"connected_time":233000000000,"state":"active","ping":62},{"user_id":122,"name":"squaggles!","steam_id":76561197994995011,"connected_time":160000000000,"state":"active","ping":38},{"user_id":123,"name":"irish potato brother","steam_id":76561199156381774,"connected_time":150000000000,"state":"active","ping":84},{"user_id":100,"name":"uberslak","steam_id":76561198064715241,"connected_time":2439000000000,"state":"active","ping":130},{"user_id":107,"name":"Broadsword","steam_id":76561198011160411,"connected_time":1625000000000,"state":"active","ping":65},{"user_id":126,"name":"CombustibleToast","steam_id":76561198051358882,"connected_time":92000000000,"state":"active","ping":64},{"user_id":125,"name":"lucin","steam_id":76561198258062078,"connected_time":114000000000,"state":"active","ping":61},{"user_id":127,"name":"DaG","steam_id":76561199456018907,"connected_time":65000000000,"state":"active","ping":71},{"user_id":89,"name":"Gaminglast","steam_id":76561198362927765,"connected_time":3459000000000,"state":"active","ping":107},{"user_id":128,"name":"Alce","steam_id":76561198820250822,"connected_time":60000000000,"state":"active","ping":175},{"user_id":129,"name":"Vobo","steam_id":76561199159418598,"connected_time":42000000000,"state":"active","ping":114}]},{"server_id":400,"name":"Uncletopia | Atlanta | 3 | Community","name_short":"atl-3","host":"atl-1.us.uncletopia.com","port":27035,"enabled":true,"region":"us-east","cc":"us","latitude":33.753746,"longitude":-84.38633,"reserved":0,"last_update":"0001-01-01T00:00:00Z","name_a2s":"Uncletopia | Atlanta | 3 | Community","protocol":17,"map":"workshop/cp_indulge.ugc528106646","folder":"tf","game":"Team Fortress","app_id":440,"player_count":2,"max_players":24,"Bots":0,"server_type":"Dedicated","server_os":"Linux","password":true,"vac":true,"version":"7757534","steam_id":85568392924515187,"keywords":["cp","nocrits","nodmgspread","uncletopia"],"game_id":440,"stv_port":27036,"stv_name":"Uncletopia | Atlanta | 3 | Community | STV","players":[{"user_id":8,"name":"pomshiber","steam_id":76561199232294789,"connected_time":76000000000,"state":"active","ping":58},{"user_id":9,"name":"Lauri","steam_id":76561198375473660,"connected_time":35000000000,"state":"active","ping":206}]},{"server_id":401,"name":"Uncletopia | Atlanta | 4 | No Payload","name_short":"atl-4","host":"atl-1.us.uncletopia.com","port":27045,"enabled":true,"region":"us-east","cc":"us","latitude":33.753746,"longitude":-84.38633,"reserved":0,"last_update":"0001-01-01T00:00:00Z","name_a2s":"","protocol":0,"map":"","folder":"","game":"","app_id":0,"player_count":0,"max_players":0,"Bots":0,"server_type":"","server_os":"","password":false,"vac":false,"version":"","steam_id":0,"keywords":null,"game_id":0,"stv_port":0,"stv_name":"","players":null},{"server_id":2,"name":"Uncletopia | Chicago | 1 | All Maps","name_short":"chi-1","host":"chi-1.us.uncletopia.com","port":27015,"enabled":true,"region":"us-central","cc":"us","latitude":41.881832,"longitude":-87.62318,"reserved":0,"last_update":"0001-01-01T00:00:00Z","name_a2s":"Uncletopia | Chicago | 1 | All Maps","protocol":17,"map":"cp_mountainlab","folder":"tf","game":"Team Fortress","app_id":440,"player_count":21,"max_players":24,"Bots":0,"server_type":"Dedicated","server_os":"Linux","password":true,"vac":true,"version":"7757534","steam_id":85568392924469984,"keywords":["cp","nocrits","nodmgspread","uncletopia"],"game_id":440,"stv_port":27016,"stv_name":"Uncletopia | Chicago | 1 | All Maps | STV","players":[{"user_id":200,"name":"bear","steam_id":76561198313696546,"connected_time":4019000000000,"state":"active","ping":95},{"user_id":210,"name":"Bobato Chaps","steam_id":76561198065103552,"connected_time":3252000000000,"state":"active","ping":49},{"user_id":246,"name":"Sha-Woompa","steam_id":76561199068063459,"connected_time":45000000000,"state":"spawning","ping":82},{"user_id":244,"name":"Sanic_Bum","steam_id":76561198094179822,"connected_time":75000000000,"state":"active","ping":58},{"user_id":223,"name":"they","steam_id":76561198261007627,"connected_time":2313000000000,"state":"active","ping":67},{"user_id":247,"name":"Chief Balupa","steam_id":76561198045583454,"connected_time":30000000000,"state":"active","ping":97},{"user_id":243,"name":"Veir≈´ Viseris","steam_id":76561197989857176,"connected_time":220000000000,"state":"active","ping":164},{"user_id":229,"name":"TheCakeisNotAlie","steam_id":76561198943993307,"connected_time":1717000000000,"state":"active","ping":51},{"user_id":238,"name":"Walter White","steam_id":76561199030987614,"connected_time":679000000000,"state":"active","ping":80},{"user_id":214,"name":"Pipirohnni pitzza","steam_id":76561198414300607,"connected_time":2874000000000,"state":"active","ping":106},{"user_id":226,"name":"Crystallixed","steam_id":76561198072263515,"connected_time":2056000000000,"state":"connecting","ping":63},{"user_id":234,"name":"TF2 IS BACK","steam_id":76561198412786186,"connected_time":1227000000000,"state":"active","ping":80},{"user_id":239,"name":"Salt Syndrome","steam_id":76561198046584592,"connected_time":610000000000,"state":"active","ping":76},{"user_id":227,"name":"The Feds","steam_id":76561199134834554,"connected_time":1971000000000,"state":"active","ping":85},{"user_id":230,"name":"Snugboo","steam_id":76561198147970327,"connected_time":1699000000000,"state":"active","ping":59},{"user_id":232,"name":"Capt. Grins","steam_id":76561198032663494,"connected_time":1461000000000,"state":"active","ping":65},{"user_id":240,"name":"TeeTree","steam_id":76561198862307874,"connected_time":551000000000,"state":"active","ping":61},{"user_id":245,"name":"you've been deuced on!","steam_id":76561198236028020,"connected_time":75000000000,"state":"active","ping":101},{"user_id":235,"name":"Flying crocodile","steam_id":76561199440164531,"connected_time":1219000000000,"state":"active","ping":62},{"user_id":178,"name":"Highground","steam_id":76561199197544789,"connected_time":5932000000000,"state":"active","ping":102},{"user_id":237,"name":"nnobi","steam_id":76561198878729277,"connected_time":1008000000000,"state":"active","ping":75}]},{"server_id":106,"name":"Uncletopia | Chicago | 2 | All Maps","name_short":"chi-2","host":"chi-1.us.uncletopia.com","port":27025,"enabled":true,"region":"us-central","cc":"us","latitude":41.881832,"longitude":-87.62318,"reserved":0,"last_update":"0001-01-01T00:00:00Z","name_a2s":"Uncletopia | Chicago | 2 | All Maps","protocol":17,"map":"pl_borneo","folder":"tf","game":"Team Fortress","app_id":440,"player_count":24,"max_players":24,"Bots":0,"server_type":"Dedicated","server_os":"Linux","password":true,"vac":true,"version":"7757534","steam_id":85568392924469985,"keywords":["nocrits","nodmgspread","payload","uncletopia"],"game_id":440,"stv_port":27026,"stv_name":"Uncletopia | Chicago | 2 | All Maps | STV","players":[{"user_id":75,"name":"Baby gaming","steam_id":76561198867319323,"connected_time":3064000000000,"state":"active","ping":56},{"user_id":28,"name":"Generally Unlikeable Person","steam_id":76561197993075304,"connected_time":6192000000000,"state":"active","ping":73},{"user_id":100,"name":"grimp gromp","steam_id":76561199267535506,"connected_time":862000000000,"state":"active","ping":68},{"user_id":103,"name":"Comfy","steam_id":76561198008818346,"connected_time":666000000000,"state":"active","ping":61},{"user_id":101,"name":"maS","steam_id":76561198033846407,"connected_time":836000000000,"state":"active","ping":57},{"user_id":102,"name":"I Am Alpharius","steam_id":76561198799197135,"connected_time":709000000000,"state":"active","ping":58},{"user_id":34,"name":"‡ºò ‚ãÜÀöüéßCaffeine‚òï*Àñ¬∞","steam_id":76561199259309294,"connected_time":5870000000000,"state":"active","ping":74},{"user_id":104,"name":"Gumthrax‚Ñ¢","steam_id":76561198047286282,"connected_time":88000000000,"state":"active","ping":52},{"user_id":36,"name":"Belmore","steam_id":76561198009355231,"connected_time":5854000000000,"state":"active","ping":110},{"user_id":94,"name":"kris736","steam_id":76561198038208255,"connected_time":1779000000000,"state":"active","ping":46},{"user_id":77,"name":"Ziath","steam_id":76561198094009164,"connected_time":3022000000000,"state":"active","ping":63},{"user_id":78,"name":"Ta5K","steam_id":76561198939558155,"connected_time":3005000000000,"state":"active","ping":36},{"user_id":96,"name":"raidlps","steam_id":76561199208003679,"connected_time":1146000000000,"state":"active","ping":79},{"user_id":105,"name":"beta central","steam_id":76561198301876831,"connected_time":79000000000,"state":"active","ping":59},{"user_id":87,"name":"Swinging trough Jubilee","steam_id":76561198256886614,"connected_time":2106000000000,"state":"active","ping":102},{"user_id":68,"name":"AX0L_","steam_id":76561199008960175,"connected_time":4020000000000,"state":"active","ping":46},{"user_id":106,"name":"rice white","steam_id":76561198320732910,"connected_time":8000000000,"state":"spawning","ping":74},{"user_id":81,"name":"HollyBlocky","steam_id":76561198030156100,"connected_time":2928000000000,"state":"active","ping":84},{"user_id":92,"name":"FunGi","steam_id":76561198881418662,"connected_time":1989000000000,"state":"active","ping":81},{"user_id":54,"name":"Ejaculation Zach","steam_id":76561198203765200,"connected_time":4987000000000,"state":"active","ping":58},{"user_id":99,"name":"Magik","steam_id":76561198115443354,"connected_time":1096000000000,"state":"active","ping":47},{"user_id":86,"name":"Prime Rizziler","steam_id":76561199100612353,"connected_time":2468000000000,"state":"active","ping":54},{"user_id":90,"name":"stungoperation","steam_id":76561199162409918,"connected_time":2100000000000,"state":"active","ping":81},{"user_id":62,"name":"Mr. Cheesey","steam_id":76561198153462183,"connected_time":4266000000000,"state":"active","ping":61}]},{"server_id":402,"name":"Uncletopia | Chicago | 3 | All Maps","name_short":"chi-3","host":"chi-1.us.uncletopia.com","port":27035,"enabled":true,"region":"us-central","cc":"us","latitude":41.881832,"longitude":-87.62318,"reserved":0,"last_update":"0001-01-01T00:00:00Z","name_a2s":"Uncletopia | Chicago | 3 | All Maps","protocol":17,"map":"koth_cascade","folder":"tf","game":"Team Fortress","app_id":440,"player_count":0,"max_players":24,"Bots":0,"server_type":"Dedicated","server_os":"Linux","password":true,"vac":true,"version":"7757534","steam_id":85568392924515191,"keywords":["cp","nocrits","nodmgspread","uncletopia"],"game_id":440,"stv_port":27036,"stv_name":"Uncletopia | Chicago | 3 | All Maps | STV","players":null},{"server_id":403,"name":"Uncletopia | Chicago | 4 | All Maps","name_short":"chi-4","host":"chi-1.us.uncletopia.com","port":27045,"enabled":true,"region":"us-central","cc":"us","latitude":41.881832,"longitude":-87.62318,"reserved":0,"last_update":"0001-01-01T00:00:00Z","name_a2s":"Uncletopia | Chicago | 4 | All Maps","protocol":17,"map":"koth_lakeside_final","folder":"tf","game":"Team Fortress","app_id":440,"player_count":0,"max_players":24,"Bots":0,"server_type":"Dedicated","server_os":"Linux","password":true,"vac":true,"version":"7757534","steam_id":85568392924515193,"keywords":["cp","nocrits","nodmgspread","uncletopia"],"game_id":440,"stv_port":27046,"stv_name":"Uncletopia | Chicago | 4 | All Maps | STV","players":null},{"server_id":36,"name":"Uncletopia | Chicago | 5 | All Maps","name_short":"chi-5","host":"chi-2.us.uncletopia.com","port":27015,"enabled":true,"region":"us-central","cc":"us","latitude":41.881832,"longitude":-87.62318,"reserved":0,"last_update":"0001-01-01T00:00:00Z","name_a2s":"Uncletopia | Chicago | 5 | All Maps","protocol":17,"map":"pl_badwater","folder":"tf","game":"Team Fortress","app_id":440,"player_count":24,"max_players":24,"Bots":0,"server_type":"Dedicated","server_os":"Linux","password":true,"vac":true,"version":"7757534","steam_id":85568392924866362,"keywords":["nocrits","nodmgspread","payload","uncletopia"],"game_id":440,"stv_port":27016,"stv_name":"Uncletopia | Chicago | 5 | All Maps | STV","players":[{"user_id":7,"name":"magickxanadu","steam_id":76561199117360103,"connected_time":4542000000000,"state":"active","ping":77},{"user_id":52,"name":"Bibleboy","steam_id":76561198049289869,"connected_time":178000000000,"state":"active","ping":72},{"user_id":54,"name":"craZend","steam_id":76561198848063795,"connected_time":112000000000,"state":"active","ping":78},{"user_id":53,"name":"AYAYA!!!","steam_id":76561198992102180,"connected_time":173000000000,"state":"active","ping":46},{"user_id":14,"name":"CapNamey","steam_id":76561198100782173,"connected_time":3845000000000,"state":"active","ping":89},{"user_id":47,"name":"Adam (Cursed Confetti Creature)","steam_id":76561198317690197,"connected_time":1877000000000,"state":"active","ping":46},{"user_id":25,"name":"Jitters","steam_id":76561198078898336,"connected_time":2532000000000,"state":"active","ping":45},{"user_id":55,"name":"Herr M√ºller","steam_id":76561198064876829,"connected_time":86000000000,"state":"active","ping":94},{"user_id":27,"name":"4ling","steam_id":76561197994398381,"connected_time":2444000000000,"state":"active","ping":71},{"user_id":19,"name":"Frog","steam_id":76561199160808722,"connected_time":3109000000000,"state":"active","ping":189},{"user_id":28,"name":"Mex","steam_id":76561198844107833,"connected_time":2399000000000,"state":"active","ping":67},{"user_id":29,"name":"[DEEP] Roz257","steam_id":76561198842844532,"connected_time":2353000000000,"state":"active","ping":78},{"user_id":43,"name":"I eat boogers","steam_id":76561198246760934,"connected_time":2133000000000,"state":"active","ping":51},{"user_id":30,"name":"judesro","steam_id":76561198352244888,"connected_time":2347000000000,"state":"active","ping":69},{"user_id":31,"name":"Tom the Necromancer","steam_id":76561198048895288,"connected_time":2333000000000,"state":"active","ping":49},{"user_id":32,"name":"BurningKev","steam_id":76561198057688837,"connected_time":2308000000000,"state":"active","ping":76},{"user_id":56,"name":"A Shiny Meat Bicycle","steam_id":76561198358757709,"connected_time":52000000000,"state":"active","ping":99},{"user_id":35,"name":"RyInc","steam_id":76561198874261643,"connected_time":2270000000000,"state":"active","ping":47},{"user_id":36,"name":"Bon Gripper","steam_id":76561198090074621,"connected_time":2255000000000,"state":"active","ping":72},{"user_id":51,"name":"bow chicka wow wow","steam_id":76561198354473513,"connected_time":1242000000000,"state":"active","ping":69},{"user_id":57,"name":"John","steam_id":76561197960965850,"connected_time":40000000000,"state":"active","ping":161},{"user_id":46,"name":"Hazeyboi","steam_id":76561198130687838,"connected_time":1908000000000,"state":"active","ping":46},{"user_id":40,"name":"hud_saytext_time 0","steam_id":76561198010327228,"connected_time":2184000000000,"state":"active","ping":164},{"user_id":41,"name":"threethree","steam_id":76561198177354155,"connected_time":2176000000000,"state":"active","ping":46}]},{"server_id":37,"name":"Uncletopia | Chicago | 6 | All Maps","name_short":"chi-6","host":"chi-2.us.uncletopia.com","port":27025,"enabled":true,"region":"us-central","cc":"us","latitude":41.881832,"longitude":-87.62318,"reserved":0,"last_update":"0001-01-01T00:00:00Z","name_a2s":"Uncletopia | Chicago | 6 | All Maps","protocol":17,"map":"cp_snakewater_final1","folder":"tf","game":"Team Fortress","app_id":440,"player_count":0,"max_players":24,"Bots":0,"server_type":"Dedicated","server_os":"Linux","password":true,"vac":true,"version":"7757534","steam_id":85568392924866363,"keywords":["cp","nocrits","nodmgspread","uncletopia"],"game_id":440,"stv_port":27026,"stv_name":"Uncletopia | Chicago | 6 | All Maps | STV","players":null},{"server_id":38,"name":"Uncletopia | Chicago | 7 | Stopwatch Beta","name_short":"chi-7","host":"chi-2.us.uncletopia.com","port":27035,"enabled":true,"region":"us-central","cc":"us","latitude":41.881832,"longitude":-87.62318,"reserved":0,"last_update":"0001-01-01T00:00:00Z","name_a2s":"Uncletopia | Chicago | 7 | Stopwatch Beta","protocol":17,"map":"pl_barnblitz","folder":"tf","game":"Team Fortress","app_id":440,"player_count":0,"max_players":24,"Bots":0,"server_type":"Dedicated","server_os":"Linux","password":true,"vac":true,"version":"7757534","steam_id":85568392924866364,"keywords":["nocrits","nodmgspread","payload","uncletopia"],"game_id":440,"stv_port":27036,"stv_name":"Uncletopia | Chicago | 7 | Stopwatch Beta | STV","players":null},{"server_id":39,"name":"Uncletopia | Chicago | 8 | Community","name_short":"chi-8","host":"chi-2.us.uncletopia.com","port":27045,"enabled":true,"region":"us-central","cc":"us","latitude":41.881832,"longitude":-87.62318,"reserved":0,"last_update":"0001-01-01T00:00:00Z","name_a2s":"Uncletopia | Chicago | 8 | Community","protocol":17,"map":"koth_cascade","folder":"tf","game":"Team Fortress","app_id":440,"player_count":0,"max_players":24,"Bots":0,"server_type":"Dedicated","server_os":"Linux","password":true,"vac":true,"version":"7757534","steam_id":85568392924866365,"keywords":["cp","nocrits","nodmgspread","uncletopia"],"game_id":440,"stv_port":27046,"stv_name":"Uncletopia | Chicago | 8 | Community | STV","players":null},{"server_id":8,"name":"Uncletopia | Dallas | 1 | All Maps","name_short":"dal-1","host":"dal-1.us.uncletopia.com","port":27015,"enabled":true,"region":"us-central","cc":"us","latitude":32.779167,"longitude":-96.80889,"reserved":0,"last_update":"0001-01-01T00:00:00Z","name_a2s":"Uncletopia | Dallas | 1 | All Maps","protocol":17,"map":"cp_process_final","folder":"tf","game":"Team Fortress","app_id":440,"player_count":6,"max_players":24,"Bots":0,"server_type":"Dedicated","server_os":"Linux","password":true,"vac":true,"version":"7757534","steam_id":85568392924469986,"keywords":["cp","nocrits","nodmgspread","uncletopia"],"game_id":440,"stv_port":27016,"stv_name":"Uncletopia | Dallas | 1 | All Maps | STV","players":[{"user_id":13,"name":"Smart Fella","steam_id":76561198397662124,"connected_time":1380000000000,"state":"active","ping":62},{"user_id":14,"name":"Kill-em-All","steam_id":76561198000982816,"connected_time":1339000000000,"state":"active","ping":79},{"user_id":22,"name":"[LINUX] Purple Penguin Pybro","steam_id":76561198093538786,"connected_time":226000000000,"state":"active","ping":43},{"user_id":21,"name":"Sup m8","steam_id":76561198081659121,"connected_time":454000000000,"state":"active","ping":33},{"user_id":23,"name":"Luna","steam_id":76561198131342156,"connected_time":138000000000,"state":"active","ping":55},{"user_id":24,"name":"RedBot Noob","steam_id":76561198260764846,"connected_time":8000000000,"state":"spawning","ping":83}]},{"server_id":108,"name":"Uncletopia | Dallas | 2 | All Maps","name_short":"dal-2","host":"dal-1.us.uncletopia.com","port":27025,"enabled":true,"region":"us-central","cc":"us","latitude":32.779167,"longitude":-96.80889,"reserved":0,"last_update":"0001-01-01T00:00:00Z","name_a2s":"Uncletopia | Dallas | 2 | All Maps","protocol":17,"map":"cp_dustbowl","folder":"tf","game":"Team Fortress","app_id":440,"player_count":0,"max_players":24,"Bots":0,"server_type":"Dedicated","server_os":"Linux","password":true,"vac":true,"version":"7757534","steam_id":85568392924469988,"keywords":["cp","nocrits","nodmgspread","uncletopia"],"game_id":440,"stv_port":27026,"stv_name":"Uncletopia | Dallas | 2 | All Maps | STV","players":null},{"server_id":5,"name":"Uncletopia | Frankfurt | 1 | All Maps","name_short":"frk-1","host":"frk-1.de.uncletopia.com","port":27015,"enabled":true,"region":"eu","cc":"de","latitude":50.110924,"longitude":8.682127,"reserved":0,"last_update":"0001-01-01T00:00:00Z","name_a2s":"Uncletopia | Frankfurt | 1 | All Maps","protocol":17,"map":"pl_badwater","folder":"tf","game":"Team Fortress","app_id":440,"player_count":24,"max_players":24,"Bots":0,"server_type":"Dedicated","server_os":"Linux","password":true,"vac":true,"version":"7757534","steam_id":85568392924469989,"keywords":["nocrits","nodmgspread","payload","uncletopia"],"game_id":440,"stv_port":27016,"stv_name":"Uncletopia | Frankfurt | 1 | All Maps | STV","players":[{"user_id":29,"name":"Swaggot329","steam_id":76561198828503940,"connected_time":3957000000000,"state":"active","ping":70},{"user_id":80,"name":"Mumu :3","steam_id":76561198052794823,"connected_time":355000000000,"state":"active","ping":47},{"user_id":84,"name":"player","steam_id":76561198054474684,"connected_time":186000000000,"state":"active","ping":75},{"user_id":57,"name":"lem0nadina","steam_id":76561198427611007,"connected_time":1077000000000,"state":"active","ping":141},{"user_id":36,"name":"ChilledCatz","steam_id":76561198166046621,"connected_time":2740000000000,"state":"active","ping":56},{"user_id":44,"name":"finger","steam_id":76561198133782205,"connected_time":1959000000000,"state":"active","ping":121},{"user_id":53,"name":"Urfangonultasadana","steam_id":76561199389286151,"connected_time":1263000000000,"state":"active","ping":96},{"user_id":68,"name":"Your friend (maybe)","steam_id":76561198240278328,"connected_time":821000000000,"state":"active","ping":101},{"user_id":58,"name":"Mr.Weis","steam_id":76561198115443579,"connected_time":1067000000000,"state":"active","ping":63},{"user_id":56,"name":"Deginantisgameris","steam_id":76561199002417084,"connected_time":1142000000000,"state":"active","ping":78},{"user_id":78,"name":"iIMOFIi","steam_id":76561199000483925,"connected_time":417000000000,"state":"active","ping":156},{"user_id":60,"name":"Almond devourer","steam_id":76561198194866089,"connected_time":1012000000000,"state":"active","ping":80},{"user_id":63,"name":"blurst of times","steam_id":76561197972325640,"connected_time":883000000000,"state":"active","ping":54},{"user_id":77,"name":"Salad's Warband","steam_id":76561198214089583,"connected_time":472000000000,"state":"active","ping":53},{"user_id":65,"name":"Kvicha Kvaratskhelia","steam_id":76561198179339326,"connected_time":874000000000,"state":"active","ping":75},{"user_id":85,"name":"Fancy","steam_id":76561198350658462,"connected_time":28000000000,"state":"spawning","ping":75},{"user_id":67,"name":"nytronytronytro","steam_id":76561198080496833,"connected_time":831000000000,"state":"active","ping":95},{"user_id":70,"name":"Husk","steam_id":76561198271808519,"connected_time":764000000000,"state":"active","ping":54},{"user_id":71,"name":"KLar.","steam_id":76561197991836697,"connected_time":758000000000,"state":"active","ping":34},{"user_id":72,"name":"Solymr ibn Wali Barad","steam_id":76561198044008976,"connected_time":757000000000,"state":"active","ping":73},{"user_id":73,"name":"Rex","steam_id":76561199474556920,"connected_time":754000000000,"state":"active","ping":137},{"user_id":74,"name":"RiX","steam_id":76561197969053733,"connected_time":718000000000,"state":"active","ping":70},{"user_id":75,"name":"DigyB","steam_id":76561198014442345,"connected_time":716000000000,"state":"active","ping":62},{"user_id":83,"name":"ItzRaul","steam_id":76561198453693131,"connected_time":244000000000,"state":"active","ping":77}]},{"server_id":110,"name":"Uncletopia | Frankfurt | 2 | All Maps","name_short":"frk-2","host":"frk-1.de.uncletopia.com","port":27025,"enabled":true,"region":"eu","cc":"de","latitude":50.110924,"longitude":8.682127,"reserved":0,"last_update":"0001-01-01T00:00:00Z","name_a2s":"Uncletopia | Frankfurt | 2 | All Maps","protocol":17,"map":"koth_lakeside_final","folder":"tf","game":"Team Fortress","app_id":440,"player_count":0,"max_players":24,"Bots":0,"server_type":"Dedicated","server_os":"Linux","password":true,"vac":true,"version":"7757534","steam_id":85568392924469990,"keywords":["cp","nocrits","nodmgspread","uncletopia"],"game_id":440,"stv_port":27026,"stv_name":"Uncletopia | Frankfurt | 2 | All Maps | STV","players":null},{"server_id":308,"name":"Uncletopia | Frankfurt | 3 | All Maps","name_short":"frk-3","host":"frk-1.de.uncletopia.com","port":27035,"enabled":true,"region":"eu","cc":"de","latitude":50.110924,"longitude":8.682127,"reserved":0,"last_update":"0001-01-01T00:00:00Z","name_a2s":"Uncletopia | Frankfurt | 3 | All Maps","protocol":17,"map":"cp_dustbowl","folder":"tf","game":"Team Fortress","app_id":440,"player_count":24,"max_players":24,"Bots":0,"server_type":"Dedicated","server_os":"Linux","password":true,"vac":true,"version":"7757534","steam_id":85568392924504274,"keywords":["cp","nocrits","nodmgspread","uncletopia"],"game_id":440,"stv_port":27036,"stv_name":"Uncletopia | Frankfurt | 3 | All Maps | STV","players":[{"user_id":191,"name":"Mr_Pulse_","steam_id":76561198095001602,"connected_time":1093000000000,"state":"active","ping":91},{"user_id":192,"name":"[dopijus]","steam_id":76561198943009513,"connected_time":1088000000000,"state":"active","ping":99},{"user_id":172,"name":"St√ºmpy","steam_id":76561198255904077,"connected_time":2164000000000,"state":"active","ping":65},{"user_id":203,"name":"zigosikcz","steam_id":76561198411180720,"connected_time":454000000000,"state":"active","ping":64},{"user_id":204,"name":"Unsalted Butter","steam_id":76561198053118190,"connected_time":328000000000,"state":"active","ping":54},{"user_id":210,"name":"duchess abigail","steam_id":76561198166953966,"connected_time":96000000000,"state":"active","ping":68},{"user_id":207,"name":"Skeletros","steam_id":76561198130969152,"connected_time":299000000000,"state":"active","ping":135},{"user_id":130,"name":"heavy who laughs at stairs","steam_id":76561198267411149,"connected_time":3578000000000,"state":"active","ping":61},{"user_id":176,"name":"player","steam_id":76561198142890210,"connected_time":2014000000000,"state":"active","ping":98},{"user_id":178,"name":"Mike Doe","steam_id":76561198331251922,"connected_time":1911000000000,"state":"active","ping":71},{"user_id":198,"name":"ginger cunt","steam_id":76561198334528186,"connected_time":906000000000,"state":"active","ping":57},{"user_id":185,"name":"tokss","steam_id":76561198033084982,"connected_time":1470000000000,"state":"active","ping":90},{"user_id":196,"name":"Snortman","steam_id":76561199012566222,"connected_time":972000000000,"state":"active","ping":52},{"user_id":123,"name":"dopamine enjoyer","steam_id":76561198140591983,"connected_time":4125000000000,"state":"active","ping":122},{"user_id":165,"name":"Hydro","steam_id":76561199081791855,"connected_time":2375000000000,"state":"active","ping":92},{"user_id":201,"name":"pineapple","steam_id":76561199006566423,"connected_time":758000000000,"state":"active","ping":78},{"user_id":208,"name":"Shimass","steam_id":76561198867546842,"connected_time":296000000000,"state":"active","ping":63},{"user_id":195,"name":"Na'vi Misato (by popular demand","steam_id":76561198130860698,"connected_time":1062000000000,"state":"active","ping":57},{"user_id":115,"name":"Pico","steam_id":76561198063552545,"connected_time":4796000000000,"state":"active","ping":98},{"user_id":175,"name":"flan","steam_id":76561198271900816,"connected_time":2064000000000,"state":"active","ping":63},{"user_id":179,"name":"404 bomb","steam_id":76561198115755832,"connected_time":1910000000000,"state":"active","ping":302},{"user_id":180,"name":"bl4k.guy.96","steam_id":76561198875472890,"connected_time":1868000000000,"state":"active","ping":72},{"user_id":209,"name":"jovi_","steam_id":76561198449280552,"connected_time":260000000000,"state":"active","ping":63},{"user_id":200,"name":"bruh","steam_id":76561198059635136,"connected_time":829000000000,"state":"active","ping":63}]},{"server_id":309,"name":"Uncletopia | Frankfurt | 4 | All Maps","name_short":"frk-4","host":"frk-1.de.uncletopia.com","port":27045,"enabled":true,"region":"eu","cc":"de","latitude":50.110924,"longitude":8.682127,"reserved":0,"last_update":"0001-01-01T00:00:00Z","name_a2s":"Uncletopia | Frankfurt | 4 | All Maps","protocol":17,"map":"pl_barnblitz","folder":"tf","game":"Team Fortress","app_id":440,"player_count":24,"max_players":24,"Bots":0,"server_type":"Dedicated","server_os":"Linux","password":true,"vac":true,"version":"7757534","steam_id":85568392924504275,"keywords":["nocrits","nodmgspread","payload","uncletopia"],"game_id":440,"stv_port":27046,"stv_name":"Uncletopia | Frankfurt | 4 | All Maps | STV","players":[{"user_id":412,"name":"Shi Ê≠ª","steam_id":76561199214163032,"connected_time":1847000000000,"state":"active","ping":94},{"user_id":388,"name":"Oyu","steam_id":76561198113997772,"connected_time":3585000000000,"state":"active","ping":56},{"user_id":425,"name":"Gnaisse","steam_id":76561198010560642,"connected_time":1050000000000,"state":"active","ping":79},{"user_id":414,"name":"LivEssense","steam_id":76561198052476979,"connected_time":1530000000000,"state":"active","ping":75},{"user_id":429,"name":"Tzujko","steam_id":76561198414707694,"connected_time":646000000000,"state":"active","ping":74},{"user_id":413,"name":"Optimizator 50","steam_id":76561198039631442,"connected_time":1560000000000,"state":"active","ping":81},{"user_id":415,"name":"Qwerty","steam_id":76561198023525894,"connected_time":1526000000000,"state":"active","ping":93},{"user_id":434,"name":"Professional facestab","steam_id":76561198258721056,"connected_time":433000000000,"state":"active","ping":49},{"user_id":416,"name":"Towercat","steam_id":76561198013141793,"connected_time":1515000000000,"state":"active","ping":65},{"user_id":339,"name":"Cleander","steam_id":76561198262207332,"connected_time":5850000000000,"state":"active","ping":50},{"user_id":431,"name":"when the vlandan","steam_id":76561198849104908,"connected_time":584000000000,"state":"active","ping":120},{"user_id":428,"name":"Zogg","steam_id":76561198352683491,"connected_time":737000000000,"state":"active","ping":56},{"user_id":417,"name":"Instituto Nacional de Empleo","steam_id":76561198317014067,"connected_time":1498000000000,"state":"active","ping":77},{"user_id":404,"name":"Tails8521","steam_id":76561198051747164,"connected_time":2583000000000,"state":"active","ping":57},{"user_id":405,"name":"Kodutah","steam_id":76561198203405574,"connected_time":2575000000000,"state":"active","ping":88},{"user_id":420,"name":"Pepe El grillao","steam_id":76561198177855119,"connected_time":1412000000000,"state":"active","ping":72},{"user_id":423,"name":"Xenavemanciehinanez","steam_id":76561199162995117,"connected_time":1068000000000,"state":"active","ping":107},{"user_id":392,"name":"Homosapien","steam_id":76561197972035953,"connected_time":3432000000000,"state":"active","ping":46},{"user_id":387,"name":"bigwish | bmod.tf","steam_id":76561197997859723,"connected_time":3675000000000,"state":"active","ping":81},{"user_id":433,"name":"Vitamin Weee","steam_id":76561199183937747,"connected_time":566000000000,"state":"active","ping":85},{"user_id":435,"name":"‚úà","steam_id":76561198296214683,"connected_time":431000000000,"state":"active","ping":67},{"user_id":436,"name":"Laxslow","steam_id":76561198065361846,"connected_time":375000000000,"state":"active","ping":60},{"user_id":363,"name":"2ka","steam_id":76561198343747394,"connected_time":4522000000000,"state":"active","ping":60},{"user_id":364,"name":"Seek them out, hunt them down","steam_id":76561198119392756,"connected_time":4503000000000,"state":"active","ping":93}]},{"server_id":310,"name":"Uncletopia | Frankfurt | 5 | All Maps","name_short":"frk-5","host":"frk-1.de.uncletopia.com","port":27055,"enabled":true,"region":"eu","cc":"de","latitude":50.110924,"longitude":8.682127,"reserved":0,"last_update":"0001-01-01T00:00:00Z","name_a2s":"Uncletopia | Frankfurt | 5 | All Maps","protocol":17,"map":"koth_lakeside_final","folder":"tf","game":"Team Fortress","app_id":440,"player_count":0,"max_players":24,"Bots":0,"server_type":"Dedicated","server_os":"Linux","password":true,"vac":true,"version":"7757534","steam_id":85568392924504277,"keywords":["cp","nocrits","nodmgspread","uncletopia"],"game_id":440,"stv_port":27056,"stv_name":"Uncletopia | Frankfurt | 5 | All Maps | STV","players":null},{"server_id":311,"name":"Uncletopia | Frankfurt | 6 | All Maps","name_short":"frk-6","host":"frk-1.de.uncletopia.com","port":27065,"enabled":true,"region":"eu","cc":"de","latitude":50.110924,"longitude":8.682127,"reserved":0,"last_update":"0001-01-01T00:00:00Z","name_a2s":"Uncletopia | Frankfurt | 6 | All Maps","protocol":17,"map":"pl_upward","folder":"tf","game":"Team Fortress","app_id":440,"player_count":24,"max_players":24,"Bots":0,"server_type":"Dedicated","server_os":"Linux","password":true,"vac":true,"version":"7757534","steam_id":85568392924504278,"keywords":["nocrits","nodmgspread","payload","uncletopia"],"game_id":440,"stv_port":27066,"stv_name":"Uncletopia | Frankfurt | 6 | All Maps | STV","players":[{"user_id":328,"name":"Scutchy","steam_id":76561198104431220,"connected_time":1861000000000,"state":"active","ping":62},{"user_id":325,"name":"DrExplosive","steam_id":76561198063678579,"connected_time":2037000000000,"state":"active","ping":66},{"user_id":321,"name":"mesŒª","steam_id":76561198324582918,"connected_time":2590000000000,"state":"active","ping":113},{"user_id":279,"name":"avenje","steam_id":76561198155824845,"connected_time":6513000000000,"state":"active","ping":82},{"user_id":326,"name":"Wardruna96","steam_id":76561199057083828,"connected_time":2009000000000,"state":"active","ping":73},{"user_id":327,"name":"wtabs","steam_id":76561198831766743,"connected_time":1914000000000,"state":"active","ping":67},{"user_id":304,"name":"Doriian","steam_id":76561198071438810,"connected_time":4282000000000,"state":"active","ping":84},{"user_id":332,"name":"Noob_with_source","steam_id":76561198870362103,"connected_time":1178000000000,"state":"active","ping":64},{"user_id":342,"name":"KingTeddy","steam_id":76561198131757499,"connected_time":524000000000,"state":"active","ping":69},{"user_id":344,"name":"Goose of Wisdom","steam_id":76561198233465044,"connected_time":444000000000,"state":"active","ping":160},{"user_id":322,"name":"„É†GeRmAn |√óUA√ó„É†","steam_id":76561199044754898,"connected_time":2285000000000,"state":"active","ping":66},{"user_id":269,"name":"Talkkari","steam_id":76561198025327723,"connected_time":7113000000000,"state":"active","ping":68},{"user_id":337,"name":"Ankle Dane","steam_id":76561198134378108,"connected_time":1125000000000,"state":"active","ping":110},{"user_id":333,"name":"DaviX","steam_id":76561198345406679,"connected_time":1173000000000,"state":"active","ping":94},{"user_id":330,"name":"Insain Bolt!","steam_id":76561198025687726,"connected_time":1742000000000,"state":"active","ping":68},{"user_id":335,"name":"Raulca25","steam_id":76561199068256964,"connected_time":1149000000000,"state":"active","ping":89},{"user_id":338,"name":"Alfred Schroom","steam_id":76561198117990411,"connected_time":1108000000000,"state":"active","ping":97},{"user_id":343,"name":"mismatch","steam_id":76561198041993514,"connected_time":516000000000,"state":"active","ping":62},{"user_id":345,"name":"CNTRL","steam_id":76561199125803827,"connected_time":440000000000,"state":"active","ping":73},{"user_id":275,"name":"s a i","steam_id":76561197970379754,"connected_time":6954000000000,"state":"active","ping":57},{"user_id":341,"name":"EnKay","steam_id":76561198397087279,"connected_time":782000000000,"state":"active","ping":85},{"user_id":339,"name":"pfear","steam_id":76561197999207328,"connected_time":1097000000000,"state":"active","ping":80},{"user_id":292,"name":"mohemmedmokhter2005","steam_id":76561199197650506,"connected_time":5532000000000,"state":"active","ping":209},{"user_id":316,"name":"Greenmaker","steam_id":76561198060466591,"connected_time":2868000000000,"state":"active","ping":84}]},{"server_id":23,"name":"Uncletopia | Frankfurt | 7 | Stopwatch Beta","name_short":"frk-7","host":"frk-1.de.uncletopia.com","port":27075,"enabled":true,"region":"eu","cc":"de","latitude":50.110924,"longitude":8.682127,"reserved":0,"last_update":"0001-01-01T00:00:00Z","name_a2s":"Uncletopia | Frankfurt | 7 | Stopwatch Beta","protocol":17,"map":"cp_granary","folder":"tf","game":"Team Fortress","app_id":440,"player_count":10,"max_players":24,"Bots":0,"server_type":"Dedicated","server_os":"Linux","password":true,"vac":true,"version":"7757534","steam_id":85568392924742827,"keywords":["cp","nocrits","nodmgspread","uncletopia"],"game_id":440,"stv_port":27076,"stv_name":"Uncletopia | Frankfurt | 7 | Stopwatch Beta | STV","players":[{"user_id":286,"name":"Egor Pomidor","steam_id":76561199175688390,"connected_time":1559000000000,"state":"active","ping":75},{"user_id":306,"name":"nyanezt","steam_id":76561198253734265,"connected_time":507000000000,"state":"active","ping":106},{"user_id":307,"name":"NotFionn","steam_id":76561198890525176,"connected_time":456000000000,"state":"active","ping":86},{"user_id":308,"name":"GamliRaudur1","steam_id":76561199179181105,"connected_time":286000000000,"state":"active","ping":95},{"user_id":309,"name":"kornetov.vitalya","steam_id":76561199286034833,"connected_time":241000000000,"state":"active","ping":90},{"user_id":310,"name":"El Goblino","steam_id":76561198232877396,"connected_time":216000000000,"state":"active","ping":99},{"user_id":311,"name":"√°rv√≠zt≈±r≈ë t√ºk√∂rf√∫r√≥g√©p","steam_id":76561198296643061,"connected_time":42000000000,"state":"active","ping":63},{"user_id":303,"name":"Fat Pigeon","steam_id":76561198817940142,"connected_time":1153000000000,"state":"active","ping":46},{"user_id":276,"name":"Nutri-Score E","steam_id":76561198799097492,"connected_time":2304000000000,"state":"active","ping":45},{"user_id":147,"name":"Welder","steam_id":76561198355300561,"connected_time":11075000000000,"state":"active","ping":63}]},{"server_id":24,"name":"Uncletopia | Frankfurt | 8 | Community","name_short":"frk-8","host":"frk-1.de.uncletopia.com","port":27085,"enabled":true,"region":"eu","cc":"de","latitude":50.110924,"longitude":8.682127,"reserved":0,"last_update":"0001-01-01T00:00:00Z","name_a2s":"Uncletopia | Frankfurt | 8 | Community","protocol":17,"map":"workshop/cp_croissant_final.ugc458840209","folder":"tf","game":"Team Fortress","app_id":440,"player_count":0,"max_players":24,"Bots":0,"server_type":"Dedicated","server_os":"Linux","password":true,"vac":true,"version":"7757534","steam_id":85568392924742828,"keywords":["cp","nocrits","nodmgspread","uncletopia"],"game_id":440,"stv_port":27086,"stv_name":"Uncletopia | Frankfurt | 8 | Community | STV","players":null},{"server_id":202,"name":"Uncletopia | Hong Kong | 1 | All Maps","name_short":"hgk-1","host":"hgk-1.hk.uncletopia.com","port":27015,"enabled":true,"region":"asia","cc":"hk","latitude":22.302711,"longitude":114.177216,"reserved":0,"last_update":"0001-01-01T00:00:00Z","name_a2s":"Uncletopia | Hong Kong | 1 | All Maps","protocol":17,"map":"pl_badwater","folder":"tf","game":"Team Fortress","app_id":440,"player_count":22,"max_players":24,"Bots":0,"server_type":"Dedicated","server_os":"Linux","password":true,"vac":true,"version":"7757534","steam_id":85568392924494504,"keywords":["nocrits","nodmgspread","payload","uncletopia"],"game_id":440,"stv_port":27016,"stv_name":"Uncletopia | Hong Kong | 1 | All Maps | STV","players":[{"user_id":466,"name":"P","steam_id":76561198304514505,"connected_time":6343000000000,"state":"active","ping":76},{"user_id":564,"name":"SICSIN","steam_id":76561198083923462,"connected_time":715000000000,"state":"active","ping":76},{"user_id":484,"name":"17","steam_id":76561198241530712,"connected_time":4808000000000,"state":"active","ping":107},{"user_id":566,"name":"Leo Chung","steam_id":76561198044007777,"connected_time":544000000000,"state":"active","ping":63},{"user_id":552,"name":"twitch.tv/vision515","steam_id":76561198065293729,"connected_time":2401000000000,"state":"active","ping":146},{"user_id":493,"name":"30-sama","steam_id":76561198970626362,"connected_time":4240000000000,"state":"active","ping":78},{"user_id":514,"name":"MsD IV","steam_id":76561198059707655,"connected_time":3406000000000,"state":"active","ping":73},{"user_id":567,"name":"attaac","steam_id":76561198144750492,"connected_time":163000000000,"state":"active","ping":75},{"user_id":483,"name":"AmaiRetarded","steam_id":76561199122491157,"connected_time":4836000000000,"state":"active","ping":68},{"user_id":569,"name":"‡πã","steam_id":76561198413116920,"connected_time":20000000000,"state":"active","ping":84},{"user_id":462,"name":"ZeniaPY (Playing on Wacom)","steam_id":76561198404352831,"connected_time":6641000000000,"state":"active","ping":59},{"user_id":491,"name":"UZ","steam_id":76561198179320563,"connected_time":4278000000000,"state":"active","ping":76},{"user_id":488,"name":"ÊØç„ÅÆËÇâÂõ£Â≠ê@hao123.com","steam_id":76561198069561896,"connected_time":4320000000000,"state":"active","ping":44},{"user_id":562,"name":"Stupid B","steam_id":76561198131423270,"connected_time":1346000000000,"state":"active","ping":102},{"user_id":515,"name":"_kobic","steam_id":76561199166938276,"connected_time":3397000000000,"state":"active","ping":72},{"user_id":307,"name":"Zonic the subsonic","steam_id":76561198213031155,"connected_time":21032000000000,"state":"active","ping":100},{"user_id":563,"name":"gold standard","steam_id":76561198069681546,"connected_time":775000000000,"state":"active","ping":61},{"user_id":524,"name":"Ïø†ÌÇ§","steam_id":76561197997220367,"connected_time":3232000000000,"state":"active","ping":49},{"user_id":479,"name":"ÁÖôÊµ∑ | Enkai","steam_id":76561198050460825,"connected_time":5381000000000,"state":"active","ping":75},{"user_id":465,"name":"killman47","steam_id":76561198348487408,"connected_time":6522000000000,"state":"active","ping":42},{"user_id":534,"name":"erwynmurphy711","steam_id":76561198288311270,"connected_time":2862000000000,"state":"active","ping":90},{"user_id":506,"name":"NOPE","steam_id":76561199244543572,"connected_time":3901000000000,"state":"active","ping":69}]},{"server_id":1,"name":"Uncletopia | Los Angeles | 1 | All Maps","name_short":"lax-1","host":"lax-1.us.uncletopia.com","port":27015,"enabled":true,"region":"us-west","cc":"us","latitude":33.94279,"longitude":-118.41004,"reserved":0,"last_update":"0001-01-01T00:00:00Z","name_a2s":"Uncletopia | Los Angeles | 1 | All Maps","protocol":17,"map":"koth_lakeside_final","folder":"tf","game":"Team Fortress","app_id":440,"player_count":0,"max_players":24,"Bots":0,"server_type":"Dedicated","server_os":"Linux","password":true,"vac":true,"version":"7757534","steam_id":85568392924469991,"keywords":["cp","nocrits","nodmgspread","uncletopia"],"game_id":440,"stv_port":27016,"stv_name":"Uncletopia | Los Angeles | 1 | All Maps | STV","players":null},{"server_id":112,"name":"Uncletopia | Los Angeles | 2 | All Maps","name_short":"lax-2","host":"lax-1.us.uncletopia.com","port":27025,"enabled":true,"region":"us-west","cc":"us","latitude":33.94279,"longitude":-118.41004,"reserved":0,"last_update":"0001-01-01T00:00:00Z","name_a2s":"Uncletopia | Los Angeles | 2 | All Maps","protocol":17,"map":"cp_sunshine","folder":"tf","game":"Team Fortress","app_id":440,"player_count":0,"max_players":24,"Bots":0,"server_type":"Dedicated","server_os":"Linux","password":true,"vac":true,"version":"7757534","steam_id":85568392924469992,"keywords":["cp","nocrits","nodmgspread","uncletopia"],"game_id":440,"stv_port":27026,"stv_name":"Uncletopia | Los Angeles | 2 | All Maps | STV","players":null},{"server_id":324,"name":"Uncletopia | Los Angeles | 3 | All Maps","name_short":"lax-3","host":"lax-1.us.uncletopia.com","port":27035,"enabled":true,"region":"us-west","cc":"us","latitude":33.94279,"longitude":-118.41004,"reserved":0,"last_update":"0001-01-01T00:00:00Z","name_a2s":"Uncletopia | Los Angeles | 3 | All Maps","protocol":17,"map":"pl_barnblitz","folder":"tf","game":"Team Fortress","app_id":440,"player_count":0,"max_players":24,"Bots":0,"server_type":"Dedicated","server_os":"Linux","password":true,"vac":true,"version":"7757534","steam_id":85568392924510198,"keywords":["nocrits","nodmgspread","payload","uncletopia"],"game_id":440,"stv_port":27036,"stv_name":"Uncletopia | Los Angeles | 3 | All Maps | STV","players":null},{"server_id":25,"name":"Uncletopia | Los Angeles | 4 | Stopwatch Beta","name_short":"lax-4","host":"lax-1.us.uncletopia.com","port":27045,"enabled":true,"region":"us-west","cc":"us","latitude":33.94279,"longitude":-118.41004,"reserved":0,"last_update":"0001-01-01T00:00:00Z","name_a2s":"Uncletopia | Los Angeles | 4 | Stopwatch Beta","protocol":17,"map":"pl_swiftwater_final1","folder":"tf","game":"Team Fortress","app_id":440,"player_count":0,"max_players":24,"Bots":0,"server_type":"Dedicated","server_os":"Linux","password":true,"vac":true,"version":"7757534","steam_id":85568392924510199,"keywords":["nocrits","nodmgspread","payload","uncletopia"],"game_id":440,"stv_port":27046,"stv_name":"Uncletopia | Los Angeles | 4 | Stopwatch Beta | STV","players":null},{"server_id":11,"name":"Uncletopia | London | 1 | All Maps","name_short":"lon-1","host":"lon-1.uk.uncletopia.com","port":27015,"enabled":true,"region":"eu","cc":"gb","latitude":51.509865,"longitude":-0.118092,"reserved":0,"last_update":"0001-01-01T00:00:00Z","name_a2s":"Uncletopia | London | 1 | All Maps","protocol":17,"map":"pl_borneo","folder":"tf","game":"Team Fortress","app_id":440,"player_count":24,"max_players":24,"Bots":0,"server_type":"Dedicated","server_os":"Linux","password":true,"vac":true,"version":"7757534","steam_id":85568392924367362,"keywords":["nocrits","nodmgspread","payload","uncletopia"],"game_id":440,"stv_port":27016,"stv_name":"Uncletopia | London | 1 | All Maps | STV","players":[{"user_id":318,"name":"Prism","steam_id":76561198075538312,"connected_time":1635000000000,"state":"active","ping":51},{"user_id":302,"name":"Magic","steam_id":76561198401602586,"connected_time":2297000000000,"state":"active","ping":81},{"user_id":321,"name":"F","steam_id":76561199149462792,"connected_time":1416000000000,"state":"active","ping":63},{"user_id":329,"name":"Janitor","steam_id":76561198418538887,"connected_time":708000000000,"state":"active","ping":98},{"user_id":336,"name":"FrostyBob","steam_id":76561197997161148,"connected_time":340000000000,"state":"active","ping":55},{"user_id":297,"name":"rock dog","steam_id":76561198110545854,"connected_time":2634000000000,"state":"active","ping":155},{"user_id":331,"name":"BOZZO","steam_id":76561198044210844,"connected_time":619000000000,"state":"active","ping":72},{"user_id":326,"name":"Sara","steam_id":76561198065287954,"connected_time":769000000000,"state":"active","ping":78},{"user_id":338,"name":"WAPtrick star","steam_id":76561198133532980,"connected_time":195000000000,"state":"active","ping":45},{"user_id":289,"name":"L1nuS050","steam_id":76561199017922842,"connected_time":3385000000000,"state":"active","ping":98},{"user_id":333,"name":"CrusherUK","steam_id":76561198153173185,"connected_time":532000000000,"state":"active","ping":49},{"user_id":322,"name":"Spetse","steam_id":76561197990649972,"connected_time":1361000000000,"state":"active","ping":90},{"user_id":335,"name":"MonSS","steam_id":76561198355624081,"connected_time":451000000000,"state":"active","ping":80},{"user_id":319,"name":"The 4th Doctor","steam_id":76561198191516706,"connected_time":1531000000000,"state":"active","ping":77},{"user_id":315,"name":"TOG II*","steam_id":76561197993906091,"connected_time":1919000000000,"state":"active","ping":50},{"user_id":288,"name":"s .-word","steam_id":76561198060849026,"connected_time":3446000000000,"state":"active","ping":84},{"user_id":337,"name":"Thors","steam_id":76561197968739075,"connected_time":309000000000,"state":"active","ping":45},{"user_id":268,"name":"robsan","steam_id":76561198137375391,"connected_time":4422000000000,"state":"active","ping":78},{"user_id":324,"name":"‚Ä† RUBENEITOR ‚Ä†","steam_id":76561198017805714,"connected_time":800000000000,"state":"active","ping":63},{"user_id":313,"name":"JohnnyRakieta","steam_id":76561198855789287,"connected_time":2090000000000,"state":"active","ping":75},{"user_id":284,"name":"Noah","steam_id":76561198866042884,"connected_time":3571000000000,"state":"active","ping":63},{"user_id":330,"name":"yard man","steam_id":76561198019477093,"connected_time":643000000000,"state":"active","ping":87},{"user_id":328,"name":"JOHN GAMING (depressed)","steam_id":76561199085822219,"connected_time":719000000000,"state":"active","ping":89},{"user_id":334,"name":"Sorky","steam_id":76561198007502339,"connected_time":495000000000,"state":"active","ping":70}]},{"server_id":114,"name":"Uncletopia | London | 2 | All Maps","name_short":"lon-2","host":"lon-1.uk.uncletopia.com","port":27025,"enabled":true,"region":"eu","cc":"gb","latitude":51.509865,"longitude":-0.118092,"reserved":0,"last_update":"0001-01-01T00:00:00Z","name_a2s":"Uncletopia | London | 2 | All Maps","protocol":17,"map":"pl_hoodoo_final","folder":"tf","game":"Team Fortress","app_id":440,"player_count":24,"max_players":24,"Bots":0,"server_type":"Dedicated","server_os":"Linux","password":true,"vac":true,"version":"7757534","steam_id":85568392924470941,"keywords":["nocrits","nodmgspread","payload","uncletopia"],"game_id":440,"stv_port":27026,"stv_name":"Uncletopia | London | 2 | All Maps | STV","players":[{"user_id":374,"name":"M√âZ","steam_id":76561198167504701,"connected_time":2024000000000,"state":"active","ping":85},{"user_id":402,"name":"EYE_BASH1(B.F.B.L)","steam_id":76561198201437311,"connected_time":729000000000,"state":"active","ping":73},{"user_id":403,"name":"alice","steam_id":76561198180361759,"connected_time":258000000000,"state":"active","ping":46},{"user_id":384,"name":"Hedge Knight","steam_id":76561198989449047,"connected_time":1288000000000,"state":"active","ping":129},{"user_id":385,"name":"da number one gamer","steam_id":76561199049633351,"connected_time":1242000000000,"state":"active","ping":79},{"user_id":397,"name":"adm1ral_plunge","steam_id":76561198035342559,"connected_time":836000000000,"state":"active","ping":49},{"user_id":381,"name":"Pintarolas","steam_id":76561198124839451,"connected_time":1389000000000,"state":"active","ping":101},{"user_id":348,"name":"Wattoz","steam_id":76561198127779511,"connected_time":3894000000000,"state":"active","ping":57},{"user_id":373,"name":"Mafew","steam_id":76561198119993886,"connected_time":2061000000000,"state":"active","ping":55},{"user_id":406,"name":"J·µÉ·∂ú·µè·∂§·µâ C ∞·µÉ·∂∞","steam_id":76561198250935222,"connected_time":74000000000,"state":"active","ping":167},{"user_id":364,"name":"Keh-nee „ÉÑ","steam_id":76561197970352080,"connected_time":2765000000000,"state":"active","ping":64},{"user_id":400,"name":"‡πñAtomicskullz","steam_id":76561197970627347,"connected_time":757000000000,"state":"active","ping":159},{"user_id":401,"name":"—Ç–æ–ª—è","steam_id":76561199098518615,"connected_time":755000000000,"state":"active","ping":87},{"user_id":398,"name":"Oak","steam_id":76561198067315672,"connected_time":833000000000,"state":"active","ping":55},{"user_id":357,"name":"LANGERS","steam_id":76561198046966693,"connected_time":3016000000000,"state":"active","ping":52},{"user_id":353,"name":"‚ú™ qua ‚ú™","steam_id":76561198066408333,"connected_time":3183000000000,"state":"active","ping":88},{"user_id":404,"name":"wicked","steam_id":76561198164376035,"connected_time":205000000000,"state":"active","ping":81},{"user_id":365,"name":"SuntanPikachu","steam_id":76561198121242476,"connected_time":2739000000000,"state":"active","ping":56},{"user_id":375,"name":"Sonic","steam_id":76561198081692577,"connected_time":1816000000000,"state":"active","ping":69},{"user_id":367,"name":"BONK-TEC!","steam_id":76561198272667029,"connected_time":2695000000000,"state":"active","ping":60},{"user_id":405,"name":"DribSitoop","steam_id":76561198020597104,"connected_time":151000000000,"state":"active","ping":72},{"user_id":389,"name":"StabbyKnife","steam_id":76561198094010004,"connected_time":1137000000000,"state":"active","ping":97},{"user_id":335,"name":"slifty","steam_id":76561198166682199,"connected_time":5432000000000,"state":"active","ping":54},{"user_id":378,"name":"bad 2 za bona","steam_id":76561199065919134,"connected_time":1726000000000,"state":"active","ping":66}]},{"server_id":320,"name":"Uncletopia | London | 3 | All Maps","name_short":"lon-3","host":"lon-1.uk.uncletopia.com","port":27035,"enabled":true,"region":"eu","cc":"gb","latitude":51.509865,"longitude":-0.118092,"reserved":0,"last_update":"0001-01-01T00:00:00Z","name_a2s":"Uncletopia | London | 3 | All Maps","protocol":17,"map":"pl_badwater","folder":"tf","game":"Team Fortress","app_id":440,"player_count":24,"max_players":24,"Bots":0,"server_type":"Dedicated","server_os":"Linux","password":true,"vac":true,"version":"7757534","steam_id":85568392924510192,"keywords":["nocrits","nodmgspread","payload","uncletopia"],"game_id":440,"stv_port":27036,"stv_name":"Uncletopia | London | 3 | All Maps | STV","players":[{"user_id":160,"name":"ttk","steam_id":76561198094684065,"connected_time":1360000000000,"state":"active","ping":78},{"user_id":166,"name":"ActuallyMike","steam_id":76561198083465346,"connected_time":153000000000,"state":"active","ping":44},{"user_id":150,"name":"not drunk","steam_id":76561199184873889,"connected_time":1528000000000,"state":"active","ping":63},{"user_id":123,"name":"(EdD)","steam_id":76561199203608558,"connected_time":4253000000000,"state":"active","ping":101},{"user_id":142,"name":"Kurage","steam_id":76561198021221288,"connected_time":2393000000000,"state":"active","ping":73},{"user_id":148,"name":"Hawkuro","steam_id":76561198252194838,"connected_time":1572000000000,"state":"active","ping":47},{"user_id":167,"name":"sareena","steam_id":76561198810194062,"connected_time":140000000000,"state":"active","ping":72},{"user_id":147,"name":"Zed","steam_id":76561198188643754,"connected_time":1782000000000,"state":"active","ping":84},{"user_id":155,"name":"Big Tits","steam_id":76561198071226377,"connected_time":1438000000000,"state":"active","ping":84},{"user_id":103,"name":"YinYang Ivy","steam_id":76561198319862585,"connected_time":5459000000000,"state":"active","ping":48},{"user_id":65,"name":"r06u3 #SummerUpdate_Coming","steam_id":76561198254099253,"connected_time":7544000000000,"state":"active","ping":180},{"user_id":138,"name":"Bonjour","steam_id":76561198186063665,"connected_time":3116000000000,"state":"active","ping":81},{"user_id":153,"name":"Pyrolander","steam_id":76561198050785450,"connected_time":1487000000000,"state":"active","ping":59},{"user_id":168,"name":"yasin","steam_id":76561198055452270,"connected_time":132000000000,"state":"active","ping":60},{"user_id":145,"name":"Femboy Gaming","steam_id":76561199230209215,"connected_time":1943000000000,"state":"active","ping":67},{"user_id":164,"name":"beeb","steam_id":76561198211644077,"connected_time":570000000000,"state":"active","ping":63},{"user_id":165,"name":"MORGENSHTERN","steam_id":76561199277727142,"connected_time":561000000000,"state":"active","ping":118},{"user_id":169,"name":"BRICK TOP","steam_id":76561198014366715,"connected_time":84000000000,"state":"active","ping":44},{"user_id":158,"name":"grim reaper god","steam_id":76561199394194512,"connected_time":1396000000000,"state":"active","ping":61},{"user_id":143,"name":"NLSAM","steam_id":76561199111154916,"connected_time":2246000000000,"state":"active","ping":63},{"user_id":125,"name":"Joseph Stalin","steam_id":76561198033199746,"connected_time":3962000000000,"state":"active","ping":56},{"user_id":128,"name":"AleXandriX","steam_id":76561198035203950,"connected_time":3663000000000,"state":"active","ping":75},{"user_id":170,"name":"Corpus Christi (F2P)","steam_id":76561199259288856,"connected_time":19000000000,"state":"active","ping":105},{"user_id":139,"name":"fume.","steam_id":76561197960476801,"connected_time":2986000000000,"state":"active","ping":56}]},{"server_id":321,"name":"Uncletopia | London | 4 | All Maps","name_short":"lon-4","host":"lon-1.uk.uncletopia.com","port":27045,"enabled":true,"region":"eu","cc":"gb","latitude":51.509865,"longitude":-0.118092,"reserved":0,"last_update":"0001-01-01T00:00:00Z","name_a2s":"Uncletopia | London | 4 | All Maps","protocol":17,"map":"cp_snakewater_final1","folder":"tf","game":"Team Fortress","app_id":440,"player_count":24,"max_players":24,"Bots":0,"server_type":"Dedicated","server_os":"Linux","password":true,"vac":true,"version":"7757534","steam_id":85568392924510193,"keywords":["cp","nocrits","nodmgspread","uncletopia"],"game_id":440,"stv_port":27046,"stv_name":"Uncletopia | London | 4 | All Maps | STV","players":[{"user_id":265,"name":"sam-","steam_id":76561198013770973,"connected_time":48000000000,"state":"active","ping":70},{"user_id":264,"name":"Zepta","steam_id":76561199001659666,"connected_time":338000000000,"state":"active","ping":101},{"user_id":242,"name":"mmm delicious bullets","steam_id":76561198254664484,"connected_time":1588000000000,"state":"active","ping":58},{"user_id":258,"name":"Anonymous47007","steam_id":76561199005211417,"connected_time":938000000000,"state":"active","ping":81},{"user_id":261,"name":"gandanomebtw","steam_id":76561198410955546,"connected_time":527000000000,"state":"active","ping":74},{"user_id":231,"name":"Jackriz","steam_id":76561198024882111,"connected_time":2531000000000,"state":"active","ping":76},{"user_id":250,"name":"TheButterPickle","steam_id":76561198354317787,"connected_time":1302000000000,"state":"active","ping":55},{"user_id":221,"name":"nidob","steam_id":76561198349648942,"connected_time":2849000000000,"state":"active","ping":77},{"user_id":254,"name":"Raldow","steam_id":76561198021389301,"connected_time":1123000000000,"state":"active","ping":57},{"user_id":232,"name":"Schizo' Cucumber","steam_id":76561198066341713,"connected_time":2530000000000,"state":"active","ping":69},{"user_id":125,"name":"cislastar","steam_id":76561198027202375,"connected_time":6642000000000,"state":"active","ping":70},{"user_id":240,"name":"Dr. Feelgood","steam_id":76561199173885103,"connected_time":1879000000000,"state":"active","ping":157},{"user_id":262,"name":"simonjohna646","steam_id":76561199403481880,"connected_time":506000000000,"state":"active","ping":134},{"user_id":155,"name":"rhost","steam_id":76561199230709660,"connected_time":5336000000000,"state":"active","ping":62},{"user_id":156,"name":"Lyncurion","steam_id":76561199260022725,"connected_time":5289000000000,"state":"active","ping":85},{"user_id":263,"name":"Absolute_clamp","steam_id":76561198958563865,"connected_time":437000000000,"state":"active","ping":97},{"user_id":244,"name":"Elfie","steam_id":76561198206802255,"connected_time":1489000000000,"state":"active","ping":80},{"user_id":243,"name":"gŒ±–≤—î Œ∑œÉ√´‚Ñì","steam_id":76561198067342352,"connected_time":1560000000000,"state":"active","ping":59},{"user_id":245,"name":"Ape","steam_id":76561198322703872,"connected_time":1457000000000,"state":"active","ping":62},{"user_id":241,"name":"quickfast","steam_id":76561199438900919,"connected_time":1809000000000,"state":"active","ping":44},{"user_id":226,"name":"Samplee","steam_id":76561198063406140,"connected_time":2791000000000,"state":"active","ping":66},{"user_id":260,"name":"Mr.Dies a lot","steam_id":76561199061602946,"connected_time":632000000000,"state":"active","ping":88},{"user_id":253,"name":"Carrot","steam_id":76561198119340863,"connected_time":1198000000000,"state":"active","ping":35},{"user_id":142,"name":"s","steam_id":76561198257383813,"connected_time":6078000000000,"state":"active","ping":56}]},{"server_id":21,"name":"Uncletopia | London | 5 | All Maps","name_short":"lon-5","host":"lon-1.uk.uncletopia.com","port":27055,"enabled":true,"region":"eu","cc":"gb","latitude":51.509865,"longitude":-0.118092,"reserved":0,"last_update":"0001-01-01T00:00:00Z","name_a2s":"Uncletopia | London | 5 | All Maps","protocol":17,"map":"pl_swiftwater_final1","folder":"tf","game":"Team Fortress","app_id":440,"player_count":0,"max_players":24,"Bots":0,"server_type":"Dedicated","server_os":"Linux","password":true,"vac":true,"version":"7757534","steam_id":85568392924742829,"keywords":["nocrits","nodmgspread","payload","uncletopia"],"game_id":440,"stv_port":27056,"stv_name":"Uncletopia | London | 5 | All Maps | STV","players":null},{"server_id":22,"name":"Uncletopia | London | 6 | All Maps","name_short":"lon-6","host":"lon-1.uk.uncletopia.com","port":27065,"enabled":true,"region":"eu","cc":"gb","latitude":51.509865,"longitude":-0.118092,"reserved":0,"last_update":"0001-01-01T00:00:00Z","name_a2s":"Uncletopia | London | 6 | All Maps","protocol":17,"map":"pl_badwater","folder":"tf","game":"Team Fortress","app_id":440,"player_count":24,"max_players":24,"Bots":0,"server_type":"Dedicated","server_os":"Linux","password":true,"vac":true,"version":"7757534","steam_id":85568392924742830,"keywords":["nocrits","nodmgspread","payload","uncletopia"],"game_id":440,"stv_port":27066,"stv_name":"Uncletopia | London | 6 | All Maps | STV","players":[{"user_id":82,"name":"„ÄéDorarhim„Äè","steam_id":76561198220232352,"connected_time":3438000000000,"state":"active","ping":46},{"user_id":83,"name":"Kestrel","steam_id":76561198144033005,"connected_time":3424000000000,"state":"active","ping":47},{"user_id":100,"name":"porridge","steam_id":76561198044585737,"connected_time":743000000000,"state":"active","ping":47},{"user_id":102,"name":"Tri-","steam_id":76561198133524794,"connected_time":714000000000,"state":"active","ping":35},{"user_id":97,"name":"Hussite","steam_id":76561199293036742,"connected_time":1017000000000,"state":"active","ping":61},{"user_id":63,"name":"Arctic_pendragon","steam_id":76561198180683154,"connected_time":4944000000000,"state":"active","ping":93},{"user_id":66,"name":"dismo","steam_id":76561199090441277,"connected_time":4701000000000,"state":"active","ping":70},{"user_id":108,"name":"spxcy","steam_id":76561198080296853,"connected_time":423000000000,"state":"active","ping":93},{"user_id":109,"name":"simp_fan256","steam_id":76561198129314304,"connected_time":397000000000,"state":"active","ping":140},{"user_id":110,"name":"panakid","steam_id":76561198364121077,"connected_time":359000000000,"state":"active","ping":95},{"user_id":105,"name":"cloud","steam_id":76561198179768931,"connected_time":677000000000,"state":"active","ping":66},{"user_id":95,"name":"NitPig","steam_id":76561198212991935,"connected_time":1735000000000,"state":"active","ping":109},{"user_id":98,"name":"TarekInnit","steam_id":76561198298618127,"connected_time":983000000000,"state":"active","ping":61},{"user_id":91,"name":"Jack","steam_id":76561198079575891,"connected_time":2131000000000,"state":"active","ping":45},{"user_id":112,"name":"ALARM","steam_id":76561198120686521,"connected_time":81000000000,"state":"active","ping":60},{"user_id":73,"name":"hedon/","steam_id":76561198249832770,"connected_time":4346000000000,"state":"active","ping":50},{"user_id":107,"name":"Jyghc","steam_id":76561198405980575,"connected_time":618000000000,"state":"active","ping":89},{"user_id":80,"name":"KingStrawberry","steam_id":76561199006811267,"connected_time":3658000000000,"state":"active","ping":156},{"user_id":37,"name":"Dagda","steam_id":76561198871136698,"connected_time":6620000000000,"state":"active","ping":44},{"user_id":113,"name":"garry","steam_id":76561198019078145,"connected_time":8000000000,"state":"spawning","ping":87},{"user_id":59,"name":"Clockey","steam_id":76561198386319583,"connected_time":5768000000000,"state":"active","ping":149},{"user_id":92,"name":"S_ApplePie","steam_id":76561198106947669,"connected_time":2117000000000,"state":"active","ping":69},{"user_id":77,"name":"Erior","steam_id":76561198039462080,"connected_time":3962000000000,"state":"active","ping":94},{"user_id":111,"name":"Definitely not Ray","steam_id":76561197991390018,"connected_time":312000000000,"state":"active","ping":52}]},{"server_id":40,"name":"Uncletopia | London | 7 | No Payload","name_short":"lon-7","host":"lon-1.uk.uncletopia.com","port":27075,"enabled":true,"region":"eu","cc":"gb","latitude":51.509865,"longitude":-0.118092,"reserved":0,"last_update":"0001-01-01T00:00:00Z","name_a2s":"Uncletopia | London | 7 | No Payload","protocol":17,"map":"cp_mercenarypark","folder":"tf","game":"Team Fortress","app_id":440,"player_count":0,"max_players":24,"Bots":0,"server_type":"Dedicated","server_os":"Linux","password":true,"vac":true,"version":"7757534","steam_id":85568392924964314,"keywords":["cp","nocrits","nodmgspread","uncletopia"],"game_id":440,"stv_port":27076,"stv_name":"Uncletopia | London | 7 | No Payload | STV","players":null},{"server_id":41,"name":"Uncletopia | London | 8 | Community","name_short":"lon-8","host":"lon-1.uk.uncletopia.com","port":27085,"enabled":true,"region":"eu","cc":"gb","latitude":51.509865,"longitude":-0.118092,"reserved":0,"last_update":"0001-01-01T00:00:00Z","name_a2s":"Uncletopia | London | 8 | Community","protocol":17,"map":"workshop/koth_synthetic_rc6a.ugc1549817316","folder":"tf","game":"Team Fortress","app_id":440,"player_count":0,"max_players":24,"Bots":0,"server_type":"Dedicated","server_os":"Linux","password":true,"vac":true,"version":"7757534","steam_id":85568392924964315,"keywords":["cp","nocrits","nodmgspread","uncletopia"],"game_id":440,"stv_port":27086,"stv_name":"Uncletopia | London | 8 | Community | STV","players":null},{"server_id":300,"name":"Uncletopia | Montr√©al | 1 | All Maps","name_short":"mtl-1","host":"mtl-1.ca.uncletopia.com","port":27015,"enabled":true,"region":"us-east","cc":"ca","latitude":45.50889,"longitude":-73.56167,"reserved":0,"last_update":"0001-01-01T00:00:00Z","name_a2s":"Uncletopia | Montr√©al | 1 | All Maps","protocol":17,"map":"pl_swiftwater_final1","folder":"tf","game":"Team Fortress","app_id":440,"player_count":22,"max_players":24,"Bots":0,"server_type":"Dedicated","server_os":"Linux","password":true,"vac":true,"version":"7757534","steam_id":85568392924500087,"keywords":["nocrits","nodmgspread","payload","uncletopia"],"game_id":440,"stv_port":27016,"stv_name":"Uncletopia | Montr√©al | 1 | All Maps | STV","players":[{"user_id":109,"name":"firetamer2","steam_id":76561198040886980,"connected_time":760000000000,"state":"active","ping":50},{"user_id":70,"name":"Retrowave","steam_id":76561198061921346,"connected_time":3297000000000,"state":"active","ping":58},{"user_id":84,"name":"Spearmint","steam_id":76561198134215373,"connected_time":2877000000000,"state":"active","ping":71},{"user_id":118,"name":"TheChickenChuck","steam_id":76561199192686708,"connected_time":346000000000,"state":"active","ping":83},{"user_id":88,"name":"Dispenser (Maple!)","steam_id":76561198993581426,"connected_time":2529000000000,"state":"active","ping":48},{"user_id":119,"name":"ChefBev","steam_id":76561198189448113,"connected_time":307000000000,"state":"active","ping":48},{"user_id":121,"name":"Doody","steam_id":76561198284068886,"connected_time":201000000000,"state":"active","ping":77},{"user_id":108,"name":"WhoIsFrosty","steam_id":76561198880588117,"connected_time":768000000000,"state":"active","ping":95},{"user_id":74,"name":"kametro4","steam_id":76561198835430429,"connected_time":3217000000000,"state":"active","ping":84},{"user_id":107,"name":"Gad","steam_id":76561198020792373,"connected_time":813000000000,"state":"active","ping":79},{"user_id":120,"name":"Stupid","steam_id":76561198127348089,"connected_time":306000000000,"state":"active","ping":60},{"user_id":116,"name":"EL Heddo","steam_id":76561199239477515,"connected_time":501000000000,"state":"active","ping":82},{"user_id":92,"name":"my opps are after me","steam_id":76561198328109873,"connected_time":2234000000000,"state":"active","ping":76},{"user_id":95,"name":"fazaness","steam_id":76561198851525394,"connected_time":2056000000000,"state":"active","ping":75},{"user_id":81,"name":"Riandox","steam_id":76561198130577326,"connected_time":2982000000000,"state":"active","ping":58},{"user_id":97,"name":"Aviyarn","steam_id":76561199074194652,"connected_time":1956000000000,"state":"active","ping":73},{"user_id":105,"name":"Grimace","steam_id":76561198297216420,"connected_time":1583000000000,"state":"active","ping":55},{"user_id":58,"name":"Fresh0c0","steam_id":76561198271933283,"connected_time":4060000000000,"state":"active","ping":74},{"user_id":114,"name":"tasty","steam_id":76561198083839061,"connected_time":584000000000,"state":"active","ping":52},{"user_id":115,"name":"eggbert","steam_id":76561198042394402,"connected_time":543000000000,"state":"active","ping":57},{"user_id":117,"name":"Trainzack","steam_id":76561198009479333,"connected_time":475000000000,"state":"active","ping":142},{"user_id":103,"name":"carrion goat she/it","steam_id":76561198262064871,"connected_time":1740000000000,"state":"active","ping":48}]},{"server_id":301,"name":"Uncletopia | Montr√©al | 2 | All Maps","name_short":"mtl-2","host":"mtl-1.ca.uncletopia.com","port":27025,"enabled":true,"region":"us-east","cc":"ca","latitude":45.50889,"longitude":-73.56167,"reserved":0,"last_update":"0001-01-01T00:00:00Z","name_a2s":"Uncletopia | Montr√©al | 2 | All Maps","protocol":17,"map":"pl_pier","folder":"tf","game":"Team Fortress","app_id":440,"player_count":0,"max_players":24,"Bots":0,"server_type":"Dedicated","server_os":"Linux","password":true,"vac":true,"version":"7757534","steam_id":85568392924500088,"keywords":["nocrits","nodmgspread","payload","uncletopia"],"game_id":440,"stv_port":27026,"stv_name":"Uncletopia | Montr√©al | 2 | All Maps | STV","players":null},{"server_id":302,"name":"Uncletopia | Montr√©al | 3 | All Maps","name_short":"mtl-3","host":"mtl-1.ca.uncletopia.com","port":27035,"enabled":true,"region":"us-east","cc":"ca","latitude":45.50889,"longitude":-73.56167,"reserved":0,"last_update":"0001-01-01T00:00:00Z","name_a2s":"Uncletopia | Montr√©al | 3 | All Maps","protocol":17,"map":"pl_upward","folder":"tf","game":"Team Fortress","app_id":440,"player_count":0,"max_players":24,"Bots":0,"server_type":"Dedicated","server_os":"Linux","password":true,"vac":true,"version":"7757534","steam_id":85568392924500089,"keywords":["nocrits","nodmgspread","payload","uncletopia"],"game_id":440,"stv_port":27036,"stv_name":"Uncletopia | Montr√©al | 3 | All Maps | STV","players":null},{"server_id":303,"name":"Uncletopia | Montr√©al | 4 | No Payload","name_short":"mtl-4","host":"mtl-1.ca.uncletopia.com","port":27045,"enabled":true,"region":"us-east","cc":"ca","latitude":45.50889,"longitude":-73.56167,"reserved":0,"last_update":"0001-01-01T00:00:00Z","name_a2s":"Uncletopia | Montr√©al | 4 | No Payload","protocol":17,"map":"pl_pier","folder":"tf","game":"Team Fortress","app_id":440,"player_count":0,"max_players":24,"Bots":0,"server_type":"Dedicated","server_os":"Linux","password":true,"vac":true,"version":"7757534","steam_id":85568392924500090,"keywords":["nocrits","nodmgspread","payload","uncletopia"],"game_id":440,"stv_port":27046,"stv_name":"Uncletopia | Montr√©al | 4 | No Payload | STV","players":null},{"server_id":13,"name":"Uncletopia | New York City | 1 | All Maps","name_short":"nyc-1","host":"nyc-1.us.uncletopia.com","port":27015,"enabled":true,"region":"us-east","cc":"us","latitude":40.73061,"longitude":-73.93524,"reserved":0,"last_update":"0001-01-01T00:00:00Z","name_a2s":"Uncletopia | New York City | 1 | All Maps","protocol":17,"map":"pl_snowycoast","folder":"tf","game":"Team Fortress","app_id":440,"player_count":8,"max_players":24,"Bots":0,"server_type":"Dedicated","server_os":"Linux","password":true,"vac":true,"version":"7757534","steam_id":85568392924469993,"keywords":["nocrits","nodmgspread","payload","uncletopia"],"game_id":440,"stv_port":27016,"stv_name":"Uncletopia | New York City | 1 | All Maps | STV","players":[{"user_id":15,"name":"quadapalozle","steam_id":76561198327686110,"connected_time":513000000000,"state":"active","ping":63},{"user_id":10,"name":"Cuntslinger","steam_id":76561198303948269,"connected_time":1430000000000,"state":"active","ping":71},{"user_id":11,"name":"Nexo Fighter","steam_id":76561199187418090,"connected_time":1264000000000,"state":"active","ping":108},{"user_id":16,"name":"Super Mega Buster #savetf2","steam_id":76561198160316069,"connected_time":433000000000,"state":"active","ping":115},{"user_id":14,"name":"MrSpiffy","steam_id":76561198303596449,"connected_time":824000000000,"state":"active","ping":79},{"user_id":17,"name":"Dispenser","steam_id":76561198936412406,"connected_time":300000000000,"state":"active","ping":89},{"user_id":18,"name":"Meat Grinder Guy (Vegans Beware","steam_id":76561198833470398,"connected_time":122000000000,"state":"active","ping":54},{"user_id":19,"name":"Thebestsock","steam_id":76561198819141894,"connected_time":68000000000,"state":"active","ping":104}]},{"server_id":14,"name":"Uncletopia | New York City | 2 | All Maps","name_short":"nyc-2","host":"nyc-1.us.uncletopia.com","port":27025,"enabled":true,"region":"us-east","cc":"us","latitude":40.73061,"longitude":-73.93524,"reserved":0,"last_update":"0001-01-01T00:00:00Z","name_a2s":"Uncletopia | New York City | 2 | All Maps","protocol":17,"map":"pl_borneo","folder":"tf","game":"Team Fortress","app_id":440,"player_count":24,"max_players":24,"Bots":0,"server_type":"Dedicated","server_os":"Linux","password":true,"vac":true,"version":"7757534","steam_id":85568392924469994,"keywords":["nocrits","nodmgspread","payload","uncletopia"],"game_id":440,"stv_port":27026,"stv_name":"Uncletopia | New York City | 2 | All Maps | STV","players":[{"user_id":224,"name":"Ceiling Man","steam_id":76561198003959902,"connected_time":242000000000,"state":"active","ping":39},{"user_id":229,"name":"tabasco","steam_id":76561198355094896,"connected_time":26000000000,"state":"active","ping":62},{"user_id":147,"name":"connie kin's","steam_id":76561198094559788,"connected_time":5927000000000,"state":"active","ping":107},{"user_id":202,"name":"I can't heal","steam_id":76561198039763676,"connected_time":1977000000000,"state":"active","ping":66},{"user_id":212,"name":"JacripspyVulcano","steam_id":76561198966980576,"connected_time":763000000000,"state":"active","ping":44},{"user_id":23,"name":"connie kins","steam_id":76561198074701151,"connected_time":14460000000000,"state":"active","ping":108},{"user_id":194,"name":"Kago","steam_id":76561198122617301,"connected_time":2348000000000,"state":"active","ping":52},{"user_id":210,"name":"Magic Man Marley","steam_id":76561198094612859,"connected_time":1105000000000,"state":"active","ping":82},{"user_id":213,"name":"The heavie is a spy","steam_id":76561199005981558,"connected_time":595000000000,"state":"active","ping":192},{"user_id":215,"name":"joefish","steam_id":76561198063952134,"connected_time":570000000000,"state":"active","ping":94},{"user_id":156,"name":"Fishstall","steam_id":76561198038126034,"connected_time":5607000000000,"state":"active","ping":98},{"user_id":227,"name":"DagyDin","steam_id":76561199212257554,"connected_time":167000000000,"state":"active","ping":80},{"user_id":225,"name":"the meat man","steam_id":76561198037921140,"connected_time":242000000000,"state":"active","ping":108},{"user_id":216,"name":"chatteringduck","steam_id":76561198131778772,"connected_time":568000000000,"state":"active","ping":67},{"user_id":226,"name":"·πΩ‚ßâ ‚òÆPro‚òØ","steam_id":76561198000173889,"connected_time":224000000000,"state":"active","ping":48},{"user_id":228,"name":"barbara","steam_id":76561198072417792,"connected_time":157000000000,"state":"active","ping":104},{"user_id":180,"name":"LunarrD","steam_id":76561198811220107,"connected_time":3858000000000,"state":"active","ping":70},{"user_id":204,"name":"Yugibeaux2","steam_id":76561199448697659,"connected_time":1877000000000,"state":"active","ping":71},{"user_id":220,"name":"MrDragadon","steam_id":76561199058815749,"connected_time":326000000000,"state":"active","ping":135},{"user_id":218,"name":"Alexhcgar„ÉÖ","steam_id":76561198085706389,"connected_time":492000000000,"state":"active","ping":97},{"user_id":209,"name":"Filthy Acts at Reasonable Price","steam_id":76561198354615890,"connected_time":1386000000000,"state":"active","ping":72},{"user_id":217,"name":"Pwnedbyfatty - PMKBB","steam_id":76561197995037409,"connected_time":510000000000,"state":"active","ping":49},{"user_id":191,"name":"Teleporter (Evil_Elephant)","steam_id":76561199055338631,"connected_time":2464000000000,"state":"active","ping":91},{"user_id":219,"name":"Bernie Sanders","steam_id":76561199035800539,"connected_time":453000000000,"state":"active","ping":42}]},{"server_id":15,"name":"Uncletopia | New York City | 3 | Stopwatch Beta","name_short":"nyc-3","host":"nyc-1.us.uncletopia.com","port":27035,"enabled":true,"region":"us-east","cc":"us","latitude":40.73061,"longitude":-73.93524,"reserved":0,"last_update":"0001-01-01T00:00:00Z","name_a2s":"Uncletopia | New York City | 3 | Stopwatch Beta","protocol":17,"map":"workshop/cp_reckoner_rc6.ugc674719999","folder":"tf","game":"Team Fortress","app_id":440,"player_count":0,"max_players":24,"Bots":0,"server_type":"Dedicated","server_os":"Linux","password":true,"vac":true,"version":"7757534","steam_id":85568392924742820,"keywords":["cp","nocrits","nodmgspread","uncletopia"],"game_id":440,"stv_port":27036,"stv_name":"Uncletopia | New York City | 3 | Stopwatch Beta | STV","players":null},{"server_id":16,"name":"Uncletopia | New York City | 4 | Community","name_short":"nyc-4","host":"nyc-1.us.uncletopia.com","port":27045,"enabled":true,"region":"us-east","cc":"us","latitude":40.73061,"longitude":-73.93524,"reserved":0,"last_update":"0001-01-01T00:00:00Z","name_a2s":"Uncletopia | New York City | 4 | Community","protocol":17,"map":"workshop/cp_reckoner_rc6.ugc674719999","folder":"tf","game":"Team Fortress","app_id":440,"player_count":0,"max_players":24,"Bots":0,"server_type":"Dedicated","server_os":"Linux","password":true,"vac":true,"version":"7757534","steam_id":85568392924742821,"keywords":["cp","nocrits","nodmgspread","uncletopia"],"game_id":440,"stv_port":27046,"stv_name":"Uncletopia | New York City | 4 | Community | STV","players":null},{"server_id":142,"name":"Uncletopia | S√£o Paulo | 1 | All Maps","name_short":"sao-1","host":"sao-1.br.uncletopia.com","port":27015,"enabled":true,"region":"sa","cc":"br","latitude":-23.533773,"longitude":-46.62529,"reserved":0,"last_update":"0001-01-01T00:00:00Z","name_a2s":"Uncletopia | S√£o Paulo | 1 | All Maps","protocol":17,"map":"koth_lakeside_final","folder":"tf","game":"Team Fortress","app_id":440,"player_count":4,"max_players":24,"Bots":0,"server_type":"Dedicated","server_os":"Linux","password":true,"vac":true,"version":"7757534","steam_id":85568392924469996,"keywords":["cp","nocrits","nodmgspread","uncletopia"],"game_id":440,"stv_port":27016,"stv_name":"Uncletopia | S√£o Paulo | 1 | All Maps | STV","players":[{"user_id":6,"name":"Darkvd1","steam_id":76561198021572880,"connected_time":1610000000000,"state":"active","ping":41},{"user_id":7,"name":"√çris","steam_id":76561199045746516,"connected_time":1546000000000,"state":"active","ping":112},{"user_id":8,"name":"Tanajura","steam_id":76561198836327108,"connected_time":1496000000000,"state":"active","ping":88},{"user_id":11,"name":"ADUARTENOG","steam_id":76561198365237392,"connected_time":157000000000,"state":"active","ping":60}]},{"server_id":143,"name":"Uncletopia | S√£o Paulo | 2 | All Maps","name_short":"sao-2","host":"sao-2.br.uncletopia.com","port":27015,"enabled":true,"region":"sa","cc":"br","latitude":-23.533773,"longitude":-46.62529,"reserved":0,"last_update":"0001-01-01T00:00:00Z","name_a2s":"Uncletopia | S√£o Paulo | 2 | All Maps","protocol":17,"map":"pl_upward","folder":"tf","game":"Team Fortress","app_id":440,"player_count":0,"max_players":24,"Bots":0,"server_type":"Dedicated","server_os":"Linux","password":true,"vac":true,"version":"7757534","steam_id":85568392924485349,"keywords":["nocrits","nodmgspread","payload","uncletopia"],"game_id":440,"stv_port":27016,"stv_name":"Uncletopia | S√£o Paulo | 2 | All Maps | STV","players":null},{"server_id":7,"name":"Uncletopia | Seattle | 1 | All Maps","name_short":"sea-1","host":"sea-1.us.uncletopia.com","port":27015,"enabled":true,"region":"us-west","cc":"us","latitude":47.608013,"longitude":-122.33517,"reserved":0,"last_update":"0001-01-01T00:00:00Z","name_a2s":"Uncletopia | Seattle | 1 | All Maps","protocol":17,"map":"koth_cascade","folder":"tf","game":"Team Fortress","app_id":440,"player_count":20,"max_players":24,"Bots":0,"server_type":"Dedicated","server_os":"Linux","password":true,"vac":true,"version":"7757534","steam_id":85568392924469997,"keywords":["cp","nocrits","nodmgspread","uncletopia"],"game_id":440,"stv_port":27016,"stv_name":"Uncletopia | Seattle | 1 | All Maps | STV","players":[{"user_id":88,"name":"Tyler\u0026Fingers","steam_id":76561198085154485,"connected_time":4029000000000,"state":"active","ping":132},{"user_id":105,"name":"gullible goobular","steam_id":76561198028354983,"connected_time":1647000000000,"state":"active","ping":115},{"user_id":78,"name":"NOTagamer!! :D {20BB}","steam_id":76561199058155040,"connected_time":5007000000000,"state":"active","ping":91},{"user_id":94,"name":"Stryder","steam_id":76561199387418697,"connected_time":3111000000000,"state":"active","ping":127},{"user_id":117,"name":"Deltaco","steam_id":76561198094572694,"connected_time":313000000000,"state":"active","ping":169},{"user_id":118,"name":"FakeBot","steam_id":76561197961193303,"connected_time":311000000000,"state":"active","ping":87},{"user_id":120,"name":"ivan (ham mafia) [sandvich gang","steam_id":76561198967850131,"connected_time":198000000000,"state":"active","ping":121},{"user_id":15,"name":"SadFapping","steam_id":76561198076651049,"connected_time":9635000000000,"state":"active","ping":55},{"user_id":108,"name":"roastedappleturnover9935","steam_id":76561197976307152,"connected_time":1617000000000,"state":"active","ping":135},{"user_id":123,"name":"MayKaye","steam_id":76561199016092265,"connected_time":92000000000,"state":"active","ping":92},{"user_id":18,"name":"fox","steam_id":76561198079646701,"connected_time":9543000000000,"state":"active","ping":112},{"user_id":109,"name":"broos","steam_id":76561198061648271,"connected_time":1596000000000,"state":"active","ping":103},{"user_id":20,"name":"Mer Mer","steam_id":76561197967143665,"connected_time":9515000000000,"state":"active","ping":104},{"user_id":22,"name":"HOODEDLAWYER285","steam_id":76561198156496197,"connected_time":9424000000000,"state":"active","ping":100},{"user_id":57,"name":"Dob Bole","steam_id":76561198056367220,"connected_time":6618000000000,"state":"active","ping":74},{"user_id":89,"name":"slack","steam_id":76561198269268086,"connected_time":3951000000000,"state":"active","ping":116},{"user_id":113,"name":"jayeskae","steam_id":76561198144220801,"connected_time":1210000000000,"state":"active","ping":47},{"user_id":124,"name":"damoke44","steam_id":76561198409185643,"connected_time":81000000000,"state":"active","ping":90},{"user_id":99,"name":"the journey of scout 1 month","steam_id":76561198842567021,"connected_time":2864000000000,"state":"active","ping":127},{"user_id":112,"name":"help","steam_id":76561199056338917,"connected_time":1563000000000,"state":"active","ping":126}]},{"server_id":119,"name":"Uncletopia | Seattle | 2 | All Maps","name_short":"sea-2","host":"sea-1.us.uncletopia.com","port":27025,"enabled":true,"region":"us-west","cc":"us","latitude":47.608013,"longitude":-122.33517,"reserved":0,"last_update":"0001-01-01T00:00:00Z","name_a2s":"Uncletopia | Seattle | 2 | All Maps","protocol":17,"map":"pl_swiftwater_final1","folder":"tf","game":"Team Fortress","app_id":440,"player_count":23,"max_players":24,"Bots":0,"server_type":"Dedicated","server_os":"Linux","password":true,"vac":true,"version":"7757534","steam_id":85568392924469998,"keywords":["nocrits","nodmgspread","payload","uncletopia"],"game_id":440,"stv_port":27026,"stv_name":"Uncletopia | Seattle | 2 | All Maps | STV","players":[{"user_id":49,"name":"DIGGY","steam_id":76561198991238982,"connected_time":48000000000,"state":"active","ping":55},{"user_id":21,"name":"strabes","steam_id":76561197961480297,"connected_time":1363000000000,"state":"active","ping":68},{"user_id":10,"name":"This game sucks","steam_id":76561198042007578,"connected_time":2007000000000,"state":"active","ping":85},{"user_id":44,"name":"T     H     E    PinheadLary","steam_id":76561199091466927,"connected_time":398000000000,"state":"active","ping":117},{"user_id":14,"name":"xXcLaImEd__ReApErXx [F2P]","steam_id":76561198067232540,"connected_time":1744000000000,"state":"active","ping":120},{"user_id":13,"name":"jodie.blend","steam_id":76561198140701807,"connected_time":1756000000000,"state":"active","ping":106},{"user_id":17,"name":"UzuNep","steam_id":76561198451679346,"connected_time":1613000000000,"state":"active","ping":108},{"user_id":29,"name":"Esteban Delsin","steam_id":76561198433519639,"connected_time":993000000000,"state":"active","ping":120},{"user_id":40,"name":"The magic doo bus","steam_id":76561198243387974,"connected_time":664000000000,"state":"active","ping":115},{"user_id":30,"name":"Arbiter Soul [Urine Enthusiast]","steam_id":76561198067798973,"connected_time":953000000000,"state":"active","ping":94},{"user_id":50,"name":"Noelle","steam_id":76561199000558677,"connected_time":34000000000,"state":"active","ping":71},{"user_id":45,"name":"your gay lover","steam_id":76561198840429685,"connected_time":384000000000,"state":"active","ping":90},{"user_id":26,"name":"Neowudan","steam_id":76561198136850867,"connected_time":1126000000000,"state":"active","ping":109},{"user_id":32,"name":"Tom","steam_id":76561198070630154,"connected_time":930000000000,"state":"active","ping":83},{"user_id":28,"name":"LloydMann","steam_id":76561198025392778,"connected_time":1057000000000,"state":"active","ping":109},{"user_id":33,"name":"Diarrhea Gaming","steam_id":76561198090589784,"connected_time":897000000000,"state":"active","ping":137},{"user_id":34,"name":"AwesomeDog05","steam_id":76561199148040708,"connected_time":854000000000,"state":"active","ping":78},{"user_id":36,"name":"Floating Peasant","steam_id":76561198000183671,"connected_time":799000000000,"state":"active","ping":67},{"user_id":48,"name":"garfield","steam_id":76561198114119308,"connected_time":286000000000,"state":"active","ping":107},{"user_id":38,"name":"Justy","steam_id":76561198044014069,"connected_time":752000000000,"state":"active","ping":76},{"user_id":39,"name":"kasp","steam_id":76561198263271697,"connected_time":742000000000,"state":"active","ping":90},{"user_id":41,"name":"Wookie","steam_id":76561198019780053,"connected_time":659000000000,"state":"active","ping":177},{"user_id":47,"name":"FlamingManiac","steam_id":76561198361996837,"connected_time":322000000000,"state":"active","ping":127}]},{"server_id":406,"name":"Uncletopia | Seattle | 3 | Stopwatch Beta","name_short":"sea-3","host":"sea-1.us.uncletopia.com","port":27035,"enabled":true,"region":"us-west","cc":"us","latitude":47.608013,"longitude":-122.33517,"reserved":0,"last_update":"0001-01-01T00:00:00Z","name_a2s":"Uncletopia | Seattle | 3 | Stopwatch Beta","protocol":17,"map":"cp_dustbowl","folder":"tf","game":"Team Fortress","app_id":440,"player_count":0,"max_players":24,"Bots":0,"server_type":"Dedicated","server_os":"Linux","password":true,"vac":true,"version":"7757534","steam_id":85568392924515217,"keywords":["cp","nocrits","nodmgspread","uncletopia"],"game_id":440,"stv_port":27036,"stv_name":"Uncletopia | Seattle | 3 | Stopwatch Beta | STV","players":null},{"server_id":17,"name":"Uncletopia | San Francisco | 1 | All Maps","name_short":"sfo-1","host":"sfo-1.us.uncletopia.com","port":27015,"enabled":true,"region":"us-west","cc":"us","latitude":37.77397,"longitude":-122.4313,"reserved":0,"last_update":"0001-01-01T00:00:00Z","name_a2s":"Uncletopia | San Francisco | 1 | All Maps","protocol":17,"map":"pl_barnblitz","folder":"tf","game":"Team Fortress","app_id":440,"player_count":20,"max_players":24,"Bots":0,"server_type":"Dedicated","server_os":"Linux","password":true,"vac":true,"version":"7757534","steam_id":85568392924469999,"keywords":["nocrits","nodmgspread","payload","uncletopia"],"game_id":440,"stv_port":27016,"stv_name":"Uncletopia | San Francisco | 1 | All Maps | STV","players":[{"user_id":59,"name":"Ass Blaster, Disaster Master","steam_id":76561197997774469,"connected_time":2796000000000,"state":"active","ping":46},{"user_id":41,"name":"Vegetable soup","steam_id":76561198164619692,"connected_time":4276000000000,"state":"active","ping":118},{"user_id":96,"name":"Aux","steam_id":76561199091651065,"connected_time":531000000000,"state":"active","ping":46},{"user_id":86,"name":"BluBlurToast","steam_id":76561198180918559,"connected_time":1530000000000,"state":"active","ping":92},{"user_id":7,"name":"Wacks","steam_id":76561198079476100,"connected_time":9933000000000,"state":"active","ping":45},{"user_id":87,"name":"watafak","steam_id":76561198205934511,"connected_time":1480000000000,"state":"active","ping":60},{"user_id":97,"name":"P.I.Staker","steam_id":76561198087096559,"connected_time":499000000000,"state":"active","ping":80},{"user_id":45,"name":"‚òÖLarimore‚òÖ","steam_id":76561198258279528,"connected_time":3799000000000,"state":"active","ping":107},{"user_id":39,"name":"Doctor Bear  ï ‚Ä¢·¥•‚Ä¢ î","steam_id":76561197968103161,"connected_time":4422000000000,"state":"active","ping":99},{"user_id":98,"name":"The Horselords and Animal Gods","steam_id":76561197975094050,"connected_time":463000000000,"state":"active","ping":66},{"user_id":52,"name":"\\m/ Cyfun (she/it)","steam_id":76561197960882221,"connected_time":3329000000000,"state":"active","ping":112},{"user_id":60,"name":"Bony","steam_id":76561199001748822,"connected_time":2794000000000,"state":"active","ping":58},{"user_id":50,"name":"Victor","steam_id":76561198848984975,"connected_time":3539000000000,"state":"active","ping":122},{"user_id":90,"name":"Worst Scenario","steam_id":76561199052130229,"connected_time":1246000000000,"state":"active","ping":110},{"user_id":101,"name":"Daveonimus","steam_id":76561198169240269,"connected_time":262000000000,"state":"active","ping":81},{"user_id":100,"name":"maxdamage42","steam_id":76561198404948944,"connected_time":417000000000,"state":"active","ping":111},{"user_id":95,"name":"User","steam_id":76561198123471222,"connected_time":690000000000,"state":"active","ping":89},{"user_id":84,"name":"\u003ccolor=#BB33DD\u003egamerH_0ST","steam_id":76561198051191857,"connected_time":1609000000000,"state":"active","ping":105},{"user_id":78,"name":"Fanthxm177","steam_id":76561198831301188,"connected_time":1824000000000,"state":"active","ping":97},{"user_id":85,"name":"SLiPpeRyJoe.nosound","steam_id":76561197977206359,"connected_time":1603000000000,"state":"active","ping":124}]},{"server_id":18,"name":"Uncletopia | San Francisco | 2 | All Maps","name_short":"sfo-2","host":"sfo-1.us.uncletopia.com","port":27025,"enabled":true,"region":"us-west","cc":"us","latitude":37.77397,"longitude":-122.4313,"reserved":0,"last_update":"0001-01-01T00:00:00Z","name_a2s":"Uncletopia | San Francisco | 2 | All Maps","protocol":17,"map":"koth_highpass","folder":"tf","game":"Team Fortress","app_id":440,"player_count":0,"max_players":24,"Bots":0,"server_type":"Dedicated","server_os":"Linux","password":true,"vac":true,"version":"7757534","steam_id":85568392924470000,"keywords":["cp","nocrits","nodmgspread","uncletopia"],"game_id":440,"stv_port":27026,"stv_name":"Uncletopia | San Francisco | 2 | All Maps | STV","players":null},{"server_id":19,"name":"Uncletopia | San Francisco | 3 | Stopwatch Beta","name_short":"sfo-3","host":"sfo-1.us.uncletopia.com","port":27035,"enabled":true,"region":"us-west","cc":"us","latitude":37.77397,"longitude":-122.4313,"reserved":0,"last_update":"0001-01-01T00:00:00Z","name_a2s":"Uncletopia | San Francisco | 3 | Stopwatch Beta","protocol":17,"map":"koth_lakeside_final","folder":"tf","game":"Team Fortress","app_id":440,"player_count":0,"max_players":24,"Bots":0,"server_type":"Dedicated","server_os":"Linux","password":true,"vac":true,"version":"7757534","steam_id":85568392924742824,"keywords":["cp","nocrits","nodmgspread","uncletopia"],"game_id":440,"stv_port":27036,"stv_name":"Uncletopia | San Francisco | 3 | Stopwatch Beta | STV","players":null},{"server_id":20,"name":"Uncletopia | San Francisco | 4 | Community","name_short":"sfo-4","host":"sfo-1.us.uncletopia.com","port":27045,"enabled":true,"region":"us-west","cc":"us","latitude":37.77397,"longitude":-122.4313,"reserved":0,"last_update":"0001-01-01T00:00:00Z","name_a2s":"Uncletopia | San Francisco | 4 | Community","protocol":17,"map":"cp_altitude","folder":"tf","game":"Team Fortress","app_id":440,"player_count":0,"max_players":24,"Bots":0,"server_type":"Dedicated","server_os":"Linux","password":true,"vac":true,"version":"7757534","steam_id":85568392924742826,"keywords":["cp","nocrits","nodmgspread","uncletopia"],"game_id":440,"stv_port":27046,"stv_name":"Uncletopia | San Francisco | 4 | Community | STV","players":null},{"server_id":141,"name":"Uncletopia | Sydney | 1 | All Maps","name_short":"syd-1","host":"syd-1.au.uncletopia.com","port":27015,"enabled":true,"region":"au","cc":"au","latitude":-33.865143,"longitude":151.2099,"reserved":0,"last_update":"0001-01-01T00:00:00Z","name_a2s":"Uncletopia | Sydney | 1 | All Maps","protocol":17,"map":"koth_lakeside_final","folder":"tf","game":"Team Fortress","app_id":440,"player_count":0,"max_players":24,"Bots":0,"server_type":"Dedicated","server_os":"Linux","password":true,"vac":true,"version":"7757534","steam_id":85568392924470001,"keywords":["cp","nocrits","nodmgspread","uncletopia"],"game_id":440,"stv_port":27016,"stv_name":"Uncletopia | Sydney | 1 | All Maps | STV","players":null},{"server_id":123,"name":"Uncletopia | Sydney | 2 | All Maps","name_short":"syd-2","host":"syd-1.au.uncletopia.com","port":27025,"enabled":true,"region":"au","cc":"au","latitude":-33.865143,"longitude":151.2099,"reserved":0,"last_update":"0001-01-01T00:00:00Z","name_a2s":"Uncletopia | Sydney | 2 | All Maps","protocol":17,"map":"koth_highpass","folder":"tf","game":"Team Fortress","app_id":440,"player_count":0,"max_players":24,"Bots":0,"server_type":"Dedicated","server_os":"Linux","password":true,"vac":true,"version":"7757534","steam_id":85568392924470002,"keywords":["cp","nocrits","nodmgspread","uncletopia"],"game_id":440,"stv_port":27026,"stv_name":"Uncletopia | Sydney | 2 | All Maps | STV","players":null},{"server_id":395,"name":"Uncletopia | Sydney | 3 | All Maps","name_short":"syd-3","host":"syd-1.au.uncletopia.com","port":27035,"enabled":true,"region":"au","cc":"au","latitude":-33.865143,"longitude":151.2099,"reserved":0,"last_update":"0001-01-01T00:00:00Z","name_a2s":"Uncletopia | Sydney | 3 | All Maps","protocol":17,"map":"koth_highpass","folder":"tf","game":"Team Fortress","app_id":440,"player_count":0,"max_players":24,"Bots":0,"server_type":"Dedicated","server_os":"Linux","password":true,"vac":true,"version":"7757534","steam_id":85568392925194467,"keywords":["cp","nocrits","nodmgspread","uncletopia"],"game_id":440,"stv_port":27036,"stv_name":"Uncletopia | Sydney | 3 | All Maps | STV","players":null},{"server_id":396,"name":"Uncletopia | Sydney | 4 | All Maps","name_short":"syd-4","host":"syd-1.au.uncletopia.com","port":27045,"enabled":true,"region":"au","cc":"au","latitude":-33.865143,"longitude":151.2099,"reserved":0,"last_update":"0001-01-01T00:00:00Z","name_a2s":"Uncletopia | Sydney | 4 | All Maps","protocol":17,"map":"koth_viaduct","folder":"tf","game":"Team Fortress","app_id":440,"player_count":0,"max_players":24,"Bots":0,"server_type":"Dedicated","server_os":"Linux","password":true,"vac":true,"version":"7757534","steam_id":85568392925397958,"keywords":["cp","nocrits","nodmgspread","uncletopia"],"game_id":440,"stv_port":27046,"stv_name":"Uncletopia | Sydney | 4 | All Maps | STV","players":null},{"server_id":58,"name":"Uncletopia | Sydney | 5 | Stopwatch Beta","name_short":"syd-5","host":"syd-1.au.uncletopia.com","port":27055,"enabled":true,"region":"au","cc":"au","latitude":-33.865143,"longitude":151.2099,"reserved":0,"last_update":"0001-01-01T00:00:00Z","name_a2s":"Uncletopia | Sydney | 5 | Stopwatch Beta","protocol":17,"map":"pl_borneo","folder":"tf","game":"Team Fortress","app_id":440,"player_count":0,"max_players":24,"Bots":0,"server_type":"Dedicated","server_os":"Linux","password":true,"vac":true,"version":"7757534","steam_id":85568392925397959,"keywords":["nocrits","nodmgspread","payload","uncletopia"],"game_id":440,"stv_port":27056,"stv_name":"Uncletopia | Sydney | 5 | Stopwatch Beta | STV","players":null},{"server_id":59,"name":"Uncletopia | Sydney | 6 | Community","name_short":"syd-6","host":"syd-1.au.uncletopia.com","port":27065,"enabled":true,"region":"au","cc":"au","latitude":-33.865143,"longitude":151.2099,"reserved":0,"last_update":"0001-01-01T00:00:00Z","name_a2s":"Uncletopia | Sydney | 6 | Community","protocol":17,"map":"workshop/cp_glacier_rc6.ugc2905735376","folder":"tf","game":"Team Fortress","app_id":440,"player_count":0,"max_players":24,"Bots":0,"server_type":"Dedicated","server_os":"Linux","password":true,"vac":true,"version":"7757534","steam_id":85568392925397960,"keywords":["cp","nocrits","nodmgspread","uncletopia"],"game_id":440,"stv_port":27066,"stv_name":"Uncletopia | Sydney | 6 | Community | STV","players":null},{"server_id":49,"name":"Uncletopia | Warsaw | 1 | All Maps","name_short":"waw-1","host":"waw-1.pl.uncletopia.com","port":27015,"enabled":true,"region":"eu","cc":"pl","latitude":52.2297,"longitude":21.017532,"reserved":0,"last_update":"0001-01-01T00:00:00Z","name_a2s":"","protocol":0,"map":"","folder":"","game":"","app_id":0,"player_count":0,"max_players":0,"Bots":0,"server_type":"","server_os":"","password":false,"vac":false,"version":"","steam_id":0,"keywords":null,"game_id":0,"stv_port":0,"stv_name":"","players":null},{"server_id":50,"name":"Uncletopia | Warsaw | 2 | All Maps","name_short":"waw-2","host":"waw-1.pl.uncletopia.com","port":27025,"enabled":true,"region":"eu","cc":"pl","latitude":52.2297,"longitude":21.017532,"reserved":0,"last_update":"0001-01-01T00:00:00Z","name_a2s":"Uncletopia | Warsaw | 2 | All Maps","protocol":17,"map":"koth_viaduct","folder":"tf","game":"Team Fortress","app_id":440,"player_count":0,"max_players":24,"Bots":0,"server_type":"Dedicated","server_os":"Linux","password":true,"vac":true,"version":"7757534","steam_id":85568392925397851,"keywords":["cp","nocrits","nodmgspread","uncletopia"],"game_id":440,"stv_port":27026,"stv_name":"Uncletopia | Warsaw | 2 | All Maps | STV","players":null},{"server_id":51,"name":"Uncletopia | Warsaw | 3 | All Maps","name_short":"waw-3","host":"waw-1.pl.uncletopia.com","port":27035,"enabled":true,"region":"eu","cc":"pl","latitude":52.2297,"longitude":21.017532,"reserved":0,"last_update":"0001-01-01T00:00:00Z","name_a2s":"Uncletopia | Warsaw | 3 | All Maps","protocol":17,"map":"pl_swiftwater_final1","folder":"tf","game":"Team Fortress","app_id":440,"player_count":24,"max_players":24,"Bots":0,"server_type":"Dedicated","server_os":"Linux","password":true,"vac":true,"version":"7757534","steam_id":85568392925397852,"keywords":["nocrits","nodmgspread","payload","uncletopia"],"game_id":440,"stv_port":27036,"stv_name":"Uncletopia | Warsaw | 3 | All Maps | STV","players":[{"user_id":49,"name":"Rahu 'Siebren' Godless","steam_id":76561198276259175,"connected_time":2565000000000,"state":"active","ping":104},{"user_id":81,"name":"n-ski","steam_id":76561198020550849,"connected_time":422000000000,"state":"active","ping":90},{"user_id":75,"name":"germinator","steam_id":76561199387893648,"connected_time":1153000000000,"state":"active","ping":121},{"user_id":77,"name":"Anri Okita's Massive Milkers","steam_id":76561199186352720,"connected_time":937000000000,"state":"active","ping":85},{"user_id":64,"name":"Hamtastic","steam_id":76561198879769410,"connected_time":1458000000000,"state":"active","ping":57},{"user_id":12,"name":"Loading","steam_id":76561198419201273,"connected_time":5907000000000,"state":"active","ping":105},{"user_id":72,"name":"please do not die","steam_id":76561198112125142,"connected_time":1280000000000,"state":"active","ping":36},{"user_id":60,"name":"Dispenser (Lopata)","steam_id":76561198820264239,"connected_time":1645000000000,"state":"active","ping":79},{"user_id":41,"name":"After8","steam_id":76561198090750865,"connected_time":2971000000000,"state":"active","ping":73},{"user_id":82,"name":"Dunya","steam_id":76561198041371314,"connected_time":415000000000,"state":"active","ping":104},{"user_id":61,"name":"Paul B√§umer","steam_id":76561198308302932,"connected_time":1623000000000,"state":"active","ping":85},{"user_id":24,"name":"Ixsus\u003c3","steam_id":76561198094756869,"connected_time":3918000000000,"state":"active","ping":74},{"user_id":76,"name":"C.I.A. agent","steam_id":76561199402981121,"connected_time":1034000000000,"state":"active","ping":83},{"user_id":80,"name":"LOBZIK","steam_id":76561198114830120,"connected_time":723000000000,"state":"active","ping":46},{"user_id":27,"name":"zvekan","steam_id":76561198381101196,"connected_time":3672000000000,"state":"active","ping":84},{"user_id":83,"name":"ele","steam_id":76561198194876459,"connected_time":352000000000,"state":"active","ping":83},{"user_id":74,"name":"Michael","steam_id":76561198003146906,"connected_time":1198000000000,"state":"active","ping":82},{"user_id":50,"name":"cock hater (ball enjoyer)","steam_id":76561198060752722,"connected_time":2450000000000,"state":"active","ping":81},{"user_id":85,"name":"Kildon","steam_id":76561198134661558,"connected_time":209000000000,"state":"active","ping":121},{"user_id":78,"name":"Falamp‚Ñ¢","steam_id":76561198300127856,"connected_time":870000000000,"state":"active","ping":61},{"user_id":71,"name":":)","steam_id":76561198039964082,"connected_time":1298000000000,"state":"active","ping":65},{"user_id":79,"name":"bunzlau","steam_id":76561198329485346,"connected_time":814000000000,"state":"active","ping":59},{"user_id":53,"name":"0xDEADBEEF","steam_id":76561199075416111,"connected_time":2266000000000,"state":"active","ping":107},{"user_id":47,"name":"Utkunator","steam_id":76561198967463151,"connected_time":2726000000000,"state":"active","ping":105}]},{"server_id":52,"name":"Uncletopia | Warsaw | 4 | All Maps","name_short":"waw-4","host":"waw-1.pl.uncletopia.com","port":27045,"enabled":true,"region":"eu","cc":"pl","latitude":52.2297,"longitude":21.017532,"reserved":0,"last_update":"0001-01-01T00:00:00Z","name_a2s":"Uncletopia | Warsaw | 4 | All Maps","protocol":17,"map":"koth_lakeside_final","folder":"tf","game":"Team Fortress","app_id":440,"player_count":0,"max_players":24,"Bots":0,"server_type":"Dedicated","server_os":"Linux","password":true,"vac":true,"version":"7757534","steam_id":85568392925397853,"keywords":["cp","nocrits","nodmgspread","uncletopia"],"game_id":440,"stv_port":27046,"stv_name":"Uncletopia | Warsaw | 4 | All Maps | STV","players":null},{"server_id":53,"name":"Uncletopia | Warsaw | 5 | Stopwatch Beta","name_short":"waw-5","host":"waw-1.pl.uncletopia.com","port":27055,"enabled":true,"region":"eu","cc":"pl","latitude":52.2297,"longitude":21.017532,"reserved":0,"last_update":"0001-01-01T00:00:00Z","name_a2s":"Uncletopia | Warsaw | 5 | Stopwatch Beta","protocol":17,"map":"pl_borneo","folder":"tf","game":"Team Fortress","app_id":440,"player_count":0,"max_players":24,"Bots":0,"server_type":"Dedicated","server_os":"Linux","password":true,"vac":true,"version":"7757534","steam_id":85568392925397854,"keywords":["nocrits","nodmgspread","payload","uncletopia"],"game_id":440,"stv_port":27056,"stv_name":"Uncletopia | Warsaw | 5 | Stopwatch Beta | STV","players":null},{"server_id":54,"name":"Uncletopia | Warsaw | 6 | Community","name_short":"waw-6","host":"waw-1.pl.uncletopia.com","port":27065,"enabled":true,"region":"eu","cc":"pl","latitude":52.2297,"longitude":21.017532,"reserved":0,"last_update":"0001-01-01T00:00:00Z","name_a2s":"Uncletopia | Warsaw | 6 | Community","protocol":17,"map":"koth_lakeside_final","folder":"tf","game":"Team Fortress","app_id":440,"player_count":0,"max_players":24,"Bots":0,"server_type":"Dedicated","server_os":"Linux","password":true,"vac":true,"version":"7757534","steam_id":85568392925397856,"keywords":["cp","nocrits","nodmgspread","uncletopia"],"game_id":440,"stv_port":27066,"stv_name":"Uncletopia | Warsaw | 6 | Community | STV","players":null}]}