{"status":true,"message":"","result":[{"server_id":9,"name":"Uncletopia | Atlanta | 1 | All Maps","name_short":"atl-1","host":"atl-1.us.uncletopia.com","port":27015,"enabled":true,"region":"us-east","cc":"us","latitude":33.753746,"longitude":-84.38633,"reserved":0,"last_update":"0001-01-01T00:00:00Z","name_a2s":"Uncletopia | Atlanta | 1 | All Maps","protocol":17,"map":"cp_process_final","folder":"tf","game":"Team Fortress","app_id":440,"player_count":24,"max_players":24,"Bots":0,"server_type":"Dedicated","server_os":"Linux","password":true,"vac":true,"version":"7742253","steam_id":85568392924469982,"keywords":["cp","nocrits","nodmgspread","uncletopia"],"game_id":440,"stv_port":27016,"stv_name":"Uncletopia | Atlanta | 1 | All Maps | STV","players":[{"user_id":797,"name":"ATL1 | Rat","steam_id":76561198137925582,"connected_time":2421000000000,"state":"active","ping":61},{"user_id":818,"name":"ATL1 | Crystron","steam_id":76561198880437428,"connected_time":988000000000,"state":"active","ping":82},{"user_id":800,"name":"potato pat lft","steam_id":76561198025489194,"connected_time":2276000000000,"state":"active","ping":66},{"user_id":823,"name":"DuckMann","steam_id":76561198197058638,"connected_time":639000000000,"state":"active","ping":60},{"user_id":822,"name":"Florentine","steam_id":76561198107230148,"connected_time":653000000000,"state":"active","ping":66},{"user_id":775,"name":"Inky (Coolest)","steam_id":76561198968337022,"connected_time":3419000000000,"state":"active","ping":55},{"user_id":819,"name":"Mage","steam_id":76561198285026879,"connected_time":961000000000,"state":"active","ping":74},{"user_id":809,"name":"SethMan","steam_id":76561198004402532,"connected_time":1787000000000,"state":"active","ping":71},{"user_id":824,"name":"ATL1 | vid_","steam_id":76561198065159053,"connected_time":606000000000,"state":"active","ping":44},{"user_id":821,"name":"Joxaikojo","steam_id":76561199124537858,"connected_time":663000000000,"state":"active","ping":125},{"user_id":828,"name":"Mr. Micheal Rodent","steam_id":76561198825131687,"connected_time":549000000000,"state":"active","ping":90},{"user_id":762,"name":"Brass beast heavy","steam_id":76561198274197623,"connected_time":4921000000000,"state":"active","ping":146},{"user_id":820,"name":"Drunk on Sodium(real)","steam_id":76561199016285746,"connected_time":858000000000,"state":"active","ping":75},{"user_id":825,"name":"MoopStoop","steam_id":76561198140936620,"connected_time":603000000000,"state":"active","ping":61},{"user_id":803,"name":"yomokha","steam_id":76561198063175935,"connected_time":2151000000000,"state":"active","ping":60},{"user_id":777,"name":"ATL1 | SparkStorm","steam_id":76561198095817025,"connected_time":3412000000000,"state":"active","ping":33},{"user_id":826,"name":"KritzKow","steam_id":76561198086164003,"connected_time":601000000000,"state":"active","ping":64},{"user_id":827,"name":"earthbound393","steam_id":76561199444276547,"connected_time":581000000000,"state":"active","ping":143},{"user_id":829,"name":"disgusting skinny nerd 30kg","steam_id":76561197962607364,"connected_time":402000000000,"state":"active","ping":54},{"user_id":810,"name":"StarLy","steam_id":76561198174428289,"connected_time":1707000000000,"state":"active","ping":124},{"user_id":806,"name":"truundrscr","steam_id":76561198213525809,"connected_time":2113000000000,"state":"active","ping":124},{"user_id":807,"name":"Miner2495","steam_id":76561198445904523,"connected_time":2112000000000,"state":"active","ping":82},{"user_id":798,"name":"mos","steam_id":76561198146126212,"connected_time":2405000000000,"state":"active","ping":63},{"user_id":793,"name":"Boop","steam_id":76561198376703875,"connected_time":2826000000000,"state":"active","ping":76}]},{"server_id":400,"name":"Uncletopia | Atlanta | 3 | Stopwatch Beta","name_short":"atl-3","host":"atl-1.us.uncletopia.com","port":27035,"enabled":true,"region":"us-east","cc":"us","latitude":33.753746,"longitude":-84.38633,"reserved":0,"last_update":"0001-01-01T00:00:00Z","name_a2s":"Uncletopia | Atlanta | 3 | Stopwatch Beta","protocol":17,"map":"pl_borneo","folder":"tf","game":"Team Fortress","app_id":440,"player_count":0,"max_players":24,"Bots":0,"server_type":"Dedicated","server_os":"Linux","password":true,"vac":true,"version":"7742253","steam_id":85568392924515187,"keywords":["nocrits","nodmgspread","payload","uncletopia"],"game_id":440,"stv_port":27036,"stv_name":"Uncletopia | Atlanta | 3 | Stopwatch Beta | STV","players":null},{"server_id":401,"name":"Uncletopia | Atlanta | 4 | No Payload","name_short":"atl-4","host":"atl-1.us.uncletopia.com","port":27045,"enabled":true,"region":"us-east","cc":"us","latitude":33.753746,"longitude":-84.38633,"reserved":0,"last_update":"0001-01-01T00:00:00Z","name_a2s":"Uncletopia | Atlanta | 4 | No Payload","protocol":17,"map":"pl_pier","folder":"tf","game":"Team Fortress","app_id":440,"player_count":0,"max_players":24,"Bots":0,"server_type":"Dedicated","server_os":"Linux","password":true,"vac":true,"version":"7723704","steam_id":85568392924515188,"keywords":["nocrits","nodmgspread","payload","uncletopia"],"game_id":440,"stv_port":27046,"stv_name":"Uncletopia | Atlanta | 4 | No Payload | STV","players":null},{"server_id":2,"name":"Uncletopia | Chicago | 1 | All Maps","name_short":"chi-1","host":"chi-1.us.uncletopia.com","port":27015,"enabled":true,"region":"us-central","cc":"us","latitude":41.881832,"longitude":-87.62318,"reserved":0,"last_update":"0001-01-01T00:00:00Z","name_a2s":"Uncletopia | Chicago | 1 | All Maps","protocol":17,"map":"pl_borneo","folder":"tf","game":"Team Fortress","app_id":440,"player_count":24,"max_players":24,"Bots":0,"server_type":"Dedicated","server_os":"Linux","password":true,"vac":true,"version":"7742253","steam_id":85568392924469984,"keywords":["nocrits","nodmgspread","payload","uncletopia"],"game_id":440,"stv_port":27016,"stv_name":"Uncletopia | Chicago | 1 | All Maps | STV","players":[{"user_id":531,"name":"BooshBuster","steam_id":76561198237192090,"connected_time":4696000000000,"state":"active","ping":48},{"user_id":572,"name":"About That Gift I Owed Ya","steam_id":76561198071506287,"connected_time":1839000000000,"state":"active","ping":98},{"user_id":588,"name":"riley","steam_id":76561198133142520,"connected_time":199000000000,"state":"active","ping":77},{"user_id":557,"name":"Sarbanes-Oxley","steam_id":76561197975898479,"connected_time":3178000000000,"state":"active","ping":78},{"user_id":595,"name":"Madrox Who?","steam_id":76561197988859134,"connected_time":87000000000,"state":"active","ping":73},{"user_id":590,"name":"plutonium isotope","steam_id":76561198319442494,"connected_time":184000000000,"state":"active","ping":111},{"user_id":567,"name":"Gabinator32","steam_id":76561198872467183,"connected_time":2281000000000,"state":"active","ping":48},{"user_id":527,"name":"Howster002","steam_id":76561198323965902,"connected_time":4812000000000,"state":"active","ping":94},{"user_id":593,"name":"Snoogs","steam_id":76561198444880931,"connected_time":164000000000,"state":"active","ping":66},{"user_id":560,"name":"pworple","steam_id":76561199189877104,"connected_time":3050000000000,"state":"active","ping":49},{"user_id":591,"name":"Roz257","steam_id":76561198842844532,"connected_time":179000000000,"state":"active","ping":61},{"user_id":575,"name":"SsaucySam","steam_id":76561198362539268,"connected_time":1356000000000,"state":"active","ping":83},{"user_id":574,"name":"StonedGiant","steam_id":76561197984386932,"connected_time":1457000000000,"state":"active","ping":50},{"user_id":581,"name":"Heisenberg","steam_id":76561198167411287,"connected_time":1099000000000,"state":"active","ping":54},{"user_id":584,"name":"Space⭐Taffy","steam_id":76561198002271720,"connected_time":784000000000,"state":"active","ping":66},{"user_id":586,"name":"tumoronmynuts","steam_id":76561198372676773,"connected_time":281000000000,"state":"active","ping":77},{"user_id":592,"name":"Ann Ziegler (No Sound)","steam_id":76561198052249401,"connected_time":171000000000,"state":"active","ping":52},{"user_id":548,"name":"Ace Chromatica","steam_id":76561198042211131,"connected_time":3836000000000,"state":"active","ping":59},{"user_id":568,"name":"IIP","steam_id":76561198286102406,"connected_time":2253000000000,"state":"active","ping":70},{"user_id":582,"name":"Trolley","steam_id":76561198106695948,"connected_time":917000000000,"state":"active","ping":93},{"user_id":543,"name":"yvngbvshvvookie","steam_id":76561198054354674,"connected_time":3911000000000,"state":"active","ping":69},{"user_id":587,"name":"n8thegr83008","steam_id":76561198214814260,"connected_time":247000000000,"state":"active","ping":80},{"user_id":594,"name":"TheOtherBrush","steam_id":76561199048222977,"connected_time":152000000000,"state":"active","ping":104},{"user_id":571,"name":"CoconutRice","steam_id":76561198114909164,"connected_time":1965000000000,"state":"active","ping":54}]},{"server_id":106,"name":"Uncletopia | Chicago | 2 | All Maps","name_short":"chi-2","host":"chi-1.us.uncletopia.com","port":27025,"enabled":true,"region":"us-central","cc":"us","latitude":41.881832,"longitude":-87.62318,"reserved":0,"last_update":"0001-01-01T00:00:00Z","name_a2s":"Uncletopia | Chicago | 2 | All Maps","protocol":17,"map":"pl_pier","folder":"tf","game":"Team Fortress","app_id":440,"player_count":24,"max_players":24,"Bots":0,"server_type":"Dedicated","server_os":"Linux","password":true,"vac":true,"version":"7742253","steam_id":85568392924469985,"keywords":["nocrits","nodmgspread","payload","uncletopia"],"game_id":440,"stv_port":27026,"stv_name":"Uncletopia | Chicago | 2 | All Maps | STV","players":[{"user_id":345,"name":"Myro","steam_id":76561198030064216,"connected_time":449000000000,"state":"active","ping":74},{"user_id":329,"name":"KaleidoscopeOk7981","steam_id":76561198110449520,"connected_time":2265000000000,"state":"active","ping":87},{"user_id":348,"name":"Rod Farva #sex","steam_id":76561198114603745,"connected_time":414000000000,"state":"active","ping":91},{"user_id":356,"name":"Luma1607","steam_id":76561199079506354,"connected_time":231000000000,"state":"active","ping":96},{"user_id":349,"name":"zeromyth","steam_id":76561198879719236,"connected_time":395000000000,"state":"active","ping":52},{"user_id":310,"name":"honja","steam_id":76561197999343534,"connected_time":3466000000000,"state":"active","ping":75},{"user_id":324,"name":"Dug","steam_id":76561198017691029,"connected_time":2291000000000,"state":"active","ping":57},{"user_id":335,"name":"Vibey","steam_id":76561198342873474,"connected_time":1592000000000,"state":"active","ping":78},{"user_id":358,"name":"ooBah!","steam_id":76561198133684216,"connected_time":142000000000,"state":"active","ping":60},{"user_id":341,"name":"The Witchfinder General","steam_id":76561199113662942,"connected_time":594000000000,"state":"active","ping":101},{"user_id":344,"name":"wolf_71","steam_id":76561198963570945,"connected_time":541000000000,"state":"active","ping":72},{"user_id":320,"name":"RaddahRaddah","steam_id":76561198194462829,"connected_time":2682000000000,"state":"active","ping":55},{"user_id":350,"name":"2EggsScrambled","steam_id":76561198052364159,"connected_time":375000000000,"state":"active","ping":103},{"user_id":334,"name":"Pancreas Enjoyer","steam_id":76561199438598904,"connected_time":1659000000000,"state":"active","ping":115},{"user_id":319,"name":"Marlboro Menthol 100s","steam_id":76561198263631055,"connected_time":2815000000000,"state":"active","ping":65},{"user_id":339,"name":"Dirtbike rider","steam_id":76561198030457066,"connected_time":666000000000,"state":"active","ping":91},{"user_id":317,"name":"totally not a pile of beans","steam_id":76561198119851931,"connected_time":3058000000000,"state":"active","ping":76},{"user_id":351,"name":"Levont (You Tired?)","steam_id":76561198255454993,"connected_time":371000000000,"state":"active","ping":60},{"user_id":308,"name":"BernardBull","steam_id":76561198036138813,"connected_time":3900000000000,"state":"active","ping":77},{"user_id":352,"name":"StarWither","steam_id":76561198383264295,"connected_time":352000000000,"state":"active","ping":104},{"user_id":338,"name":"FireQuiz","steam_id":76561198107357249,"connected_time":1090000000000,"state":"active","ping":108},{"user_id":354,"name":"Wfighter","steam_id":76561198119105947,"connected_time":276000000000,"state":"active","ping":104},{"user_id":357,"name":"nipplefisher","steam_id":76561199398064035,"connected_time":189000000000,"state":"active","ping":69}]},{"server_id":402,"name":"Uncletopia | Chicago | 3 | All Maps","name_short":"chi-3","host":"chi-1.us.uncletopia.com","port":27035,"enabled":true,"region":"us-central","cc":"us","latitude":41.881832,"longitude":-87.62318,"reserved":0,"last_update":"0001-01-01T00:00:00Z","name_a2s":"Uncletopia | Chicago | 3 | All Maps","protocol":17,"map":"pl_frontier_final","folder":"tf","game":"Team Fortress","app_id":440,"player_count":24,"max_players":24,"Bots":0,"server_type":"Dedicated","server_os":"Linux","password":true,"vac":true,"version":"7742253","steam_id":85568392924515191,"keywords":["nocrits","nodmgspread","payload","uncletopia"],"game_id":440,"stv_port":27036,"stv_name":"Uncletopia | Chicago | 3 | All Maps | STV","players":[{"user_id":933,"name":"ghostedghost","steam_id":76561198111410905,"connected_time":3007000000000,"state":"active","ping":98},{"user_id":913,"name":"DeadErebus","steam_id":76561198286117045,"connected_time":4794000000000,"state":"active","ping":34},{"user_id":822,"name":"peachy","steam_id":76561198026664629,"connected_time":10963000000000,"state":"active","ping":58},{"user_id":949,"name":"BustedRake","steam_id":76561198130489976,"connected_time":1903000000000,"state":"active","ping":62},{"user_id":924,"name":"SpyShark","steam_id":76561198064973839,"connected_time":3791000000000,"state":"active","ping":79},{"user_id":915,"name":"i will unheal your scars","steam_id":76561198067994868,"connected_time":4770000000000,"state":"active","ping":62},{"user_id":939,"name":"SliFox115","steam_id":76561198006657143,"connected_time":2759000000000,"state":"active","ping":72},{"user_id":945,"name":"DarcoYouKnow","steam_id":76561198148885233,"connected_time":2477000000000,"state":"active","ping":71},{"user_id":942,"name":"FlakkerSaber","steam_id":76561198103503066,"connected_time":2611000000000,"state":"active","ping":91},{"user_id":958,"name":"ArnoldGaming","steam_id":76561198040140247,"connected_time":535000000000,"state":"active","ping":99},{"user_id":965,"name":"Zachary","steam_id":76561198218481141,"connected_time":30000000000,"state":"active","ping":138},{"user_id":947,"name":"Butters495","steam_id":76561197998689042,"connected_time":2058000000000,"state":"active","ping":69},{"user_id":922,"name":"Medic","steam_id":76561198067869016,"connected_time":4409000000000,"state":"active","ping":45},{"user_id":919,"name":"Raniel Dicciardo","steam_id":76561198053859538,"connected_time":4570000000000,"state":"active","ping":58},{"user_id":849,"name":"miles","steam_id":76561199029019040,"connected_time":9722000000000,"state":"active","ping":81},{"user_id":943,"name":"Eins","steam_id":76561199030343810,"connected_time":2593000000000,"state":"active","ping":54},{"user_id":929,"name":"amazing","steam_id":76561198386233160,"connected_time":3618000000000,"state":"active","ping":95},{"user_id":963,"name":"turnip","steam_id":76561197999375941,"connected_time":295000000000,"state":"active","ping":76},{"user_id":954,"name":"jimmie","steam_id":76561198042583389,"connected_time":1263000000000,"state":"active","ping":66},{"user_id":959,"name":"Silverkeys","steam_id":76561197986012496,"connected_time":517000000000,"state":"active","ping":77},{"user_id":946,"name":"Dark Horse","steam_id":76561198121786844,"connected_time":2080000000000,"state":"active","ping":92},{"user_id":964,"name":"CrazyKermitRubes","steam_id":76561198009065204,"connected_time":121000000000,"state":"active","ping":79},{"user_id":962,"name":"Moe the lawn \u003c3","steam_id":76561198195620945,"connected_time":444000000000,"state":"active","ping":63},{"user_id":931,"name":"Weerk","steam_id":76561199209543551,"connected_time":3370000000000,"state":"active","ping":78}]},{"server_id":403,"name":"Uncletopia | Chicago | 4 | All Maps","name_short":"chi-4","host":"chi-1.us.uncletopia.com","port":27045,"enabled":true,"region":"us-central","cc":"us","latitude":41.881832,"longitude":-87.62318,"reserved":0,"last_update":"0001-01-01T00:00:00Z","name_a2s":"Uncletopia | Chicago | 4 | All Maps","protocol":17,"map":"pl_pier","folder":"tf","game":"Team Fortress","app_id":440,"player_count":24,"max_players":24,"Bots":0,"server_type":"Dedicated","server_os":"Linux","password":true,"vac":true,"version":"7742253","steam_id":85568392924515193,"keywords":["nocrits","nodmgspread","payload","uncletopia"],"game_id":440,"stv_port":27046,"stv_name":"Uncletopia | Chicago | 4 | All Maps | STV","players":[{"user_id":389,"name":"Farseer Ulwithy","steam_id":76561197965179245,"connected_time":636000000000,"state":"active","ping":75},{"user_id":346,"name":"java","steam_id":76561198030276792,"connected_time":3368000000000,"state":"active","ping":67},{"user_id":368,"name":"King","steam_id":76561198010019214,"connected_time":1190000000000,"state":"active","ping":46},{"user_id":370,"name":"MilkMan","steam_id":76561199129965359,"connected_time":1188000000000,"state":"active","ping":89},{"user_id":380,"name":"leumas","steam_id":76561198240408540,"connected_time":802000000000,"state":"active","ping":76},{"user_id":397,"name":"Guardian","steam_id":76561199209402234,"connected_time":156000000000,"state":"active","ping":93},{"user_id":376,"name":"The Beast","steam_id":76561198273512996,"connected_time":1036000000000,"state":"active","ping":81},{"user_id":366,"name":"jim","steam_id":76561198134905085,"connected_time":1448000000000,"state":"active","ping":150},{"user_id":391,"name":"beats","steam_id":76561199245717718,"connected_time":531000000000,"state":"active","ping":56},{"user_id":371,"name":"Artic_Ryuu","steam_id":76561198182194918,"connected_time":1183000000000,"state":"active","ping":100},{"user_id":393,"name":"The Collective","steam_id":76561198170423483,"connected_time":265000000000,"state":"active","ping":70},{"user_id":382,"name":"king of bogers","steam_id":76561198045731295,"connected_time":721000000000,"state":"active","ping":70},{"user_id":395,"name":"MeatShield 2000","steam_id":76561199375192850,"connected_time":246000000000,"state":"active","ping":81},{"user_id":394,"name":"Punished Jඞff #NeverSimpAgain","steam_id":76561198304252584,"connected_time":265000000000,"state":"active","ping":95},{"user_id":396,"name":"canadian birds","steam_id":76561198059466588,"connected_time":246000000000,"state":"active","ping":70},{"user_id":364,"name":"sithreis","steam_id":76561198000564263,"connected_time":1632000000000,"state":"active","ping":64},{"user_id":385,"name":"esog","steam_id":76561198250069226,"connected_time":701000000000,"state":"active","ping":72},{"user_id":355,"name":"AlecTheNefarious","steam_id":76561198035291230,"connected_time":2323000000000,"state":"active","ping":61},{"user_id":386,"name":"kametro4","steam_id":76561198835430429,"connected_time":687000000000,"state":"active","ping":87},{"user_id":374,"name":"howtobepker","steam_id":76561198115053865,"connected_time":1163000000000,"state":"active","ping":80},{"user_id":341,"name":"The Beast Within","steam_id":76561198298416058,"connected_time":3854000000000,"state":"active","ping":68},{"user_id":375,"name":"Herr Müller","steam_id":76561198064876829,"connected_time":1120000000000,"state":"active","ping":89},{"user_id":388,"name":"Psych03","steam_id":76561198061753667,"connected_time":674000000000,"state":"active","ping":105},{"user_id":342,"name":"YoshaBoss","steam_id":76561198449656454,"connected_time":3737000000000,"state":"active","ping":71}]},{"server_id":36,"name":"Uncletopia | Chicago | 5 | All Maps","name_short":"chi-5","host":"chi-2.us.uncletopia.com","port":27015,"enabled":true,"region":"us-central","cc":"us","latitude":41.881832,"longitude":-87.62318,"reserved":0,"last_update":"0001-01-01T00:00:00Z","name_a2s":"Uncletopia | Chicago | 5 | All Maps","protocol":17,"map":"koth_cascade","folder":"tf","game":"Team Fortress","app_id":440,"player_count":22,"max_players":24,"Bots":0,"server_type":"Dedicated","server_os":"Linux","password":true,"vac":true,"version":"7742253","steam_id":85568392924866362,"keywords":["cp","nocrits","nodmgspread","uncletopia"],"game_id":440,"stv_port":27016,"stv_name":"Uncletopia | Chicago | 5 | All Maps | STV","players":[{"user_id":86,"name":"Crabbymic","steam_id":76561197979418745,"connected_time":6210000000000,"state":"active","ping":63},{"user_id":128,"name":"Queefaholic™","steam_id":76561198201698086,"connected_time":2682000000000,"state":"active","ping":100},{"user_id":127,"name":"Gray","steam_id":76561198275796773,"connected_time":2697000000000,"state":"active","ping":97},{"user_id":159,"name":"StarB","steam_id":76561198149605368,"connected_time":1321000000000,"state":"active","ping":82},{"user_id":97,"name":"atserc","steam_id":76561197997570349,"connected_time":4738000000000,"state":"active","ping":90},{"user_id":141,"name":"joethefool","steam_id":76561199015436319,"connected_time":2041000000000,"state":"active","ping":76},{"user_id":158,"name":"gtec229","steam_id":76561198026589960,"connected_time":1365000000000,"state":"active","ping":56},{"user_id":154,"name":"VerSaKa","steam_id":76561198052392540,"connected_time":1633000000000,"state":"active","ping":81},{"user_id":160,"name":"Turtle","steam_id":76561198262110064,"connected_time":1317000000000,"state":"active","ping":68},{"user_id":144,"name":"faxxy","steam_id":76561198079621240,"connected_time":1890000000000,"state":"active","ping":45},{"user_id":167,"name":"Mancer","steam_id":76561198002825637,"connected_time":496000000000,"state":"active","ping":93},{"user_id":147,"name":"ItsRoy","steam_id":76561198119525485,"connected_time":1717000000000,"state":"active","ping":63},{"user_id":168,"name":"Totes Adorbs!","steam_id":76561197994655618,"connected_time":488000000000,"state":"active","ping":72},{"user_id":169,"name":"Pyromanncer TF","steam_id":76561198018508494,"connected_time":487000000000,"state":"active","ping":81},{"user_id":85,"name":"Ford Truck Gaming","steam_id":76561199042674833,"connected_time":6224000000000,"state":"active","ping":76},{"user_id":149,"name":"Mr.Poopy Pants","steam_id":76561199037703635,"connected_time":1714000000000,"state":"active","ping":79},{"user_id":162,"name":"Waffle Wannabe","steam_id":76561198064510650,"connected_time":1210000000000,"state":"active","ping":62},{"user_id":151,"name":"RickDaglessMD","steam_id":76561197985875169,"connected_time":1682000000000,"state":"active","ping":121},{"user_id":63,"name":"Bringer of Gibbs","steam_id":76561198035700041,"connected_time":7846000000000,"state":"active","ping":99},{"user_id":171,"name":"a table","steam_id":76561198158461279,"connected_time":443000000000,"state":"active","ping":69},{"user_id":170,"name":"Jinx","steam_id":76561198010088266,"connected_time":478000000000,"state":"active","ping":96},{"user_id":153,"name":"Mystic Knight","steam_id":76561198042035621,"connected_time":1659000000000,"state":"active","ping":80}]},{"server_id":37,"name":"Uncletopia | Chicago | 6 | All Maps","name_short":"chi-6","host":"chi-2.us.uncletopia.com","port":27025,"enabled":true,"region":"us-central","cc":"us","latitude":41.881832,"longitude":-87.62318,"reserved":0,"last_update":"0001-01-01T00:00:00Z","name_a2s":"Uncletopia | Chicago | 6 | All Maps","protocol":17,"map":"pl_badwater","folder":"tf","game":"Team Fortress","app_id":440,"player_count":24,"max_players":24,"Bots":0,"server_type":"Dedicated","server_os":"Linux","password":true,"vac":true,"version":"7742253","steam_id":85568392924866363,"keywords":["nocrits","nodmgspread","payload","uncletopia"],"game_id":440,"stv_port":27026,"stv_name":"Uncletopia | Chicago | 6 | All Maps | STV","players":[{"user_id":255,"name":"Hose water","steam_id":76561198843651958,"connected_time":1891000000000,"state":"active","ping":130},{"user_id":241,"name":"Red Heavy The Sandwich Slayer","steam_id":76561199187226776,"connected_time":2427000000000,"state":"active","ping":72},{"user_id":279,"name":"Volkan, Pervert Extraordinaire","steam_id":76561198004569575,"connected_time":95000000000,"state":"active","ping":65},{"user_id":234,"name":"xXcLaImEd__ReApErXx [F2P]","steam_id":76561198067232540,"connected_time":2951000000000,"state":"active","ping":76},{"user_id":280,"name":"The Foolish Samurai","steam_id":76561198094494945,"connected_time":67000000000,"state":"active","ping":107},{"user_id":265,"name":"OJN","steam_id":76561197963388706,"connected_time":969000000000,"state":"active","ping":77},{"user_id":243,"name":"Xgrandmadestroyer7000","steam_id":76561199028337565,"connected_time":2297000000000,"state":"active","ping":76},{"user_id":281,"name":"Mxtteo","steam_id":76561198929978559,"connected_time":64000000000,"state":"active","ping":64},{"user_id":244,"name":"JimmySquid","steam_id":76561198254242530,"connected_time":2271000000000,"state":"active","ping":61},{"user_id":266,"name":"yeyoi","steam_id":76561198069821885,"connected_time":965000000000,"state":"active","ping":64},{"user_id":247,"name":"tim-","steam_id":76561199119101315,"connected_time":2157000000000,"state":"active","ping":121},{"user_id":248,"name":"SPC Ham Sandwich","steam_id":76561198035752185,"connected_time":2065000000000,"state":"active","ping":70},{"user_id":219,"name":"¿skitt1eS?","steam_id":76561198330093211,"connected_time":4444000000000,"state":"active","ping":60},{"user_id":282,"name":"FrostyFrontier","steam_id":76561198370530394,"connected_time":26000000000,"state":"spawning","ping":66},{"user_id":260,"name":"......","steam_id":76561198067612741,"connected_time":1773000000000,"state":"active","ping":92},{"user_id":270,"name":"Wug","steam_id":76561198084112264,"connected_time":912000000000,"state":"active","ping":75},{"user_id":250,"name":"FloorPasta","steam_id":76561198171617418,"connected_time":2047000000000,"state":"active","ping":67},{"user_id":283,"name":"Fraglin","steam_id":76561198124964000,"connected_time":24000000000,"state":"spawning","ping":77},{"user_id":263,"name":"CreeperCatBengal","steam_id":76561198213193221,"connected_time":1492000000000,"state":"active","ping":75},{"user_id":278,"name":"Nem","steam_id":76561198049005317,"connected_time":243000000000,"state":"active","ping":80},{"user_id":273,"name":"pablo","steam_id":76561198395577807,"connected_time":889000000000,"state":"active","ping":60},{"user_id":235,"name":"jodie.blend","steam_id":76561198140701807,"connected_time":2938000000000,"state":"active","ping":63},{"user_id":257,"name":"Windchaser123","steam_id":76561198969156571,"connected_time":1857000000000,"state":"active","ping":91},{"user_id":258,"name":"Stare at Vauhlve","steam_id":76561198986265728,"connected_time":1841000000000,"state":"active","ping":100}]},{"server_id":38,"name":"Uncletopia | Chicago | 7 | Stopwatch Beta","name_short":"chi-7","host":"chi-2.us.uncletopia.com","port":27035,"enabled":true,"region":"us-central","cc":"us","latitude":41.881832,"longitude":-87.62318,"reserved":0,"last_update":"0001-01-01T00:00:00Z","name_a2s":"Uncletopia | Chicago | 7 | Stopwatch Beta","protocol":17,"map":"cp_metalworks","folder":"tf","game":"Team Fortress","app_id":440,"player_count":0,"max_players":24,"Bots":0,"server_type":"Dedicated","server_os":"Linux","password":true,"vac":true,"version":"7742253","steam_id":85568392924866364,"keywords":["cp","nocrits","nodmgspread","uncletopia"],"game_id":440,"stv_port":27036,"stv_name":"Uncletopia | Chicago | 7 | Stopwatch Beta | STV","players":null},{"server_id":39,"name":"Uncletopia | Chicago | 8 | Community","name_short":"chi-8","host":"chi-2.us.uncletopia.com","port":27045,"enabled":true,"region":"us-central","cc":"us","latitude":41.881832,"longitude":-87.62318,"reserved":0,"last_update":"0001-01-01T00:00:00Z","name_a2s":"Uncletopia | Chicago | 8 | Community","protocol":17,"map":"workshop/pl_cactuscanyon_redux_rc4b.ugc2579644293","folder":"tf","game":"Team Fortress","app_id":440,"player_count":24,"max_players":24,"Bots":0,"server_type":"Dedicated","server_os":"Linux","password":true,"vac":true,"version":"7742253","steam_id":85568392924866365,"keywords":["nocrits","nodmgspread","payload","uncletopia"],"game_id":440,"stv_port":27046,"stv_name":"Uncletopia | Chicago | 8 | Community | STV","players":[{"user_id":99,"name":"primordialheath","steam_id":76561199386942638,"connected_time":98000000000,"state":"active","ping":66},{"user_id":87,"name":"Buddybudman","steam_id":76561198144316911,"connected_time":843000000000,"state":"active","ping":66},{"user_id":89,"name":"The Rizzler","steam_id":76561198142699958,"connected_time":773000000000,"state":"active","ping":89},{"user_id":39,"name":"vinny6","steam_id":76561198386735728,"connected_time":4327000000000,"state":"active","ping":61},{"user_id":90,"name":"skele10","steam_id":76561198198460711,"connected_time":771000000000,"state":"active","ping":53},{"user_id":41,"name":"Aidan R","steam_id":76561198089848273,"connected_time":3988000000000,"state":"active","ping":148},{"user_id":42,"name":"SoupBoyBlue","steam_id":76561198118836350,"connected_time":3961000000000,"state":"active","ping":108},{"user_id":98,"name":"Moist Squidicles","steam_id":76561198077257617,"connected_time":493000000000,"state":"active","ping":85},{"user_id":93,"name":"Nodin","steam_id":76561198135757376,"connected_time":638000000000,"state":"active","ping":62},{"user_id":84,"name":"Katzenwerfer","steam_id":76561198345464748,"connected_time":1690000000000,"state":"active","ping":119},{"user_id":85,"name":"Spicy Within Reason","steam_id":76561198066700370,"connected_time":1271000000000,"state":"active","ping":90},{"user_id":46,"name":"scaup","steam_id":76561198349283519,"connected_time":3914000000000,"state":"active","ping":105},{"user_id":49,"name":"grifwich","steam_id":76561197982380250,"connected_time":3623000000000,"state":"active","ping":69},{"user_id":50,"name":"Mr. Dr. Proffessor Patrick","steam_id":76561198025706190,"connected_time":3617000000000,"state":"active","ping":74},{"user_id":51,"name":"Windmills","steam_id":76561198035299715,"connected_time":3614000000000,"state":"active","ping":65},{"user_id":92,"name":"Belloq","steam_id":76561198060279052,"connected_time":658000000000,"state":"active","ping":51},{"user_id":94,"name":"Rubber Child","steam_id":76561198144654350,"connected_time":625000000000,"state":"active","ping":77},{"user_id":95,"name":"Fantastic","steam_id":76561198079088978,"connected_time":624000000000,"state":"active","ping":45},{"user_id":55,"name":"(TTV) The_Astrum_Guardian","steam_id":76561198130134103,"connected_time":3515000000000,"state":"active","ping":63},{"user_id":57,"name":"D_Doxxed","steam_id":76561198276498805,"connected_time":3503000000000,"state":"active","ping":97},{"user_id":96,"name":"Yeshie the Dragon Layer","steam_id":76561198080214214,"connected_time":610000000000,"state":"active","ping":44},{"user_id":97,"name":"viscodolante","steam_id":76561198013650292,"connected_time":603000000000,"state":"active","ping":118},{"user_id":70,"name":"Gay Cake","steam_id":76561198004388831,"connected_time":3285000000000,"state":"active","ping":66},{"user_id":75,"name":"Goofball","steam_id":76561198061211537,"connected_time":2491000000000,"state":"active","ping":75}]},{"server_id":8,"name":"Uncletopia | Dallas | 1 | All Maps","name_short":"dal-1","host":"dal-1.us.uncletopia.com","port":27015,"enabled":true,"region":"us-central","cc":"us","latitude":32.779167,"longitude":-96.80889,"reserved":0,"last_update":"0001-01-01T00:00:00Z","name_a2s":"Uncletopia | Dallas | 1 | All Maps","protocol":17,"map":"cp_dustbowl","folder":"tf","game":"Team Fortress","app_id":440,"player_count":2,"max_players":24,"Bots":0,"server_type":"Dedicated","server_os":"Linux","password":true,"vac":true,"version":"7742253","steam_id":85568392924469986,"keywords":["cp","nocrits","nodmgspread","uncletopia"],"game_id":440,"stv_port":27016,"stv_name":"Uncletopia | Dallas | 1 | All Maps | STV","players":[{"user_id":648,"name":"Cube From Geometry Dash","steam_id":76561198112196381,"connected_time":362000000000,"state":"active","ping":83},{"user_id":632,"name":"[PROFILE REDACTED]","steam_id":76561198817953928,"connected_time":2278000000000,"state":"active","ping":69}]},{"server_id":108,"name":"Uncletopia | Dallas | 2 | All Maps","name_short":"dal-2","host":"dal-1.us.uncletopia.com","port":27025,"enabled":true,"region":"us-central","cc":"us","latitude":32.779167,"longitude":-96.80889,"reserved":0,"last_update":"0001-01-01T00:00:00Z","name_a2s":"Uncletopia | Dallas | 2 | All Maps","protocol":17,"map":"pl_borneo","folder":"tf","game":"Team Fortress","app_id":440,"player_count":24,"max_players":24,"Bots":0,"server_type":"Dedicated","server_os":"Linux","password":true,"vac":true,"version":"7742253","steam_id":85568392924469988,"keywords":["nocrits","nodmgspread","payload","uncletopia"],"game_id":440,"stv_port":27026,"stv_name":"Uncletopia | Dallas | 2 | All Maps | STV","players":[{"user_id":649,"name":"trucksforducks","steam_id":76561198122970888,"connected_time":1295000000000,"state":"active","ping":51},{"user_id":650,"name":"maniacalcoast0","steam_id":76561198982540746,"connected_time":1285000000000,"state":"active","ping":115},{"user_id":598,"name":"plink","steam_id":76561198057829889,"connected_time":5348000000000,"state":"active","ping":104},{"user_id":658,"name":"intek","steam_id":76561198052705291,"connected_time":659000000000,"state":"active","ping":74},{"user_id":642,"name":"Alice Hiiragi","steam_id":76561198094078478,"connected_time":1724000000000,"state":"active","ping":90},{"user_id":659,"name":"Lee","steam_id":76561198113338123,"connected_time":429000000000,"state":"active","ping":179},{"user_id":651,"name":"dead spy","steam_id":76561199144340440,"connected_time":1267000000000,"state":"active","ping":61},{"user_id":643,"name":"jorge","steam_id":76561198310829298,"connected_time":1718000000000,"state":"active","ping":66},{"user_id":656,"name":"bok","steam_id":76561197999411826,"connected_time":1212000000000,"state":"active","ping":76},{"user_id":555,"name":"doing my best","steam_id":76561198323491654,"connected_time":8737000000000,"state":"active","ping":44},{"user_id":652,"name":"The Assistant Regional Manager","steam_id":76561199221484936,"connected_time":1263000000000,"state":"active","ping":82},{"user_id":626,"name":"YAGOO GAMING","steam_id":76561198219019875,"connected_time":2397000000000,"state":"active","ping":84},{"user_id":608,"name":"damiankiller1243","steam_id":76561198868885090,"connected_time":3447000000000,"state":"active","ping":66},{"user_id":628,"name":"Bob the Builder","steam_id":76561199069029812,"connected_time":2261000000000,"state":"active","ping":84},{"user_id":660,"name":"ADHDking","steam_id":76561198116099017,"connected_time":393000000000,"state":"active","ping":74},{"user_id":653,"name":"dw4rf","steam_id":76561198046953937,"connected_time":1246000000000,"state":"active","ping":107},{"user_id":636,"name":"Satori Komeiji","steam_id":76561198158211423,"connected_time":2075000000000,"state":"active","ping":69},{"user_id":663,"name":"GreenApples","steam_id":76561198120559543,"connected_time":111000000000,"state":"active","ping":89},{"user_id":662,"name":"Paulie Walnuts","steam_id":76561198066568730,"connected_time":301000000000,"state":"active","ping":49},{"user_id":648,"name":"Yiff Police","steam_id":76561198103938356,"connected_time":1459000000000,"state":"active","ping":66},{"user_id":657,"name":"The Anomaly TF2","steam_id":76561198834819021,"connected_time":899000000000,"state":"active","ping":89},{"user_id":654,"name":"gonurlight","steam_id":76561198935839416,"connected_time":1242000000000,"state":"active","ping":74},{"user_id":647,"name":"ztnt1000","steam_id":76561198245073566,"connected_time":1530000000000,"state":"active","ping":101},{"user_id":655,"name":"heavy jumpscare","steam_id":76561198376752965,"connected_time":1240000000000,"state":"active","ping":106}]},{"server_id":5,"name":"Uncletopia | Frankfurt | 1 | All Maps","name_short":"frk-1","host":"frk-1.de.uncletopia.com","port":27015,"enabled":true,"region":"eu","cc":"de","latitude":50.110924,"longitude":8.682127,"reserved":0,"last_update":"0001-01-01T00:00:00Z","name_a2s":"Uncletopia | Frankfurt | 1 | All Maps","protocol":17,"map":"pl_badwater","folder":"tf","game":"Team Fortress","app_id":440,"player_count":0,"max_players":24,"Bots":0,"server_type":"Dedicated","server_os":"Linux","password":true,"vac":true,"version":"7742253","steam_id":85568392924469989,"keywords":["nocrits","nodmgspread","payload","uncletopia"],"game_id":440,"stv_port":27016,"stv_name":"Uncletopia | Frankfurt | 1 | All Maps | STV","players":null},{"server_id":110,"name":"Uncletopia | Frankfurt | 2 | All Maps","name_short":"frk-2","host":"frk-1.de.uncletopia.com","port":27025,"enabled":true,"region":"eu","cc":"de","latitude":50.110924,"longitude":8.682127,"reserved":0,"last_update":"0001-01-01T00:00:00Z","name_a2s":"Uncletopia | Frankfurt | 2 | All Maps","protocol":17,"map":"cp_mountainlab","folder":"tf","game":"Team Fortress","app_id":440,"player_count":0,"max_players":24,"Bots":0,"server_type":"Dedicated","server_os":"Linux","password":true,"vac":true,"version":"7742253","steam_id":85568392924469990,"keywords":["cp","nocrits","nodmgspread","uncletopia"],"game_id":440,"stv_port":27026,"stv_name":"Uncletopia | Frankfurt | 2 | All Maps | STV","players":null},{"server_id":308,"name":"Uncletopia | Frankfurt | 3 | All Maps","name_short":"frk-3","host":"frk-1.de.uncletopia.com","port":27035,"enabled":true,"region":"eu","cc":"de","latitude":50.110924,"longitude":8.682127,"reserved":0,"last_update":"0001-01-01T00:00:00Z","name_a2s":"Uncletopia | Frankfurt | 3 | All Maps","protocol":17,"map":"cp_sunshine","folder":"tf","game":"Team Fortress","app_id":440,"player_count":0,"max_players":24,"Bots":0,"server_type":"Dedicated","server_os":"Linux","password":true,"vac":true,"version":"7742253","steam_id":85568392924504274,"keywords":["cp","nocrits","nodmgspread","uncletopia"],"game_id":440,"stv_port":27036,"stv_name":"Uncletopia | Frankfurt | 3 | All Maps | STV","players":null},{"server_id":309,"name":"Uncletopia | Frankfurt | 4 | All Maps","name_short":"frk-4","host":"frk-1.de.uncletopia.com","port":27045,"enabled":true,"region":"eu","cc":"de","latitude":50.110924,"longitude":8.682127,"reserved":0,"last_update":"0001-01-01T00:00:00Z","name_a2s":"Uncletopia | Frankfurt | 4 | All Maps","protocol":17,"map":"pl_borneo","folder":"tf","game":"Team Fortress","app_id":440,"player_count":12,"max_players":24,"Bots":0,"server_type":"Dedicated","server_os":"Linux","password":true,"vac":true,"version":"7742253","steam_id":85568392924504275,"keywords":["nocrits","nodmgspread","payload","uncletopia"],"game_id":440,"stv_port":27046,"stv_name":"Uncletopia | Frankfurt | 4 | All Maps | STV","players":[{"user_id":596,"name":"dorak","steam_id":76561198818037965,"connected_time":261000000000,"state":"active","ping":91},{"user_id":597,"name":"len","steam_id":76561199230544915,"connected_time":107000000000,"state":"active","ping":72},{"user_id":585,"name":"engie?","steam_id":76561198331852832,"connected_time":1601000000000,"state":"active","ping":81},{"user_id":577,"name":"SynthBox3","steam_id":76561199094075745,"connected_time":2673000000000,"state":"active","ping":92},{"user_id":586,"name":"etc","steam_id":76561197998394797,"connected_time":1527000000000,"state":"active","ping":59},{"user_id":579,"name":"ACG_Dubsy","steam_id":76561198797308565,"connected_time":2241000000000,"state":"active","ping":57},{"user_id":594,"name":"Grand Wizard","steam_id":76561199414716848,"connected_time":670000000000,"state":"active","ping":72},{"user_id":582,"name":"desu","steam_id":76561198052878585,"connected_time":2060000000000,"state":"active","ping":127},{"user_id":583,"name":"the high amby spy","steam_id":76561198212488780,"connected_time":2015000000000,"state":"active","ping":52},{"user_id":584,"name":"Kitsune","steam_id":76561198998999946,"connected_time":1942000000000,"state":"active","ping":136},{"user_id":589,"name":"thekoolest88","steam_id":76561199022415672,"connected_time":1258000000000,"state":"active","ping":142},{"user_id":593,"name":"Kali","steam_id":76561198070745106,"connected_time":893000000000,"state":"active","ping":97}]},{"server_id":310,"name":"Uncletopia | Frankfurt | 5 | All Maps","name_short":"frk-5","host":"frk-1.de.uncletopia.com","port":27055,"enabled":true,"region":"eu","cc":"de","latitude":50.110924,"longitude":8.682127,"reserved":0,"last_update":"0001-01-01T00:00:00Z","name_a2s":"Uncletopia | Frankfurt | 5 | All Maps","protocol":17,"map":"cp_dustbowl","folder":"tf","game":"Team Fortress","app_id":440,"player_count":0,"max_players":24,"Bots":0,"server_type":"Dedicated","server_os":"Linux","password":true,"vac":true,"version":"7742253","steam_id":85568392924504277,"keywords":["cp","nocrits","nodmgspread","uncletopia"],"game_id":440,"stv_port":27056,"stv_name":"Uncletopia | Frankfurt | 5 | All Maps | STV","players":null},{"server_id":311,"name":"Uncletopia | Frankfurt | 6 | All Maps","name_short":"frk-6","host":"frk-1.de.uncletopia.com","port":27065,"enabled":true,"region":"eu","cc":"de","latitude":50.110924,"longitude":8.682127,"reserved":0,"last_update":"0001-01-01T00:00:00Z","name_a2s":"Uncletopia | Frankfurt | 6 | All Maps","protocol":17,"map":"koth_harvest_final","folder":"tf","game":"Team Fortress","app_id":440,"player_count":0,"max_players":24,"Bots":0,"server_type":"Dedicated","server_os":"Linux","password":true,"vac":true,"version":"7742253","steam_id":85568392924504278,"keywords":["cp","nocrits","nodmgspread","uncletopia"],"game_id":440,"stv_port":27066,"stv_name":"Uncletopia | Frankfurt | 6 | All Maps | STV","players":null},{"server_id":23,"name":"Uncletopia | Frankfurt | 7 | Stopwatch Beta","name_short":"frk-7","host":"frk-1.de.uncletopia.com","port":27075,"enabled":true,"region":"eu","cc":"de","latitude":50.110924,"longitude":8.682127,"reserved":0,"last_update":"0001-01-01T00:00:00Z","name_a2s":"Uncletopia | Frankfurt | 7 | Stopwatch Beta","protocol":17,"map":"koth_lakeside_final","folder":"tf","game":"Team Fortress","app_id":440,"player_count":0,"max_players":24,"Bots":0,"server_type":"Dedicated","server_os":"Linux","password":true,"vac":true,"version":"7742253","steam_id":85568392924742827,"keywords":["cp","nocrits","nodmgspread","uncletopia"],"game_id":440,"stv_port":27076,"stv_name":"Uncletopia | Frankfurt | 7 | Stopwatch Beta | STV","players":null},{"server_id":24,"name":"Uncletopia | Frankfurt | 8 | Community","name_short":"frk-8","host":"frk-1.de.uncletopia.com","port":27085,"enabled":true,"region":"eu","cc":"de","latitude":50.110924,"longitude":8.682127,"reserved":0,"last_update":"0001-01-01T00:00:00Z","name_a2s":"Uncletopia | Frankfurt | 8 | Community","protocol":17,"map":"workshop/koth_slaughter_rc1.ugc1712845210","folder":"tf","game":"Team Fortress","app_id":440,"player_count":0,"max_players":24,"Bots":0,"server_type":"Dedicated","server_os":"Linux","password":true,"vac":true,"version":"7742253","steam_id":85568392924742828,"keywords":["cp","nocrits","nodmgspread","uncletopia"],"game_id":440,"stv_port":27086,"stv_name":"Uncletopia | Frankfurt | 8 | Community | STV","players":null},{"server_id":202,"name":"Uncletopia | Hong Kong | 1 | All Maps","name_short":"hgk-1","host":"hgk-1.hk.uncletopia.com","port":27015,"enabled":true,"region":"asia","cc":"hk","latitude":22.302711,"longitude":114.177216,"reserved":0,"last_update":"0001-01-01T00:00:00Z","name_a2s":"Uncletopia | Hong Kong | 1 | All Maps","protocol":17,"map":"koth_king","folder":"tf","game":"Team Fortress","app_id":440,"player_count":20,"max_players":24,"Bots":0,"server_type":"Dedicated","server_os":"Linux","password":true,"vac":true,"version":"7742253","steam_id":85568392924494504,"keywords":["cp","nocrits","nodmgspread","uncletopia"],"game_id":440,"stv_port":27016,"stv_name":"Uncletopia | Hong Kong | 1 | All Maps | STV","players":[{"user_id":152,"name":"Batbob","steam_id":76561198999413123,"connected_time":262000000000,"state":"active","ping":70},{"user_id":112,"name":"r/leroy","steam_id":76561199137927625,"connected_time":3963000000000,"state":"active","ping":118},{"user_id":145,"name":"Giouri","steam_id":76561199152247162,"connected_time":864000000000,"state":"active","ping":82},{"user_id":128,"name":"Fluffy","steam_id":76561198316671856,"connected_time":3022000000000,"state":"active","ping":102},{"user_id":140,"name":"Skyler White yo","steam_id":76561198895193247,"connected_time":1778000000000,"state":"active","ping":70},{"user_id":153,"name":"Catson sama","steam_id":76561199184726394,"connected_time":249000000000,"state":"active","ping":72},{"user_id":149,"name":"AzureWares","steam_id":76561199439340850,"connected_time":807000000000,"state":"active","ping":60},{"user_id":115,"name":"AmaiToxic","steam_id":76561199122491157,"connected_time":3373000000000,"state":"active","ping":67},{"user_id":121,"name":"煙海 | Enkai","steam_id":76561198050460825,"connected_time":3227000000000,"state":"active","ping":83},{"user_id":135,"name":"monkeyman536","steam_id":76561197997717737,"connected_time":2240000000000,"state":"active","ping":119},{"user_id":150,"name":"Urotsuki","steam_id":76561198074339034,"connected_time":765000000000,"state":"active","ping":74},{"user_id":104,"name":"heronthebird","steam_id":76561198964411581,"connected_time":4333000000000,"state":"active","ping":76},{"user_id":139,"name":"apollo","steam_id":76561198823374287,"connected_time":1992000000000,"state":"active","ping":73},{"user_id":131,"name":"Reisen ᗜˬᗜ","steam_id":76561198374227173,"connected_time":2740000000000,"state":"active","ping":66},{"user_id":154,"name":"lettuce at 58p","steam_id":76561199401283123,"connected_time":103000000000,"state":"active","ping":82},{"user_id":151,"name":"JayJ","steam_id":76561198324008555,"connected_time":495000000000,"state":"active","ping":57},{"user_id":103,"name":"Water Weed Dune Hair","steam_id":76561198090087072,"connected_time":4477000000000,"state":"active","ping":108},{"user_id":142,"name":"Steve","steam_id":76561198429235506,"connected_time":1192000000000,"state":"active","ping":79},{"user_id":109,"name":"lilla laxum","steam_id":76561198230213828,"connected_time":4141000000000,"state":"active","ping":66}]},{"server_id":1,"name":"Uncletopia | Los Angeles | 1 | All Maps","name_short":"lax-1","host":"lax-1.us.uncletopia.com","port":27015,"enabled":true,"region":"us-west","cc":"us","latitude":33.94279,"longitude":-118.41004,"reserved":0,"last_update":"0001-01-01T00:00:00Z","name_a2s":"Uncletopia | Los Angeles | 1 | All Maps","protocol":17,"map":"pl_badwater","folder":"tf","game":"Team Fortress","app_id":440,"player_count":24,"max_players":24,"Bots":0,"server_type":"Dedicated","server_os":"Linux","password":true,"vac":true,"version":"7742253","steam_id":85568392924469991,"keywords":["nocrits","nodmgspread","payload","uncletopia"],"game_id":440,"stv_port":27016,"stv_name":"Uncletopia | Los Angeles | 1 | All Maps | STV","players":[{"user_id":201,"name":"Squatter1","steam_id":76561198078987734,"connected_time":2140000000000,"state":"active","ping":73},{"user_id":208,"name":"The Caretaker","steam_id":76561198125241411,"connected_time":939000000000,"state":"active","ping":75},{"user_id":194,"name":"Mugen","steam_id":76561198411174773,"connected_time":2743000000000,"state":"active","ping":49},{"user_id":221,"name":"Sivinus","steam_id":76561198025589541,"connected_time":393000000000,"state":"active","ping":54},{"user_id":211,"name":"BlaneBowser","steam_id":76561198068994389,"connected_time":754000000000,"state":"active","ping":60},{"user_id":212,"name":"BLACKout","steam_id":76561198002194086,"connected_time":750000000000,"state":"active","ping":47},{"user_id":214,"name":"Yu Plush","steam_id":76561198800891125,"connected_time":732000000000,"state":"active","ping":76},{"user_id":209,"name":"Wernher","steam_id":76561198061192094,"connected_time":794000000000,"state":"active","ping":63},{"user_id":215,"name":"Dark Lord","steam_id":76561198044199150,"connected_time":709000000000,"state":"active","ping":111},{"user_id":185,"name":"Sol","steam_id":76561198803824764,"connected_time":3364000000000,"state":"active","ping":89},{"user_id":222,"name":"wile","steam_id":76561198125261443,"connected_time":357000000000,"state":"active","ping":86},{"user_id":145,"name":"kr1tsurf3r","steam_id":76561198076402476,"connected_time":6135000000000,"state":"active","ping":56},{"user_id":223,"name":"Goonther","steam_id":76561198170128009,"connected_time":340000000000,"state":"active","ping":63},{"user_id":218,"name":"grape","steam_id":76561197993980328,"connected_time":667000000000,"state":"active","ping":88},{"user_id":191,"name":"Rammu :)","steam_id":76561198078584678,"connected_time":3177000000000,"state":"active","ping":91},{"user_id":164,"name":"Owl_eyes","steam_id":76561198066199203,"connected_time":4561000000000,"state":"active","ping":53},{"user_id":188,"name":"kimin","steam_id":76561198263393063,"connected_time":3334000000000,"state":"active","ping":165},{"user_id":197,"name":"satdarn","steam_id":76561199091760468,"connected_time":2700000000000,"state":"active","ping":53},{"user_id":204,"name":"LtAlexandro","steam_id":76561198997494266,"connected_time":1296000000000,"state":"active","ping":82},{"user_id":226,"name":"kab789","steam_id":76561198069842202,"connected_time":132000000000,"state":"active","ping":109},{"user_id":199,"name":"Rakk","steam_id":76561198855176174,"connected_time":2669000000000,"state":"active","ping":51},{"user_id":168,"name":"Lennie Longfinger","steam_id":76561198276959460,"connected_time":4477000000000,"state":"active","ping":61},{"user_id":224,"name":"Tour","steam_id":76561198067893780,"connected_time":338000000000,"state":"active","ping":59},{"user_id":206,"name":"axel","steam_id":76561198844924677,"connected_time":1253000000000,"state":"active","ping":67}]},{"server_id":112,"name":"Uncletopia | Los Angeles | 2 | All Maps","name_short":"lax-2","host":"lax-1.us.uncletopia.com","port":27025,"enabled":true,"region":"us-west","cc":"us","latitude":33.94279,"longitude":-118.41004,"reserved":0,"last_update":"0001-01-01T00:00:00Z","name_a2s":"Uncletopia | Los Angeles | 2 | All Maps","protocol":17,"map":"pl_frontier_final","folder":"tf","game":"Team Fortress","app_id":440,"player_count":0,"max_players":24,"Bots":0,"server_type":"Dedicated","server_os":"Linux","password":true,"vac":true,"version":"7742253","steam_id":85568392924469992,"keywords":["nocrits","nodmgspread","payload","uncletopia"],"game_id":440,"stv_port":27026,"stv_name":"Uncletopia | Los Angeles | 2 | All Maps | STV","players":null},{"server_id":324,"name":"Uncletopia | Los Angeles | 3 | All Maps","name_short":"lax-3","host":"lax-1.us.uncletopia.com","port":27035,"enabled":true,"region":"us-west","cc":"us","latitude":33.94279,"longitude":-118.41004,"reserved":0,"last_update":"0001-01-01T00:00:00Z","name_a2s":"Uncletopia | Los Angeles | 3 | All Maps","protocol":17,"map":"pl_pier","folder":"tf","game":"Team Fortress","app_id":440,"player_count":0,"max_players":24,"Bots":0,"server_type":"Dedicated","server_os":"Linux","password":true,"vac":true,"version":"7742253","steam_id":85568392924510198,"keywords":["nocrits","nodmgspread","payload","uncletopia"],"game_id":440,"stv_port":27036,"stv_name":"Uncletopia | Los Angeles | 3 | All Maps | STV","players":null},{"server_id":25,"name":"Uncletopia | Los Angeles | 4 | Stopwatch Beta","name_short":"lax-4","host":"lax-1.us.uncletopia.com","port":27045,"enabled":true,"region":"us-west","cc":"us","latitude":33.94279,"longitude":-118.41004,"reserved":0,"last_update":"0001-01-01T00:00:00Z","name_a2s":"Uncletopia | Los Angeles | 4 | Stopwatch Beta","protocol":17,"map":"koth_lakeside_final","folder":"tf","game":"Team Fortress","app_id":440,"player_count":0,"max_players":24,"Bots":0,"server_type":"Dedicated","server_os":"Linux","password":true,"vac":true,"version":"7742253","steam_id":85568392924510199,"keywords":["cp","nocrits","nodmgspread","uncletopia"],"game_id":440,"stv_port":27046,"stv_name":"Uncletopia | Los Angeles | 4 | Stopwatch Beta | STV","players":null},{"server_id":11,"name":"Uncletopia | London | 1 | All Maps","name_short":"lon-1","host":"lon-1.uk.uncletopia.com","port":27015,"enabled":true,"region":"eu","cc":"gb","latitude":51.509865,"longitude":-0.118092,"reserved":0,"last_update":"0001-01-01T00:00:00Z","name_a2s":"Uncletopia | London | 1 | All Maps","protocol":17,"map":"koth_lakeside_final","folder":"tf","game":"Team Fortress","app_id":440,"player_count":0,"max_players":24,"Bots":0,"server_type":"Dedicated","server_os":"Linux","password":true,"vac":true,"version":"7742253","steam_id":85568392924367362,"keywords":["cp","nocrits","nodmgspread","uncletopia"],"game_id":440,"stv_port":27016,"stv_name":"Uncletopia | London | 1 | All Maps | STV","players":null},{"server_id":114,"name":"Uncletopia | London | 2 | All Maps","name_short":"lon-2","host":"lon-1.uk.uncletopia.com","port":27025,"enabled":true,"region":"eu","cc":"gb","latitude":51.509865,"longitude":-0.118092,"reserved":0,"last_update":"0001-01-01T00:00:00Z","name_a2s":"Uncletopia | London | 2 | All Maps","protocol":17,"map":"koth_highpass","folder":"tf","game":"Team Fortress","app_id":440,"player_count":0,"max_players":24,"Bots":0,"server_type":"Dedicated","server_os":"Linux","password":true,"vac":true,"version":"7742253","steam_id":85568392924470941,"keywords":["cp","nocrits","nodmgspread","uncletopia"],"game_id":440,"stv_port":27026,"stv_name":"Uncletopia | London | 2 | All Maps | STV","players":null},{"server_id":320,"name":"Uncletopia | London | 3 | All Maps","name_short":"lon-3","host":"lon-1.uk.uncletopia.com","port":27035,"enabled":true,"region":"eu","cc":"gb","latitude":51.509865,"longitude":-0.118092,"reserved":0,"last_update":"0001-01-01T00:00:00Z","name_a2s":"Uncletopia | London | 3 | All Maps","protocol":17,"map":"koth_viaduct","folder":"tf","game":"Team Fortress","app_id":440,"player_count":0,"max_players":24,"Bots":0,"server_type":"Dedicated","server_os":"Linux","password":true,"vac":true,"version":"7742253","steam_id":85568392924510192,"keywords":["cp","nocrits","nodmgspread","uncletopia"],"game_id":440,"stv_port":27036,"stv_name":"Uncletopia | London | 3 | All Maps | STV","players":null},{"server_id":321,"name":"Uncletopia | London | 4 | All Maps","name_short":"lon-4","host":"lon-1.uk.uncletopia.com","port":27045,"enabled":true,"region":"eu","cc":"gb","latitude":51.509865,"longitude":-0.118092,"reserved":0,"last_update":"0001-01-01T00:00:00Z","name_a2s":"Uncletopia | London | 4 | All Maps","protocol":17,"map":"pl_borneo","folder":"tf","game":"Team Fortress","app_id":440,"player_count":0,"max_players":24,"Bots":0,"server_type":"Dedicated","server_os":"Linux","password":true,"vac":true,"version":"7742253","steam_id":85568392924510193,"keywords":["nocrits","nodmgspread","payload","uncletopia"],"game_id":440,"stv_port":27046,"stv_name":"Uncletopia | London | 4 | All Maps | STV","players":null},{"server_id":21,"name":"Uncletopia | London | 5 | All Maps","name_short":"lon-5","host":"lon-1.uk.uncletopia.com","port":27055,"enabled":true,"region":"eu","cc":"gb","latitude":51.509865,"longitude":-0.118092,"reserved":0,"last_update":"0001-01-01T00:00:00Z","name_a2s":"Uncletopia | London | 5 | All Maps","protocol":17,"map":"pl_pier","folder":"tf","game":"Team Fortress","app_id":440,"player_count":0,"max_players":24,"Bots":0,"server_type":"Dedicated","server_os":"Linux","password":true,"vac":true,"version":"7742253","steam_id":85568392924742829,"keywords":["nocrits","nodmgspread","payload","uncletopia"],"game_id":440,"stv_port":27056,"stv_name":"Uncletopia | London | 5 | All Maps | STV","players":null},{"server_id":22,"name":"Uncletopia | London | 6 | All Maps","name_short":"lon-6","host":"lon-1.uk.uncletopia.com","port":27065,"enabled":true,"region":"eu","cc":"gb","latitude":51.509865,"longitude":-0.118092,"reserved":0,"last_update":"0001-01-01T00:00:00Z","name_a2s":"Uncletopia | London | 6 | All Maps","protocol":17,"map":"cp_dustbowl","folder":"tf","game":"Team Fortress","app_id":440,"player_count":0,"max_players":24,"Bots":0,"server_type":"Dedicated","server_os":"Linux","password":true,"vac":true,"version":"7742253","steam_id":85568392924742830,"keywords":["cp","nocrits","nodmgspread","uncletopia"],"game_id":440,"stv_port":27066,"stv_name":"Uncletopia | London | 6 | All Maps | STV","players":null},{"server_id":40,"name":"Uncletopia | London | 7 | No Payload","name_short":"lon-7","host":"lon-1.uk.uncletopia.com","port":27075,"enabled":true,"region":"eu","cc":"gb","latitude":51.509865,"longitude":-0.118092,"reserved":0,"last_update":"0001-01-01T00:00:00Z","name_a2s":"Uncletopia | London | 7 | No Payload","protocol":17,"map":"cp_dustbowl","folder":"tf","game":"Team Fortress","app_id":440,"player_count":0,"max_players":24,"Bots":0,"server_type":"Dedicated","server_os":"Linux","password":true,"vac":true,"version":"7742253","steam_id":85568392924964314,"keywords":["cp","nocrits","nodmgspread","uncletopia"],"game_id":440,"stv_port":27076,"stv_name":"Uncletopia | London | 7 | No Payload | STV","players":null},{"server_id":41,"name":"Uncletopia | London | 8 | Community","name_short":"lon-8","host":"lon-1.uk.uncletopia.com","port":27085,"enabled":true,"region":"eu","cc":"gb","latitude":51.509865,"longitude":-0.118092,"reserved":0,"last_update":"0001-01-01T00:00:00Z","name_a2s":"Uncletopia | London | 8 | Community","protocol":17,"map":"workshop/koth_bagel_rc5.ugc2514036946","folder":"tf","game":"Team Fortress","app_id":440,"player_count":0,"max_players":24,"Bots":0,"server_type":"Dedicated","server_os":"Linux","password":true,"vac":true,"version":"7742253","steam_id":85568392924964315,"keywords":["cp","nocrits","nodmgspread","uncletopia"],"game_id":440,"stv_port":27086,"stv_name":"Uncletopia | London | 8 | Community | STV","players":null},{"server_id":300,"name":"Uncletopia | Montréal | 1 | All Maps","name_short":"mtl-1","host":"mtl-1.ca.uncletopia.com","port":27015,"enabled":true,"region":"us-east","cc":"ca","latitude":45.50889,"longitude":-73.56167,"reserved":0,"last_update":"0001-01-01T00:00:00Z","name_a2s":"Uncletopia | Montréal | 1 | All Maps","protocol":17,"map":"koth_lakeside_final","folder":"tf","game":"Team Fortress","app_id":440,"player_count":0,"max_players":24,"Bots":0,"server_type":"Dedicated","server_os":"Linux","password":true,"vac":true,"version":"7742253","steam_id":85568392924500087,"keywords":["cp","nocrits","nodmgspread","uncletopia"],"game_id":440,"stv_port":27016,"stv_name":"Uncletopia | Montréal | 1 | All Maps | STV","players":null},{"server_id":301,"name":"Uncletopia | Montréal | 2 | All Maps","name_short":"mtl-2","host":"mtl-1.ca.uncletopia.com","port":27025,"enabled":true,"region":"us-east","cc":"ca","latitude":45.50889,"longitude":-73.56167,"reserved":0,"last_update":"0001-01-01T00:00:00Z","name_a2s":"Uncletopia | Montréal | 2 | All Maps","protocol":17,"map":"koth_lakeside_final","folder":"tf","game":"Team Fortress","app_id":440,"player_count":0,"max_players":24,"Bots":0,"server_type":"Dedicated","server_os":"Linux","password":true,"vac":true,"version":"7742253","steam_id":85568392924500088,"keywords":["cp","nocrits","nodmgspread","uncletopia"],"game_id":440,"stv_port":27026,"stv_name":"Uncletopia | Montréal | 2 | All Maps | STV","players":null},{"server_id":302,"name":"Uncletopia | Montréal | 3 | All Maps","name_short":"mtl-3","host":"mtl-1.ca.uncletopia.com","port":27035,"enabled":true,"region":"us-east","cc":"ca","latitude":45.50889,"longitude":-73.56167,"reserved":0,"last_update":"0001-01-01T00:00:00Z","name_a2s":"Uncletopia | Montréal | 3 | All Maps","protocol":17,"map":"koth_cascade","folder":"tf","game":"Team Fortress","app_id":440,"player_count":0,"max_players":24,"Bots":0,"server_type":"Dedicated","server_os":"Linux","password":true,"vac":true,"version":"7742253","steam_id":85568392924500089,"keywords":["cp","nocrits","nodmgspread","uncletopia"],"game_id":440,"stv_port":27036,"stv_name":"Uncletopia | Montréal | 3 | All Maps | STV","players":null},{"server_id":303,"name":"Uncletopia | Montréal | 4 | No Payload","name_short":"mtl-4","host":"mtl-1.ca.uncletopia.com","port":27045,"enabled":true,"region":"us-east","cc":"ca","latitude":45.50889,"longitude":-73.56167,"reserved":0,"last_update":"0001-01-01T00:00:00Z","name_a2s":"Uncletopia | Montréal | 4 | No Payload","protocol":17,"map":"koth_harvest_final","folder":"tf","game":"Team Fortress","app_id":440,"player_count":0,"max_players":24,"Bots":0,"server_type":"Dedicated","server_os":"Linux","password":true,"vac":true,"version":"7742253","steam_id":85568392924500090,"keywords":["cp","nocrits","nodmgspread","uncletopia"],"game_id":440,"stv_port":27046,"stv_name":"Uncletopia | Montréal | 4 | No Payload | STV","players":null},{"server_id":13,"name":"Uncletopia | New York City | 1 | All Maps","name_short":"nyc-1","host":"nyc-1.us.uncletopia.com","port":27015,"enabled":true,"region":"us-east","cc":"us","latitude":40.73061,"longitude":-73.93524,"reserved":0,"last_update":"0001-01-01T00:00:00Z","name_a2s":"Uncletopia | New York City | 1 | All Maps","protocol":17,"map":"cp_dustbowl","folder":"tf","game":"Team Fortress","app_id":440,"player_count":24,"max_players":24,"Bots":0,"server_type":"Dedicated","server_os":"Linux","password":true,"vac":true,"version":"7742253","steam_id":85568392924469993,"keywords":["cp","nocrits","nodmgspread","uncletopia"],"game_id":440,"stv_port":27016,"stv_name":"Uncletopia | New York City | 1 | All Maps | STV","players":[{"user_id":569,"name":"Rein","steam_id":76561198300340427,"connected_time":411000000000,"state":"active","ping":75},{"user_id":565,"name":"Ghost","steam_id":76561198110914180,"connected_time":585000000000,"state":"active","ping":166},{"user_id":507,"name":"Cthulwho?","steam_id":76561198165550810,"connected_time":5161000000000,"state":"active","ping":75},{"user_id":557,"name":"Dusty Bucket","steam_id":76561198037064732,"connected_time":1177000000000,"state":"active","ping":46},{"user_id":563,"name":"BOILED BREAD","steam_id":76561199002744899,"connected_time":722000000000,"state":"active","ping":74},{"user_id":566,"name":"Medic BF","steam_id":76561198197422098,"connected_time":544000000000,"state":"active","ping":50},{"user_id":381,"name":"layabout","steam_id":76561198130892117,"connected_time":14168000000000,"state":"active","ping":56},{"user_id":548,"name":"theancientnut","steam_id":76561199396708880,"connected_time":2324000000000,"state":"active","ping":66},{"user_id":558,"name":"carrion goat","steam_id":76561198262064871,"connected_time":1173000000000,"state":"active","ping":46},{"user_id":533,"name":"coal","steam_id":76561198027252280,"connected_time":3881000000000,"state":"active","ping":63},{"user_id":509,"name":"TheConchinator","steam_id":76561199388149092,"connected_time":5136000000000,"state":"active","ping":77},{"user_id":553,"name":"Sir Quacksalot","steam_id":76561198048942777,"connected_time":2111000000000,"state":"active","ping":75},{"user_id":535,"name":"Uncle Majic the Hip Hop Magicia","steam_id":76561198107924303,"connected_time":3728000000000,"state":"active","ping":60},{"user_id":518,"name":"CheeseCake488","steam_id":76561199407617942,"connected_time":4775000000000,"state":"active","ping":141},{"user_id":559,"name":"Simonster","steam_id":76561198046896952,"connected_time":911000000000,"state":"active","ping":114},{"user_id":546,"name":"iL","steam_id":76561198086331015,"connected_time":2344000000000,"state":"active","ping":32},{"user_id":542,"name":"fish","steam_id":76561198274534190,"connected_time":2866000000000,"state":"active","ping":75},{"user_id":540,"name":"Room","steam_id":76561199174579733,"connected_time":3186000000000,"state":"active","ping":72},{"user_id":536,"name":"big guapo","steam_id":76561198103228695,"connected_time":3692000000000,"state":"active","ping":58},{"user_id":467,"name":"he's angry","steam_id":76561198069065342,"connected_time":9192000000000,"state":"active","ping":63},{"user_id":547,"name":"Braamklauw","steam_id":76561198283287697,"connected_time":2340000000000,"state":"active","ping":134},{"user_id":570,"name":"mg","steam_id":76561199146402033,"connected_time":400000000000,"state":"active","ping":104},{"user_id":549,"name":"G-G-G-GAMERSHOT","steam_id":76561198798980951,"connected_time":2319000000000,"state":"active","ping":45},{"user_id":562,"name":"Sideshow Penguin","steam_id":76561198128024135,"connected_time":830000000000,"state":"active","ping":47}]},{"server_id":14,"name":"Uncletopia | New York City | 2 | All Maps","name_short":"nyc-2","host":"nyc-1.us.uncletopia.com","port":27025,"enabled":true,"region":"us-east","cc":"us","latitude":40.73061,"longitude":-73.93524,"reserved":0,"last_update":"0001-01-01T00:00:00Z","name_a2s":"Uncletopia | New York City | 2 | All Maps","protocol":17,"map":"plr_hightower","folder":"tf","game":"Team Fortress","app_id":440,"player_count":0,"max_players":24,"Bots":0,"server_type":"Dedicated","server_os":"Linux","password":true,"vac":true,"version":"7742253","steam_id":85568392924469994,"keywords":["nocrits","nodmgspread","payload","uncletopia"],"game_id":440,"stv_port":27026,"stv_name":"Uncletopia | New York City | 2 | All Maps | STV","players":null},{"server_id":15,"name":"Uncletopia | New York City | 3 | Stopwatch Beta","name_short":"nyc-3","host":"nyc-1.us.uncletopia.com","port":27035,"enabled":true,"region":"us-east","cc":"us","latitude":40.73061,"longitude":-73.93524,"reserved":0,"last_update":"0001-01-01T00:00:00Z","name_a2s":"Uncletopia | New York City | 3 | Stopwatch Beta","protocol":17,"map":"cp_altitude","folder":"tf","game":"Team Fortress","app_id":440,"player_count":0,"max_players":24,"Bots":0,"server_type":"Dedicated","server_os":"Linux","password":true,"vac":true,"version":"7742253","steam_id":85568392924742820,"keywords":["cp","nocrits","nodmgspread","uncletopia"],"game_id":440,"stv_port":27036,"stv_name":"Uncletopia | New York City | 3 | Stopwatch Beta | STV","players":null},{"server_id":16,"name":"Uncletopia | New York City | 4 | Community","name_short":"nyc-4","host":"nyc-1.us.uncletopia.com","port":27045,"enabled":true,"region":"us-east","cc":"us","latitude":40.73061,"longitude":-73.93524,"reserved":0,"last_update":"0001-01-01T00:00:00Z","name_a2s":"Uncletopia | New York City | 4 | Community","protocol":17,"map":"workshop/koth_synthetic_rc6a.ugc1549817316","folder":"tf","game":"Team Fortress","app_id":440,"player_count":0,"max_players":24,"Bots":0,"server_type":"Dedicated","server_os":"Linux","password":true,"vac":true,"version":"7742253","steam_id":85568392924742821,"keywords":["cp","nocrits","nodmgspread","uncletopia"],"game_id":440,"stv_port":27046,"stv_name":"Uncletopia | New York City | 4 | Community | STV","players":null},{"server_id":142,"name":"Uncletopia | São Paulo | 1 | All Maps","name_short":"sao-1","host":"sao-1.br.uncletopia.com","port":27015,"enabled":true,"region":"sa","cc":"br","latitude":-23.533773,"longitude":-46.62529,"reserved":0,"last_update":"0001-01-01T00:00:00Z","name_a2s":"Uncletopia | São Paulo | 1 | All Maps","protocol":17,"map":"koth_cascade","folder":"tf","game":"Team Fortress","app_id":440,"player_count":2,"max_players":24,"Bots":0,"server_type":"Dedicated","server_os":"Linux","password":true,"vac":true,"version":"7742253","steam_id":85568392924469996,"keywords":["cp","nocrits","nodmgspread","uncletopia"],"game_id":440,"stv_port":27016,"stv_name":"Uncletopia | São Paulo | 1 | All Maps | STV","players":[{"user_id":211,"name":"Mesasq.","steam_id":76561199268788962,"connected_time":2062000000000,"state":"active","ping":65},{"user_id":212,"name":"BenyDC","steam_id":76561199418910109,"connected_time":2004000000000,"state":"active","ping":58}]},{"server_id":143,"name":"Uncletopia | São Paulo | 2 | All Maps","name_short":"sao-2","host":"sao-2.br.uncletopia.com","port":27015,"enabled":true,"region":"sa","cc":"br","latitude":-23.533773,"longitude":-46.62529,"reserved":0,"last_update":"0001-01-01T00:00:00Z","name_a2s":"Uncletopia | São Paulo | 2 | All Maps","protocol":17,"map":"koth_viaduct","folder":"tf","game":"Team Fortress","app_id":440,"player_count":0,"max_players":24,"Bots":0,"server_type":"Dedicated","server_os":"Linux","password":true,"vac":true,"version":"7742253","steam_id":85568392924485349,"keywords":["cp","nocrits","nodmgspread","uncletopia"],"game_id":440,"stv_port":27016,"stv_name":"Uncletopia | São Paulo | 2 | All Maps | STV","players":null},{"server_id":7,"name":"Uncletopia | Seattle | 1 | All Maps","name_short":"sea-1","host":"sea-1.us.uncletopia.com","port":27015,"enabled":true,"region":"us-west","cc":"us","latitude":47.608013,"longitude":-122.33517,"reserved":0,"last_update":"0001-01-01T00:00:00Z","name_a2s":"Uncletopia | Seattle | 1 | All Maps","protocol":17,"map":"pl_badwater","folder":"tf","game":"Team Fortress","app_id":440,"player_count":24,"max_players":24,"Bots":0,"server_type":"Dedicated","server_os":"Linux","password":true,"vac":true,"version":"7742253","steam_id":85568392924469997,"keywords":["nocrits","nodmgspread","payload","uncletopia"],"game_id":440,"stv_port":27016,"stv_name":"Uncletopia | Seattle | 1 | All Maps | STV","players":[{"user_id":356,"name":"rat gets the cheese","steam_id":76561198031234032,"connected_time":8906000000000,"state":"active","ping":95},{"user_id":451,"name":"B-0-D-I-E ✓","steam_id":76561198079474904,"connected_time":523000000000,"state":"active","ping":61},{"user_id":362,"name":"Level 99 Mudcrab","steam_id":76561198077452771,"connected_time":8656000000000,"state":"active","ping":59},{"user_id":444,"name":"help","steam_id":76561198171840525,"connected_time":998000000000,"state":"active","ping":60},{"user_id":432,"name":"Tom","steam_id":76561198070630154,"connected_time":2239000000000,"state":"active","ping":76},{"user_id":442,"name":"iphone 7 plus","steam_id":76561198335836405,"connected_time":1547000000000,"state":"active","ping":76},{"user_id":445,"name":"Bagaboned","steam_id":76561198043761335,"connected_time":992000000000,"state":"active","ping":50},{"user_id":422,"name":"viciousbellringer","steam_id":76561198086876652,"connected_time":2650000000000,"state":"active","ping":83},{"user_id":366,"name":"Klone","steam_id":76561198854485605,"connected_time":7218000000000,"state":"active","ping":75},{"user_id":412,"name":"William P. Ennis","steam_id":76561198073464877,"connected_time":2907000000000,"state":"active","ping":90},{"user_id":420,"name":"BONG THREAT","steam_id":76561197988234127,"connected_time":2684000000000,"state":"active","ping":45},{"user_id":430,"name":"Joji - Tick Tock","steam_id":76561198418414338,"connected_time":2280000000000,"state":"active","ping":104},{"user_id":441,"name":"Afrosho","steam_id":76561199072657965,"connected_time":1762000000000,"state":"active","ping":50},{"user_id":449,"name":"bed0tter","steam_id":76561197992298455,"connected_time":605000000000,"state":"active","ping":84},{"user_id":433,"name":"VicLoL","steam_id":76561198045580784,"connected_time":2236000000000,"state":"active","ping":75},{"user_id":443,"name":"dust","steam_id":76561198045218909,"connected_time":1068000000000,"state":"active","ping":45},{"user_id":406,"name":"PorgyPork","steam_id":76561198824399078,"connected_time":3996000000000,"state":"active","ping":59},{"user_id":456,"name":"mobe","steam_id":76561198121633820,"connected_time":112000000000,"state":"active","ping":74},{"user_id":427,"name":"Shon","steam_id":76561198170116342,"connected_time":2336000000000,"state":"active","ping":80},{"user_id":458,"name":"Paleblood","steam_id":76561198083943268,"connected_time":34000000000,"state":"spawning","ping":119},{"user_id":457,"name":"Luca","steam_id":76561198125087140,"connected_time":37000000000,"state":"active","ping":47},{"user_id":454,"name":"Seagoll","steam_id":76561198017953606,"connected_time":454000000000,"state":"active","ping":57},{"user_id":448,"name":"BowlOfRice","steam_id":76561199239165015,"connected_time":905000000000,"state":"active","ping":100},{"user_id":405,"name":"big car","steam_id":76561198067082350,"connected_time":4113000000000,"state":"active","ping":70}]},{"server_id":119,"name":"Uncletopia | Seattle | 2 | All Maps","name_short":"sea-2","host":"sea-1.us.uncletopia.com","port":27025,"enabled":true,"region":"us-west","cc":"us","latitude":47.608013,"longitude":-122.33517,"reserved":0,"last_update":"0001-01-01T00:00:00Z","name_a2s":"Uncletopia | Seattle | 2 | All Maps","protocol":17,"map":"pl_pier","folder":"tf","game":"Team Fortress","app_id":440,"player_count":23,"max_players":24,"Bots":0,"server_type":"Dedicated","server_os":"Linux","password":true,"vac":true,"version":"7742253","steam_id":85568392924469998,"keywords":["nocrits","nodmgspread","payload","uncletopia"],"game_id":440,"stv_port":27026,"stv_name":"Uncletopia | Seattle | 2 | All Maps | STV","players":[{"user_id":506,"name":"KingTinkerer","steam_id":76561198226856548,"connected_time":3260000000000,"state":"active","ping":59},{"user_id":492,"name":"thunderous prophet","steam_id":76561198131166135,"connected_time":4331000000000,"state":"active","ping":43},{"user_id":531,"name":"resh","steam_id":76561198239598834,"connected_time":72000000000,"state":"active","ping":137},{"user_id":510,"name":"pizza","steam_id":76561199389584938,"connected_time":2694000000000,"state":"active","ping":38},{"user_id":499,"name":"The Best Healer","steam_id":76561198079452621,"connected_time":3462000000000,"state":"active","ping":51},{"user_id":527,"name":"Zee❤","steam_id":76561198274550638,"connected_time":507000000000,"state":"active","ping":133},{"user_id":516,"name":"nescoceo","steam_id":76561198040801160,"connected_time":1093000000000,"state":"active","ping":83},{"user_id":514,"name":"Sparks","steam_id":76561198050950496,"connected_time":1950000000000,"state":"active","ping":93},{"user_id":521,"name":"the","steam_id":76561198079418310,"connected_time":1026000000000,"state":"active","ping":57},{"user_id":528,"name":"k","steam_id":76561198835242836,"connected_time":496000000000,"state":"active","ping":46},{"user_id":530,"name":"exephur","steam_id":76561198135763234,"connected_time":215000000000,"state":"active","ping":63},{"user_id":525,"name":"KellyKapoor","steam_id":76561198040828123,"connected_time":557000000000,"state":"active","ping":93},{"user_id":493,"name":"General Fisticuffs","steam_id":76561198255721392,"connected_time":4158000000000,"state":"active","ping":107},{"user_id":529,"name":"corbenis","steam_id":76561199012442511,"connected_time":448000000000,"state":"active","ping":77},{"user_id":464,"name":"Noxus","steam_id":76561199009820852,"connected_time":6231000000000,"state":"active","ping":84},{"user_id":518,"name":"lili.winters","steam_id":76561199391478575,"connected_time":1080000000000,"state":"active","ping":79},{"user_id":470,"name":"Nibotshooter","steam_id":76561199284825579,"connected_time":6148000000000,"state":"active","ping":89},{"user_id":495,"name":"squash","steam_id":76561198150281353,"connected_time":4020000000000,"state":"active","ping":55},{"user_id":501,"name":"rorytherednosedreindeer","steam_id":76561198065825165,"connected_time":3354000000000,"state":"active","ping":73},{"user_id":511,"name":"hardfork","steam_id":76561197960958019,"connected_time":2484000000000,"state":"active","ping":64},{"user_id":497,"name":"Dali","steam_id":76561198077593486,"connected_time":3965000000000,"state":"active","ping":95},{"user_id":520,"name":"serotine","steam_id":76561198012590797,"connected_time":1051000000000,"state":"active","ping":87},{"user_id":523,"name":"p=9HIGHjorts","steam_id":76561199041179985,"connected_time":939000000000,"state":"active","ping":57}]},{"server_id":406,"name":"Uncletopia | Seattle | 3 | Stopwatch Beta","name_short":"sea-3","host":"sea-1.us.uncletopia.com","port":27035,"enabled":true,"region":"us-west","cc":"us","latitude":47.608013,"longitude":-122.33517,"reserved":0,"last_update":"0001-01-01T00:00:00Z","name_a2s":"Uncletopia | Seattle | 3 | Stopwatch Beta","protocol":17,"map":"cp_gullywash_final1","folder":"tf","game":"Team Fortress","app_id":440,"player_count":4,"max_players":24,"Bots":0,"server_type":"Dedicated","server_os":"Linux","password":true,"vac":false,"version":"7742253","steam_id":0,"keywords":["cp","nocrits","nodmgspread","uncletopia"],"game_id":440,"stv_port":27036,"stv_name":"Uncletopia | Seattle | 3 | Stopwatch Beta | STV","players":[{"user_id":12,"name":"Elite_Friendly","steam_id":76561198819972127,"connected_time":346000000000,"state":"active","ping":50},{"user_id":9,"name":"Anti-Buffer","steam_id":76561198202023350,"connected_time":1288000000000,"state":"active","ping":145},{"user_id":10,"name":"WELCOME TO WARIO WORLD!!!","steam_id":76561199118711243,"connected_time":1216000000000,"state":"active","ping":80},{"user_id":11,"name":"Your Local Festive Furry","steam_id":76561199030190462,"connected_time":572000000000,"state":"active","ping":96}]},{"server_id":17,"name":"Uncletopia | San Francisco | 1 | All Maps","name_short":"sfo-1","host":"sfo-1.us.uncletopia.com","port":27015,"enabled":true,"region":"us-west","cc":"us","latitude":37.77397,"longitude":-122.4313,"reserved":0,"last_update":"0001-01-01T00:00:00Z","name_a2s":"Uncletopia | San Francisco | 1 | All Maps","protocol":17,"map":"koth_lakeside_final","folder":"tf","game":"Team Fortress","app_id":440,"player_count":0,"max_players":24,"Bots":0,"server_type":"Dedicated","server_os":"Linux","password":true,"vac":true,"version":"7742253","steam_id":85568392924469999,"keywords":["cp","nocrits","nodmgspread","uncletopia"],"game_id":440,"stv_port":27016,"stv_name":"Uncletopia | San Francisco | 1 | All Maps | STV","players":null},{"server_id":18,"name":"Uncletopia | San Francisco | 2 | All Maps","name_short":"sfo-2","host":"sfo-1.us.uncletopia.com","port":27025,"enabled":true,"region":"us-west","cc":"us","latitude":37.77397,"longitude":-122.4313,"reserved":0,"last_update":"0001-01-01T00:00:00Z","name_a2s":"Uncletopia | San Francisco | 2 | All Maps","protocol":17,"map":"koth_cascade","folder":"tf","game":"Team Fortress","app_id":440,"player_count":3,"max_players":24,"Bots":0,"server_type":"Dedicated","server_os":"Linux","password":true,"vac":true,"version":"7742253","steam_id":85568392924470000,"keywords":["cp","nocrits","nodmgspread","uncletopia"],"game_id":440,"stv_port":27026,"stv_name":"Uncletopia | San Francisco | 2 | All Maps | STV","players":[{"user_id":17,"name":"IV","steam_id":76561198208996573,"connected_time":735000000000,"state":"active","ping":46},{"user_id":18,"name":"Imabox","steam_id":76561199206177858,"connected_time":698000000000,"state":"active","ping":52},{"user_id":20,"name":"medic gf","steam_id":76561198052069998,"connected_time":9000000000,"state":"spawning","ping":109}]},{"server_id":19,"name":"Uncletopia | San Francisco | 3 | Stopwatch Beta","name_short":"sfo-3","host":"sfo-1.us.uncletopia.com","port":27035,"enabled":true,"region":"us-west","cc":"us","latitude":37.77397,"longitude":-122.4313,"reserved":0,"last_update":"0001-01-01T00:00:00Z","name_a2s":"Uncletopia | San Francisco | 3 | Stopwatch Beta","protocol":17,"map":"cp_snakewater_final1","folder":"tf","game":"Team Fortress","app_id":440,"player_count":0,"max_players":24,"Bots":0,"server_type":"Dedicated","server_os":"Linux","password":true,"vac":true,"version":"7742253","steam_id":85568392924742824,"keywords":["cp","nocrits","nodmgspread","uncletopia"],"game_id":440,"stv_port":27036,"stv_name":"Uncletopia | San Francisco | 3 | Stopwatch Beta | STV","players":null},{"server_id":20,"name":"Uncletopia | San Francisco | 4 | Community","name_short":"sfo-4","host":"sfo-1.us.uncletopia.com","port":27045,"enabled":true,"region":"us-west","cc":"us","latitude":37.77397,"longitude":-122.4313,"reserved":0,"last_update":"0001-01-01T00:00:00Z","name_a2s":"Uncletopia | San Francisco | 4 | Community","protocol":17,"map":"workshop/koth_ramjam_v2_b2.ugc2865676487","folder":"tf","game":"Team Fortress","app_id":440,"player_count":0,"max_players":24,"Bots":0,"server_type":"Dedicated","server_os":"Linux","password":true,"vac":true,"version":"7742253","steam_id":85568392924742826,"keywords":["cp","nocrits","nodmgspread","uncletopia"],"game_id":440,"stv_port":27046,"stv_name":"Uncletopia | San Francisco | 4 | Community | STV","players":null},{"server_id":141,"name":"Uncletopia | Sydney | 1 | All Maps","name_short":"syd-1","host":"syd-1.au.uncletopia.com","port":27015,"enabled":true,"region":"au","cc":"au","latitude":-33.865143,"longitude":151.2099,"reserved":0,"last_update":"0001-01-01T00:00:00Z","name_a2s":"Uncletopia | Sydney | 1 | All Maps","protocol":17,"map":"pl_goldrush","folder":"tf","game":"Team Fortress","app_id":440,"player_count":13,"max_players":24,"Bots":0,"server_type":"Dedicated","server_os":"Linux","password":true,"vac":true,"version":"7742253","steam_id":85568392924470001,"keywords":["nocrits","nodmgspread","payload","uncletopia"],"game_id":440,"stv_port":27016,"stv_name":"Uncletopia | Sydney | 1 | All Maps | STV","players":[{"user_id":177,"name":"Muffin™","steam_id":76561198819353439,"connected_time":2531000000000,"state":"active","ping":49},{"user_id":28,"name":"Nyda","steam_id":76561198152311904,"connected_time":14530000000000,"state":"active","ping":66},{"user_id":205,"name":"fat","steam_id":76561198997194322,"connected_time":788000000000,"state":"active","ping":66},{"user_id":204,"name":"Defender90","steam_id":76561198864422095,"connected_time":856000000000,"state":"active","ping":41},{"user_id":40,"name":"Maxamus","steam_id":76561198343953317,"connected_time":12989000000000,"state":"active","ping":69},{"user_id":206,"name":"Shoot Shooot Good Gud","steam_id":76561198880471961,"connected_time":757000000000,"state":"active","ping":222},{"user_id":170,"name":"*akolai","steam_id":76561198075366402,"connected_time":2988000000000,"state":"active","ping":48},{"user_id":202,"name":"Depressed Mario. #savetf2","steam_id":76561198941782823,"connected_time":1041000000000,"state":"active","ping":319},{"user_id":207,"name":"TW_light2022","steam_id":76561199393566784,"connected_time":679000000000,"state":"active","ping":72},{"user_id":208,"name":"BilboSwaggins79","steam_id":76561198984446872,"connected_time":624000000000,"state":"active","ping":49},{"user_id":209,"name":"¯\\_(ツ)_/¯","steam_id":76561199206182584,"connected_time":601000000000,"state":"active","ping":64},{"user_id":210,"name":"void","steam_id":76561198241303512,"connected_time":121000000000,"state":"active","ping":54},{"user_id":189,"name":"Coffee","steam_id":76561198072414195,"connected_time":1657000000000,"state":"active","ping":73}]},{"server_id":123,"name":"Uncletopia | Sydney | 2 | All Maps","name_short":"syd-2","host":"syd-1.au.uncletopia.com","port":27025,"enabled":true,"region":"au","cc":"au","latitude":-33.865143,"longitude":151.2099,"reserved":0,"last_update":"0001-01-01T00:00:00Z","name_a2s":"Uncletopia | Sydney | 2 | All Maps","protocol":17,"map":"pl_upward","folder":"tf","game":"Team Fortress","app_id":440,"player_count":24,"max_players":24,"Bots":0,"server_type":"Dedicated","server_os":"Linux","password":true,"vac":true,"version":"7742253","steam_id":85568392924470002,"keywords":["nocrits","nodmgspread","payload","uncletopia"],"game_id":440,"stv_port":27026,"stv_name":"Uncletopia | Sydney | 2 | All Maps | STV","players":[{"user_id":94,"name":"electro599","steam_id":76561198058148858,"connected_time":3076000000000,"state":"active","ping":55},{"user_id":76,"name":"Rizeo","steam_id":76561198147901488,"connected_time":3803000000000,"state":"active","ping":63},{"user_id":47,"name":"CuzzyCuz","steam_id":76561198069054697,"connected_time":5553000000000,"state":"active","ping":67},{"user_id":120,"name":"michael","steam_id":76561198052848358,"connected_time":1977000000000,"state":"active","ping":56},{"user_id":79,"name":"braddles [HF]","steam_id":76561198153854876,"connected_time":3672000000000,"state":"active","ping":35},{"user_id":170,"name":"Darren","steam_id":76561198988128327,"connected_time":466000000000,"state":"active","ping":39},{"user_id":171,"name":"PsychoTy","steam_id":76561198806631730,"connected_time":341000000000,"state":"active","ping":51},{"user_id":104,"name":"The Goodnight Kiwi","steam_id":76561198866433807,"connected_time":2604000000000,"state":"active","ping":61},{"user_id":161,"name":"CouldBeKarlos","steam_id":76561198956180767,"connected_time":1048000000000,"state":"active","ping":48},{"user_id":159,"name":"Jacob","steam_id":76561198059341907,"connected_time":1120000000000,"state":"active","ping":34},{"user_id":178,"name":"LightningBlock","steam_id":76561198289997742,"connected_time":96000000000,"state":"active","ping":30},{"user_id":173,"name":"ice_freeze101","steam_id":76561198060902496,"connected_time":270000000000,"state":"active","ping":49},{"user_id":163,"name":"SkoKiE","steam_id":76561198283542986,"connected_time":889000000000,"state":"active","ping":70},{"user_id":148,"name":"Spicy Baguette","steam_id":76561198238030210,"connected_time":1472000000000,"state":"active","ping":44},{"user_id":174,"name":"Atlas","steam_id":76561198069332870,"connected_time":252000000000,"state":"active","ping":52},{"user_id":156,"name":"tama","steam_id":76561197963485175,"connected_time":1241000000000,"state":"active","ping":61},{"user_id":176,"name":"Grimm","steam_id":76561198096245286,"connected_time":166000000000,"state":"active","ping":53},{"user_id":179,"name":"S T U L I X","steam_id":76561199162315630,"connected_time":74000000000,"state":"active","ping":41},{"user_id":151,"name":"hobo","steam_id":76561199046481213,"connected_time":1335000000000,"state":"active","ping":69},{"user_id":158,"name":"Diming","steam_id":76561198325584599,"connected_time":1171000000000,"state":"active","ping":60},{"user_id":87,"name":"Tnttoad","steam_id":76561198297360775,"connected_time":3387000000000,"state":"active","ping":49},{"user_id":180,"name":"Owlenstein™","steam_id":76561198093983826,"connected_time":20000000000,"state":"spawning","ping":304},{"user_id":144,"name":"pooparse","steam_id":76561198217959591,"connected_time":1532000000000,"state":"active","ping":59},{"user_id":154,"name":"ITS FUCKING FEMBOY FRIDAY","steam_id":76561199090168813,"connected_time":1270000000000,"state":"active","ping":61}]},{"server_id":395,"name":"Uncletopia | Sydney | 3 | All Maps","name_short":"syd-3","host":"syd-1.au.uncletopia.com","port":27035,"enabled":true,"region":"au","cc":"au","latitude":-33.865143,"longitude":151.2099,"reserved":0,"last_update":"0001-01-01T00:00:00Z","name_a2s":"Uncletopia | Sydney | 3 | All Maps","protocol":17,"map":"cp_snakewater_final1","folder":"tf","game":"Team Fortress","app_id":440,"player_count":0,"max_players":24,"Bots":0,"server_type":"Dedicated","server_os":"Linux","password":true,"vac":true,"version":"7742253","steam_id":85568392925194467,"keywords":["cp","nocrits","nodmgspread","uncletopia"],"game_id":440,"stv_port":27036,"stv_name":"Uncletopia | Sydney | 3 | All Maps | STV","players":null},{"server_id":396,"name":"Uncletopia | Sydney | 4 | All Maps","name_short":"syd-4","host":"syd-1.au.uncletopia.com","port":27045,"enabled":true,"region":"au","cc":"au","latitude":-33.865143,"longitude":151.2099,"reserved":0,"last_update":"0001-01-01T00:00:00Z","name_a2s":"Uncletopia | Sydney | 4 | All Maps","protocol":17,"map":"pl_borneo","folder":"tf","game":"Team Fortress","app_id":440,"player_count":0,"max_players":24,"Bots":0,"server_type":"Dedicated","server_os":"Linux","password":true,"vac":true,"version":"7742253","steam_id":85568392925397958,"keywords":["nocrits","nodmgspread","payload","uncletopia"],"game_id":440,"stv_port":27046,"stv_name":"Uncletopia | Sydney | 4 | All Maps | STV","players":null},{"server_id":58,"name":"Uncletopia | Sydney | 5 | Stopwatch Beta","name_short":"syd-5","host":"syd-1.au.uncletopia.com","port":27055,"enabled":true,"region":"au","cc":"au","latitude":-33.865143,"longitude":151.2099,"reserved":0,"last_update":"0001-01-01T00:00:00Z","name_a2s":"Uncletopia | Sydney | 5 | Stopwatch Beta","protocol":17,"map":"cp_snakewater_final1","folder":"tf","game":"Team Fortress","app_id":440,"player_count":0,"max_players":24,"Bots":0,"server_type":"Dedicated","server_os":"Linux","password":true,"vac":true,"version":"7742253","steam_id":85568392925397959,"keywords":["cp","nocrits","nodmgspread","uncletopia"],"game_id":440,"stv_port":27056,"stv_name":"Uncletopia | Sydney | 5 | Stopwatch Beta | STV","players":null},{"server_id":59,"name":"Uncletopia | Sydney | 6 | Community","name_short":"syd-6","host":"syd-1.au.uncletopia.com","port":27065,"enabled":true,"region":"au","cc":"au","latitude":-33.865143,"longitude":151.2099,"reserved":0,"last_update":"0001-01-01T00:00:00Z","name_a2s":"Uncletopia | Sydney | 6 | Community","protocol":17,"map":"workshop/koth_product_final.ugc454272353","folder":"tf","game":"Team Fortress","app_id":440,"player_count":0,"max_players":24,"Bots":0,"server_type":"Dedicated","server_os":"Linux","password":true,"vac":true,"version":"7742253","steam_id":85568392925397960,"keywords":["cp","nocrits","nodmgspread","uncletopia"],"game_id":440,"stv_port":27066,"stv_name":"Uncletopia | Sydney | 6 | Community | STV","players":null},{"server_id":49,"name":"Uncletopia | Warsaw | 1 | All Maps","name_short":"waw-1","host":"waw-1.pl.uncletopia.com","port":27015,"enabled":true,"region":"eu","cc":"pl","latitude":52.2297,"longitude":21.017532,"reserved":0,"last_update":"0001-01-01T00:00:00Z","name_a2s":"Uncletopia | Warsaw | 1 | All Maps","protocol":17,"map":"koth_lakeside_final","folder":"tf","game":"Team Fortress","app_id":440,"player_count":0,"max_players":24,"Bots":0,"server_type":"Dedicated","server_os":"Linux","password":true,"vac":true,"version":"7723704","steam_id":85568392925397850,"keywords":["cp","nocrits","nodmgspread","uncletopia"],"game_id":440,"stv_port":27016,"stv_name":"Uncletopia | Warsaw | 1 | All Maps | STV","players":null},{"server_id":50,"name":"Uncletopia | Warsaw | 2 | All Maps","name_short":"waw-2","host":"waw-1.pl.uncletopia.com","port":27025,"enabled":true,"region":"eu","cc":"pl","latitude":52.2297,"longitude":21.017532,"reserved":0,"last_update":"0001-01-01T00:00:00Z","name_a2s":"Uncletopia | Warsaw | 2 | All Maps","protocol":17,"map":"koth_cascade","folder":"tf","game":"Team Fortress","app_id":440,"player_count":0,"max_players":24,"Bots":0,"server_type":"Dedicated","server_os":"Linux","password":true,"vac":true,"version":"7742253","steam_id":85568392925397851,"keywords":["cp","nocrits","nodmgspread","uncletopia"],"game_id":440,"stv_port":27026,"stv_name":"Uncletopia | Warsaw | 2 | All Maps | STV","players":null},{"server_id":51,"name":"Uncletopia | Warsaw | 3 | All Maps","name_short":"waw-3","host":"waw-1.pl.uncletopia.com","port":27035,"enabled":true,"region":"eu","cc":"pl","latitude":52.2297,"longitude":21.017532,"reserved":0,"last_update":"0001-01-01T00:00:00Z","name_a2s":"Uncletopia | Warsaw | 3 | All Maps","protocol":17,"map":"koth_cascade","folder":"tf","game":"Team Fortress","app_id":440,"player_count":0,"max_players":24,"Bots":0,"server_type":"Dedicated","server_os":"Linux","password":true,"vac":true,"version":"7742253","steam_id":85568392925397852,"keywords":["cp","nocrits","nodmgspread","uncletopia"],"game_id":440,"stv_port":27036,"stv_name":"Uncletopia | Warsaw | 3 | All Maps | STV","players":null},{"server_id":52,"name":"Uncletopia | Warsaw | 4 | All Maps","name_short":"waw-4","host":"waw-1.pl.uncletopia.com","port":27045,"enabled":true,"region":"eu","cc":"pl","latitude":52.2297,"longitude":21.017532,"reserved":0,"last_update":"0001-01-01T00:00:00Z","name_a2s":"Uncletopia | Warsaw | 4 | All Maps","protocol":17,"map":"pl_swiftwater_final1","folder":"tf","game":"Team Fortress","app_id":440,"player_count":0,"max_players":24,"Bots":0,"server_type":"Dedicated","server_os":"Linux","password":true,"vac":true,"version":"7742253","steam_id":85568392925397853,"keywords":["nocrits","nodmgspread","payload","uncletopia"],"game_id":440,"stv_port":27046,"stv_name":"Uncletopia | Warsaw | 4 | All Maps | STV","players":null},{"server_id":53,"name":"Uncletopia | Warsaw | 5 | Stopwatch Beta","name_short":"waw-5","host":"waw-1.pl.uncletopia.com","port":27055,"enabled":true,"region":"eu","cc":"pl","latitude":52.2297,"longitude":21.017532,"reserved":0,"last_update":"0001-01-01T00:00:00Z","name_a2s":"Uncletopia | Warsaw | 5 | Stopwatch Beta","protocol":17,"map":"pl_pier","folder":"tf","game":"Team Fortress","app_id":440,"player_count":0,"max_players":24,"Bots":0,"server_type":"Dedicated","server_os":"Linux","password":true,"vac":true,"version":"7742253","steam_id":85568392925397854,"keywords":["nocrits","nodmgspread","payload","uncletopia"],"game_id":440,"stv_port":27056,"stv_name":"Uncletopia | Warsaw | 5 | Stopwatch Beta | STV","players":null},{"server_id":54,"name":"Uncletopia | Warsaw | 6 | Community","name_short":"waw-6","host":"waw-1.pl.uncletopia.com","port":27065,"enabled":true,"region":"eu","cc":"pl","latitude":52.2297,"longitude":21.017532,"reserved":0,"last_update":"0001-01-01T00:00:00Z","name_a2s":"Uncletopia | Warsaw | 6 | Community","protocol":17,"map":"workshop/rd_asteroid_redux_rc9.ugc2154902912","folder":"tf","game":"Team Fortress","app_id":440,"player_count":0,"max_players":24,"Bots":0,"server_type":"Dedicated","server_os":"Linux","password":true,"vac":true,"version":"7742253","steam_id":85568392925397856,"keywords":["beta","nocrits","nodmgspread","rd","uncletopia"],"game_id":440,"stv_port":27066,"stv_name":"Uncletopia | Warsaw | 6 | Community | STV","players":null}]}