{"status":true,"message":"","result":[{"server_id":9,"name":"Uncletopia | Atlanta | 1 | All Maps","name_short":"atl-1","host":"atl-1.us.uncletopia.com","port":27015,"enabled":true,"region":"us-east","cc":"us","latitude":33.753746,"longitude":-84.38633,"reserved":0,"last_update":"0001-01-01T00:00:00Z","name_a2s":"Uncletopia | Atlanta | 1 | All Maps","protocol":17,"map":"cp_dustbowl","folder":"tf","game":"Team Fortress","app_id":440,"player_count":0,"max_players":24,"Bots":0,"server_type":"Dedicated","server_os":"Linux","password":true,"vac":true,"version":"7961495","steam_id":85568392924469982,"keywords":["cp","nocrits","nodmgspread","uncletopia"],"game_id":440,"stv_port":27016,"stv_name":"Uncletopia | Atlanta | 1 | All Maps | STV","players":null},{"server_id":104,"name":"Uncletopia | Atlanta | 2 | All Maps","name_short":"atl-2","host":"atl-1.us.uncletopia.com","port":27025,"enabled":true,"region":"us-east","cc":"us","latitude":33.753746,"longitude":-84.38633,"reserved":0,"last_update":"0001-01-01T00:00:00Z","name_a2s":"Uncletopia | Atlanta | 2 | All Maps","protocol":17,"map":"pl_borneo","folder":"tf","game":"Team Fortress","app_id":440,"player_count":24,"max_players":24,"Bots":0,"server_type":"Dedicated","server_os":"Linux","password":true,"vac":true,"version":"7961495","steam_id":85568392924469983,"keywords":["nocrits","nodmgspread","payload","uncletopia"],"game_id":440,"stv_port":27026,"stv_name":"Uncletopia | Atlanta | 2 | All Maps | STV","players":null},{"server_id":400,"name":"Uncletopia | Atlanta | 3 | Stopwatch","name_short":"atl-3","host":"atl-1.us.uncletopia.com","port":27035,"enabled":true,"region":"us-east","cc":"us","latitude":33.753746,"longitude":-84.38633,"reserved":0,"last_update":"0001-01-01T00:00:00Z","name_a2s":"Uncletopia | Atlanta | 3 | Stopwatch","protocol":17,"map":"cp_process_final","folder":"tf","game":"Team Fortress","app_id":440,"player_count":24,"max_players":24,"Bots":0,"server_type":"Dedicated","server_os":"Linux","password":true,"vac":true,"version":"7961495","steam_id":85568392924515187,"keywords":["cp","nocrits","nodmgspread","uncletopia"],"game_id":440,"stv_port":27036,"stv_name":"Uncletopia | Atlanta | 3 | Stopwatch | STV","players":null},{"server_id":401,"name":"Uncletopia | Atlanta | 4 | Community","name_short":"atl-4","host":"atl-1.us.uncletopia.com","port":27045,"enabled":true,"region":"us-east","cc":"us","latitude":33.753746,"longitude":-84.38633,"reserved":0,"last_update":"0001-01-01T00:00:00Z","name_a2s":"Uncletopia | Atlanta | 4 | Community","protocol":17,"map":"cp_propaganda_b18","folder":"tf","game":"Team Fortress","app_id":440,"player_count":0,"max_players":24,"Bots":0,"server_type":"Dedicated","server_os":"Linux","password":true,"vac":true,"version":"7961495","steam_id":85568392924515188,"keywords":["cp","nocrits","nodmgspread","uncletopia"],"game_id":440,"stv_port":27046,"stv_name":"Uncletopia | Atlanta | 4 | Community | STV","players":null},{"server_id":2,"name":"Uncletopia | Chicago | 1 | All Maps","name_short":"chi-1","host":"chi-1.us.uncletopia.com","port":27015,"enabled":true,"region":"us-central","cc":"us","latitude":41.881832,"longitude":-87.62318,"reserved":0,"last_update":"0001-01-01T00:00:00Z","name_a2s":"Uncletopia | Chicago | 1 | All Maps","protocol":17,"map":"cp_dustbowl","folder":"tf","game":"Team Fortress","app_id":440,"player_count":24,"max_players":24,"Bots":0,"server_type":"Dedicated","server_os":"Linux","password":true,"vac":true,"version":"7961495","steam_id":85568392924469984,"keywords":["cp","nocrits","nodmgspread","uncletopia"],"game_id":440,"stv_port":27016,"stv_name":"Uncletopia | Chicago | 1 | All Maps | STV","players":[{"user_id":105,"name":"Miner2495","steam_id":76561198445904523,"connected_time":2460000000000,"state":"active","ping":65},{"user_id":83,"name":"LittleFieryOne","steam_id":76561198107463724,"connected_time":3713000000000,"state":"active","ping":60},{"user_id":112,"name":"DuckKey","steam_id":76561198904477889,"connected_time":1623000000000,"state":"active","ping":56},{"user_id":111,"name":"Boxpipe","steam_id":76561197964501915,"connected_time":1684000000000,"state":"active","ping":53},{"user_id":106,"name":"Jerk Tryhard (roleplay)","steam_id":76561199470538309,"connected_time":2342000000000,"state":"active","ping":88},{"user_id":103,"name":"Galmart","steam_id":76561199122036524,"connected_time":2492000000000,"state":"active","ping":73},{"user_id":121,"name":"BigNugs","steam_id":76561198056402610,"connected_time":327000000000,"state":"active","ping":70},{"user_id":118,"name":"Im High","steam_id":76561198049954886,"connected_time":1052000000000,"state":"active","ping":74},{"user_id":108,"name":"Splow","steam_id":76561198804238242,"connected_time":1822000000000,"state":"active","ping":100},{"user_id":115,"name":"Herb","steam_id":76561198330311949,"connected_time":1108000000000,"state":"active","ping":71},{"user_id":120,"name":"hej","steam_id":76561198110530761,"connected_time":609000000000,"state":"active","ping":135},{"user_id":46,"name":"Darling","steam_id":76561198127525888,"connected_time":7020000000000,"state":"active","ping":76},{"user_id":123,"name":"Jake","steam_id":76561198303046970,"connected_time":68000000000,"state":"active","ping":42},{"user_id":53,"name":"gaming elliptical","steam_id":76561198013456569,"connected_time":6917000000000,"state":"active","ping":49},{"user_id":96,"name":"Kyle","steam_id":76561198053855881,"connected_time":2894000000000,"state":"active","ping":74},{"user_id":109,"name":"Julio","steam_id":76561198272237516,"connected_time":1799000000000,"state":"active","ping":65},{"user_id":122,"name":"blazzeh","steam_id":76561198053407069,"connected_time":73000000000,"state":"active","ping":120},{"user_id":49,"name":"Young-OG","steam_id":76561198058800479,"connected_time":7015000000000,"state":"active","ping":76},{"user_id":71,"name":"big bird","steam_id":76561199470354045,"connected_time":5446000000000,"state":"active","ping":115},{"user_id":117,"name":"kirby7","steam_id":76561199167006749,"connected_time":1072000000000,"state":"active","ping":133},{"user_id":113,"name":"rat eater","steam_id":76561199216874750,"connected_time":1479000000000,"state":"active","ping":60},{"user_id":86,"name":"Rornir","steam_id":76561198081829615,"connected_time":3674000000000,"state":"active","ping":38},{"user_id":81,"name":"IAmAProfesonal","steam_id":76561199171858953,"connected_time":4244000000000,"state":"active","ping":52},{"user_id":119,"name":"beesechurger‚Ñ¢","steam_id":76561198867219032,"connected_time":1037000000000,"state":"active","ping":69}]},{"server_id":106,"name":"Uncletopia | Chicago | 2 | All Maps","name_short":"chi-2","host":"chi-1.us.uncletopia.com","port":27025,"enabled":true,"region":"us-central","cc":"us","latitude":41.881832,"longitude":-87.62318,"reserved":0,"last_update":"0001-01-01T00:00:00Z","name_a2s":"Uncletopia | Chicago | 2 | All Maps","protocol":17,"map":"koth_lakeside_final","folder":"tf","game":"Team Fortress","app_id":440,"player_count":0,"max_players":24,"Bots":0,"server_type":"Dedicated","server_os":"Linux","password":true,"vac":true,"version":"7961495","steam_id":85568392924469985,"keywords":["cp","nocrits","nodmgspread","uncletopia"],"game_id":440,"stv_port":27026,"stv_name":"Uncletopia | Chicago | 2 | All Maps | STV","players":null},{"server_id":402,"name":"Uncletopia | Chicago | 3 | All Maps","name_short":"chi-3","host":"chi-1.us.uncletopia.com","port":27035,"enabled":true,"region":"us-central","cc":"us","latitude":41.881832,"longitude":-87.62318,"reserved":0,"last_update":"0001-01-01T00:00:00Z","name_a2s":"Uncletopia | Chicago | 3 | All Maps","protocol":17,"map":"pl_snowycoast","folder":"tf","game":"Team Fortress","app_id":440,"player_count":0,"max_players":24,"Bots":0,"server_type":"Dedicated","server_os":"Linux","password":true,"vac":true,"version":"7961495","steam_id":85568392924515191,"keywords":["nocrits","nodmgspread","payload","uncletopia"],"game_id":440,"stv_port":27036,"stv_name":"Uncletopia | Chicago | 3 | All Maps | STV","players":null},{"server_id":403,"name":"Uncletopia | Chicago | 4 | All Maps","name_short":"chi-4","host":"chi-1.us.uncletopia.com","port":27045,"enabled":true,"region":"us-central","cc":"us","latitude":41.881832,"longitude":-87.62318,"reserved":0,"last_update":"0001-01-01T00:00:00Z","name_a2s":"Uncletopia | Chicago | 4 | All Maps","protocol":17,"map":"pl_badwater","folder":"tf","game":"Team Fortress","app_id":440,"player_count":24,"max_players":24,"Bots":0,"server_type":"Dedicated","server_os":"Linux","password":true,"vac":true,"version":"7961495","steam_id":85568392924515193,"keywords":["nocrits","nodmgspread","payload","uncletopia"],"game_id":440,"stv_port":27046,"stv_name":"Uncletopia | Chicago | 4 | All Maps | STV","players":[{"user_id":7,"name":"Tri-Dot","steam_id":76561199075186597,"connected_time":3056000000000,"state":"active","ping":70},{"user_id":54,"name":"Junipyre","steam_id":76561198044819364,"connected_time":489000000000,"state":"active","ping":75},{"user_id":10,"name":"Sneerful","steam_id":76561198032663494,"connected_time":2889000000000,"state":"active","ping":70},{"user_id":58,"name":"sillylokisparkles","steam_id":76561198872251615,"connected_time":313000000000,"state":"active","ping":87},{"user_id":68,"name":"b-dot","steam_id":76561198160786631,"connected_time":46000000000,"state":"active","ping":59},{"user_id":67,"name":"Nexusuxen","steam_id":76561198117547131,"connected_time":94000000000,"state":"active","ping":66},{"user_id":63,"name":"Toxic Ron","steam_id":76561198089302972,"connected_time":129000000000,"state":"active","ping":61},{"user_id":66,"name":"mendako","steam_id":76561198295305088,"connected_time":108000000000,"state":"active","ping":165},{"user_id":52,"name":"A_dude","steam_id":76561199261495418,"connected_time":673000000000,"state":"active","ping":80},{"user_id":61,"name":"Jetmonkey","steam_id":76561198013652143,"connected_time":175000000000,"state":"active","ping":72},{"user_id":37,"name":"airoh.","steam_id":76561198025907641,"connected_time":1962000000000,"state":"active","ping":46},{"user_id":34,"name":"God","steam_id":76561198131089513,"connected_time":2107000000000,"state":"active","ping":46},{"user_id":49,"name":"Young Man","steam_id":76561198395766307,"connected_time":748000000000,"state":"active","ping":46},{"user_id":40,"name":"eeper guy","steam_id":76561198392539722,"connected_time":1908000000000,"state":"active","ping":78},{"user_id":53,"name":"phillip pest","steam_id":76561198334410076,"connected_time":669000000000,"state":"active","ping":61},{"user_id":46,"name":"Blue Eyes Ace Dragon.","steam_id":76561198048214237,"connected_time":1130000000000,"state":"active","ping":61},{"user_id":62,"name":"MY LOVE DRIPS IN RED","steam_id":76561198072179483,"connected_time":174000000000,"state":"active","ping":91},{"user_id":55,"name":"lordoftheP1NG","steam_id":76561199122697787,"connected_time":476000000000,"state":"active","ping":88},{"user_id":27,"name":"Lain","steam_id":76561198029303534,"connected_time":2409000000000,"state":"active","ping":64},{"user_id":28,"name":":p","steam_id":76561198047786061,"connected_time":2409000000000,"state":"active","ping":78},{"user_id":47,"name":"Ringaroundme","steam_id":76561199010126042,"connected_time":1128000000000,"state":"active","ping":120},{"user_id":30,"name":"sansa musa","steam_id":76561198163723555,"connected_time":2384000000000,"state":"active","ping":75},{"user_id":64,"name":"gamin'","steam_id":76561199046667189,"connected_time":126000000000,"state":"active","ping":63},{"user_id":65,"name":"King Sans","steam_id":76561198294198517,"connected_time":119000000000,"state":"active","ping":59}]},{"server_id":36,"name":"Uncletopia | Chicago | 5 | All Maps","name_short":"chi-5","host":"chi-2.us.uncletopia.com","port":27015,"enabled":true,"region":"us-central","cc":"us","latitude":41.881832,"longitude":-87.62318,"reserved":0,"last_update":"0001-01-01T00:00:00Z","name_a2s":"Uncletopia | Chicago | 5 | All Maps","protocol":17,"map":"koth_viaduct","folder":"tf","game":"Team Fortress","app_id":440,"player_count":0,"max_players":24,"Bots":0,"server_type":"Dedicated","server_os":"Linux","password":true,"vac":true,"version":"7961495","steam_id":85568392924866362,"keywords":["cp","nocrits","nodmgspread","uncletopia"],"game_id":440,"stv_port":27016,"stv_name":"Uncletopia | Chicago | 5 | All Maps | STV","players":null},{"server_id":37,"name":"Uncletopia | Chicago | 6 | All Maps","name_short":"chi-6","host":"chi-2.us.uncletopia.com","port":27025,"enabled":true,"region":"us-central","cc":"us","latitude":41.881832,"longitude":-87.62318,"reserved":0,"last_update":"0001-01-01T00:00:00Z","name_a2s":"Uncletopia | Chicago | 6 | All Maps","protocol":17,"map":"koth_viaduct","folder":"tf","game":"Team Fortress","app_id":440,"player_count":0,"max_players":24,"Bots":0,"server_type":"Dedicated","server_os":"Linux","password":true,"vac":true,"version":"7961495","steam_id":85568392924866363,"keywords":["cp","nocrits","nodmgspread","uncletopia"],"game_id":440,"stv_port":27026,"stv_name":"Uncletopia | Chicago | 6 | All Maps | STV","players":null},{"server_id":38,"name":"Uncletopia | Chicago | 7 | Stopwatch","name_short":"chi-7","host":"chi-2.us.uncletopia.com","port":27035,"enabled":true,"region":"us-central","cc":"us","latitude":41.881832,"longitude":-87.62318,"reserved":0,"last_update":"0001-01-01T00:00:00Z","name_a2s":"Uncletopia | Chicago | 7 | Stopwatch","protocol":17,"map":"workshop/pl_barnblitz_pro7.ugc582280235","folder":"tf","game":"Team Fortress","app_id":440,"player_count":0,"max_players":24,"Bots":0,"server_type":"Dedicated","server_os":"Linux","password":true,"vac":true,"version":"7961495","steam_id":85568392924866364,"keywords":["nocrits","nodmgspread","payload","uncletopia"],"game_id":440,"stv_port":27036,"stv_name":"Uncletopia | Chicago | 7 | Stopwatch | STV","players":null},{"server_id":39,"name":"Uncletopia | Chicago | 8 | Community","name_short":"chi-8","host":"chi-2.us.uncletopia.com","port":27045,"enabled":true,"region":"us-central","cc":"us","latitude":41.881832,"longitude":-87.62318,"reserved":0,"last_update":"0001-01-01T00:00:00Z","name_a2s":"Uncletopia | Chicago | 8 | Community","protocol":17,"map":"pl_pier","folder":"tf","game":"Team Fortress","app_id":440,"player_count":0,"max_players":24,"Bots":0,"server_type":"Dedicated","server_os":"Linux","password":true,"vac":true,"version":"7961495","steam_id":85568392924866365,"keywords":["nocrits","nodmgspread","payload","uncletopia"],"game_id":440,"stv_port":27046,"stv_name":"Uncletopia | Chicago | 8 | Community | STV","players":null},{"server_id":8,"name":"Uncletopia | Dallas | 1 | All Maps","name_short":"dal-1","host":"dal-1.us.uncletopia.com","port":27015,"enabled":true,"region":"us-central","cc":"us","latitude":32.779167,"longitude":-96.80889,"reserved":0,"last_update":"0001-01-01T00:00:00Z","name_a2s":"Uncletopia | Dallas | 1 | All Maps","protocol":17,"map":"pl_barnblitz","folder":"tf","game":"Team Fortress","app_id":440,"player_count":24,"max_players":24,"Bots":0,"server_type":"Dedicated","server_os":"Linux","password":true,"vac":true,"version":"7961495","steam_id":85568392924469986,"keywords":["nocrits","nodmgspread","payload","uncletopia"],"game_id":440,"stv_port":27016,"stv_name":"Uncletopia | Dallas | 1 | All Maps | STV","players":[{"user_id":9,"name":"Cybertruck","steam_id":76561197993623674,"connected_time":1873000000000,"state":"active","ping":54},{"user_id":16,"name":"bleach65","steam_id":76561198115270571,"connected_time":1035000000000,"state":"active","ping":89},{"user_id":11,"name":"Kobes - Slava Ukraini!","steam_id":76561198029304408,"connected_time":1269000000000,"state":"active","ping":88},{"user_id":21,"name":"the big shitter","steam_id":76561198396326793,"connected_time":664000000000,"state":"active","ping":70},{"user_id":22,"name":"LISTERINE gritty 2024","steam_id":76561198165567310,"connected_time":561000000000,"state":"active","ping":75},{"user_id":24,"name":"LeefLett","steam_id":76561199166178308,"connected_time":542000000000,"state":"active","ping":93},{"user_id":25,"name":"doghouse","steam_id":76561198000319035,"connected_time":508000000000,"state":"active","ping":90},{"user_id":26,"name":"flippercurve","steam_id":76561199238295034,"connected_time":496000000000,"state":"active","ping":70},{"user_id":27,"name":"dobby","steam_id":76561198012274834,"connected_time":455000000000,"state":"active","ping":70},{"user_id":28,"name":"Retsoat","steam_id":76561198137038841,"connected_time":454000000000,"state":"active","ping":90},{"user_id":29,"name":"Goblin","steam_id":76561199384665653,"connected_time":443000000000,"state":"active","ping":77},{"user_id":30,"name":"Yackaboi","steam_id":76561199444911765,"connected_time":390000000000,"state":"active","ping":92},{"user_id":31,"name":"DesolateCabbage","steam_id":76561198064467423,"connected_time":382000000000,"state":"active","ping":51},{"user_id":32,"name":"Smashy","steam_id":76561198030704307,"connected_time":368000000000,"state":"active","ping":120},{"user_id":33,"name":"Macro","steam_id":76561199442846226,"connected_time":329000000000,"state":"active","ping":79},{"user_id":40,"name":"Kuyumiester","steam_id":76561198126835302,"connected_time":109000000000,"state":"active","ping":61},{"user_id":35,"name":"Seller of Waffles","steam_id":76561198296018138,"connected_time":322000000000,"state":"active","ping":72},{"user_id":36,"name":"TheGirthquake","steam_id":76561198238895056,"connected_time":233000000000,"state":"active","ping":74},{"user_id":37,"name":"TF2 Vending Machine","steam_id":76561199105777951,"connected_time":221000000000,"state":"active","ping":126},{"user_id":38,"name":"LFTHeavyMainBerner415TTV","steam_id":76561198082334363,"connected_time":176000000000,"state":"active","ping":91},{"user_id":39,"name":"Carrol","steam_id":76561198316384960,"connected_time":132000000000,"state":"active","ping":102},{"user_id":41,"name":"redarcher42","steam_id":76561199027887687,"connected_time":99000000000,"state":"active","ping":77},{"user_id":42,"name":"JDizzle","steam_id":76561199122696841,"connected_time":78000000000,"state":"active","ping":86},{"user_id":43,"name":"uzr","steam_id":76561198799343084,"connected_time":53000000000,"state":"active","ping":82}]},{"server_id":108,"name":"Uncletopia | Dallas | 2 | All Maps","name_short":"dal-2","host":"dal-1.us.uncletopia.com","port":27025,"enabled":true,"region":"us-central","cc":"us","latitude":32.779167,"longitude":-96.80889,"reserved":0,"last_update":"0001-01-01T00:00:00Z","name_a2s":"Uncletopia | Dallas | 2 | All Maps","protocol":17,"map":"pl_snowycoast","folder":"tf","game":"Team Fortress","app_id":440,"player_count":1,"max_players":24,"Bots":0,"server_type":"Dedicated","server_os":"Linux","password":true,"vac":true,"version":"7961495","steam_id":85568392924469988,"keywords":["nocrits","nodmgspread","payload","uncletopia"],"game_id":440,"stv_port":27026,"stv_name":"Uncletopia | Dallas | 2 | All Maps | STV","players":[{"user_id":4,"name":"Stanward","steam_id":76561198837486572,"connected_time":159000000000,"state":"active","ping":77}]},{"server_id":404,"name":"Uncletopia | Dallas | 3 | All Maps","name_short":"dal-3","host":"dal-1.us.uncletopia.com","port":27035,"enabled":true,"region":"us-central","cc":"us","latitude":32.779167,"longitude":-96.80889,"reserved":0,"last_update":"0001-01-01T00:00:00Z","name_a2s":"Uncletopia | Dallas | 3 | All Maps","protocol":17,"map":"koth_viaduct","folder":"tf","game":"Team Fortress","app_id":440,"player_count":0,"max_players":24,"Bots":0,"server_type":"Dedicated","server_os":"Linux","password":true,"vac":true,"version":"7961495","steam_id":85568392924515219,"keywords":["cp","nocrits","nodmgspread","uncletopia"],"game_id":440,"stv_port":27036,"stv_name":"Uncletopia | Dallas | 3 | All Maps | STV","players":null},{"server_id":405,"name":"Uncletopia | Dallas | 4 | Community","name_short":"dal-4","host":"dal-1.us.uncletopia.com","port":27045,"enabled":true,"region":"us-central","cc":"us","latitude":32.779167,"longitude":-96.80889,"reserved":0,"last_update":"0001-01-01T00:00:00Z","name_a2s":"Uncletopia | Dallas | 4 | Community","protocol":17,"map":"pl_pier","folder":"tf","game":"Team Fortress","app_id":440,"player_count":0,"max_players":24,"Bots":0,"server_type":"Dedicated","server_os":"Linux","password":true,"vac":true,"version":"7961495","steam_id":85568392924515220,"keywords":["nocrits","nodmgspread","payload","uncletopia"],"game_id":440,"stv_port":27046,"stv_name":"Uncletopia | Dallas | 4 | Community | STV","players":null},{"server_id":5,"name":"Uncletopia | Frankfurt | 1 | All Maps","name_short":"frk-1","host":"frk-1.de.uncletopia.com","port":27015,"enabled":true,"region":"eu","cc":"de","latitude":50.110924,"longitude":8.682127,"reserved":0,"last_update":"0001-01-01T00:00:00Z","name_a2s":"Uncletopia | Frankfurt | 1 | All Maps","protocol":17,"map":"cp_snakewater_final1","folder":"tf","game":"Team Fortress","app_id":440,"player_count":22,"max_players":24,"Bots":0,"server_type":"Dedicated","server_os":"Linux","password":true,"vac":true,"version":"7961495","steam_id":85568392924469989,"keywords":["cp","nocrits","nodmgspread","uncletopia"],"game_id":440,"stv_port":27016,"stv_name":"Uncletopia | Frankfurt | 1 | All Maps | STV","players":[{"user_id":506,"name":"Chaos the meme","steam_id":76561198069787558,"connected_time":6352000000000,"state":"active","ping":66},{"user_id":592,"name":"Unturtle","steam_id":76561198208081884,"connected_time":106000000000,"state":"active","ping":91},{"user_id":578,"name":"peams","steam_id":76561198343328308,"connected_time":351000000000,"state":"active","ping":45},{"user_id":573,"name":"bugpov","steam_id":76561198104896547,"connected_time":550000000000,"state":"active","ping":74},{"user_id":572,"name":"turbo shart","steam_id":76561198012351808,"connected_time":594000000000,"state":"active","ping":68},{"user_id":589,"name":"Michal","steam_id":76561198207549492,"connected_time":207000000000,"state":"active","ping":76},{"user_id":579,"name":"Bljuco","steam_id":76561198082405131,"connected_time":335000000000,"state":"active","ping":49},{"user_id":580,"name":"semp","steam_id":76561199053594356,"connected_time":311000000000,"state":"active","ping":82},{"user_id":479,"name":"hyvakii705","steam_id":76561198086630552,"connected_time":8968000000000,"state":"active","ping":99},{"user_id":555,"name":"your stepdad","steam_id":76561198887179028,"connected_time":1427000000000,"state":"active","ping":120},{"user_id":581,"name":"bruh","steam_id":76561198109262927,"connected_time":311000000000,"state":"active","ping":63},{"user_id":552,"name":"Cocsam","steam_id":76561198050827179,"connected_time":1640000000000,"state":"active","ping":61},{"user_id":582,"name":"Okay.","steam_id":76561199079755458,"connected_time":310000000000,"state":"active","ping":61},{"user_id":594,"name":"mp1mp2mp3","steam_id":76561198088967665,"connected_time":50000000000,"state":"spawning","ping":81},{"user_id":583,"name":"mr.resetti","steam_id":76561198974520642,"connected_time":297000000000,"state":"active","ping":60},{"user_id":584,"name":"domek","steam_id":76561198048447632,"connected_time":288000000000,"state":"active","ping":58},{"user_id":571,"name":"üî∞ Caramell üî∞","steam_id":76561198080244403,"connected_time":806000000000,"state":"active","ping":72},{"user_id":532,"name":"wasps","steam_id":76561198049485054,"connected_time":3497000000000,"state":"active","ping":77},{"user_id":593,"name":"shankz","steam_id":76561198128803260,"connected_time":84000000000,"state":"active","ping":58},{"user_id":569,"name":"Hussain_144","steam_id":76561198346029208,"connected_time":940000000000,"state":"active","ping":194},{"user_id":562,"name":"FUKAYOU","steam_id":76561198380484033,"connected_time":1301000000000,"state":"active","ping":56},{"user_id":591,"name":"CL! Meterora","steam_id":76561198092422131,"connected_time":192000000000,"state":"active","ping":56}]},{"server_id":110,"name":"Uncletopia | Frankfurt | 2 | All Maps","name_short":"frk-2","host":"frk-1.de.uncletopia.com","port":27025,"enabled":true,"region":"eu","cc":"de","latitude":50.110924,"longitude":8.682127,"reserved":0,"last_update":"0001-01-01T00:00:00Z","name_a2s":"Uncletopia | Frankfurt | 2 | All Maps","protocol":17,"map":"koth_highpass","folder":"tf","game":"Team Fortress","app_id":440,"player_count":5,"max_players":24,"Bots":0,"server_type":"Dedicated","server_os":"Linux","password":true,"vac":true,"version":"7961495","steam_id":85568392924469990,"keywords":["cp","nocrits","nodmgspread","uncletopia"],"game_id":440,"stv_port":27026,"stv_name":"Uncletopia | Frankfurt | 2 | All Maps | STV","players":[{"user_id":21,"name":"I-I","steam_id":76561198267969436,"connected_time":2482000000000,"state":"active","ping":62},{"user_id":22,"name":"Tiobio","steam_id":76561198355473473,"connected_time":538000000000,"state":"active","ping":71},{"user_id":23,"name":"Gardvord","steam_id":76561198120715753,"connected_time":516000000000,"state":"active","ping":72},{"user_id":24,"name":"Beep","steam_id":76561198151248575,"connected_time":438000000000,"state":"active","ping":69},{"user_id":25,"name":"Bortas","steam_id":76561197972282153,"connected_time":304000000000,"state":"active","ping":73}]},{"server_id":308,"name":"Uncletopia | Frankfurt | 3 | All Maps","name_short":"frk-3","host":"frk-1.de.uncletopia.com","port":27035,"enabled":true,"region":"eu","cc":"de","latitude":50.110924,"longitude":8.682127,"reserved":0,"last_update":"0001-01-01T00:00:00Z","name_a2s":"Uncletopia | Frankfurt | 3 | All Maps","protocol":17,"map":"pl_pier","folder":"tf","game":"Team Fortress","app_id":440,"player_count":13,"max_players":24,"Bots":0,"server_type":"Dedicated","server_os":"Linux","password":true,"vac":true,"version":"7961495","steam_id":85568392924504274,"keywords":["nocrits","nodmgspread","payload","uncletopia"],"game_id":440,"stv_port":27036,"stv_name":"Uncletopia | Frankfurt | 3 | All Maps | STV","players":[{"user_id":281,"name":"soar","steam_id":76561198010662796,"connected_time":198000000000,"state":"active","ping":56},{"user_id":273,"name":"Several geollos screaming","steam_id":76561198291326102,"connected_time":665000000000,"state":"active","ping":68},{"user_id":196,"name":"Storm's Foreshadow","steam_id":76561198098462526,"connected_time":5790000000000,"state":"active","ping":60},{"user_id":238,"name":"Pingus","steam_id":76561199015156956,"connected_time":4425000000000,"state":"active","ping":100},{"user_id":275,"name":"Kelsc","steam_id":76561197974567147,"connected_time":640000000000,"state":"active","ping":74},{"user_id":231,"name":"Íí∞ À∂‚Ä¢ ‡ºù ‚Ä¢À∂Íí±","steam_id":76561198054474684,"connected_time":4818000000000,"state":"active","ping":64},{"user_id":257,"name":"screenshot2020-25-09","steam_id":76561198255275650,"connected_time":2770000000000,"state":"active","ping":47},{"user_id":284,"name":"c1v","steam_id":76561199085624224,"connected_time":129000000000,"state":"active","ping":74},{"user_id":285,"name":"JayKey","steam_id":76561198008847925,"connected_time":64000000000,"state":"active","ping":61},{"user_id":286,"name":"Lubi Animal","steam_id":76561199041620433,"connected_time":53000000000,"state":"spawning","ping":58},{"user_id":269,"name":"meriones","steam_id":76561198034234373,"connected_time":1100000000000,"state":"active","ping":56},{"user_id":246,"name":"jona3838","steam_id":76561199097658195,"connected_time":3964000000000,"state":"active","ping":102},{"user_id":271,"name":"scramble my ass","steam_id":76561198133901720,"connected_time":758000000000,"state":"active","ping":63}]},{"server_id":309,"name":"Uncletopia | Frankfurt | 4 | All Maps","name_short":"frk-4","host":"frk-1.de.uncletopia.com","port":27045,"enabled":true,"region":"eu","cc":"de","latitude":50.110924,"longitude":8.682127,"reserved":0,"last_update":"0001-01-01T00:00:00Z","name_a2s":"Uncletopia | Frankfurt | 4 | All Maps","protocol":17,"map":"pl_upward","folder":"tf","game":"Team Fortress","app_id":440,"player_count":24,"max_players":24,"Bots":0,"server_type":"Dedicated","server_os":"Linux","password":true,"vac":true,"version":"7961495","steam_id":85568392924504275,"keywords":["nocrits","nodmgspread","payload","uncletopia"],"game_id":440,"stv_port":27046,"stv_name":"Uncletopia | Frankfurt | 4 | All Maps | STV","players":[{"user_id":398,"name":"Divine","steam_id":76561198430207251,"connected_time":2617000000000,"state":"active","ping":118},{"user_id":410,"name":"spy in the base","steam_id":76561198284570752,"connected_time":1165000000000,"state":"active","ping":62},{"user_id":354,"name":"BerryOK","steam_id":76561198015756106,"connected_time":7252000000000,"state":"active","ping":79},{"user_id":426,"name":"John","steam_id":76561198121630215,"connected_time":547000000000,"state":"active","ping":60},{"user_id":419,"name":"tony","steam_id":76561199382978934,"connected_time":888000000000,"state":"active","ping":88},{"user_id":394,"name":"hhhhhh","steam_id":76561198031982574,"connected_time":2834000000000,"state":"active","ping":41},{"user_id":418,"name":"Lynx","steam_id":76561199274008207,"connected_time":960000000000,"state":"active","ping":74},{"user_id":412,"name":"Mayonaise on an escalator","steam_id":76561198872266743,"connected_time":1100000000000,"state":"active","ping":45},{"user_id":424,"name":"mindas @infoshow","steam_id":76561198056839438,"connected_time":641000000000,"state":"active","ping":71},{"user_id":366,"name":"merry","steam_id":76561198060242699,"connected_time":6381000000000,"state":"active","ping":69},{"user_id":402,"name":"Der ewige Boomer","steam_id":76561198254812703,"connected_time":2155000000000,"state":"active","ping":80},{"user_id":404,"name":"magnificent darkness","steam_id":76561199059524050,"connected_time":1906000000000,"state":"active","ping":74},{"user_id":433,"name":"Darker CS2.LT","steam_id":76561197989896827,"connected_time":197000000000,"state":"active","ping":127},{"user_id":432,"name":"Magiccomplex","steam_id":76561199203555188,"connected_time":384000000000,"state":"active","ping":42},{"user_id":425,"name":"tensh1","steam_id":76561198282471866,"connected_time":607000000000,"state":"active","ping":90},{"user_id":389,"name":"ph enjouyer","steam_id":76561199172620370,"connected_time":3147000000000,"state":"active","ping":72},{"user_id":431,"name":"happyrain TF2.LT @infoshow","steam_id":76561198216693185,"connected_time":412000000000,"state":"active","ping":61},{"user_id":349,"name":"Dougie","steam_id":76561198079567499,"connected_time":7790000000000,"state":"active","ping":73},{"user_id":403,"name":"HarMala","steam_id":76561198055298143,"connected_time":2033000000000,"state":"active","ping":75},{"user_id":406,"name":"Koppa","steam_id":76561197972286376,"connected_time":1807000000000,"state":"active","ping":70},{"user_id":423,"name":"lore","steam_id":76561198120984188,"connected_time":719000000000,"state":"active","ping":66},{"user_id":429,"name":"Pringles","steam_id":76561198120850843,"connected_time":451000000000,"state":"active","ping":76},{"user_id":416,"name":"did you see it?","steam_id":76561198071440081,"connected_time":991000000000,"state":"active","ping":95},{"user_id":430,"name":"Tweek.","steam_id":76561198030958701,"connected_time":433000000000,"state":"active","ping":60}]},{"server_id":310,"name":"Uncletopia | Frankfurt | 5 | All Maps","name_short":"frk-5","host":"frk-1.de.uncletopia.com","port":27055,"enabled":true,"region":"eu","cc":"de","latitude":50.110924,"longitude":8.682127,"reserved":0,"last_update":"0001-01-01T00:00:00Z","name_a2s":"Uncletopia | Frankfurt | 5 | All Maps","protocol":17,"map":"pl_borneo","folder":"tf","game":"Team Fortress","app_id":440,"player_count":24,"max_players":24,"Bots":0,"server_type":"Dedicated","server_os":"Linux","password":true,"vac":true,"version":"7961495","steam_id":85568392924504277,"keywords":["nocrits","nodmgspread","payload","uncletopia"],"game_id":440,"stv_port":27056,"stv_name":"Uncletopia | Frankfurt | 5 | All Maps | STV","players":[{"user_id":321,"name":"[dopijus]","steam_id":76561198943009513,"connected_time":3352000000000,"state":"active","ping":88},{"user_id":362,"name":"bady_3","steam_id":76561199030975778,"connected_time":173000000000,"state":"active","ping":142},{"user_id":316,"name":"Optimist 50","steam_id":76561198039631442,"connected_time":3836000000000,"state":"active","ping":81},{"user_id":334,"name":"Rakiru","steam_id":76561198334097259,"connected_time":2467000000000,"state":"active","ping":86},{"user_id":318,"name":"‚ôÇ MGE ‚ôÇ PUPSIK ‚ôÇ","steam_id":76561198308302932,"connected_time":3810000000000,"state":"active","ping":102},{"user_id":345,"name":"LivEssense","steam_id":76561198052476979,"connected_time":2086000000000,"state":"active","ping":75},{"user_id":337,"name":"Time-Green","steam_id":76561198133937444,"connected_time":2386000000000,"state":"active","ping":70},{"user_id":249,"name":"Flank Scout‚Ñ¢","steam_id":76561198148115584,"connected_time":9878000000000,"state":"active","ping":78},{"user_id":352,"name":"zaleek69","steam_id":76561198058877595,"connected_time":870000000000,"state":"active","ping":64},{"user_id":351,"name":"$kelly","steam_id":76561198195270894,"connected_time":1142000000000,"state":"active","ping":76},{"user_id":347,"name":"thumbs up emoji","steam_id":76561199384813153,"connected_time":1687000000000,"state":"active","ping":61},{"user_id":355,"name":"Sim","steam_id":76561198086641180,"connected_time":570000000000,"state":"active","ping":103},{"user_id":356,"name":"def","steam_id":76561198857396812,"connected_time":549000000000,"state":"active","ping":46},{"user_id":359,"name":"Dot","steam_id":76561198047299145,"connected_time":339000000000,"state":"active","ping":66},{"user_id":358,"name":"The Fire","steam_id":76561199219653853,"connected_time":544000000000,"state":"active","ping":51},{"user_id":363,"name":"readme.txt","steam_id":76561198046873337,"connected_time":150000000000,"state":"active","ping":72},{"user_id":353,"name":"Towercat","steam_id":76561198013141793,"connected_time":767000000000,"state":"active","ping":68},{"user_id":331,"name":"Chopperson_","steam_id":76561198873728497,"connected_time":2678000000000,"state":"active","ping":104},{"user_id":313,"name":"YuraGreek","steam_id":76561198050182252,"connected_time":4394000000000,"state":"active","ping":74},{"user_id":343,"name":"w presser","steam_id":76561197994600818,"connected_time":2204000000000,"state":"active","ping":47},{"user_id":348,"name":"Jannisxxl","steam_id":76561198048377916,"connected_time":1625000000000,"state":"active","ping":70},{"user_id":220,"name":"1914","steam_id":76561198257383813,"connected_time":12500000000000,"state":"active","ping":45},{"user_id":361,"name":"PAP TF2 PL","steam_id":76561199049672846,"connected_time":221000000000,"state":"active","ping":62},{"user_id":350,"name":"Nomad","steam_id":76561198267819704,"connected_time":1329000000000,"state":"active","ping":83}]},{"server_id":311,"name":"Uncletopia | Frankfurt | 6 | All Maps","name_short":"frk-6","host":"frk-1.de.uncletopia.com","port":27065,"enabled":true,"region":"eu","cc":"de","latitude":50.110924,"longitude":8.682127,"reserved":0,"last_update":"0001-01-01T00:00:00Z","name_a2s":"Uncletopia | Frankfurt | 6 | All Maps","protocol":17,"map":"cp_snakewater_final1","folder":"tf","game":"Team Fortress","app_id":440,"player_count":14,"max_players":24,"Bots":0,"server_type":"Dedicated","server_os":"Linux","password":true,"vac":true,"version":"7961495","steam_id":85568392924504278,"keywords":["cp","nocrits","nodmgspread","uncletopia"],"game_id":440,"stv_port":27066,"stv_name":"Uncletopia | Frankfurt | 6 | All Maps | STV","players":[{"user_id":248,"name":"paypig","steam_id":76561198035137115,"connected_time":1008000000000,"state":"active","ping":59},{"user_id":249,"name":"Pico","steam_id":76561198063552545,"connected_time":714000000000,"state":"active","ping":87},{"user_id":238,"name":"Der Buchsbaumz√ºnsler","steam_id":76561197960328072,"connected_time":1879000000000,"state":"active","ping":46},{"user_id":219,"name":"Heavy (real)","steam_id":76561198860424456,"connected_time":2945000000000,"state":"active","ping":66},{"user_id":251,"name":"REN","steam_id":76561198000596385,"connected_time":589000000000,"state":"active","ping":70},{"user_id":207,"name":"coffee","steam_id":76561198382387303,"connected_time":3205000000000,"state":"active","ping":81},{"user_id":245,"name":"Enderman942","steam_id":76561198367533930,"connected_time":1492000000000,"state":"active","ping":92},{"user_id":255,"name":"bubbleTea 60hz","steam_id":76561199487938189,"connected_time":540000000000,"state":"active","ping":61},{"user_id":211,"name":"CuJIA_TPAHCJIuTA","steam_id":76561198149654361,"connected_time":3195000000000,"state":"active","ping":61},{"user_id":258,"name":"Qwerty","steam_id":76561198023525894,"connected_time":173000000000,"state":"active","ping":75},{"user_id":242,"name":"Pyep","steam_id":76561199273799263,"connected_time":1768000000000,"state":"active","ping":45},{"user_id":256,"name":"Baller64","steam_id":76561199468366156,"connected_time":250000000000,"state":"active","ping":160},{"user_id":166,"name":"Worm","steam_id":76561198296497176,"connected_time":4987000000000,"state":"active","ping":52},{"user_id":216,"name":"JepCabestany","steam_id":76561198123812578,"connected_time":3150000000000,"state":"active","ping":93}]},{"server_id":23,"name":"Uncletopia | Frankfurt | 7 | Stopwatch","name_short":"frk-7","host":"frk-1.de.uncletopia.com","port":27075,"enabled":true,"region":"eu","cc":"de","latitude":50.110924,"longitude":8.682127,"reserved":0,"last_update":"0001-01-01T00:00:00Z","name_a2s":"Uncletopia | Frankfurt | 7 | Stopwatch","protocol":17,"map":"workshop/koth_ashville_final.ugc2130459942","folder":"tf","game":"Team Fortress","app_id":440,"player_count":0,"max_players":24,"Bots":0,"server_type":"Dedicated","server_os":"Linux","password":true,"vac":true,"version":"7961495","steam_id":85568392924742827,"keywords":["cp","nocrits","nodmgspread","uncletopia"],"game_id":440,"stv_port":27076,"stv_name":"Uncletopia | Frankfurt | 7 | Stopwatch | STV","players":null},{"server_id":24,"name":"Uncletopia | Frankfurt | 8 | Community","name_short":"frk-8","host":"frk-1.de.uncletopia.com","port":27085,"enabled":true,"region":"eu","cc":"de","latitude":50.110924,"longitude":8.682127,"reserved":0,"last_update":"0001-01-01T00:00:00Z","name_a2s":"Uncletopia | Frankfurt | 8 | Community","protocol":17,"map":"cp_mountainlab","folder":"tf","game":"Team Fortress","app_id":440,"player_count":0,"max_players":24,"Bots":0,"server_type":"Dedicated","server_os":"Linux","password":true,"vac":true,"version":"7961495","steam_id":85568392924742828,"keywords":["cp","nocrits","nodmgspread","uncletopia"],"game_id":440,"stv_port":27086,"stv_name":"Uncletopia | Frankfurt | 8 | Community | STV","players":null},{"server_id":202,"name":"Uncletopia | Hong Kong | 1 | All Maps","name_short":"hgk-1","host":"hgk-1.hk.uncletopia.com","port":27015,"enabled":true,"region":"asia","cc":"hk","latitude":22.302711,"longitude":114.177216,"reserved":0,"last_update":"0001-01-01T00:00:00Z","name_a2s":"Uncletopia | Hong Kong | 1 | All Maps","protocol":17,"map":"pl_thundermountain","folder":"tf","game":"Team Fortress","app_id":440,"player_count":24,"max_players":24,"Bots":0,"server_type":"Dedicated","server_os":"Linux","password":true,"vac":true,"version":"7961495","steam_id":85568392924494504,"keywords":["nocrits","nodmgspread","payload","uncletopia"],"game_id":440,"stv_port":27016,"stv_name":"Uncletopia | Hong Kong | 1 | All Maps | STV","players":[{"user_id":531,"name":"Nonexistent","steam_id":76561198980563251,"connected_time":6844000000000,"state":"active","ping":82},{"user_id":558,"name":"ÊØç„ÅÆËÇâÂõ£Â≠ê@hao123.com","steam_id":76561198069561896,"connected_time":4527000000000,"state":"active","ping":44},{"user_id":593,"name":"Â§öÂñùÁÉ≠Ê∞¥","steam_id":76561197989889063,"connected_time":262000000000,"state":"active","ping":93},{"user_id":567,"name":"Wx","steam_id":76561199217780897,"connected_time":3422000000000,"state":"active","ping":117},{"user_id":566,"name":"yw","steam_id":76561199382726488,"connected_time":3671000000000,"state":"active","ping":49},{"user_id":542,"name":"p1st0n","steam_id":76561198992723983,"connected_time":5979000000000,"state":"active","ping":96},{"user_id":585,"name":"meowdy","steam_id":76561198337154745,"connected_time":955000000000,"state":"active","ping":88},{"user_id":574,"name":"Battery","steam_id":76561198004583032,"connected_time":2532000000000,"state":"active","ping":100},{"user_id":454,"name":"Corbezy","steam_id":76561197993398349,"connected_time":12040000000000,"state":"active","ping":102},{"user_id":583,"name":"Azi","steam_id":76561198147872523,"connected_time":972000000000,"state":"active","ping":73},{"user_id":590,"name":"Delta","steam_id":76561198204453820,"connected_time":424000000000,"state":"active","ping":138},{"user_id":584,"name":"j_rex","steam_id":76561198132473926,"connected_time":968000000000,"state":"active","ping":59},{"user_id":594,"name":"twitch.tv/vision515","steam_id":76561198065293729,"connected_time":42000000000,"state":"active","ping":163},{"user_id":540,"name":"Insomniac","steam_id":76561199180653046,"connected_time":5995000000000,"state":"active","ping":132},{"user_id":575,"name":"Davey Jone's Locker","steam_id":76561199049981494,"connected_time":2472000000000,"state":"active","ping":39},{"user_id":587,"name":"Mudal","steam_id":76561198021192745,"connected_time":884000000000,"state":"active","ping":94},{"user_id":569,"name":"Heroushi","steam_id":76561197960321338,"connected_time":3200000000000,"state":"active","ping":126},{"user_id":579,"name":"Othopeus","steam_id":76561198283534382,"connected_time":1767000000000,"state":"active","ping":69},{"user_id":555,"name":"Wakiiiz","steam_id":76561198850134590,"connected_time":4562000000000,"state":"active","ping":70},{"user_id":570,"name":"Luisy","steam_id":76561198185148713,"connected_time":2568000000000,"state":"active","ping":68},{"user_id":556,"name":"tiden2000","steam_id":76561198092969425,"connected_time":4562000000000,"state":"active","ping":79},{"user_id":589,"name":"BluAnG","steam_id":76561199048034663,"connected_time":687000000000,"state":"active","ping":92},{"user_id":533,"name":"Momoxhien","steam_id":76561198414997429,"connected_time":6239000000000,"state":"active","ping":65},{"user_id":581,"name":"Alka","steam_id":76561198268872312,"connected_time":987000000000,"state":"active","ping":104}]},{"server_id":1,"name":"Uncletopia | Los Angeles | 1 | All Maps","name_short":"lax-1","host":"lax-1.us.uncletopia.com","port":27015,"enabled":true,"region":"us-west","cc":"us","latitude":33.94279,"longitude":-118.41004,"reserved":0,"last_update":"0001-01-01T00:00:00Z","name_a2s":"Uncletopia | Los Angeles | 1 | All Maps","protocol":17,"map":"ctf_2fort","folder":"tf","game":"Team Fortress","app_id":440,"player_count":22,"max_players":24,"Bots":0,"server_type":"Dedicated","server_os":"Linux","password":true,"vac":true,"version":"7961495","steam_id":85568392924469991,"keywords":["ctf","nocrits","nodmgspread","uncletopia"],"game_id":440,"stv_port":27016,"stv_name":"Uncletopia | Los Angeles | 1 | All Maps | STV","players":[{"user_id":85,"name":"grape","steam_id":76561197993980328,"connected_time":2199000000000,"state":"active","ping":89},{"user_id":106,"name":"carrot cake","steam_id":76561198055174915,"connected_time":954000000000,"state":"active","ping":120},{"user_id":74,"name":"ThatGamingKiwi","steam_id":76561199170522237,"connected_time":2693000000000,"state":"active","ping":123},{"user_id":109,"name":"Frank Horrigan","steam_id":76561198066504831,"connected_time":644000000000,"state":"active","ping":54},{"user_id":93,"name":"mkl","steam_id":76561197986401685,"connected_time":1787000000000,"state":"active","ping":85},{"user_id":118,"name":"greenwolf1344","steam_id":76561199473881733,"connected_time":341000000000,"state":"active","ping":119},{"user_id":108,"name":"Fribbo","steam_id":76561198373295660,"connected_time":657000000000,"state":"active","ping":66},{"user_id":97,"name":"Fuulip","steam_id":76561199109275013,"connected_time":1562000000000,"state":"active","ping":52},{"user_id":84,"name":"songcreator","steam_id":76561198076822464,"connected_time":2273000000000,"state":"active","ping":100},{"user_id":119,"name":"25gonchr","steam_id":76561199137169834,"connected_time":276000000000,"state":"spawning","ping":88},{"user_id":122,"name":"Just washed","steam_id":76561199030160932,"connected_time":226000000000,"state":"active","ping":110},{"user_id":110,"name":"Meso","steam_id":76561199088153190,"connected_time":641000000000,"state":"active","ping":48},{"user_id":124,"name":"Chilled","steam_id":76561199079011336,"connected_time":184000000000,"state":"active","ping":48},{"user_id":114,"name":"artemisjackson2","steam_id":76561199094686268,"connected_time":527000000000,"state":"active","ping":113},{"user_id":77,"name":"Zebulaun","steam_id":76561197965160251,"connected_time":2622000000000,"state":"active","ping":108},{"user_id":116,"name":"Platinum","steam_id":76561198348354629,"connected_time":433000000000,"state":"active","ping":50},{"user_id":103,"name":"Kaiza Slumby","steam_id":76561199109063823,"connected_time":1008000000000,"state":"active","ping":95},{"user_id":78,"name":"GrimFate","steam_id":76561199011948330,"connected_time":2611000000000,"state":"active","ping":59},{"user_id":89,"name":"U œâ U","steam_id":76561198118802562,"connected_time":2026000000000,"state":"active","ping":61},{"user_id":30,"name":"Nooblord","steam_id":76561199105123730,"connected_time":4787000000000,"state":"active","ping":86},{"user_id":115,"name":"BOMB DETONATION IN 2","steam_id":76561198011675372,"connected_time":522000000000,"state":"active","ping":90},{"user_id":125,"name":"CocoNUTGun","steam_id":76561198073086100,"connected_time":184000000000,"state":"active","ping":98}]},{"server_id":112,"name":"Uncletopia | Los Angeles | 2 | All Maps","name_short":"lax-2","host":"lax-1.us.uncletopia.com","port":27025,"enabled":true,"region":"us-west","cc":"us","latitude":33.94279,"longitude":-118.41004,"reserved":0,"last_update":"0001-01-01T00:00:00Z","name_a2s":"Uncletopia | Los Angeles | 2 | All Maps","protocol":17,"map":"cp_mountainlab","folder":"tf","game":"Team Fortress","app_id":440,"player_count":0,"max_players":24,"Bots":0,"server_type":"Dedicated","server_os":"Linux","password":true,"vac":true,"version":"7961495","steam_id":85568392924469992,"keywords":["cp","nocrits","nodmgspread","uncletopia"],"game_id":440,"stv_port":27026,"stv_name":"Uncletopia | Los Angeles | 2 | All Maps | STV","players":null},{"server_id":324,"name":"Uncletopia | Los Angeles | 3 | All Maps","name_short":"lax-3","host":"lax-1.us.uncletopia.com","port":27035,"enabled":true,"region":"us-west","cc":"us","latitude":33.94279,"longitude":-118.41004,"reserved":0,"last_update":"0001-01-01T00:00:00Z","name_a2s":"Uncletopia | Los Angeles | 3 | All Maps","protocol":17,"map":"pl_frontier_final","folder":"tf","game":"Team Fortress","app_id":440,"player_count":0,"max_players":24,"Bots":0,"server_type":"Dedicated","server_os":"Linux","password":true,"vac":true,"version":"7961495","steam_id":85568392924510198,"keywords":["nocrits","nodmgspread","payload","uncletopia"],"game_id":440,"stv_port":27036,"stv_name":"Uncletopia | Los Angeles | 3 | All Maps | STV","players":null},{"server_id":25,"name":"Uncletopia | Los Angeles | 4 | Stopwatch","name_short":"lax-4","host":"lax-1.us.uncletopia.com","port":27045,"enabled":true,"region":"us-west","cc":"us","latitude":33.94279,"longitude":-118.41004,"reserved":0,"last_update":"0001-01-01T00:00:00Z","name_a2s":"Uncletopia | Los Angeles | 4 | Stopwatch","protocol":17,"map":"pl_barnblitz","folder":"tf","game":"Team Fortress","app_id":440,"player_count":0,"max_players":24,"Bots":0,"server_type":"Dedicated","server_os":"Linux","password":true,"vac":true,"version":"7961495","steam_id":85568392924510199,"keywords":["nocrits","nodmgspread","payload","uncletopia"],"game_id":440,"stv_port":27046,"stv_name":"Uncletopia | Los Angeles | 4 | Stopwatch | STV","players":null},{"server_id":11,"name":"Uncletopia | London | 1 | All Maps","name_short":"lon-1","host":"lon-1.uk.uncletopia.com","port":27015,"enabled":true,"region":"eu","cc":"gb","latitude":51.509865,"longitude":-0.118092,"reserved":0,"last_update":"0001-01-01T00:00:00Z","name_a2s":"Uncletopia | London | 1 | All Maps","protocol":17,"map":"pl_swiftwater_final1","folder":"tf","game":"Team Fortress","app_id":440,"player_count":24,"max_players":24,"Bots":0,"server_type":"Dedicated","server_os":"Linux","password":true,"vac":true,"version":"7961495","steam_id":85568392924367362,"keywords":["nocrits","nodmgspread","payload","uncletopia"],"game_id":440,"stv_port":27016,"stv_name":"Uncletopia | London | 1 | All Maps | STV","players":[{"user_id":305,"name":"A Cat","steam_id":76561198221549132,"connected_time":2320000000000,"state":"active","ping":32},{"user_id":286,"name":"SimpleSack","steam_id":76561198179647814,"connected_time":3583000000000,"state":"active","ping":76},{"user_id":268,"name":"beurgeur","steam_id":76561198872426314,"connected_time":5105000000000,"state":"active","ping":41},{"user_id":303,"name":"TheAutisticGamer","steam_id":76561198137828769,"connected_time":2380000000000,"state":"active","ping":57},{"user_id":333,"name":"SKY_","steam_id":76561198080980508,"connected_time":944000000000,"state":"active","ping":68},{"user_id":346,"name":"Jyghc","steam_id":76561198405980575,"connected_time":251000000000,"state":"active","ping":64},{"user_id":306,"name":"Roberto","steam_id":76561199021869782,"connected_time":2307000000000,"state":"active","ping":44},{"user_id":203,"name":"oskaroku00","steam_id":76561199025360128,"connected_time":9962000000000,"state":"active","ping":74},{"user_id":315,"name":"Spagett spook victim","steam_id":76561198124177844,"connected_time":2054000000000,"state":"active","ping":54},{"user_id":334,"name":"Nem√° R√°da Ivana","steam_id":76561198200187859,"connected_time":914000000000,"state":"active","ping":77},{"user_id":329,"name":"Joe12000","steam_id":76561198160817969,"connected_time":1130000000000,"state":"active","ping":71},{"user_id":335,"name":"jerry","steam_id":76561199180176442,"connected_time":913000000000,"state":"active","ping":74},{"user_id":310,"name":"Pottery Knight","steam_id":76561198094455814,"connected_time":2265000000000,"state":"active","ping":90},{"user_id":345,"name":"James","steam_id":76561198138558005,"connected_time":273000000000,"state":"active","ping":47},{"user_id":339,"name":"(DD) Terry","steam_id":76561199204181853,"connected_time":762000000000,"state":"active","ping":42},{"user_id":278,"name":"Tuqiri","steam_id":76561197971709520,"connected_time":4760000000000,"state":"active","ping":45},{"user_id":330,"name":"cof","steam_id":76561199128417805,"connected_time":1115000000000,"state":"active","ping":64},{"user_id":261,"name":"horny femboy","steam_id":76561199121999431,"connected_time":5686000000000,"state":"active","ping":41},{"user_id":332,"name":"quack","steam_id":76561198121003465,"connected_time":984000000000,"state":"active","ping":48},{"user_id":326,"name":"Paper","steam_id":76561199037749675,"connected_time":1384000000000,"state":"active","ping":44},{"user_id":338,"name":"Lyra","steam_id":76561198043601838,"connected_time":847000000000,"state":"active","ping":74},{"user_id":331,"name":"Comrade Emperor","steam_id":76561198004636463,"connected_time":1055000000000,"state":"active","ping":98},{"user_id":270,"name":"Max Andrew","steam_id":76561198158955194,"connected_time":5097000000000,"state":"active","ping":55},{"user_id":304,"name":"lillunya ‚ô°","steam_id":76561198330418866,"connected_time":2379000000000,"state":"active","ping":71}]},{"server_id":114,"name":"Uncletopia | London | 2 | All Maps","name_short":"lon-2","host":"lon-1.uk.uncletopia.com","port":27025,"enabled":true,"region":"eu","cc":"gb","latitude":51.509865,"longitude":-0.118092,"reserved":0,"last_update":"0001-01-01T00:00:00Z","name_a2s":"Uncletopia | London | 2 | All Maps","protocol":17,"map":"pl_upward","folder":"tf","game":"Team Fortress","app_id":440,"player_count":24,"max_players":24,"Bots":0,"server_type":"Dedicated","server_os":"Linux","password":true,"vac":true,"version":"7961495","steam_id":85568392924470941,"keywords":["nocrits","nodmgspread","payload","uncletopia"],"game_id":440,"stv_port":27026,"stv_name":"Uncletopia | London | 2 | All Maps | STV","players":[{"user_id":305,"name":"emily nymph","steam_id":76561199249569889,"connected_time":2598000000000,"state":"active","ping":60},{"user_id":281,"name":"Flying Squirrel","steam_id":76561198005202791,"connected_time":3903000000000,"state":"active","ping":75},{"user_id":334,"name":"Habimbi","steam_id":76561198047271252,"connected_time":729000000000,"state":"active","ping":75},{"user_id":346,"name":"grassesmode.exe","steam_id":76561198090167960,"connected_time":258000000000,"state":"active","ping":105},{"user_id":312,"name":"Dictatorial Karelian","steam_id":76561198196736457,"connected_time":2179000000000,"state":"active","ping":75},{"user_id":318,"name":"Jouppi","steam_id":76561198063725468,"connected_time":1579000000000,"state":"active","ping":94},{"user_id":325,"name":"H1DD3 gaming","steam_id":76561198855897385,"connected_time":1150000000000,"state":"active","ping":62},{"user_id":273,"name":"Red-Kite","steam_id":76561199141255034,"connected_time":4806000000000,"state":"active","ping":56},{"user_id":343,"name":"sushii","steam_id":76561198297987372,"connected_time":479000000000,"state":"active","ping":53},{"user_id":304,"name":"A.D.H.|Artem","steam_id":76561198041801369,"connected_time":2711000000000,"state":"active","ping":85},{"user_id":347,"name":"wristcz","steam_id":76561198381486839,"connected_time":257000000000,"state":"active","ping":77},{"user_id":332,"name":"jovi_","steam_id":76561198449280552,"connected_time":746000000000,"state":"active","ping":52},{"user_id":324,"name":"dash.","steam_id":76561198084796149,"connected_time":1215000000000,"state":"active","ping":45},{"user_id":320,"name":"TinyPixel@THG","steam_id":76561198050789840,"connected_time":1541000000000,"state":"active","ping":57},{"user_id":303,"name":"Seail_M","steam_id":76561198002405605,"connected_time":2732000000000,"state":"active","ping":69},{"user_id":278,"name":"skin colour issue","steam_id":76561199229133473,"connected_time":4136000000000,"state":"active","ping":54},{"user_id":341,"name":"ildiobestia","steam_id":76561198108240544,"connected_time":623000000000,"state":"active","ping":71},{"user_id":345,"name":"ProperCroc","steam_id":76561198071187828,"connected_time":373000000000,"state":"active","ping":45},{"user_id":308,"name":"Buttercup [LGBT]","steam_id":76561198827432184,"connected_time":2574000000000,"state":"active","ping":54},{"user_id":297,"name":"just_adhenz1284 #SaveTF2","steam_id":76561198293654671,"connected_time":3120000000000,"state":"active","ping":159},{"user_id":340,"name":"AVOID EVERYONE","steam_id":76561198051852765,"connected_time":666000000000,"state":"active","ping":74},{"user_id":348,"name":"aolkdi","steam_id":76561198025479415,"connected_time":239000000000,"state":"active","ping":139},{"user_id":331,"name":"Retrowave","steam_id":76561198061921346,"connected_time":806000000000,"state":"active","ping":137},{"user_id":349,"name":"Nag","steam_id":76561197970488206,"connected_time":166000000000,"state":"active","ping":71}]},{"server_id":320,"name":"Uncletopia | London | 3 | All Maps","name_short":"lon-3","host":"lon-1.uk.uncletopia.com","port":27035,"enabled":true,"region":"eu","cc":"gb","latitude":51.509865,"longitude":-0.118092,"reserved":0,"last_update":"0001-01-01T00:00:00Z","name_a2s":"Uncletopia | London | 3 | All Maps","protocol":17,"map":"koth_viaduct","folder":"tf","game":"Team Fortress","app_id":440,"player_count":24,"max_players":24,"Bots":0,"server_type":"Dedicated","server_os":"Linux","password":true,"vac":true,"version":"7961495","steam_id":85568392924510192,"keywords":["cp","nocrits","nodmgspread","uncletopia"],"game_id":440,"stv_port":27036,"stv_name":"Uncletopia | London | 3 | All Maps | STV","players":[{"user_id":193,"name":"Drinking Problem","steam_id":76561198319162953,"connected_time":2725000000000,"state":"active","ping":77},{"user_id":194,"name":"Gay or European?","steam_id":76561198173218318,"connected_time":2722000000000,"state":"active","ping":47},{"user_id":190,"name":"Himsagi Yoichi","steam_id":76561197967683724,"connected_time":2760000000000,"state":"active","ping":45},{"user_id":191,"name":"Deemask√©","steam_id":76561199225833593,"connected_time":2758000000000,"state":"active","ping":61},{"user_id":214,"name":"Tort","steam_id":76561198329646769,"connected_time":827000000000,"state":"active","ping":68},{"user_id":207,"name":"Blar","steam_id":76561198042438229,"connected_time":1368000000000,"state":"active","ping":55},{"user_id":145,"name":"rets_","steam_id":76561198061551392,"connected_time":4599000000000,"state":"active","ping":56},{"user_id":146,"name":"Vyllckart","steam_id":76561198119172997,"connected_time":4591000000000,"state":"active","ping":84},{"user_id":221,"name":"Nonok","steam_id":76561199480685498,"connected_time":399000000000,"state":"active","ping":63},{"user_id":216,"name":"RiX","steam_id":76561197969053733,"connected_time":669000000000,"state":"active","ping":55},{"user_id":120,"name":"Ripley","steam_id":76561198064478354,"connected_time":7075000000000,"state":"active","ping":54},{"user_id":183,"name":"Spurt","steam_id":76561198078523852,"connected_time":2871000000000,"state":"active","ping":54},{"user_id":161,"name":"Fissure","steam_id":76561198272595481,"connected_time":4085000000000,"state":"active","ping":59},{"user_id":149,"name":"Katsu!","steam_id":76561198082570310,"connected_time":4574000000000,"state":"active","ping":86},{"user_id":219,"name":"Fus in Boots","steam_id":76561198053897722,"connected_time":570000000000,"state":"active","ping":52},{"user_id":196,"name":"tiia","steam_id":76561198046196005,"connected_time":2717000000000,"state":"active","ping":54},{"user_id":201,"name":"TheEventGuy","steam_id":76561197972797744,"connected_time":2410000000000,"state":"active","ping":80},{"user_id":102,"name":"MovingIsOverRated","steam_id":76561198385633292,"connected_time":7838000000000,"state":"active","ping":125},{"user_id":223,"name":"NukePigg","steam_id":76561198131324143,"connected_time":346000000000,"state":"active","ping":37},{"user_id":217,"name":"elyo","steam_id":76561198209442489,"connected_time":646000000000,"state":"active","ping":70},{"user_id":220,"name":"Q U E E N A L E X","steam_id":76561198186341157,"connected_time":476000000000,"state":"active","ping":52},{"user_id":213,"name":"N00BCSF","steam_id":76561198035530934,"connected_time":969000000000,"state":"active","ping":74},{"user_id":179,"name":"Â∞èÁ¥ÖKobeni","steam_id":76561198163910898,"connected_time":2907000000000,"state":"active","ping":46},{"user_id":210,"name":"Snowmotion","steam_id":76561198075022454,"connected_time":1117000000000,"state":"active","ping":72}]},{"server_id":321,"name":"Uncletopia | London | 4 | All Maps","name_short":"lon-4","host":"lon-1.uk.uncletopia.com","port":27045,"enabled":true,"region":"eu","cc":"gb","latitude":51.509865,"longitude":-0.118092,"reserved":0,"last_update":"0001-01-01T00:00:00Z","name_a2s":"Uncletopia | London | 4 | All Maps","protocol":17,"map":"pl_frontier_final","folder":"tf","game":"Team Fortress","app_id":440,"player_count":23,"max_players":24,"Bots":0,"server_type":"Dedicated","server_os":"Linux","password":true,"vac":true,"version":"7961495","steam_id":85568392924510193,"keywords":["nocrits","nodmgspread","payload","uncletopia"],"game_id":440,"stv_port":27046,"stv_name":"Uncletopia | London | 4 | All Maps | STV","players":[{"user_id":18,"name":"Excessive Clownery","steam_id":76561198130404188,"connected_time":2745000000000,"state":"active","ping":58},{"user_id":19,"name":"HumanShield","steam_id":76561199426276036,"connected_time":2670000000000,"state":"active","ping":53},{"user_id":20,"name":"Scientific Triumph","steam_id":76561198815127418,"connected_time":2496000000000,"state":"active","ping":93},{"user_id":21,"name":"ËôæÊâØËõã.Lonely","steam_id":76561198022989560,"connected_time":2080000000000,"state":"active","ping":57},{"user_id":25,"name":"Kneft","steam_id":76561199027993248,"connected_time":1669000000000,"state":"active","ping":148},{"user_id":24,"name":"Supercow","steam_id":76561198840787541,"connected_time":1725000000000,"state":"active","ping":161},{"user_id":33,"name":"SR VGAMER","steam_id":76561198273923361,"connected_time":890000000000,"state":"active","ping":155},{"user_id":47,"name":"zazuza","steam_id":76561198049820905,"connected_time":31000000000,"state":"active","ping":75},{"user_id":28,"name":"MrSecks Real","steam_id":76561198993739464,"connected_time":1473000000000,"state":"active","ping":61},{"user_id":35,"name":"The Fat Lenny","steam_id":76561198079333162,"connected_time":824000000000,"state":"active","ping":85},{"user_id":36,"name":"Daemon","steam_id":76561198007015109,"connected_time":675000000000,"state":"active","ping":50},{"user_id":37,"name":"Volt","steam_id":76561198237074532,"connected_time":662000000000,"state":"active","ping":105},{"user_id":41,"name":"Apple","steam_id":76561199195949115,"connected_time":343000000000,"state":"active","ping":62},{"user_id":42,"name":"„Éî„Éâ„É©„Çπ","steam_id":76561198092463910,"connected_time":284000000000,"state":"active","ping":89},{"user_id":43,"name":"Pipp Petals2014","steam_id":76561198147668373,"connected_time":225000000000,"state":"active","ping":60},{"user_id":44,"name":"Chicoboi","steam_id":76561198109855177,"connected_time":219000000000,"state":"active","ping":76},{"user_id":45,"name":"minireeves","steam_id":76561198258161536,"connected_time":126000000000,"state":"active","ping":61},{"user_id":46,"name":"Sisyphus","steam_id":76561198146194820,"connected_time":107000000000,"state":"active","ping":57},{"user_id":48,"name":"Vonacht","steam_id":76561198016033944,"connected_time":31000000000,"state":"active","ping":60},{"user_id":49,"name":"Scanpix","steam_id":76561198318716514,"connected_time":29000000000,"state":"active","ping":63},{"user_id":50,"name":"kronik","steam_id":76561199160703098,"connected_time":26000000000,"state":"active","ping":80},{"user_id":51,"name":"yeyegoncas","steam_id":76561198061217656,"connected_time":19000000000,"state":"active","ping":68},{"user_id":53,"name":"epic party rat","steam_id":76561199100632053,"connected_time":5000000000,"state":"spawning","ping":51}]},{"server_id":21,"name":"Uncletopia | London | 5 | All Maps","name_short":"lon-5","host":"lon-1.uk.uncletopia.com","port":27055,"enabled":true,"region":"eu","cc":"gb","latitude":51.509865,"longitude":-0.118092,"reserved":0,"last_update":"0001-01-01T00:00:00Z","name_a2s":"Uncletopia | London | 5 | All Maps","protocol":17,"map":"koth_lakeside_final","folder":"tf","game":"Team Fortress","app_id":440,"player_count":0,"max_players":24,"Bots":0,"server_type":"Dedicated","server_os":"Linux","password":true,"vac":true,"version":"7961495","steam_id":85568392924742829,"keywords":["cp","nocrits","nodmgspread","uncletopia"],"game_id":440,"stv_port":27056,"stv_name":"Uncletopia | London | 5 | All Maps | STV","players":null},{"server_id":22,"name":"Uncletopia | London | 6 | All Maps","name_short":"lon-6","host":"lon-1.uk.uncletopia.com","port":27065,"enabled":true,"region":"eu","cc":"gb","latitude":51.509865,"longitude":-0.118092,"reserved":0,"last_update":"0001-01-01T00:00:00Z","name_a2s":"Uncletopia | London | 6 | All Maps","protocol":17,"map":"koth_viaduct","folder":"tf","game":"Team Fortress","app_id":440,"player_count":24,"max_players":24,"Bots":0,"server_type":"Dedicated","server_os":"Linux","password":true,"vac":true,"version":"7961495","steam_id":85568392924742830,"keywords":["cp","nocrits","nodmgspread","uncletopia"],"game_id":440,"stv_port":27066,"stv_name":"Uncletopia | London | 6 | All Maps | STV","players":[{"user_id":72,"name":"ShawnDawn2","steam_id":76561198165013522,"connected_time":2000000000000,"state":"active","ping":32},{"user_id":94,"name":"K O T","steam_id":76561198179360022,"connected_time":1138000000000,"state":"active","ping":78},{"user_id":65,"name":"Tavish","steam_id":76561197971486686,"connected_time":2121000000000,"state":"active","ping":47},{"user_id":99,"name":"Lord Odment","steam_id":76561198044354976,"connected_time":460000000000,"state":"active","ping":99},{"user_id":76,"name":"Cute Panda","steam_id":76561198210837753,"connected_time":1929000000000,"state":"active","ping":78},{"user_id":98,"name":"Mr lambert","steam_id":76561199033379238,"connected_time":559000000000,"state":"active","ping":56},{"user_id":75,"name":"Monke Hartmann","steam_id":76561198281389701,"connected_time":1931000000000,"state":"active","ping":107},{"user_id":44,"name":"jpsl","steam_id":76561198137512197,"connected_time":3748000000000,"state":"active","ping":92},{"user_id":100,"name":"Pinochet","steam_id":76561198194042394,"connected_time":437000000000,"state":"active","ping":152},{"user_id":103,"name":"ironreign","steam_id":76561198306252845,"connected_time":150000000000,"state":"active","ping":100},{"user_id":104,"name":"Dzieciol","steam_id":76561198160237556,"connected_time":137000000000,"state":"active","ping":75},{"user_id":105,"name":"mixxxa_french","steam_id":76561198085098243,"connected_time":102000000000,"state":"active","ping":122},{"user_id":57,"name":"the menaceÂ®ÅËÉÅTF2Â®ÅËÉÅ","steam_id":76561198129828715,"connected_time":2868000000000,"state":"active","ping":67},{"user_id":93,"name":"Conibun","steam_id":76561198066389567,"connected_time":1169000000000,"state":"active","ping":116},{"user_id":82,"name":"deadlyqueenie","steam_id":76561199466056869,"connected_time":1883000000000,"state":"active","ping":49},{"user_id":33,"name":"Agon","steam_id":76561198982948437,"connected_time":3923000000000,"state":"active","ping":83},{"user_id":86,"name":"Dugman39","steam_id":76561199492521626,"connected_time":1590000000000,"state":"active","ping":54},{"user_id":92,"name":"Captain Puddleboat","steam_id":76561198053913970,"connected_time":1271000000000,"state":"active","ping":53},{"user_id":95,"name":"Moonman327","steam_id":76561197992616059,"connected_time":1113000000000,"state":"active","ping":136},{"user_id":106,"name":"LOBZIK","steam_id":76561198114830120,"connected_time":97000000000,"state":"active","ping":76},{"user_id":96,"name":"Red","steam_id":76561199065352453,"connected_time":1106000000000,"state":"active","ping":55},{"user_id":107,"name":"Phinton","steam_id":76561198014690842,"connected_time":80000000000,"state":"active","ping":63},{"user_id":97,"name":"life of sponge bob","steam_id":76561199497244760,"connected_time":1048000000000,"state":"active","ping":72},{"user_id":63,"name":"jim","steam_id":76561198134905085,"connected_time":2211000000000,"state":"active","ping":58}]},{"server_id":40,"name":"Uncletopia | London | 7 | Stopwatch","name_short":"lon-7","host":"lon-1.uk.uncletopia.com","port":27075,"enabled":true,"region":"eu","cc":"gb","latitude":51.509865,"longitude":-0.118092,"reserved":0,"last_update":"0001-01-01T00:00:00Z","name_a2s":"Uncletopia | London | 7 | Stopwatch","protocol":17,"map":"workshop/koth_ashville_final.ugc2130459942","folder":"tf","game":"Team Fortress","app_id":440,"player_count":2,"max_players":24,"Bots":0,"server_type":"Dedicated","server_os":"Linux","password":true,"vac":true,"version":"7961495","steam_id":85568392924964314,"keywords":["cp","nocrits","nodmgspread","uncletopia"],"game_id":440,"stv_port":27076,"stv_name":"Uncletopia | London | 7 | Stopwatch | STV","players":[{"user_id":8,"name":"beef chugger","steam_id":76561198324640999,"connected_time":1900000000000,"state":"active","ping":45},{"user_id":10,"name":"chugger beef","steam_id":76561198372130358,"connected_time":1807000000000,"state":"active","ping":45}]},{"server_id":41,"name":"Uncletopia | London | 8 | Community","name_short":"lon-8","host":"lon-1.uk.uncletopia.com","port":27085,"enabled":true,"region":"eu","cc":"gb","latitude":51.509865,"longitude":-0.118092,"reserved":0,"last_update":"0001-01-01T00:00:00Z","name_a2s":"Uncletopia | London | 8 | Community","protocol":17,"map":"workshop/cp_sulfur_rc2.ugc619869471","folder":"tf","game":"Team Fortress","app_id":440,"player_count":0,"max_players":24,"Bots":0,"server_type":"Dedicated","server_os":"Linux","password":true,"vac":true,"version":"7961495","steam_id":85568392924964315,"keywords":["cp","nocrits","nodmgspread","uncletopia"],"game_id":440,"stv_port":27086,"stv_name":"Uncletopia | London | 8 | Community | STV","players":null},{"server_id":300,"name":"Uncletopia | Montr√©al | 1 | One Thousand Uncles","name_short":"mtl-1","host":"mtl-1.ca.uncletopia.com","port":27015,"enabled":true,"region":"us-east","cc":"ca","latitude":45.50889,"longitude":-73.56167,"reserved":0,"last_update":"0001-01-01T00:00:00Z","name_a2s":"","protocol":0,"map":"","folder":"","game":"","app_id":0,"player_count":0,"max_players":0,"Bots":0,"server_type":"","server_os":"","password":false,"vac":false,"version":"","steam_id":0,"keywords":null,"game_id":0,"stv_port":0,"stv_name":"","players":null},{"server_id":301,"name":"Uncletopia | Montr√©al | 2 | One Thousand Uncles","name_short":"mtl-2","host":"mtl-1.ca.uncletopia.com","port":27025,"enabled":true,"region":"us-east","cc":"ca","latitude":45.50889,"longitude":-73.56167,"reserved":0,"last_update":"0001-01-01T00:00:00Z","name_a2s":"","protocol":0,"map":"","folder":"","game":"","app_id":0,"player_count":0,"max_players":0,"Bots":0,"server_type":"","server_os":"","password":false,"vac":false,"version":"","steam_id":0,"keywords":null,"game_id":0,"stv_port":0,"stv_name":"","players":null},{"server_id":302,"name":"Uncletopia | Montr√©al | 3 | One Thousand Uncles","name_short":"mtl-3","host":"mtl-1.ca.uncletopia.com","port":27035,"enabled":true,"region":"us-east","cc":"ca","latitude":45.50889,"longitude":-73.56167,"reserved":0,"last_update":"0001-01-01T00:00:00Z","name_a2s":"","protocol":0,"map":"","folder":"","game":"","app_id":0,"player_count":6,"max_players":0,"Bots":0,"server_type":"","server_os":"","password":false,"vac":false,"version":"","steam_id":0,"keywords":null,"game_id":0,"stv_port":0,"stv_name":"","players":[{"user_id":150,"name":"Lumokup","steam_id":76561199188237143,"connected_time":3452000000000,"state":"active","ping":43},{"user_id":160,"name":"FreonAddict9x19","steam_id":76561198060010824,"connected_time":1023000000000,"state":"active","ping":53},{"user_id":161,"name":"Yep","steam_id":76561198041437251,"connected_time":835000000000,"state":"active","ping":61},{"user_id":163,"name":"Alpharisus","steam_id":76561198130046775,"connected_time":489000000000,"state":"active","ping":68},{"user_id":143,"name":"Dr_Socks","steam_id":76561198420744636,"connected_time":4975000000000,"state":"active","ping":243},{"user_id":153,"name":"Happy 100 Gaming","steam_id":76561199066576538,"connected_time":2784000000000,"state":"active","ping":80}]},{"server_id":13,"name":"Uncletopia | New York City | 1 | All Maps","name_short":"nyc-1","host":"nyc-1.us.uncletopia.com","port":27015,"enabled":true,"region":"us-east","cc":"us","latitude":40.73061,"longitude":-73.93524,"reserved":0,"last_update":"0001-01-01T00:00:00Z","name_a2s":"Uncletopia | New York City | 1 | All Maps","protocol":17,"map":"cp_mountainlab","folder":"tf","game":"Team Fortress","app_id":440,"player_count":0,"max_players":24,"Bots":0,"server_type":"Dedicated","server_os":"Linux","password":true,"vac":true,"version":"7961495","steam_id":85568392924469993,"keywords":["cp","nocrits","nodmgspread","uncletopia"],"game_id":440,"stv_port":27016,"stv_name":"Uncletopia | New York City | 1 | All Maps | STV","players":null},{"server_id":14,"name":"Uncletopia | New York City | 2 | All Maps","name_short":"nyc-2","host":"nyc-1.us.uncletopia.com","port":27025,"enabled":true,"region":"us-east","cc":"us","latitude":40.73061,"longitude":-73.93524,"reserved":0,"last_update":"0001-01-01T00:00:00Z","name_a2s":"Uncletopia | New York City | 2 | All Maps","protocol":17,"map":"cp_dustbowl","folder":"tf","game":"Team Fortress","app_id":440,"player_count":24,"max_players":24,"Bots":0,"server_type":"Dedicated","server_os":"Linux","password":true,"vac":true,"version":"7961495","steam_id":85568392924469994,"keywords":["cp","nocrits","nodmgspread","uncletopia"],"game_id":440,"stv_port":27026,"stv_name":"Uncletopia | New York City | 2 | All Maps | STV","players":[{"user_id":38,"name":"Mecha","steam_id":76561198014927379,"connected_time":8627000000000,"state":"active","ping":72},{"user_id":135,"name":"mr white","steam_id":76561199114778257,"connected_time":675000000000,"state":"active","ping":99},{"user_id":119,"name":"judesro","steam_id":76561198352244888,"connected_time":2099000000000,"state":"active","ping":69},{"user_id":131,"name":"Epifiny","steam_id":76561198027958086,"connected_time":808000000000,"state":"active","ping":72},{"user_id":122,"name":"taigaxx","steam_id":76561198202669250,"connected_time":1852000000000,"state":"active","ping":61},{"user_id":146,"name":"UNIT 220","steam_id":76561198042243497,"connected_time":23000000000,"state":"active","ping":64},{"user_id":132,"name":"Assitins","steam_id":76561198041572892,"connected_time":792000000000,"state":"active","ping":53},{"user_id":133,"name":"Mossed Ball","steam_id":76561199031256509,"connected_time":788000000000,"state":"active","ping":98},{"user_id":134,"name":"Ziath","steam_id":76561198094009164,"connected_time":759000000000,"state":"active","ping":43},{"user_id":128,"name":"Vaun","steam_id":76561198034075317,"connected_time":1291000000000,"state":"active","ping":94},{"user_id":136,"name":"mollusk_obliteration","steam_id":76561198085388962,"connected_time":633000000000,"state":"active","ping":74},{"user_id":89,"name":"Broadsword #LGM","steam_id":76561198011160411,"connected_time":4527000000000,"state":"active","ping":77},{"user_id":138,"name":"lushtakular","steam_id":76561198840080823,"connected_time":566000000000,"state":"active","ping":75},{"user_id":126,"name":"Lowtech77","steam_id":76561198126916664,"connected_time":1344000000000,"state":"active","ping":68},{"user_id":130,"name":"{!}","steam_id":76561199498390493,"connected_time":1175000000000,"state":"active","ping":35},{"user_id":139,"name":"Operation_SeaLion","steam_id":76561198048726691,"connected_time":531000000000,"state":"active","ping":43},{"user_id":30,"name":"Baron von Whoopsie","steam_id":76561197996691013,"connected_time":9020000000000,"state":"active","ping":60},{"user_id":140,"name":"Raptorria","steam_id":76561198105613110,"connected_time":525000000000,"state":"active","ping":66},{"user_id":141,"name":"guppy","steam_id":76561198041380190,"connected_time":525000000000,"state":"active","ping":69},{"user_id":142,"name":"peace dog","steam_id":76561198267988522,"connected_time":504000000000,"state":"active","ping":61},{"user_id":147,"name":"Papillon","steam_id":76561198049725849,"connected_time":14000000000,"state":"spawning","ping":66},{"user_id":144,"name":"Wang of Wall St","steam_id":76561198047460598,"connected_time":477000000000,"state":"active","ping":58},{"user_id":81,"name":"werecat","steam_id":76561198005091213,"connected_time":5569000000000,"state":"active","ping":38},{"user_id":82,"name":"Samrizo el Chorizo","steam_id":76561198009838162,"connected_time":5284000000000,"state":"active","ping":50}]},{"server_id":15,"name":"Uncletopia | New York City | 3 | Stopwatch","name_short":"nyc-3","host":"nyc-1.us.uncletopia.com","port":27035,"enabled":true,"region":"us-east","cc":"us","latitude":40.73061,"longitude":-73.93524,"reserved":0,"last_update":"0001-01-01T00:00:00Z","name_a2s":"Uncletopia | New York City | 3 | Stopwatch","protocol":17,"map":"cp_process_final","folder":"tf","game":"Team Fortress","app_id":440,"player_count":0,"max_players":24,"Bots":0,"server_type":"Dedicated","server_os":"Linux","password":true,"vac":true,"version":"7961495","steam_id":85568392924742820,"keywords":["cp","nocrits","nodmgspread","uncletopia"],"game_id":440,"stv_port":27036,"stv_name":"Uncletopia | New York City | 3 | Stopwatch | STV","players":null},{"server_id":16,"name":"Uncletopia | New York City | 4 | Community","name_short":"nyc-4","host":"nyc-1.us.uncletopia.com","port":27045,"enabled":true,"region":"us-east","cc":"us","latitude":40.73061,"longitude":-73.93524,"reserved":0,"last_update":"0001-01-01T00:00:00Z","name_a2s":"Uncletopia | New York City | 4 | Community","protocol":17,"map":"workshop/koth_product_final.ugc454272353","folder":"tf","game":"Team Fortress","app_id":440,"player_count":0,"max_players":24,"Bots":0,"server_type":"Dedicated","server_os":"Linux","password":true,"vac":true,"version":"7961495","steam_id":85568392924742821,"keywords":["cp","nocrits","nodmgspread","uncletopia"],"game_id":440,"stv_port":27046,"stv_name":"Uncletopia | New York City | 4 | Community | STV","players":null},{"server_id":142,"name":"Uncletopia | S√£o Paulo | 1 | All Maps","name_short":"sao-1","host":"sao-1.br.uncletopia.com","port":27015,"enabled":true,"region":"sa","cc":"br","latitude":-23.533773,"longitude":-46.62529,"reserved":0,"last_update":"0001-01-01T00:00:00Z","name_a2s":"Uncletopia | S√£o Paulo | 1 | All Maps","protocol":17,"map":"cp_mountainlab","folder":"tf","game":"Team Fortress","app_id":440,"player_count":0,"max_players":24,"Bots":0,"server_type":"Dedicated","server_os":"Linux","password":true,"vac":true,"version":"7961495","steam_id":85568392924469996,"keywords":["cp","nocrits","nodmgspread","uncletopia"],"game_id":440,"stv_port":27016,"stv_name":"Uncletopia | S√£o Paulo | 1 | All Maps | STV","players":null},{"server_id":143,"name":"Uncletopia | S√£o Paulo | 2 | Community","name_short":"sao-2","host":"sao-2.br.uncletopia.com","port":27015,"enabled":true,"region":"sa","cc":"br","latitude":-23.533773,"longitude":-46.62529,"reserved":0,"last_update":"0001-01-01T00:00:00Z","name_a2s":"Uncletopia | S√£o Paulo | 2 | Community","protocol":17,"map":"workshop/koth_ramjam_rc1.ugc459778887","folder":"tf","game":"Team Fortress","app_id":440,"player_count":2,"max_players":24,"Bots":0,"server_type":"Dedicated","server_os":"Linux","password":true,"vac":true,"version":"7961495","steam_id":85568392924485349,"keywords":["cp","nocrits","nodmgspread","uncletopia"],"game_id":440,"stv_port":27016,"stv_name":"Uncletopia | S√£o Paulo | 2 | Community | STV","players":[{"user_id":4,"name":"guarda-chuva","steam_id":76561198078694330,"connected_time":1298000000000,"state":"active","ping":52},{"user_id":5,"name":"Tert_14","steam_id":76561198185952289,"connected_time":1272000000000,"state":"active","ping":70}]},{"server_id":7,"name":"Uncletopia | Seattle | 1 | All Maps","name_short":"sea-1","host":"sea-1.us.uncletopia.com","port":27015,"enabled":true,"region":"us-west","cc":"us","latitude":47.608013,"longitude":-122.33517,"reserved":0,"last_update":"0001-01-01T00:00:00Z","name_a2s":"Uncletopia | Seattle | 1 | All Maps","protocol":17,"map":"pl_barnblitz","folder":"tf","game":"Team Fortress","app_id":440,"player_count":17,"max_players":24,"Bots":0,"server_type":"Dedicated","server_os":"Linux","password":true,"vac":true,"version":"7961495","steam_id":85568392924469997,"keywords":["nocrits","nodmgspread","payload","uncletopia"],"game_id":440,"stv_port":27016,"stv_name":"Uncletopia | Seattle | 1 | All Maps | STV","players":[{"user_id":89,"name":"Cloud","steam_id":76561198272454184,"connected_time":3834000000000,"state":"active","ping":161},{"user_id":77,"name":"Tibetan Pop Star","steam_id":76561198844903984,"connected_time":4466000000000,"state":"active","ping":74},{"user_id":133,"name":"blest!","steam_id":76561198966232220,"connected_time":1612000000000,"state":"active","ping":56},{"user_id":142,"name":"Frank [LIVE ON TWITCH]","steam_id":76561198126681511,"connected_time":598000000000,"state":"active","ping":80},{"user_id":65,"name":"Mr. Cheesey","steam_id":76561198153462183,"connected_time":5790000000000,"state":"active","ping":90},{"user_id":127,"name":"DragonJimmy","steam_id":76561198272966565,"connected_time":1882000000000,"state":"active","ping":76},{"user_id":98,"name":"Youmu","steam_id":76561199013167718,"connected_time":3261000000000,"state":"active","ping":119},{"user_id":136,"name":"Dimple #TF2Center","steam_id":76561198980324190,"connected_time":1340000000000,"state":"active","ping":48},{"user_id":139,"name":"slushy :))","steam_id":76561198135281802,"connected_time":804000000000,"state":"active","ping":30},{"user_id":145,"name":"prime example of furry L","steam_id":76561198097745857,"connected_time":321000000000,"state":"active","ping":54},{"user_id":151,"name":"mizurush","steam_id":76561198039595304,"connected_time":175000000000,"state":"active","ping":125},{"user_id":146,"name":"Pneumo.","steam_id":76561197987911883,"connected_time":256000000000,"state":"active","ping":47},{"user_id":70,"name":"CasemanTheBlondeBear","steam_id":76561198144862404,"connected_time":5303000000000,"state":"active","ping":51},{"user_id":149,"name":"Pikemen","steam_id":76561198141338432,"connected_time":199000000000,"state":"active","ping":30},{"user_id":137,"name":"MrRojan","steam_id":76561197993760849,"connected_time":1191000000000,"state":"active","ping":49},{"user_id":106,"name":"InfernoBane","steam_id":76561197997742994,"connected_time":3125000000000,"state":"active","ping":106},{"user_id":143,"name":"UserLeft","steam_id":76561197998297379,"connected_time":596000000000,"state":"active","ping":60}]},{"server_id":119,"name":"Uncletopia | Seattle | 2 | All Maps","name_short":"sea-2","host":"sea-1.us.uncletopia.com","port":27025,"enabled":true,"region":"us-west","cc":"us","latitude":47.608013,"longitude":-122.33517,"reserved":0,"last_update":"0001-01-01T00:00:00Z","name_a2s":"Uncletopia | Seattle | 2 | All Maps","protocol":17,"map":"koth_viaduct","folder":"tf","game":"Team Fortress","app_id":440,"player_count":0,"max_players":24,"Bots":0,"server_type":"Dedicated","server_os":"Linux","password":true,"vac":true,"version":"7961495","steam_id":85568392924469998,"keywords":["cp","nocrits","nodmgspread","uncletopia"],"game_id":440,"stv_port":27026,"stv_name":"Uncletopia | Seattle | 2 | All Maps | STV","players":null},{"server_id":406,"name":"Uncletopia | Seattle | 3 | Stopwatch","name_short":"sea-3","host":"sea-1.us.uncletopia.com","port":27035,"enabled":true,"region":"us-west","cc":"us","latitude":47.608013,"longitude":-122.33517,"reserved":0,"last_update":"0001-01-01T00:00:00Z","name_a2s":"Uncletopia | Seattle | 3 | Stopwatch","protocol":17,"map":"cp_process_final","folder":"tf","game":"Team Fortress","app_id":440,"player_count":0,"max_players":24,"Bots":0,"server_type":"Dedicated","server_os":"Linux","password":true,"vac":true,"version":"7961495","steam_id":85568392924515217,"keywords":["cp","nocrits","nodmgspread","uncletopia"],"game_id":440,"stv_port":27036,"stv_name":"Uncletopia | Seattle | 3 | Stopwatch | STV","players":null},{"server_id":17,"name":"Uncletopia | San Francisco | 1 | All Maps","name_short":"sfo-1","host":"sfo-1.us.uncletopia.com","port":27015,"enabled":true,"region":"us-west","cc":"us","latitude":37.77397,"longitude":-122.4313,"reserved":0,"last_update":"0001-01-01T00:00:00Z","name_a2s":"Uncletopia | San Francisco | 1 | All Maps","protocol":17,"map":"koth_cascade","folder":"tf","game":"Team Fortress","app_id":440,"player_count":0,"max_players":24,"Bots":0,"server_type":"Dedicated","server_os":"Linux","password":true,"vac":true,"version":"7961495","steam_id":85568392924469999,"keywords":["cp","nocrits","nodmgspread","uncletopia"],"game_id":440,"stv_port":27016,"stv_name":"Uncletopia | San Francisco | 1 | All Maps | STV","players":null},{"server_id":18,"name":"Uncletopia | San Francisco | 2 | All Maps","name_short":"sfo-2","host":"sfo-1.us.uncletopia.com","port":27025,"enabled":true,"region":"us-west","cc":"us","latitude":37.77397,"longitude":-122.4313,"reserved":0,"last_update":"0001-01-01T00:00:00Z","name_a2s":"Uncletopia | San Francisco | 2 | All Maps","protocol":17,"map":"pl_frontier_final","folder":"tf","game":"Team Fortress","app_id":440,"player_count":0,"max_players":24,"Bots":0,"server_type":"Dedicated","server_os":"Linux","password":true,"vac":true,"version":"7961495","steam_id":85568392924470000,"keywords":["nocrits","nodmgspread","payload","uncletopia"],"game_id":440,"stv_port":27026,"stv_name":"Uncletopia | San Francisco | 2 | All Maps | STV","players":null},{"server_id":19,"name":"Uncletopia | San Francisco | 3 | Stopwatch","name_short":"sfo-3","host":"sfo-1.us.uncletopia.com","port":27035,"enabled":true,"region":"us-west","cc":"us","latitude":37.77397,"longitude":-122.4313,"reserved":0,"last_update":"0001-01-01T00:00:00Z","name_a2s":"Uncletopia | San Francisco | 3 | Stopwatch","protocol":17,"map":"pl_pier","folder":"tf","game":"Team Fortress","app_id":440,"player_count":0,"max_players":24,"Bots":0,"server_type":"Dedicated","server_os":"Linux","password":true,"vac":true,"version":"7961495","steam_id":85568392924742824,"keywords":["nocrits","nodmgspread","payload","uncletopia"],"game_id":440,"stv_port":27036,"stv_name":"Uncletopia | San Francisco | 3 | Stopwatch | STV","players":null},{"server_id":20,"name":"Uncletopia | San Francisco | 4 | Community","name_short":"sfo-4","host":"sfo-1.us.uncletopia.com","port":27045,"enabled":true,"region":"us-west","cc":"us","latitude":37.77397,"longitude":-122.4313,"reserved":0,"last_update":"0001-01-01T00:00:00Z","name_a2s":"Uncletopia | San Francisco | 4 | Community","protocol":17,"map":"pl_pier","folder":"tf","game":"Team Fortress","app_id":440,"player_count":0,"max_players":24,"Bots":0,"server_type":"Dedicated","server_os":"Linux","password":true,"vac":true,"version":"7961495","steam_id":85568392924742826,"keywords":["nocrits","nodmgspread","payload","uncletopia"],"game_id":440,"stv_port":27046,"stv_name":"Uncletopia | San Francisco | 4 | Community | STV","players":null},{"server_id":141,"name":"Uncletopia | Sydney | 1 | All Maps","name_short":"syd-1","host":"syd-1.au.uncletopia.com","port":27015,"enabled":true,"region":"au","cc":"au","latitude":-33.865143,"longitude":151.2099,"reserved":0,"last_update":"0001-01-01T00:00:00Z","name_a2s":"Uncletopia | Sydney | 1 | All Maps","protocol":17,"map":"pl_frontier_final","folder":"tf","game":"Team Fortress","app_id":440,"player_count":1,"max_players":24,"Bots":0,"server_type":"Dedicated","server_os":"Linux","password":true,"vac":true,"version":"7961495","steam_id":85568392924470001,"keywords":["nocrits","nodmgspread","payload","uncletopia"],"game_id":440,"stv_port":27016,"stv_name":"Uncletopia | Sydney | 1 | All Maps | STV","players":[{"user_id":444,"name":"wom","steam_id":76561199375834537,"connected_time":359000000000,"state":"spawning","ping":139}]},{"server_id":123,"name":"Uncletopia | Sydney | 2 | All Maps","name_short":"syd-2","host":"syd-1.au.uncletopia.com","port":27025,"enabled":true,"region":"au","cc":"au","latitude":-33.865143,"longitude":151.2099,"reserved":0,"last_update":"0001-01-01T00:00:00Z","name_a2s":"Uncletopia | Sydney | 2 | All Maps","protocol":17,"map":"pl_swiftwater_final1","folder":"tf","game":"Team Fortress","app_id":440,"player_count":0,"max_players":24,"Bots":0,"server_type":"Dedicated","server_os":"Linux","password":true,"vac":true,"version":"7961495","steam_id":85568392924470002,"keywords":["nocrits","nodmgspread","payload","uncletopia"],"game_id":440,"stv_port":27026,"stv_name":"Uncletopia | Sydney | 2 | All Maps | STV","players":null},{"server_id":395,"name":"Uncletopia | Sydney | 3 | All Maps","name_short":"syd-3","host":"syd-1.au.uncletopia.com","port":27035,"enabled":true,"region":"au","cc":"au","latitude":-33.865143,"longitude":151.2099,"reserved":0,"last_update":"0001-01-01T00:00:00Z","name_a2s":"Uncletopia | Sydney | 3 | All Maps","protocol":17,"map":"pl_borneo","folder":"tf","game":"Team Fortress","app_id":440,"player_count":0,"max_players":24,"Bots":0,"server_type":"Dedicated","server_os":"Linux","password":true,"vac":true,"version":"7961495","steam_id":85568392925194467,"keywords":["nocrits","nodmgspread","payload","uncletopia"],"game_id":440,"stv_port":27036,"stv_name":"Uncletopia | Sydney | 3 | All Maps | STV","players":null},{"server_id":396,"name":"Uncletopia | Sydney | 4 | All Maps","name_short":"syd-4","host":"syd-1.au.uncletopia.com","port":27045,"enabled":true,"region":"au","cc":"au","latitude":-33.865143,"longitude":151.2099,"reserved":0,"last_update":"0001-01-01T00:00:00Z","name_a2s":"Uncletopia | Sydney | 4 | All Maps","protocol":17,"map":"koth_lakeside_final","folder":"tf","game":"Team Fortress","app_id":440,"player_count":0,"max_players":24,"Bots":0,"server_type":"Dedicated","server_os":"Linux","password":true,"vac":true,"version":"7961495","steam_id":85568392925397958,"keywords":["cp","nocrits","nodmgspread","uncletopia"],"game_id":440,"stv_port":27046,"stv_name":"Uncletopia | Sydney | 4 | All Maps | STV","players":null},{"server_id":58,"name":"Uncletopia | Sydney | 5 | Stopwatch","name_short":"syd-5","host":"syd-1.au.uncletopia.com","port":27055,"enabled":true,"region":"au","cc":"au","latitude":-33.865143,"longitude":151.2099,"reserved":0,"last_update":"0001-01-01T00:00:00Z","name_a2s":"Uncletopia | Sydney | 5 | Stopwatch","protocol":17,"map":"workshop/cp_reckoner_rc6.ugc674719999","folder":"tf","game":"Team Fortress","app_id":440,"player_count":0,"max_players":24,"Bots":0,"server_type":"Dedicated","server_os":"Linux","password":true,"vac":true,"version":"7961495","steam_id":85568392925397959,"keywords":["cp","nocrits","nodmgspread","uncletopia"],"game_id":440,"stv_port":27056,"stv_name":"Uncletopia | Sydney | 5 | Stopwatch | STV","players":null},{"server_id":59,"name":"Uncletopia | Sydney | 6 | Community","name_short":"syd-6","host":"syd-1.au.uncletopia.com","port":27065,"enabled":true,"region":"au","cc":"au","latitude":-33.865143,"longitude":151.2099,"reserved":0,"last_update":"0001-01-01T00:00:00Z","name_a2s":"Uncletopia | Sydney | 6 | Community","protocol":17,"map":"workshop/pl_badwater_pro_v12.ugc2142942074","folder":"tf","game":"Team Fortress","app_id":440,"player_count":0,"max_players":24,"Bots":0,"server_type":"Dedicated","server_os":"Linux","password":true,"vac":true,"version":"7961495","steam_id":85568392925397960,"keywords":["nocrits","nodmgspread","payload","uncletopia"],"game_id":440,"stv_port":27066,"stv_name":"Uncletopia | Sydney | 6 | Community | STV","players":null},{"server_id":49,"name":"Uncletopia | Warsaw | 1 | One Thousand Uncles","name_short":"waw-1","host":"waw-1.pl.uncletopia.com","port":27015,"enabled":true,"region":"eu","cc":"pl","latitude":52.2297,"longitude":21.017532,"reserved":0,"last_update":"0001-01-01T00:00:00Z","name_a2s":"Uncletopia | Warsaw | 1 | One Thousand Uncles","protocol":17,"map":"cp_dustbowl","folder":"tf","game":"Team Fortress","app_id":440,"player_count":18,"max_players":32,"Bots":16,"server_type":"Dedicated","server_os":"Linux","password":true,"vac":true,"version":"7961495","steam_id":85568392925397850,"keywords":["alltalk","bots","cp","danepve","increased_maxplayers","nocrits","norespawntime","uncletopia"],"game_id":440,"stv_port":0,"stv_name":"","players":[{"user_id":419,"name":"A Bl√•haj Fan","steam_id":76561199029212388,"connected_time":954000000000,"state":"active","ping":34},{"user_id":421,"name":"Wilgowskii","steam_id":76561198192008655,"connected_time":62000000000,"state":"active","ping":61}]},{"server_id":50,"name":"Uncletopia | Warsaw | 2 | One Thousand Uncles","name_short":"waw-2","host":"waw-1.pl.uncletopia.com","port":27025,"enabled":true,"region":"eu","cc":"pl","latitude":52.2297,"longitude":21.017532,"reserved":0,"last_update":"0001-01-01T00:00:00Z","name_a2s":"Uncletopia | Warsaw | 2 | One Thousand Uncles","protocol":17,"map":"pl_badwater","folder":"tf","game":"Team Fortress","app_id":440,"player_count":27,"max_players":32,"Bots":16,"server_type":"Dedicated","server_os":"Linux","password":true,"vac":true,"version":"7961495","steam_id":85568392925397851,"keywords":["alltalk","bots","danepve","increased_maxplayers","nocrits","norespawntime","payload","uncletopia"],"game_id":440,"stv_port":0,"stv_name":"","players":[{"user_id":97,"name":"person","steam_id":76561198452367903,"connected_time":737000000000,"state":"active","ping":47},{"user_id":101,"name":"dharrmanngaming","steam_id":76561199388686889,"connected_time":196000000000,"state":"active","ping":85},{"user_id":79,"name":"slifty","steam_id":76561198166682199,"connected_time":2008000000000,"state":"active","ping":85},{"user_id":71,"name":"random guy [pl]","steam_id":76561199268205212,"connected_time":2629000000000,"state":"active","ping":69},{"user_id":94,"name":"ByrakGG (f2p)","steam_id":76561199415957361,"connected_time":929000000000,"state":"active","ping":109},{"user_id":76,"name":"lagzer","steam_id":76561198029295449,"connected_time":2301000000000,"state":"active","ping":52},{"user_id":87,"name":"MemeLord","steam_id":76561198135115524,"connected_time":1428000000000,"state":"active","ping":48},{"user_id":98,"name":"night.s","steam_id":76561198326287823,"connected_time":377000000000,"state":"active","ping":98},{"user_id":99,"name":"Juno4","steam_id":76561198034518616,"connected_time":350000000000,"state":"active","ping":59},{"user_id":100,"name":"FairwellNoob","steam_id":76561199092823096,"connected_time":305000000000,"state":"active","ping":207},{"user_id":90,"name":"HatMann","steam_id":76561198821664938,"connected_time":1121000000000,"state":"active","ping":71}]},{"server_id":51,"name":"Uncletopia | Warsaw | 3 | All Maps","name_short":"waw-3","host":"waw-1.pl.uncletopia.com","port":27035,"enabled":true,"region":"eu","cc":"pl","latitude":52.2297,"longitude":21.017532,"reserved":0,"last_update":"0001-01-01T00:00:00Z","name_a2s":"Uncletopia | Warsaw | 3 | All Maps","protocol":17,"map":"pl_upward","folder":"tf","game":"Team Fortress","app_id":440,"player_count":11,"max_players":24,"Bots":0,"server_type":"Dedicated","server_os":"Linux","password":true,"vac":true,"version":"7961495","steam_id":85568392925397852,"keywords":["nocrits","nodmgspread","payload","uncletopia"],"game_id":440,"stv_port":27036,"stv_name":"Uncletopia | Warsaw | 3 | All Maps | STV","players":[{"user_id":8,"name":"sauli01","steam_id":76561198069149120,"connected_time":2098000000000,"state":"active","ping":89},{"user_id":26,"name":"-TA- AITOTESTO","steam_id":76561198843742968,"connected_time":991000000000,"state":"active","ping":102},{"user_id":10,"name":"Lakki","steam_id":76561198137595103,"connected_time":2004000000000,"state":"active","ping":87},{"user_id":11,"name":"i am injury","steam_id":76561198276854922,"connected_time":2000000000000,"state":"active","ping":98},{"user_id":15,"name":"-TA- Sussy Gilaric","steam_id":76561198067540283,"connected_time":1899000000000,"state":"active","ping":76},{"user_id":31,"name":"KirikoneG","steam_id":76561198075752272,"connected_time":4000000000,"state":"spawning","ping":130},{"user_id":27,"name":"Average meme enjoyer","steam_id":76561199087566663,"connected_time":947000000000,"state":"active","ping":57},{"user_id":19,"name":"Average Gibus Enjoyer","steam_id":76561199410300277,"connected_time":1672000000000,"state":"active","ping":83},{"user_id":28,"name":" Ç ùï° √∂ÃΩÕì √∂ÃΩÕì ‚ìö","steam_id":76561198184636547,"connected_time":531000000000,"state":"active","ping":91},{"user_id":22,"name":"Buterbrod","steam_id":76561198829880730,"connected_time":1191000000000,"state":"active","ping":65},{"user_id":30,"name":"purplecan","steam_id":76561199208283508,"connected_time":444000000000,"state":"active","ping":53}]},{"server_id":52,"name":"Uncletopia | Warsaw | 4 | All Maps","name_short":"waw-4","host":"waw-1.pl.uncletopia.com","port":27045,"enabled":true,"region":"eu","cc":"pl","latitude":52.2297,"longitude":21.017532,"reserved":0,"last_update":"0001-01-01T00:00:00Z","name_a2s":"Uncletopia | Warsaw | 4 | All Maps","protocol":17,"map":"koth_cascade","folder":"tf","game":"Team Fortress","app_id":440,"player_count":0,"max_players":24,"Bots":0,"server_type":"Dedicated","server_os":"Linux","password":true,"vac":true,"version":"7961495","steam_id":85568392925397853,"keywords":["cp","nocrits","nodmgspread","uncletopia"],"game_id":440,"stv_port":27046,"stv_name":"Uncletopia | Warsaw | 4 | All Maps | STV","players":null},{"server_id":53,"name":"Uncletopia | Warsaw | 5 | Stopwatch","name_short":"waw-5","host":"waw-1.pl.uncletopia.com","port":27055,"enabled":true,"region":"eu","cc":"pl","latitude":52.2297,"longitude":21.017532,"reserved":0,"last_update":"0001-01-01T00:00:00Z","name_a2s":"Uncletopia | Warsaw | 5 | Stopwatch","protocol":17,"map":"cp_sunshine","folder":"tf","game":"Team Fortress","app_id":440,"player_count":0,"max_players":24,"Bots":0,"server_type":"Dedicated","server_os":"Linux","password":true,"vac":true,"version":"7961495","steam_id":85568392925397854,"keywords":["cp","nocrits","nodmgspread","uncletopia"],"game_id":440,"stv_port":27056,"stv_name":"Uncletopia | Warsaw | 5 | Stopwatch | STV","players":null},{"server_id":54,"name":"Uncletopia | Warsaw | 6 | Community","name_short":"waw-6","host":"waw-1.pl.uncletopia.com","port":27065,"enabled":true,"region":"eu","cc":"pl","latitude":52.2297,"longitude":21.017532,"reserved":0,"last_update":"0001-01-01T00:00:00Z","name_a2s":"Uncletopia | Warsaw | 6 | Community","protocol":17,"map":"workshop/koth_kemptown_rc1.ugc767410655","folder":"tf","game":"Team Fortress","app_id":440,"player_count":0,"max_players":24,"Bots":0,"server_type":"Dedicated","server_os":"Linux","password":true,"vac":true,"version":"7961495","steam_id":85568392925397856,"keywords":["cp","nocrits","nodmgspread","uncletopia"],"game_id":440,"stv_port":27066,"stv_name":"Uncletopia | Warsaw | 6 | Community | STV","players":null}]}