{"status":true,"message":"","result":[{"server_id":9,"name":"Uncletopia | Atlanta | 1 | All Maps","name_short":"atl-1","host":"atl-1.us.uncletopia.com","port":27015,"enabled":true,"region":"us-east","cc":"us","latitude":33.753746,"longitude":-84.38633,"reserved":0,"last_update":"0001-01-01T00:00:00Z","name_a2s":"Uncletopia | Atlanta | 1 | All Maps","protocol":17,"map":"pl_swiftwater_final1","folder":"tf","game":"Team Fortress","app_id":440,"player_count":24,"max_players":24,"Bots":0,"server_type":"Dedicated","server_os":"Linux","password":true,"vac":true,"version":"7961495","steam_id":85568392924469982,"keywords":["nocrits","nodmgspread","payload","uncletopia"],"game_id":440,"stv_port":27016,"stv_name":"Uncletopia | Atlanta | 1 | All Maps | STV","players":[{"user_id":339,"name":"twitch.tv/kegaman_","steam_id":76561198043632775,"connected_time":2747000000000,"state":"active","ping":115},{"user_id":348,"name":"why","steam_id":76561199059732212,"connected_time":2343000000000,"state":"active","ping":57},{"user_id":306,"name":"loot","steam_id":76561198069954956,"connected_time":5921000000000,"state":"active","ping":45},{"user_id":296,"name":"Nic0","steam_id":76561198305690218,"connected_time":6956000000000,"state":"active","ping":79},{"user_id":346,"name":"lil hog","steam_id":76561199230929836,"connected_time":2369000000000,"state":"active","ping":84},{"user_id":351,"name":"icyy","steam_id":76561198968001329,"connected_time":1577000000000,"state":"active","ping":45},{"user_id":350,"name":"Im High","steam_id":76561198049954886,"connected_time":2134000000000,"state":"active","ping":76},{"user_id":355,"name":"Flint","steam_id":76561198066547582,"connected_time":1282000000000,"state":"active","ping":102},{"user_id":298,"name":"com lag","steam_id":76561198019019392,"connected_time":6694000000000,"state":"active","ping":60},{"user_id":353,"name":"DuckMann","steam_id":76561198197058638,"connected_time":1431000000000,"state":"active","ping":48},{"user_id":282,"name":"chiswola","steam_id":76561198046920142,"connected_time":7789000000000,"state":"active","ping":82},{"user_id":363,"name":"Electroid","steam_id":76561199092263960,"connected_time":831000000000,"state":"active","ping":47},{"user_id":367,"name":"Donkus","steam_id":76561198076654704,"connected_time":309000000000,"state":"active","ping":60},{"user_id":325,"name":"Sinta","steam_id":76561198098398841,"connected_time":4848000000000,"state":"active","ping":60},{"user_id":366,"name":"IKEA CherryChair","steam_id":76561198185055443,"connected_time":524000000000,"state":"active","ping":82},{"user_id":334,"name":"ash","steam_id":76561198127890645,"connected_time":2895000000000,"state":"active","ping":73},{"user_id":213,"name":"ATL1 | cola","steam_id":76561198374390458,"connected_time":13094000000000,"state":"active","ping":72},{"user_id":354,"name":"Doubie","steam_id":76561198104492019,"connected_time":1431000000000,"state":"active","ping":60},{"user_id":330,"name":"Thotimus Begonimus","steam_id":76561197970275938,"connected_time":3236000000000,"state":"active","ping":45},{"user_id":356,"name":"Dim","steam_id":76561198061411324,"connected_time":1282000000000,"state":"active","ping":56},{"user_id":361,"name":"trianamarco780","steam_id":76561199084319677,"connected_time":915000000000,"state":"active","ping":105},{"user_id":290,"name":"Grazzunk","steam_id":76561198290227691,"connected_time":7385000000000,"state":"active","ping":84},{"user_id":304,"name":"Le4n!!!","steam_id":76561198045522596,"connected_time":5949000000000,"state":"active","ping":73},{"user_id":358,"name":"BlueMew","steam_id":76561198060454348,"connected_time":1258000000000,"state":"active","ping":65}]},{"server_id":104,"name":"Uncletopia | Atlanta | 2 | All Maps","name_short":"atl-2","host":"atl-1.us.uncletopia.com","port":27025,"enabled":true,"region":"us-east","cc":"us","latitude":33.753746,"longitude":-84.38633,"reserved":0,"last_update":"0001-01-01T00:00:00Z","name_a2s":"Uncletopia | Atlanta | 2 | All Maps","protocol":17,"map":"cp_dustbowl","folder":"tf","game":"Team Fortress","app_id":440,"player_count":24,"max_players":24,"Bots":0,"server_type":"Dedicated","server_os":"Linux","password":true,"vac":true,"version":"7961495","steam_id":85568392924469983,"keywords":["cp","nocrits","nodmgspread","uncletopia"],"game_id":440,"stv_port":27026,"stv_name":"Uncletopia | Atlanta | 2 | All Maps | STV","players":[{"user_id":259,"name":"The Gentrified Urge","steam_id":76561198073314154,"connected_time":3213000000000,"state":"active","ping":67},{"user_id":301,"name":"RaixaR","steam_id":76561198025289430,"connected_time":224000000000,"state":"active","ping":68},{"user_id":274,"name":"metalfan666","steam_id":76561198386344068,"connected_time":1961000000000,"state":"active","ping":74},{"user_id":297,"name":"lucin","steam_id":76561198258062078,"connected_time":425000000000,"state":"active","ping":64},{"user_id":291,"name":"vastrobotmax","steam_id":76561198417110724,"connected_time":610000000000,"state":"active","ping":76},{"user_id":282,"name":"4d4 civilnetworks.net","steam_id":76561198402360789,"connected_time":1066000000000,"state":"active","ping":85},{"user_id":273,"name":"Prince Flip","steam_id":76561198023462157,"connected_time":1974000000000,"state":"active","ping":135},{"user_id":292,"name":"topeg","steam_id":76561198406333796,"connected_time":512000000000,"state":"active","ping":101},{"user_id":293,"name":"Paul the llama","steam_id":76561198079629530,"connected_time":510000000000,"state":"active","ping":104},{"user_id":198,"name":"El Bondin","steam_id":76561198820792434,"connected_time":8704000000000,"state":"active","ping":88},{"user_id":285,"name":"Virus","steam_id":76561198252166472,"connected_time":806000000000,"state":"active","ping":68},{"user_id":234,"name":"shitass | troutsupply.net","steam_id":76561198210572481,"connected_time":4988000000000,"state":"active","ping":83},{"user_id":289,"name":"raccocooon","steam_id":76561199138602425,"connected_time":678000000000,"state":"active","ping":63},{"user_id":286,"name":"zachary.burger.2004","steam_id":76561199151398882,"connected_time":804000000000,"state":"active","ping":95},{"user_id":290,"name":"Passionate Map Researcher","steam_id":76561199490508357,"connected_time":628000000000,"state":"active","ping":86},{"user_id":294,"name":"gamingengineer55","steam_id":76561199167429510,"connected_time":504000000000,"state":"active","ping":75},{"user_id":295,"name":"Jukebox","steam_id":76561198044541359,"connected_time":477000000000,"state":"active","ping":75},{"user_id":227,"name":"J The Jounin","steam_id":76561198034583622,"connected_time":5832000000000,"state":"active","ping":53},{"user_id":296,"name":"goober","steam_id":76561199452679604,"connected_time":450000000000,"state":"active","ping":100},{"user_id":216,"name":"Notsocreative","steam_id":76561198236372202,"connected_time":6899000000000,"state":"active","ping":78},{"user_id":302,"name":"jojobinks613","steam_id":76561198841293111,"connected_time":204000000000,"state":"active","ping":76},{"user_id":299,"name":"gatlinevan79","steam_id":76561199465817675,"connected_time":403000000000,"state":"active","ping":73},{"user_id":300,"name":"Tomato","steam_id":76561197996472649,"connected_time":380000000000,"state":"active","ping":70},{"user_id":279,"name":"Yuck","steam_id":76561198001667870,"connected_time":1385000000000,"state":"active","ping":77}]},{"server_id":400,"name":"Uncletopia | Atlanta | 3 | Stopwatch","name_short":"atl-3","host":"atl-1.us.uncletopia.com","port":27035,"enabled":true,"region":"us-east","cc":"us","latitude":33.753746,"longitude":-84.38633,"reserved":0,"last_update":"0001-01-01T00:00:00Z","name_a2s":"Uncletopia | Atlanta | 3 | Stopwatch","protocol":17,"map":"workshop/koth_product_final.ugc454272353","folder":"tf","game":"Team Fortress","app_id":440,"player_count":0,"max_players":24,"Bots":0,"server_type":"Dedicated","server_os":"Linux","password":true,"vac":true,"version":"7961495","steam_id":85568392924515187,"keywords":["cp","nocrits","nodmgspread","uncletopia"],"game_id":440,"stv_port":27036,"stv_name":"Uncletopia | Atlanta | 3 | Stopwatch | STV","players":null},{"server_id":401,"name":"Uncletopia | Atlanta | 4 | Community","name_short":"atl-4","host":"atl-1.us.uncletopia.com","port":27045,"enabled":true,"region":"us-east","cc":"us","latitude":33.753746,"longitude":-84.38633,"reserved":0,"last_update":"0001-01-01T00:00:00Z","name_a2s":"Uncletopia | Atlanta | 4 | Community","protocol":17,"map":"workshop/pl_boundary_final1.ugc456799153","folder":"tf","game":"Team Fortress","app_id":440,"player_count":0,"max_players":24,"Bots":0,"server_type":"Dedicated","server_os":"Linux","password":true,"vac":true,"version":"7961495","steam_id":85568392924515188,"keywords":["nocrits","nodmgspread","payload","uncletopia"],"game_id":440,"stv_port":27046,"stv_name":"Uncletopia | Atlanta | 4 | Community | STV","players":null},{"server_id":2,"name":"Uncletopia | Chicago | 1 | All Maps","name_short":"chi-1","host":"chi-1.us.uncletopia.com","port":27015,"enabled":true,"region":"us-central","cc":"us","latitude":41.881832,"longitude":-87.62318,"reserved":0,"last_update":"0001-01-01T00:00:00Z","name_a2s":"Uncletopia | Chicago | 1 | All Maps","protocol":17,"map":"pl_pier","folder":"tf","game":"Team Fortress","app_id":440,"player_count":24,"max_players":24,"Bots":0,"server_type":"Dedicated","server_os":"Linux","password":true,"vac":true,"version":"7961495","steam_id":85568392924469984,"keywords":["nocrits","nodmgspread","payload","uncletopia"],"game_id":440,"stv_port":27016,"stv_name":"Uncletopia | Chicago | 1 | All Maps | STV","players":[{"user_id":501,"name":"Reginald the Deceased Gentleman","steam_id":76561198322068512,"connected_time":1221000000000,"state":"active","ping":119},{"user_id":505,"name":"Degenerate Mustang Owner","steam_id":76561198259388205,"connected_time":983000000000,"state":"active","ping":53},{"user_id":492,"name":"troll","steam_id":76561198082680563,"connected_time":2031000000000,"state":"active","ping":46},{"user_id":482,"name":"Chicken Nugget","steam_id":76561198082601232,"connected_time":2575000000000,"state":"active","ping":74},{"user_id":502,"name":"playguy carter","steam_id":76561198080679337,"connected_time":1131000000000,"state":"active","ping":58},{"user_id":484,"name":"cyclops","steam_id":76561197970370198,"connected_time":2526000000000,"state":"active","ping":55},{"user_id":495,"name":"elpful","steam_id":76561198189659530,"connected_time":1751000000000,"state":"active","ping":76},{"user_id":504,"name":"spire","steam_id":76561198367664346,"connected_time":1042000000000,"state":"active","ping":52},{"user_id":503,"name":"Feet Bandit","steam_id":76561199152252878,"connected_time":1120000000000,"state":"active","ping":70},{"user_id":514,"name":"Peppercat","steam_id":76561198005334525,"connected_time":195000000000,"state":"active","ping":67},{"user_id":368,"name":"Siz","steam_id":76561198072962154,"connected_time":11506000000000,"state":"active","ping":65},{"user_id":510,"name":"HoodooHooligan","steam_id":76561198372836206,"connected_time":965000000000,"state":"active","ping":43},{"user_id":506,"name":"King","steam_id":76561198123927752,"connected_time":982000000000,"state":"active","ping":53},{"user_id":509,"name":"MeDerp","steam_id":76561198334037284,"connected_time":965000000000,"state":"active","ping":57},{"user_id":474,"name":"the keebler","steam_id":76561199486326945,"connected_time":3671000000000,"state":"active","ping":76},{"user_id":454,"name":"Skab E²r","steam_id":76561199126112357,"connected_time":5527000000000,"state":"active","ping":86},{"user_id":460,"name":"Strange Diplomat","steam_id":76561198428191920,"connected_time":4554000000000,"state":"active","ping":73},{"user_id":512,"name":"Tito","steam_id":76561198041702529,"connected_time":701000000000,"state":"active","ping":74},{"user_id":490,"name":"Cup Of Joey","steam_id":76561198271159832,"connected_time":2376000000000,"state":"active","ping":104},{"user_id":508,"name":"Wizops","steam_id":76561198907030448,"connected_time":970000000000,"state":"active","ping":69},{"user_id":449,"name":"ark","steam_id":76561198041066271,"connected_time":5795000000000,"state":"active","ping":77},{"user_id":498,"name":"Pocky","steam_id":76561199096774182,"connected_time":1330000000000,"state":"active","ping":104},{"user_id":475,"name":"neil","steam_id":76561198122666918,"connected_time":3460000000000,"state":"active","ping":68},{"user_id":499,"name":"Wulvaryne","steam_id":76561199501209338,"connected_time":1330000000000,"state":"active","ping":82}]},{"server_id":106,"name":"Uncletopia | Chicago | 2 | All Maps","name_short":"chi-2","host":"chi-1.us.uncletopia.com","port":27025,"enabled":true,"region":"us-central","cc":"us","latitude":41.881832,"longitude":-87.62318,"reserved":0,"last_update":"0001-01-01T00:00:00Z","name_a2s":"Uncletopia | Chicago | 2 | All Maps","protocol":17,"map":"pl_pier","folder":"tf","game":"Team Fortress","app_id":440,"player_count":23,"max_players":24,"Bots":0,"server_type":"Dedicated","server_os":"Linux","password":true,"vac":true,"version":"7961495","steam_id":85568392924469985,"keywords":["nocrits","nodmgspread","payload","uncletopia"],"game_id":440,"stv_port":27026,"stv_name":"Uncletopia | Chicago | 2 | All Maps | STV","players":[{"user_id":397,"name":"Drapph","steam_id":76561199384213314,"connected_time":554000000000,"state":"active","ping":48},{"user_id":401,"name":"slasher4713","steam_id":76561199033532858,"connected_time":385000000000,"state":"active","ping":35},{"user_id":375,"name":"Final Boss of Hightower","steam_id":76561198034827905,"connected_time":1025000000000,"state":"active","ping":52},{"user_id":408,"name":"p59kd,4awwi232","steam_id":76561199221669701,"connected_time":8000000000,"state":"active","ping":79},{"user_id":395,"name":"Natsuki the Scunt","steam_id":76561199175922684,"connected_time":600000000000,"state":"active","ping":113},{"user_id":346,"name":"Blaze","steam_id":76561198043797702,"connected_time":3335000000000,"state":"active","ping":46},{"user_id":311,"name":"Kirby.exe","steam_id":76561198242714582,"connected_time":5255000000000,"state":"active","ping":73},{"user_id":400,"name":"Crunchy","steam_id":76561198060342804,"connected_time":490000000000,"state":"active","ping":55},{"user_id":348,"name":"Oli B\u003eQS/BP/Bulk w/ 1.5k+ keys","steam_id":76561198140316312,"connected_time":3069000000000,"state":"active","ping":48},{"user_id":409,"name":"Caribou","steam_id":76561197997211265,"connected_time":3000000000,"state":"spawning","ping":58},{"user_id":356,"name":"Gun","steam_id":76561199264073138,"connected_time":2289000000000,"state":"active","ping":83},{"user_id":403,"name":"3ggsalad3","steam_id":76561199386969191,"connected_time":331000000000,"state":"active","ping":47},{"user_id":404,"name":"strawberry donut","steam_id":76561198354284591,"connected_time":288000000000,"state":"active","ping":46},{"user_id":374,"name":"Goober","steam_id":76561198105930089,"connected_time":1228000000000,"state":"active","ping":69},{"user_id":410,"name":"x = ( -b ± √( b^2 - 4ac)/ (2","steam_id":76561198059220458,"connected_time":2000000000,"state":"spawning","ping":55},{"user_id":393,"name":"Maybe_AFK","steam_id":76561198288193713,"connected_time":651000000000,"state":"active","ping":63},{"user_id":405,"name":"Zozbieta","steam_id":76561198010336265,"connected_time":169000000000,"state":"active","ping":62},{"user_id":407,"name":"friendofdorothy","steam_id":76561199014888603,"connected_time":24000000000,"state":"spawning","ping":59},{"user_id":376,"name":"TheHumanTaco119","steam_id":76561198996107520,"connected_time":991000000000,"state":"active","ping":88},{"user_id":396,"name":"nemesis","steam_id":76561198115050507,"connected_time":597000000000,"state":"active","ping":60},{"user_id":386,"name":"Bone Daddy","steam_id":76561198037836736,"connected_time":854000000000,"state":"active","ping":68},{"user_id":373,"name":"The Grim Heaper","steam_id":76561197987759101,"connected_time":1305000000000,"state":"active","ping":87},{"user_id":398,"name":"Juneau","steam_id":76561198048056421,"connected_time":553000000000,"state":"active","ping":76}]},{"server_id":402,"name":"Uncletopia | Chicago | 3 | All Maps","name_short":"chi-3","host":"chi-1.us.uncletopia.com","port":27035,"enabled":true,"region":"us-central","cc":"us","latitude":41.881832,"longitude":-87.62318,"reserved":0,"last_update":"0001-01-01T00:00:00Z","name_a2s":"Uncletopia | Chicago | 3 | All Maps","protocol":17,"map":"koth_king","folder":"tf","game":"Team Fortress","app_id":440,"player_count":25,"max_players":24,"Bots":0,"server_type":"Dedicated","server_os":"Linux","password":true,"vac":true,"version":"7961495","steam_id":85568392924515191,"keywords":["cp","nocrits","nodmgspread","uncletopia"],"game_id":440,"stv_port":27036,"stv_name":"Uncletopia | Chicago | 3 | All Maps | STV","players":[{"user_id":19,"name":"Wild_Rumpus","steam_id":76561198066393719,"connected_time":3373000000000,"state":"active","ping":52},{"user_id":15,"name":"bane","steam_id":76561198196769297,"connected_time":3973000000000,"state":"active","ping":60},{"user_id":31,"name":"the sledgehammer train","steam_id":76561198053967778,"connected_time":2878000000000,"state":"active","ping":62},{"user_id":86,"name":"Carl Brutananadilewski","steam_id":76561198004884267,"connected_time":174000000000,"state":"active","ping":45},{"user_id":70,"name":"JSN","steam_id":76561198138876827,"connected_time":607000000000,"state":"active","ping":88},{"user_id":60,"name":"Tanyao (Furiten)","steam_id":76561198980504345,"connected_time":1765000000000,"state":"active","ping":62},{"user_id":89,"name":"covenant member","steam_id":76561198443865951,"connected_time":130000000000,"state":"active","ping":66},{"user_id":26,"name":"benjamator67","steam_id":76561198209002860,"connected_time":3015000000000,"state":"active","ping":41},{"user_id":81,"name":"Keymaster","steam_id":76561198881514228,"connected_time":235000000000,"state":"active","ping":66},{"user_id":64,"name":"Kalhoun","steam_id":76561197999648122,"connected_time":1416000000000,"state":"active","ping":53},{"user_id":38,"name":"CF-TF2","steam_id":76561198145893044,"connected_time":2498000000000,"state":"active","ping":62},{"user_id":62,"name":"Iron Fox (Update-sized)","steam_id":76561198326520372,"connected_time":1689000000000,"state":"active","ping":60},{"user_id":94,"name":"Joe Swanson","steam_id":76561198065327106,"connected_time":59000000000,"state":"active","ping":74},{"user_id":36,"name":"soop","steam_id":76561199486461335,"connected_time":2545000000000,"state":"active","ping":62},{"user_id":71,"name":"byoing yoing yoing","steam_id":76561198125947844,"connected_time":483000000000,"state":"active","ping":91},{"user_id":51,"name":"GRONT","steam_id":76561198040464533,"connected_time":2186000000000,"state":"active","ping":60},{"user_id":67,"name":"Stupid","steam_id":76561198127348089,"connected_time":867000000000,"state":"active","ping":60},{"user_id":95,"name":"HurRhombus","steam_id":76561198080839440,"connected_time":39000000000,"state":"active","ping":69},{"user_id":42,"name":"dadgummit","steam_id":76561198005806915,"connected_time":2362000000000,"state":"active","ping":73},{"user_id":83,"name":"theCrazyJohn","steam_id":76561198169005508,"connected_time":216000000000,"state":"connecting","ping":0},{"user_id":96,"name":"Phocae \u003c3","steam_id":76561199317584594,"connected_time":24000000000,"state":"active","ping":67},{"user_id":65,"name":"Melaza Bois","steam_id":76561199031977210,"connected_time":1378000000000,"state":"active","ping":70},{"user_id":48,"name":"Rock Kickass","steam_id":76561198450510841,"connected_time":2270000000000,"state":"active","ping":99},{"user_id":77,"name":"Beebo, Son of Beebo","steam_id":76561198055948497,"connected_time":342000000000,"state":"active","ping":48},{"user_id":84,"name":"Jest","steam_id":76561198170173062,"connected_time":209000000000,"state":"active","ping":105}]},{"server_id":403,"name":"Uncletopia | Chicago | 4 | All Maps","name_short":"chi-4","host":"chi-1.us.uncletopia.com","port":27045,"enabled":true,"region":"us-central","cc":"us","latitude":41.881832,"longitude":-87.62318,"reserved":0,"last_update":"0001-01-01T00:00:00Z","name_a2s":"Uncletopia | Chicago | 4 | All Maps","protocol":17,"map":"pl_barnblitz","folder":"tf","game":"Team Fortress","app_id":440,"player_count":24,"max_players":24,"Bots":0,"server_type":"Dedicated","server_os":"Linux","password":true,"vac":true,"version":"7961495","steam_id":85568392924515193,"keywords":["nocrits","nodmgspread","payload","uncletopia"],"game_id":440,"stv_port":27046,"stv_name":"Uncletopia | Chicago | 4 | All Maps | STV","players":[{"user_id":294,"name":"SAGE(सगे*)","steam_id":76561198811114074,"connected_time":1080000000000,"state":"active","ping":70},{"user_id":307,"name":"Siiver7","steam_id":76561198051025198,"connected_time":391000000000,"state":"active","ping":103},{"user_id":285,"name":"Chadmander","steam_id":76561197974136337,"connected_time":2563000000000,"state":"active","ping":37},{"user_id":271,"name":"nick","steam_id":76561198090776040,"connected_time":3325000000000,"state":"active","ping":65},{"user_id":290,"name":"Do It Yua Serufu","steam_id":76561198078574114,"connected_time":1634000000000,"state":"active","ping":99},{"user_id":255,"name":"mr ploobmeister","steam_id":76561198128908529,"connected_time":4361000000000,"state":"active","ping":77},{"user_id":311,"name":"yomommasabitch","steam_id":76561198323217150,"connected_time":286000000000,"state":"active","ping":60},{"user_id":308,"name":"toastman","steam_id":76561198207073088,"connected_time":361000000000,"state":"active","ping":72},{"user_id":273,"name":"mkl","steam_id":76561197986401685,"connected_time":3320000000000,"state":"active","ping":86},{"user_id":309,"name":"Heartgold","steam_id":76561199062592062,"connected_time":358000000000,"state":"active","ping":77},{"user_id":257,"name":"RyInc","steam_id":76561198874261643,"connected_time":4345000000000,"state":"active","ping":46},{"user_id":310,"name":"phone owner","steam_id":76561198052572890,"connected_time":357000000000,"state":"active","ping":73},{"user_id":315,"name":"♥cinnamonboy♥","steam_id":76561198882330338,"connected_time":115000000000,"state":"active","ping":71},{"user_id":292,"name":"Elias","steam_id":76561198106431732,"connected_time":1340000000000,"state":"active","ping":53},{"user_id":191,"name":"TÖZI","steam_id":76561198045268695,"connected_time":8064000000000,"state":"active","ping":68},{"user_id":302,"name":"SS-18 ICBM","steam_id":76561198030772694,"connected_time":539000000000,"state":"active","ping":63},{"user_id":313,"name":"Trav_YEET","steam_id":76561198960813580,"connected_time":147000000000,"state":"active","ping":103},{"user_id":314,"name":"freyja","steam_id":76561198249206656,"connected_time":130000000000,"state":"active","ping":61},{"user_id":303,"name":"Shark Sandwich","steam_id":76561198025007938,"connected_time":510000000000,"state":"active","ping":86},{"user_id":299,"name":"jxh300","steam_id":76561199196579894,"connected_time":885000000000,"state":"active","ping":52},{"user_id":278,"name":"Brandino!","steam_id":76561198000446932,"connected_time":3223000000000,"state":"active","ping":71},{"user_id":267,"name":"Jessicamustdie","steam_id":76561198045230921,"connected_time":3933000000000,"state":"active","ping":62},{"user_id":295,"name":"Strangelove","steam_id":76561198353773611,"connected_time":1077000000000,"state":"active","ping":85},{"user_id":304,"name":"THOTDADDY","steam_id":76561198069868942,"connected_time":490000000000,"state":"active","ping":68}]},{"server_id":36,"name":"Uncletopia | Chicago | 5 | All Maps","name_short":"chi-5","host":"chi-2.us.uncletopia.com","port":27015,"enabled":true,"region":"us-central","cc":"us","latitude":41.881832,"longitude":-87.62318,"reserved":0,"last_update":"0001-01-01T00:00:00Z","name_a2s":"Uncletopia | Chicago | 5 | All Maps","protocol":17,"map":"cp_dustbowl","folder":"tf","game":"Team Fortress","app_id":440,"player_count":24,"max_players":24,"Bots":0,"server_type":"Dedicated","server_os":"Linux","password":true,"vac":true,"version":"7961495","steam_id":85568392924866362,"keywords":["cp","nocrits","nodmgspread","uncletopia"],"game_id":440,"stv_port":27016,"stv_name":"Uncletopia | Chicago | 5 | All Maps | STV","players":[{"user_id":236,"name":"MrPebbsGaming","steam_id":76561199075070296,"connected_time":1145000000000,"state":"active","ping":63},{"user_id":238,"name":"Kamin","steam_id":76561198255299559,"connected_time":999000000000,"state":"active","ping":77},{"user_id":187,"name":"Salt Baron","steam_id":76561198073417386,"connected_time":4961000000000,"state":"active","ping":97},{"user_id":244,"name":"Michael Keaton ✓","steam_id":76561198050630174,"connected_time":840000000000,"state":"active","ping":90},{"user_id":208,"name":"otwtomarsoffdabars(spacecore)","steam_id":76561199085974120,"connected_time":2539000000000,"state":"active","ping":68},{"user_id":213,"name":"Sylvain","steam_id":76561198113385271,"connected_time":2175000000000,"state":"active","ping":79},{"user_id":217,"name":"Serene Salamander","steam_id":76561198001094770,"connected_time":1647000000000,"state":"active","ping":102},{"user_id":246,"name":"Hovg9000","steam_id":76561199191556710,"connected_time":383000000000,"state":"active","ping":77},{"user_id":215,"name":"joe biden's drug dealer","steam_id":76561199065232977,"connected_time":1734000000000,"state":"active","ping":65},{"user_id":192,"name":"Draco6257","steam_id":76561199147322448,"connected_time":4040000000000,"state":"active","ping":59},{"user_id":232,"name":"artemisjackson2","steam_id":76561199094686268,"connected_time":1452000000000,"state":"active","ping":63},{"user_id":220,"name":"fish (2:3)","steam_id":76561198134331073,"connected_time":1595000000000,"state":"active","ping":91},{"user_id":209,"name":"astrobob911","steam_id":76561199099110654,"connected_time":2366000000000,"state":"active","ping":71},{"user_id":221,"name":"The Power","steam_id":76561198060566884,"connected_time":1587000000000,"state":"active","ping":133},{"user_id":237,"name":"PK","steam_id":76561198368722500,"connected_time":1093000000000,"state":"active","ping":66},{"user_id":240,"name":"frenemy","steam_id":76561198011363677,"connected_time":948000000000,"state":"active","ping":56},{"user_id":223,"name":"Garlic","steam_id":76561198357375007,"connected_time":1548000000000,"state":"active","ping":76},{"user_id":229,"name":"StretchySnail59","steam_id":76561198073535005,"connected_time":1480000000000,"state":"active","ping":57},{"user_id":231,"name":"fLock","steam_id":76561198091578187,"connected_time":1465000000000,"state":"active","ping":61},{"user_id":204,"name":"Volteer","steam_id":76561198069395024,"connected_time":3072000000000,"state":"active","ping":85},{"user_id":247,"name":"Skudge Sister","steam_id":76561198041766766,"connected_time":247000000000,"state":"active","ping":65},{"user_id":159,"name":"Ditto","steam_id":76561198259871363,"connected_time":6988000000000,"state":"active","ping":100},{"user_id":224,"name":"noelle","steam_id":76561198159622003,"connected_time":1530000000000,"state":"active","ping":60},{"user_id":235,"name":"FelixInRealLife","steam_id":76561198838822605,"connected_time":1287000000000,"state":"active","ping":96}]},{"server_id":37,"name":"Uncletopia | Chicago | 6 | All Maps","name_short":"chi-6","host":"chi-2.us.uncletopia.com","port":27025,"enabled":true,"region":"us-central","cc":"us","latitude":41.881832,"longitude":-87.62318,"reserved":0,"last_update":"0001-01-01T00:00:00Z","name_a2s":"Uncletopia | Chicago | 6 | All Maps","protocol":17,"map":"pl_badwater","folder":"tf","game":"Team Fortress","app_id":440,"player_count":24,"max_players":24,"Bots":0,"server_type":"Dedicated","server_os":"Linux","password":true,"vac":true,"version":"7961495","steam_id":85568392924866363,"keywords":["nocrits","nodmgspread","payload","uncletopia"],"game_id":440,"stv_port":27026,"stv_name":"Uncletopia | Chicago | 6 | All Maps | STV","players":[{"user_id":141,"name":"Free2Play","steam_id":76561198065920486,"connected_time":1109000000000,"state":"active","ping":45},{"user_id":50,"name":"Sire Salty","steam_id":76561198079639072,"connected_time":5565000000000,"state":"active","ping":64},{"user_id":111,"name":"Whimsical Bruh","steam_id":76561199069973423,"connected_time":2097000000000,"state":"active","ping":58},{"user_id":113,"name":"herb","steam_id":76561198185980055,"connected_time":1998000000000,"state":"active","ping":66},{"user_id":118,"name":"Randumb","steam_id":76561199083286636,"connected_time":1856000000000,"state":"active","ping":58},{"user_id":103,"name":"Evie","steam_id":76561198967313085,"connected_time":2440000000000,"state":"active","ping":104},{"user_id":117,"name":"Grify","steam_id":76561198012292317,"connected_time":1926000000000,"state":"active","ping":75},{"user_id":146,"name":"MMAD","steam_id":76561198026446420,"connected_time":690000000000,"state":"active","ping":84},{"user_id":140,"name":"hypnon","steam_id":76561197995428542,"connected_time":1140000000000,"state":"active","ping":135},{"user_id":132,"name":"Firedust19","steam_id":76561198153238631,"connected_time":1444000000000,"state":"active","ping":101},{"user_id":119,"name":"SirEverything","steam_id":76561199152393848,"connected_time":1850000000000,"state":"active","ping":56},{"user_id":109,"name":"doop","steam_id":76561198370487545,"connected_time":2157000000000,"state":"active","ping":75},{"user_id":149,"name":"Banks","steam_id":76561198276505537,"connected_time":198000000000,"state":"active","ping":66},{"user_id":150,"name":"goblin","steam_id":76561199004451589,"connected_time":188000000000,"state":"active","ping":70},{"user_id":115,"name":"sweglord227","steam_id":76561198415510262,"connected_time":1980000000000,"state":"active","ping":54},{"user_id":120,"name":"Dude","steam_id":76561199058616824,"connected_time":1809000000000,"state":"active","ping":75},{"user_id":59,"name":"Mint Jelly","steam_id":76561197991286751,"connected_time":4514000000000,"state":"active","ping":57},{"user_id":152,"name":"brains","steam_id":76561198197388678,"connected_time":79000000000,"state":"active","ping":59},{"user_id":122,"name":"D","steam_id":76561198292908619,"connected_time":1783000000000,"state":"active","ping":73},{"user_id":124,"name":"dicksnip","steam_id":76561198356515396,"connected_time":1708000000000,"state":"active","ping":90},{"user_id":143,"name":"biden cart 15 dollars","steam_id":76561198253731826,"connected_time":1100000000000,"state":"active","ping":65},{"user_id":144,"name":"wrongthink","steam_id":76561198830293087,"connected_time":932000000000,"state":"active","ping":50},{"user_id":128,"name":"Mailguy","steam_id":76561199066183834,"connected_time":1630000000000,"state":"active","ping":51},{"user_id":148,"name":"heck","steam_id":76561198308547958,"connected_time":549000000000,"state":"active","ping":62}]},{"server_id":38,"name":"Uncletopia | Chicago | 7 | Stopwatch","name_short":"chi-7","host":"chi-2.us.uncletopia.com","port":27035,"enabled":true,"region":"us-central","cc":"us","latitude":41.881832,"longitude":-87.62318,"reserved":0,"last_update":"0001-01-01T00:00:00Z","name_a2s":"Uncletopia | Chicago | 7 | Stopwatch","protocol":17,"map":"pl_borneo","folder":"tf","game":"Team Fortress","app_id":440,"player_count":24,"max_players":24,"Bots":0,"server_type":"Dedicated","server_os":"Linux","password":true,"vac":true,"version":"7961495","steam_id":85568392924866364,"keywords":["nocrits","nodmgspread","payload","uncletopia"],"game_id":440,"stv_port":27036,"stv_name":"Uncletopia | Chicago | 7 | Stopwatch | STV","players":[{"user_id":111,"name":"Dabloon Cat","steam_id":76561198929533193,"connected_time":544000000000,"state":"active","ping":69},{"user_id":74,"name":"spicyninja","steam_id":76561199406641621,"connected_time":2861000000000,"state":"active","ping":117},{"user_id":115,"name":"Buttons :)","steam_id":76561198139478534,"connected_time":335000000000,"state":"active","ping":114},{"user_id":78,"name":"Locarpus","steam_id":76561198848384851,"connected_time":2584000000000,"state":"active","ping":69},{"user_id":61,"name":"ZombeeNinja","steam_id":76561198122038563,"connected_time":3171000000000,"state":"active","ping":114},{"user_id":101,"name":"Cosmic Torgue","steam_id":76561198828724945,"connected_time":994000000000,"state":"active","ping":67},{"user_id":102,"name":"Allister","steam_id":76561197999823352,"connected_time":958000000000,"state":"active","ping":69},{"user_id":103,"name":"dynam_ic554","steam_id":76561199068623664,"connected_time":954000000000,"state":"active","ping":102},{"user_id":62,"name":"kevin_minion","steam_id":76561198801147541,"connected_time":3152000000000,"state":"active","ping":74},{"user_id":123,"name":"Seskova","steam_id":76561198090207032,"connected_time":179000000000,"state":"active","ping":102},{"user_id":120,"name":"booxofdeath","steam_id":76561198358253942,"connected_time":239000000000,"state":"active","ping":79},{"user_id":47,"name":"Smellfeast","steam_id":76561198418165673,"connected_time":3760000000000,"state":"active","ping":45},{"user_id":118,"name":"Streetwise","steam_id":76561197971684268,"connected_time":299000000000,"state":"active","ping":86},{"user_id":124,"name":"Interrobang","steam_id":76561198385044529,"connected_time":154000000000,"state":"active","ping":155},{"user_id":30,"name":"cran","steam_id":76561198178840075,"connected_time":4554000000000,"state":"active","ping":72},{"user_id":113,"name":"pablo","steam_id":76561199182194253,"connected_time":430000000000,"state":"active","ping":105},{"user_id":117,"name":"Mista Boombastic","steam_id":76561197973121212,"connected_time":307000000000,"state":"active","ping":46},{"user_id":119,"name":"caberknight tf2  (f2p-ish)","steam_id":76561199273882768,"connected_time":265000000000,"state":"active","ping":60},{"user_id":122,"name":"vinny6","steam_id":76561198386735728,"connected_time":231000000000,"state":"active","ping":68},{"user_id":88,"name":"Team Fortress","steam_id":76561198058722801,"connected_time":2150000000000,"state":"active","ping":141},{"user_id":109,"name":"ALA BOY","steam_id":76561199029607399,"connected_time":762000000000,"state":"active","ping":93},{"user_id":37,"name":"Breve","steam_id":76561198065141099,"connected_time":4360000000000,"state":"active","ping":72},{"user_id":106,"name":"doro","steam_id":76561198099041747,"connected_time":917000000000,"state":"active","ping":101},{"user_id":125,"name":"ICBMonkey","steam_id":76561198033351821,"connected_time":148000000000,"state":"active","ping":70}]},{"server_id":39,"name":"Uncletopia | Chicago | 8 | Community","name_short":"chi-8","host":"chi-2.us.uncletopia.com","port":27045,"enabled":true,"region":"us-central","cc":"us","latitude":41.881832,"longitude":-87.62318,"reserved":0,"last_update":"0001-01-01T00:00:00Z","name_a2s":"Uncletopia | Chicago | 8 | Community","protocol":17,"map":"workshop/koth_slaughter_rc1.ugc1712845210","folder":"tf","game":"Team Fortress","app_id":440,"player_count":5,"max_players":24,"Bots":0,"server_type":"Dedicated","server_os":"Linux","password":true,"vac":true,"version":"7961495","steam_id":85568392924866365,"keywords":["cp","nocrits","nodmgspread","uncletopia"],"game_id":440,"stv_port":27046,"stv_name":"Uncletopia | Chicago | 8 | Community | STV","players":[{"user_id":15,"name":"limitspartan","steam_id":76561199166622021,"connected_time":747000000000,"state":"active","ping":64},{"user_id":16,"name":"maxscout","steam_id":76561198448497948,"connected_time":733000000000,"state":"active","ping":75},{"user_id":19,"name":"the observer","steam_id":76561198966609490,"connected_time":293000000000,"state":"active","ping":68},{"user_id":20,"name":"EnderZweronz","steam_id":76561199237979913,"connected_time":159000000000,"state":"active","ping":60},{"user_id":21,"name":"hobojoemama","steam_id":76561198108345568,"connected_time":23000000000,"state":"spawning","ping":761}]},{"server_id":8,"name":"Uncletopia | Dallas | 1 | All Maps","name_short":"dal-1","host":"dal-1.us.uncletopia.com","port":27015,"enabled":true,"region":"us-central","cc":"us","latitude":32.779167,"longitude":-96.80889,"reserved":0,"last_update":"0001-01-01T00:00:00Z","name_a2s":"Uncletopia | Dallas | 1 | All Maps","protocol":17,"map":"koth_lakeside_final","folder":"tf","game":"Team Fortress","app_id":440,"player_count":2,"max_players":24,"Bots":0,"server_type":"Dedicated","server_os":"Linux","password":true,"vac":true,"version":"7961495","steam_id":85568392924469986,"keywords":["cp","nocrits","nodmgspread","uncletopia"],"game_id":440,"stv_port":27016,"stv_name":"Uncletopia | Dallas | 1 | All Maps | STV","players":[{"user_id":16,"name":"FanaticSalt","steam_id":76561199380123059,"connected_time":353000000000,"state":"active","ping":26},{"user_id":17,"name":"Top-G Man","steam_id":76561199122152458,"connected_time":80000000000,"state":"active","ping":45}]},{"server_id":108,"name":"Uncletopia | Dallas | 2 | All Maps","name_short":"dal-2","host":"dal-1.us.uncletopia.com","port":27025,"enabled":true,"region":"us-central","cc":"us","latitude":32.779167,"longitude":-96.80889,"reserved":0,"last_update":"0001-01-01T00:00:00Z","name_a2s":"Uncletopia | Dallas | 2 | All Maps","protocol":17,"map":"pl_frontier_final","folder":"tf","game":"Team Fortress","app_id":440,"player_count":24,"max_players":24,"Bots":0,"server_type":"Dedicated","server_os":"Linux","password":true,"vac":true,"version":"7961495","steam_id":85568392924469988,"keywords":["nocrits","nodmgspread","payload","uncletopia"],"game_id":440,"stv_port":27026,"stv_name":"Uncletopia | Dallas | 2 | All Maps | STV","players":[{"user_id":179,"name":"Verily","steam_id":76561198200558318,"connected_time":1619000000000,"state":"active","ping":104},{"user_id":192,"name":"Persona_Random","steam_id":76561198922937588,"connected_time":747000000000,"state":"active","ping":87},{"user_id":155,"name":"Coolcat","steam_id":76561198180933957,"connected_time":2953000000000,"state":"active","ping":50},{"user_id":196,"name":"Rafl","steam_id":76561198055222756,"connected_time":522000000000,"state":"active","ping":45},{"user_id":194,"name":"LerN","steam_id":76561198083463877,"connected_time":670000000000,"state":"active","ping":79},{"user_id":200,"name":"Mads Mikkelsen","steam_id":76561198083482001,"connected_time":85000000000,"state":"active","ping":150},{"user_id":185,"name":"S T U N - S E E D but backwards","steam_id":76561198175955138,"connected_time":1509000000000,"state":"active","ping":89},{"user_id":174,"name":"the thwangle wangle","steam_id":76561198248148760,"connected_time":2198000000000,"state":"active","ping":64},{"user_id":197,"name":"An Engineer","steam_id":76561198110381643,"connected_time":458000000000,"state":"active","ping":59},{"user_id":198,"name":"StrugglinStuntman","steam_id":76561198103352338,"connected_time":425000000000,"state":"active","ping":71},{"user_id":135,"name":"TacoMan4Life","steam_id":76561198832562728,"connected_time":4283000000000,"state":"active","ping":86},{"user_id":172,"name":"Magma","steam_id":76561198108261173,"connected_time":2328000000000,"state":"active","ping":86},{"user_id":108,"name":"V. G. Sunderland","steam_id":76561198161839980,"connected_time":6955000000000,"state":"active","ping":89},{"user_id":189,"name":"vanillain","steam_id":76561198058617608,"connected_time":1027000000000,"state":"active","ping":75},{"user_id":88,"name":"Bond","steam_id":76561198089262776,"connected_time":8388000000000,"state":"active","ping":47},{"user_id":176,"name":"have blue","steam_id":76561198054260599,"connected_time":2006000000000,"state":"active","ping":59},{"user_id":126,"name":"Certified Hood Classic","steam_id":76561199086159354,"connected_time":5204000000000,"state":"active","ping":45},{"user_id":191,"name":"Ginnunga","steam_id":76561198000320083,"connected_time":857000000000,"state":"active","ping":65},{"user_id":117,"name":"North","steam_id":76561198814844969,"connected_time":5907000000000,"state":"active","ping":66},{"user_id":178,"name":"_Silver Demon_","steam_id":76561198025020450,"connected_time":1924000000000,"state":"active","ping":46},{"user_id":109,"name":"selvhat","steam_id":76561198114225509,"connected_time":6946000000000,"state":"active","ping":71},{"user_id":187,"name":"fly","steam_id":76561199003715735,"connected_time":1459000000000,"state":"active","ping":87},{"user_id":199,"name":"Kira","steam_id":76561198021582061,"connected_time":387000000000,"state":"active","ping":104},{"user_id":127,"name":"Smoothpolishness","steam_id":76561198029084002,"connected_time":5188000000000,"state":"active","ping":67}]},{"server_id":404,"name":"Uncletopia | Dallas | 3 | All Maps","name_short":"dal-3","host":"dal-1.us.uncletopia.com","port":27035,"enabled":true,"region":"us-central","cc":"us","latitude":32.779167,"longitude":-96.80889,"reserved":0,"last_update":"0001-01-01T00:00:00Z","name_a2s":"Uncletopia | Dallas | 3 | All Maps","protocol":17,"map":"cp_dustbowl","folder":"tf","game":"Team Fortress","app_id":440,"player_count":8,"max_players":24,"Bots":0,"server_type":"Dedicated","server_os":"Linux","password":true,"vac":true,"version":"7961495","steam_id":85568392924515219,"keywords":["cp","nocrits","nodmgspread","uncletopia"],"game_id":440,"stv_port":27036,"stv_name":"Uncletopia | Dallas | 3 | All Maps | STV","players":[{"user_id":10,"name":"SCRAPTRAP1001","steam_id":76561199417627762,"connected_time":1939000000000,"state":"active","ping":43},{"user_id":12,"name":"Traitor of Xbox","steam_id":76561198385075678,"connected_time":1912000000000,"state":"active","ping":59},{"user_id":13,"name":"dantheman","steam_id":76561199486390813,"connected_time":1839000000000,"state":"active","ping":71},{"user_id":14,"name":"ricardomarte0414","steam_id":76561198817744897,"connected_time":1264000000000,"state":"active","ping":47},{"user_id":25,"name":"Yamn Zaddy","steam_id":76561198074678001,"connected_time":147000000000,"state":"active","ping":60},{"user_id":26,"name":"theCrazyJohn","steam_id":76561198169005508,"connected_time":94000000000,"state":"active","ping":76},{"user_id":17,"name":"Da Policia","steam_id":76561198012762789,"connected_time":807000000000,"state":"active","ping":31},{"user_id":18,"name":"CreamyLoad","steam_id":76561198079503386,"connected_time":806000000000,"state":"active","ping":92}]},{"server_id":405,"name":"Uncletopia | Dallas | 4 | Community","name_short":"dal-4","host":"dal-1.us.uncletopia.com","port":27045,"enabled":true,"region":"us-central","cc":"us","latitude":32.779167,"longitude":-96.80889,"reserved":0,"last_update":"0001-01-01T00:00:00Z","name_a2s":"Uncletopia | Dallas | 4 | Community","protocol":17,"map":"workshop/koth_product_final.ugc454272353","folder":"tf","game":"Team Fortress","app_id":440,"player_count":0,"max_players":24,"Bots":0,"server_type":"Dedicated","server_os":"Linux","password":true,"vac":true,"version":"7961495","steam_id":85568392924515220,"keywords":["cp","nocrits","nodmgspread","uncletopia"],"game_id":440,"stv_port":27046,"stv_name":"Uncletopia | Dallas | 4 | Community | STV","players":null},{"server_id":5,"name":"Uncletopia | Frankfurt | 1 | All Maps","name_short":"frk-1","host":"frk-1.de.uncletopia.com","port":27015,"enabled":true,"region":"eu","cc":"de","latitude":50.110924,"longitude":8.682127,"reserved":0,"last_update":"0001-01-01T00:00:00Z","name_a2s":"Uncletopia | Frankfurt | 1 | All Maps","protocol":17,"map":"koth_cascade","folder":"tf","game":"Team Fortress","app_id":440,"player_count":0,"max_players":24,"Bots":0,"server_type":"Dedicated","server_os":"Linux","password":true,"vac":true,"version":"7961495","steam_id":85568392924469989,"keywords":["cp","nocrits","nodmgspread","uncletopia"],"game_id":440,"stv_port":27016,"stv_name":"Uncletopia | Frankfurt | 1 | All Maps | STV","players":null},{"server_id":110,"name":"Uncletopia | Frankfurt | 2 | All Maps","name_short":"frk-2","host":"frk-1.de.uncletopia.com","port":27025,"enabled":true,"region":"eu","cc":"de","latitude":50.110924,"longitude":8.682127,"reserved":0,"last_update":"0001-01-01T00:00:00Z","name_a2s":"Uncletopia | Frankfurt | 2 | All Maps","protocol":17,"map":"koth_cascade","folder":"tf","game":"Team Fortress","app_id":440,"player_count":0,"max_players":24,"Bots":0,"server_type":"Dedicated","server_os":"Linux","password":true,"vac":true,"version":"7961495","steam_id":85568392924469990,"keywords":["cp","nocrits","nodmgspread","uncletopia"],"game_id":440,"stv_port":27026,"stv_name":"Uncletopia | Frankfurt | 2 | All Maps | STV","players":null},{"server_id":308,"name":"Uncletopia | Frankfurt | 3 | All Maps","name_short":"frk-3","host":"frk-1.de.uncletopia.com","port":27035,"enabled":true,"region":"eu","cc":"de","latitude":50.110924,"longitude":8.682127,"reserved":0,"last_update":"0001-01-01T00:00:00Z","name_a2s":"Uncletopia | Frankfurt | 3 | All Maps","protocol":17,"map":"cp_granary","folder":"tf","game":"Team Fortress","app_id":440,"player_count":23,"max_players":24,"Bots":0,"server_type":"Dedicated","server_os":"Linux","password":true,"vac":true,"version":"7961495","steam_id":85568392924504274,"keywords":["cp","nocrits","nodmgspread","uncletopia"],"game_id":440,"stv_port":27036,"stv_name":"Uncletopia | Frankfurt | 3 | All Maps | STV","players":[{"user_id":431,"name":"Laki","steam_id":76561198126078953,"connected_time":3047000000000,"state":"active","ping":78},{"user_id":432,"name":"goop","steam_id":76561198190073005,"connected_time":3044000000000,"state":"active","ping":52},{"user_id":421,"name":"Bobirulez","steam_id":76561198009125458,"connected_time":4357000000000,"state":"active","ping":69},{"user_id":454,"name":"☆ Shuck ☆","steam_id":76561198052478490,"connected_time":1125000000000,"state":"active","ping":44},{"user_id":430,"name":"xavier","steam_id":76561198076494034,"connected_time":3056000000000,"state":"active","ping":60},{"user_id":444,"name":"Arsonist","steam_id":76561199087953833,"connected_time":2202000000000,"state":"active","ping":108},{"user_id":455,"name":"SupremeGarbo","steam_id":76561198018260268,"connected_time":1117000000000,"state":"active","ping":140},{"user_id":456,"name":"skorsch detf2pickup","steam_id":76561198044391172,"connected_time":1076000000000,"state":"active","ping":51},{"user_id":429,"name":"Vershal Smershal","steam_id":76561198116223995,"connected_time":3386000000000,"state":"active","ping":58},{"user_id":467,"name":"egirlcatnip","steam_id":76561198276104603,"connected_time":255000000000,"state":"active","ping":53},{"user_id":465,"name":"kag","steam_id":76561198059813166,"connected_time":487000000000,"state":"active","ping":56},{"user_id":439,"name":"SPONGE","steam_id":76561198040933472,"connected_time":2443000000000,"state":"active","ping":60},{"user_id":451,"name":"Lance Corporal Boiled Egg","steam_id":76561197989717358,"connected_time":1706000000000,"state":"active","ping":49},{"user_id":415,"name":"Bajas","steam_id":76561198179339326,"connected_time":4478000000000,"state":"active","ping":75},{"user_id":469,"name":"CBT","steam_id":76561199439141531,"connected_time":5000000000,"state":"spawning","ping":77},{"user_id":466,"name":"Tigerente","steam_id":76561198075855969,"connected_time":435000000000,"state":"active","ping":47},{"user_id":308,"name":"Efeca","steam_id":76561198018923829,"connected_time":13241000000000,"state":"active","ping":64},{"user_id":443,"name":"Mega Man Legends 3","steam_id":76561198014110199,"connected_time":2238000000000,"state":"active","ping":53},{"user_id":445,"name":"else1","steam_id":76561197996558319,"connected_time":2113000000000,"state":"active","ping":75},{"user_id":459,"name":"debil boywife","steam_id":76561198160047415,"connected_time":998000000000,"state":"active","ping":76},{"user_id":461,"name":"Reiyo the Interloper","steam_id":76561198155092485,"connected_time":931000000000,"state":"active","ping":58},{"user_id":420,"name":"Udinese Dion","steam_id":76561198067931573,"connected_time":4424000000000,"state":"active","ping":51},{"user_id":462,"name":"your personal medic","steam_id":76561197961707932,"connected_time":912000000000,"state":"active","ping":45}]},{"server_id":309,"name":"Uncletopia | Frankfurt | 4 | All Maps","name_short":"frk-4","host":"frk-1.de.uncletopia.com","port":27045,"enabled":true,"region":"eu","cc":"de","latitude":50.110924,"longitude":8.682127,"reserved":0,"last_update":"0001-01-01T00:00:00Z","name_a2s":"Uncletopia | Frankfurt | 4 | All Maps","protocol":17,"map":"pl_frontier_final","folder":"tf","game":"Team Fortress","app_id":440,"player_count":24,"max_players":24,"Bots":0,"server_type":"Dedicated","server_os":"Linux","password":true,"vac":true,"version":"7961495","steam_id":85568392924504275,"keywords":["nocrits","nodmgspread","payload","uncletopia"],"game_id":440,"stv_port":27046,"stv_name":"Uncletopia | Frankfurt | 4 | All Maps | STV","players":[{"user_id":334,"name":"Reihenhausbewohner","steam_id":76561198049820307,"connected_time":2537000000000,"state":"active","ping":42},{"user_id":302,"name":"ChesseKnight","steam_id":76561198102476339,"connected_time":3926000000000,"state":"active","ping":67},{"user_id":322,"name":"MGE King","steam_id":76561198099259340,"connected_time":3165000000000,"state":"active","ping":78},{"user_id":348,"name":"86","steam_id":76561199084186097,"connected_time":800000000000,"state":"active","ping":49},{"user_id":347,"name":":|","steam_id":76561198145232617,"connected_time":1017000000000,"state":"active","ping":49},{"user_id":291,"name":"Ася'Менитель \u003c3","steam_id":76561198000267173,"connected_time":4967000000000,"state":"active","ping":75},{"user_id":349,"name":"Liko","steam_id":76561197994660517,"connected_time":760000000000,"state":"active","ping":75},{"user_id":350,"name":"viridian","steam_id":76561198057887455,"connected_time":678000000000,"state":"active","ping":64},{"user_id":351,"name":"Gryoss","steam_id":76561197999837111,"connected_time":617000000000,"state":"active","ping":94},{"user_id":358,"name":"Lot2","steam_id":76561197969550194,"connected_time":292000000000,"state":"active","ping":61},{"user_id":329,"name":"Frazzle","steam_id":76561198262577951,"connected_time":2640000000000,"state":"active","ping":67},{"user_id":333,"name":"Davido01","steam_id":76561198089406245,"connected_time":2563000000000,"state":"active","ping":56},{"user_id":335,"name":"finbar","steam_id":76561198056812396,"connected_time":2518000000000,"state":"active","ping":75},{"user_id":360,"name":"Frog","steam_id":76561198043981067,"connected_time":13000000000,"state":"spawning","ping":65},{"user_id":346,"name":"Nuuskis","steam_id":76561198084042012,"connected_time":1048000000000,"state":"active","ping":90},{"user_id":303,"name":"Blake","steam_id":76561198034050682,"connected_time":3916000000000,"state":"active","ping":67},{"user_id":310,"name":"Skyrider of Spaceways","steam_id":76561197991678236,"connected_time":3733000000000,"state":"active","ping":135},{"user_id":352,"name":"Gugu gaga","steam_id":76561198161822358,"connected_time":603000000000,"state":"active","ping":57},{"user_id":314,"name":"Joey Sexbang","steam_id":76561198001514139,"connected_time":3598000000000,"state":"active","ping":58},{"user_id":316,"name":"Uncle Ben","steam_id":76561198032568298,"connected_time":3591000000000,"state":"active","ping":74},{"user_id":353,"name":"ToTenLis","steam_id":76561198168581334,"connected_time":596000000000,"state":"active","ping":91},{"user_id":354,"name":"Qdarks","steam_id":76561198013391340,"connected_time":589000000000,"state":"active","ping":135},{"user_id":357,"name":"Henry","steam_id":76561198108018305,"connected_time":480000000000,"state":"active","ping":71},{"user_id":359,"name":"Steve, from HR","steam_id":76561198072088365,"connected_time":197000000000,"state":"active","ping":52}]},{"server_id":310,"name":"Uncletopia | Frankfurt | 5 | All Maps","name_short":"frk-5","host":"frk-1.de.uncletopia.com","port":27055,"enabled":true,"region":"eu","cc":"de","latitude":50.110924,"longitude":8.682127,"reserved":0,"last_update":"0001-01-01T00:00:00Z","name_a2s":"Uncletopia | Frankfurt | 5 | All Maps","protocol":17,"map":"pl_goldrush","folder":"tf","game":"Team Fortress","app_id":440,"player_count":0,"max_players":24,"Bots":0,"server_type":"Dedicated","server_os":"Linux","password":true,"vac":true,"version":"7961495","steam_id":85568392924504277,"keywords":["nocrits","nodmgspread","payload","uncletopia"],"game_id":440,"stv_port":27056,"stv_name":"Uncletopia | Frankfurt | 5 | All Maps | STV","players":null},{"server_id":311,"name":"Uncletopia | Frankfurt | 6 | All Maps","name_short":"frk-6","host":"frk-1.de.uncletopia.com","port":27065,"enabled":true,"region":"eu","cc":"de","latitude":50.110924,"longitude":8.682127,"reserved":0,"last_update":"0001-01-01T00:00:00Z","name_a2s":"Uncletopia | Frankfurt | 6 | All Maps","protocol":17,"map":"koth_lakeside_final","folder":"tf","game":"Team Fortress","app_id":440,"player_count":0,"max_players":24,"Bots":0,"server_type":"Dedicated","server_os":"Linux","password":true,"vac":true,"version":"7961495","steam_id":85568392924504278,"keywords":["cp","nocrits","nodmgspread","uncletopia"],"game_id":440,"stv_port":27066,"stv_name":"Uncletopia | Frankfurt | 6 | All Maps | STV","players":null},{"server_id":23,"name":"Uncletopia | Frankfurt | 7 | Stopwatch","name_short":"frk-7","host":"frk-1.de.uncletopia.com","port":27075,"enabled":true,"region":"eu","cc":"de","latitude":50.110924,"longitude":8.682127,"reserved":0,"last_update":"0001-01-01T00:00:00Z","name_a2s":"Uncletopia | Frankfurt | 7 | Stopwatch","protocol":17,"map":"cp_sunshine","folder":"tf","game":"Team Fortress","app_id":440,"player_count":24,"max_players":24,"Bots":0,"server_type":"Dedicated","server_os":"Linux","password":true,"vac":true,"version":"7961495","steam_id":85568392924742827,"keywords":["cp","nocrits","nodmgspread","uncletopia"],"game_id":440,"stv_port":27076,"stv_name":"Uncletopia | Frankfurt | 7 | Stopwatch | STV","players":[{"user_id":636,"name":"vk rat makes me erect","steam_id":76561198355965587,"connected_time":698000000000,"state":"active","ping":63},{"user_id":626,"name":"Wild Meep","steam_id":76561198199271438,"connected_time":1258000000000,"state":"active","ping":141},{"user_id":608,"name":"RAD","steam_id":76561197993028790,"connected_time":2266000000000,"state":"active","ping":61},{"user_id":601,"name":"sloppy transgirl toppy","steam_id":76561198057092208,"connected_time":3393000000000,"state":"active","ping":61},{"user_id":574,"name":"God's Goofiest Goober","steam_id":76561198103175187,"connected_time":4726000000000,"state":"active","ping":59},{"user_id":647,"name":"Weegee","steam_id":76561198150308523,"connected_time":150000000000,"state":"active","ping":61},{"user_id":648,"name":"Ran33","steam_id":76561197991474499,"connected_time":142000000000,"state":"active","ping":103},{"user_id":640,"name":"Drillboy Jenkins","steam_id":76561198160497421,"connected_time":480000000000,"state":"active","ping":70},{"user_id":572,"name":"tapeworms!","steam_id":76561198069649097,"connected_time":5110000000000,"state":"active","ping":60},{"user_id":580,"name":"ZeroxyZXE","steam_id":76561198113710681,"connected_time":4248000000000,"state":"active","ping":93},{"user_id":624,"name":"Birchly","steam_id":76561198140011785,"connected_time":1567000000000,"state":"active","ping":60},{"user_id":614,"name":"spake","steam_id":76561198109247682,"connected_time":1967000000000,"state":"active","ping":74},{"user_id":629,"name":"ZA SOUL","steam_id":76561198211277765,"connected_time":1190000000000,"state":"active","ping":66},{"user_id":630,"name":"moist tf2center player","steam_id":76561198075551260,"connected_time":1167000000000,"state":"active","ping":90},{"user_id":611,"name":"Mal","steam_id":76561197999975704,"connected_time":2088000000000,"state":"active","ping":45},{"user_id":635,"name":"Lustadinnye (HUN)","steam_id":76561198280206427,"connected_time":709000000000,"state":"active","ping":77},{"user_id":592,"name":"CiVillain","steam_id":76561198059617732,"connected_time":3758000000000,"state":"active","ping":58},{"user_id":645,"name":"TidB","steam_id":76561198055342304,"connected_time":320000000000,"state":"active","ping":56},{"user_id":632,"name":"Dr Bondus Bolongus Dongus","steam_id":76561198378657692,"connected_time":1118000000000,"state":"active","ping":59},{"user_id":637,"name":"korea","steam_id":76561198120520111,"connected_time":636000000000,"state":"active","ping":52},{"user_id":641,"name":"*Stare*","steam_id":76561199072209884,"connected_time":472000000000,"state":"active","ping":59},{"user_id":646,"name":"Villiger","steam_id":76561199009560517,"connected_time":277000000000,"state":"active","ping":51},{"user_id":642,"name":"hawker127","steam_id":76561198259488237,"connected_time":460000000000,"state":"active","ping":55},{"user_id":644,"name":"The Dutiful Dasein","steam_id":76561198003269215,"connected_time":378000000000,"state":"active","ping":76}]},{"server_id":24,"name":"Uncletopia | Frankfurt | 8 | Community","name_short":"frk-8","host":"frk-1.de.uncletopia.com","port":27085,"enabled":true,"region":"eu","cc":"de","latitude":50.110924,"longitude":8.682127,"reserved":0,"last_update":"0001-01-01T00:00:00Z","name_a2s":"Uncletopia | Frankfurt | 8 | Community","protocol":17,"map":"workshop/koth_trenchfoot_ab1.ugc731436616","folder":"tf","game":"Team Fortress","app_id":440,"player_count":0,"max_players":24,"Bots":0,"server_type":"Dedicated","server_os":"Linux","password":true,"vac":true,"version":"7961495","steam_id":85568392924742828,"keywords":["cp","nocrits","nodmgspread","uncletopia"],"game_id":440,"stv_port":27086,"stv_name":"Uncletopia | Frankfurt | 8 | Community | STV","players":null},{"server_id":202,"name":"Uncletopia | Hong Kong | 1 | All Maps","name_short":"hgk-1","host":"hgk-1.hk.uncletopia.com","port":27015,"enabled":true,"region":"asia","cc":"hk","latitude":22.302711,"longitude":114.177216,"reserved":0,"last_update":"0001-01-01T00:00:00Z","name_a2s":"Uncletopia | Hong Kong | 1 | All Maps","protocol":17,"map":"cp_snakewater_final1","folder":"tf","game":"Team Fortress","app_id":440,"player_count":0,"max_players":24,"Bots":0,"server_type":"Dedicated","server_os":"Linux","password":true,"vac":true,"version":"7961495","steam_id":85568392924494504,"keywords":["cp","nocrits","nodmgspread","uncletopia"],"game_id":440,"stv_port":27016,"stv_name":"Uncletopia | Hong Kong | 1 | All Maps | STV","players":null},{"server_id":1,"name":"Uncletopia | Los Angeles | 1 | All Maps","name_short":"lax-1","host":"lax-1.us.uncletopia.com","port":27015,"enabled":true,"region":"us-west","cc":"us","latitude":33.94279,"longitude":-118.41004,"reserved":0,"last_update":"0001-01-01T00:00:00Z","name_a2s":"Uncletopia | Los Angeles | 1 | All Maps","protocol":17,"map":"koth_viaduct","folder":"tf","game":"Team Fortress","app_id":440,"player_count":0,"max_players":24,"Bots":0,"server_type":"Dedicated","server_os":"Linux","password":true,"vac":true,"version":"7961495","steam_id":85568392924469991,"keywords":["cp","nocrits","nodmgspread","uncletopia"],"game_id":440,"stv_port":27016,"stv_name":"Uncletopia | Los Angeles | 1 | All Maps | STV","players":null},{"server_id":112,"name":"Uncletopia | Los Angeles | 2 | All Maps","name_short":"lax-2","host":"lax-1.us.uncletopia.com","port":27025,"enabled":true,"region":"us-west","cc":"us","latitude":33.94279,"longitude":-118.41004,"reserved":0,"last_update":"0001-01-01T00:00:00Z","name_a2s":"Uncletopia | Los Angeles | 2 | All Maps","protocol":17,"map":"koth_cascade","folder":"tf","game":"Team Fortress","app_id":440,"player_count":0,"max_players":24,"Bots":0,"server_type":"Dedicated","server_os":"Linux","password":true,"vac":true,"version":"7961495","steam_id":85568392924469992,"keywords":["cp","nocrits","nodmgspread","uncletopia"],"game_id":440,"stv_port":27026,"stv_name":"Uncletopia | Los Angeles | 2 | All Maps | STV","players":null},{"server_id":324,"name":"Uncletopia | Los Angeles | 3 | All Maps","name_short":"lax-3","host":"lax-1.us.uncletopia.com","port":27035,"enabled":true,"region":"us-west","cc":"us","latitude":33.94279,"longitude":-118.41004,"reserved":0,"last_update":"0001-01-01T00:00:00Z","name_a2s":"Uncletopia | Los Angeles | 3 | All Maps","protocol":17,"map":"cp_snakewater_final1","folder":"tf","game":"Team Fortress","app_id":440,"player_count":0,"max_players":24,"Bots":0,"server_type":"Dedicated","server_os":"Linux","password":true,"vac":true,"version":"7961495","steam_id":85568392924510198,"keywords":["cp","nocrits","nodmgspread","uncletopia"],"game_id":440,"stv_port":27036,"stv_name":"Uncletopia | Los Angeles | 3 | All Maps | STV","players":null},{"server_id":25,"name":"Uncletopia | Los Angeles | 4 | Stopwatch","name_short":"lax-4","host":"lax-1.us.uncletopia.com","port":27045,"enabled":true,"region":"us-west","cc":"us","latitude":33.94279,"longitude":-118.41004,"reserved":0,"last_update":"0001-01-01T00:00:00Z","name_a2s":"Uncletopia | Los Angeles | 4 | Stopwatch","protocol":17,"map":"koth_highpass","folder":"tf","game":"Team Fortress","app_id":440,"player_count":0,"max_players":24,"Bots":0,"server_type":"Dedicated","server_os":"Linux","password":true,"vac":true,"version":"7961495","steam_id":85568392924510199,"keywords":["cp","nocrits","nodmgspread","uncletopia"],"game_id":440,"stv_port":27046,"stv_name":"Uncletopia | Los Angeles | 4 | Stopwatch | STV","players":null},{"server_id":11,"name":"Uncletopia | London | 1 | All Maps","name_short":"lon-1","host":"lon-1.uk.uncletopia.com","port":27015,"enabled":true,"region":"eu","cc":"gb","latitude":51.509865,"longitude":-0.118092,"reserved":0,"last_update":"0001-01-01T00:00:00Z","name_a2s":"Uncletopia | London | 1 | All Maps","protocol":17,"map":"pl_snowycoast","folder":"tf","game":"Team Fortress","app_id":440,"player_count":20,"max_players":24,"Bots":0,"server_type":"Dedicated","server_os":"Linux","password":true,"vac":true,"version":"7961495","steam_id":85568392924367362,"keywords":["nocrits","nodmgspread","payload","uncletopia"],"game_id":440,"stv_port":27016,"stv_name":"Uncletopia | London | 1 | All Maps | STV","players":[{"user_id":1113,"name":"bid","steam_id":76561198083863043,"connected_time":2529000000000,"state":"active","ping":45},{"user_id":1098,"name":"James","steam_id":76561198168882012,"connected_time":4337000000000,"state":"active","ping":38},{"user_id":1124,"name":"Rei Ayanami","steam_id":76561198405980575,"connected_time":2097000000000,"state":"active","ping":63},{"user_id":1140,"name":"Minimi","steam_id":76561198873850443,"connected_time":984000000000,"state":"active","ping":45},{"user_id":1118,"name":"Sang","steam_id":76561198008510868,"connected_time":2443000000000,"state":"active","ping":75},{"user_id":1148,"name":"randompixel","steam_id":76561198003941207,"connected_time":476000000000,"state":"active","ping":31},{"user_id":1074,"name":"mag̶p̶i̶e ✿","steam_id":76561198797266244,"connected_time":5548000000000,"state":"active","ping":64},{"user_id":1141,"name":"lila","steam_id":76561198040690770,"connected_time":981000000000,"state":"active","ping":45},{"user_id":1146,"name":"jean","steam_id":76561198060780111,"connected_time":535000000000,"state":"active","ping":74},{"user_id":1116,"name":"Yelowchy","steam_id":76561198199416121,"connected_time":2473000000000,"state":"active","ping":70},{"user_id":1138,"name":"Mea","steam_id":76561198353496134,"connected_time":1023000000000,"state":"active","ping":47},{"user_id":1121,"name":"Sandshee","steam_id":76561198088574666,"connected_time":2410000000000,"state":"active","ping":45},{"user_id":1151,"name":"wife beater gaming","steam_id":76561199454266479,"connected_time":89000000000,"state":"active","ping":51},{"user_id":1076,"name":"Maximalsound","steam_id":76561198068246502,"connected_time":5213000000000,"state":"active","ping":45},{"user_id":1143,"name":"sora (live)","steam_id":76561198096547662,"connected_time":932000000000,"state":"active","ping":49},{"user_id":1144,"name":"GIRLBITER alice","steam_id":76561198180361759,"connected_time":910000000000,"state":"active","ping":31},{"user_id":1142,"name":"✿aura✿","steam_id":76561198066258544,"connected_time":980000000000,"state":"active","ping":61},{"user_id":1059,"name":"irritable vowel syndrome","steam_id":76561198117033273,"connected_time":6289000000000,"state":"active","ping":45},{"user_id":1128,"name":"Ziemniaczki","steam_id":76561198061866742,"connected_time":1612000000000,"state":"active","ping":60},{"user_id":1145,"name":"Laru","steam_id":76561197998838438,"connected_time":559000000000,"state":"active","ping":90}]},{"server_id":114,"name":"Uncletopia | London | 2 | All Maps","name_short":"lon-2","host":"lon-1.uk.uncletopia.com","port":27025,"enabled":true,"region":"eu","cc":"gb","latitude":51.509865,"longitude":-0.118092,"reserved":0,"last_update":"0001-01-01T00:00:00Z","name_a2s":"Uncletopia | London | 2 | All Maps","protocol":17,"map":"pl_snowycoast","folder":"tf","game":"Team Fortress","app_id":440,"player_count":21,"max_players":24,"Bots":0,"server_type":"Dedicated","server_os":"Linux","password":true,"vac":true,"version":"7961495","steam_id":85568392924470941,"keywords":["nocrits","nodmgspread","payload","uncletopia"],"game_id":440,"stv_port":27026,"stv_name":"Uncletopia | London | 2 | All Maps | STV","players":[{"user_id":456,"name":"Jozef Ricochet","steam_id":76561198807362540,"connected_time":216000000000,"state":"active","ping":78},{"user_id":414,"name":"Ritmic Mortal","steam_id":76561198352862033,"connected_time":2761000000000,"state":"active","ping":95},{"user_id":453,"name":"Gorgeous George","steam_id":76561198144256544,"connected_time":460000000000,"state":"active","ping":46},{"user_id":445,"name":"lexi ★","steam_id":76561198988695461,"connected_time":585000000000,"state":"active","ping":90},{"user_id":439,"name":"Zephalo","steam_id":76561198021346474,"connected_time":934000000000,"state":"active","ping":52},{"user_id":455,"name":"RudiPrico4","steam_id":76561199014381495,"connected_time":321000000000,"state":"active","ping":60},{"user_id":436,"name":"𝓹𝓱𝓪𝓷𝓽𝓸𝓶","steam_id":76561199095923041,"connected_time":1010000000000,"state":"active","ping":142},{"user_id":425,"name":"Picolas Cage","steam_id":76561199013233409,"connected_time":2197000000000,"state":"active","ping":53},{"user_id":416,"name":"ThatSiegeKid","steam_id":76561198368037656,"connected_time":2651000000000,"state":"active","ping":40},{"user_id":413,"name":"UltimateAura","steam_id":76561198338361324,"connected_time":2822000000000,"state":"active","ping":46},{"user_id":442,"name":"yuri boy","steam_id":76561198024292352,"connected_time":665000000000,"state":"active","ping":59},{"user_id":433,"name":"Bubbah🐾","steam_id":76561198061730609,"connected_time":1129000000000,"state":"active","ping":85},{"user_id":308,"name":"(MAC) [BN] Crazyking","steam_id":76561198001668616,"connected_time":10192000000000,"state":"active","ping":39},{"user_id":394,"name":"HoneyBe_","steam_id":76561198288930154,"connected_time":5428000000000,"state":"active","ping":52},{"user_id":444,"name":"⭐Bv","steam_id":76561198048943710,"connected_time":590000000000,"state":"active","ping":51},{"user_id":421,"name":"kevinus","steam_id":76561198059722457,"connected_time":2589000000000,"state":"active","ping":60},{"user_id":447,"name":"ILoveKey2","steam_id":76561198814559564,"connected_time":583000000000,"state":"active","ping":78},{"user_id":428,"name":"Not A British Spy","steam_id":76561198842670241,"connected_time":1486000000000,"state":"active","ping":50},{"user_id":448,"name":"tralalaOuiOui","steam_id":76561197963471507,"connected_time":575000000000,"state":"active","ping":44},{"user_id":449,"name":"JimBean","steam_id":76561198018620946,"connected_time":574000000000,"state":"active","ping":47},{"user_id":452,"name":"ELDEN RING","steam_id":76561198065859753,"connected_time":507000000000,"state":"active","ping":60}]},{"server_id":320,"name":"Uncletopia | London | 3 | All Maps","name_short":"lon-3","host":"lon-1.uk.uncletopia.com","port":27035,"enabled":true,"region":"eu","cc":"gb","latitude":51.509865,"longitude":-0.118092,"reserved":0,"last_update":"0001-01-01T00:00:00Z","name_a2s":"Uncletopia | London | 3 | All Maps","protocol":17,"map":"pl_barnblitz","folder":"tf","game":"Team Fortress","app_id":440,"player_count":24,"max_players":24,"Bots":0,"server_type":"Dedicated","server_os":"Linux","password":true,"vac":true,"version":"7961495","steam_id":85568392924510192,"keywords":["nocrits","nodmgspread","payload","uncletopia"],"game_id":440,"stv_port":27036,"stv_name":"Uncletopia | London | 3 | All Maps | STV","players":[{"user_id":329,"name":"deez","steam_id":76561198831476915,"connected_time":308000000000,"state":"active","ping":41},{"user_id":306,"name":"puncake4you","steam_id":76561198366512937,"connected_time":2103000000000,"state":"active","ping":52},{"user_id":318,"name":"ay","steam_id":76561198033695429,"connected_time":1264000000000,"state":"active","ping":40},{"user_id":294,"name":"VolcanicArts","steam_id":76561198063453246,"connected_time":3185000000000,"state":"active","ping":49},{"user_id":301,"name":"joachym","steam_id":76561198428579761,"connected_time":2757000000000,"state":"active","ping":59},{"user_id":323,"name":"husk scrambled eggs when","steam_id":76561198173218318,"connected_time":547000000000,"state":"active","ping":46},{"user_id":327,"name":"Lubrsi","steam_id":76561198040208195,"connected_time":457000000000,"state":"active","ping":48},{"user_id":279,"name":"Gnarville","steam_id":76561198006373329,"connected_time":4115000000000,"state":"active","ping":46},{"user_id":324,"name":"Alfred Shroom","steam_id":76561198117990411,"connected_time":504000000000,"state":"active","ping":72},{"user_id":295,"name":"hench frog","steam_id":76561198445120460,"connected_time":3125000000000,"state":"active","ping":58},{"user_id":224,"name":"C.I.","steam_id":76561197972438196,"connected_time":6765000000000,"state":"active","ping":45},{"user_id":325,"name":"Kamikrazy","steam_id":76561198044254918,"connected_time":500000000000,"state":"active","ping":49},{"user_id":320,"name":"-BRH- Tangled up in Bluegrass","steam_id":76561197987181139,"connected_time":703000000000,"state":"active","ping":149},{"user_id":315,"name":"ArmedWithWings","steam_id":76561198154615474,"connected_time":2008000000000,"state":"active","ping":75},{"user_id":298,"name":"FreyjaBreadWitch","steam_id":76561199211405367,"connected_time":3000000000000,"state":"active","ping":98},{"user_id":302,"name":"Edsuedi","steam_id":76561198074722832,"connected_time":2592000000000,"state":"active","ping":60},{"user_id":326,"name":"jovi_","steam_id":76561198449280552,"connected_time":494000000000,"state":"active","ping":54},{"user_id":317,"name":"syms","steam_id":76561198066679812,"connected_time":1678000000000,"state":"active","ping":78},{"user_id":305,"name":"The Lady","steam_id":76561198029895809,"connected_time":2450000000000,"state":"active","ping":85},{"user_id":328,"name":"sniper's kangaroo wife","steam_id":76561198334042273,"connected_time":447000000000,"state":"active","ping":44},{"user_id":331,"name":"Personano","steam_id":76561198994355577,"connected_time":154000000000,"state":"active","ping":55},{"user_id":313,"name":"kurd","steam_id":76561198116530769,"connected_time":2047000000000,"state":"active","ping":96},{"user_id":314,"name":"H-say","steam_id":76561198177400362,"connected_time":2030000000000,"state":"active","ping":77},{"user_id":330,"name":"Dezalt","steam_id":76561198154866092,"connected_time":273000000000,"state":"active","ping":71}]},{"server_id":321,"name":"Uncletopia | London | 4 | All Maps","name_short":"lon-4","host":"lon-1.uk.uncletopia.com","port":27045,"enabled":true,"region":"eu","cc":"gb","latitude":51.509865,"longitude":-0.118092,"reserved":0,"last_update":"0001-01-01T00:00:00Z","name_a2s":"Uncletopia | London | 4 | All Maps","protocol":17,"map":"cp_mountainlab","folder":"tf","game":"Team Fortress","app_id":440,"player_count":10,"max_players":24,"Bots":0,"server_type":"Dedicated","server_os":"Linux","password":true,"vac":true,"version":"7961495","steam_id":85568392924510193,"keywords":["cp","nocrits","nodmgspread","uncletopia"],"game_id":440,"stv_port":27046,"stv_name":"Uncletopia | London | 4 | All Maps | STV","players":[{"user_id":417,"name":"free back real estate","steam_id":76561197999437155,"connected_time":643000000000,"state":"active","ping":40},{"user_id":428,"name":"Kawaii_H3ntai2035 #save TF2","steam_id":76561198300644065,"connected_time":27000000000,"state":"active","ping":81},{"user_id":395,"name":"Jethro Tull","steam_id":76561199034041634,"connected_time":1560000000000,"state":"active","ping":57},{"user_id":421,"name":"Drillbit","steam_id":76561198011421635,"connected_time":498000000000,"state":"active","ping":59},{"user_id":422,"name":"Thundergodstonelate","steam_id":76561198040893623,"connected_time":438000000000,"state":"active","ping":87},{"user_id":423,"name":"katana on the trains","steam_id":76561198202464032,"connected_time":407000000000,"state":"active","ping":45},{"user_id":403,"name":"Average Anarchist","steam_id":76561199175442910,"connected_time":1134000000000,"state":"active","ping":121},{"user_id":410,"name":"gratatkotowiecowski","steam_id":76561199074831916,"connected_time":838000000000,"state":"active","ping":72},{"user_id":425,"name":"MaKsiu","steam_id":76561198150213323,"connected_time":364000000000,"state":"active","ping":75},{"user_id":373,"name":"Lemon","steam_id":76561198188535947,"connected_time":3036000000000,"state":"active","ping":60}]},{"server_id":21,"name":"Uncletopia | London | 5 | All Maps","name_short":"lon-5","host":"lon-1.uk.uncletopia.com","port":27055,"enabled":true,"region":"eu","cc":"gb","latitude":51.509865,"longitude":-0.118092,"reserved":0,"last_update":"0001-01-01T00:00:00Z","name_a2s":"Uncletopia | London | 5 | All Maps","protocol":17,"map":"pl_swiftwater_final1","folder":"tf","game":"Team Fortress","app_id":440,"player_count":0,"max_players":24,"Bots":0,"server_type":"Dedicated","server_os":"Linux","password":true,"vac":true,"version":"7961495","steam_id":85568392924742829,"keywords":["nocrits","nodmgspread","payload","uncletopia"],"game_id":440,"stv_port":27056,"stv_name":"Uncletopia | London | 5 | All Maps | STV","players":null},{"server_id":22,"name":"Uncletopia | London | 6 | All Maps","name_short":"lon-6","host":"lon-1.uk.uncletopia.com","port":27065,"enabled":true,"region":"eu","cc":"gb","latitude":51.509865,"longitude":-0.118092,"reserved":0,"last_update":"0001-01-01T00:00:00Z","name_a2s":"Uncletopia | London | 6 | All Maps","protocol":17,"map":"pl_badwater","folder":"tf","game":"Team Fortress","app_id":440,"player_count":24,"max_players":24,"Bots":0,"server_type":"Dedicated","server_os":"Linux","password":true,"vac":true,"version":"7961495","steam_id":85568392924742830,"keywords":["nocrits","nodmgspread","payload","uncletopia"],"game_id":440,"stv_port":27066,"stv_name":"Uncletopia | London | 6 | All Maps | STV","players":[{"user_id":282,"name":"Grumps","steam_id":76561198014384637,"connected_time":1114000000000,"state":"active","ping":65},{"user_id":292,"name":"glyph","steam_id":76561197980736364,"connected_time":619000000000,"state":"active","ping":84},{"user_id":270,"name":"deadass","steam_id":76561198089102365,"connected_time":1565000000000,"state":"active","ping":61},{"user_id":298,"name":"Sputnik","steam_id":76561198138660241,"connected_time":191000000000,"state":"active","ping":57},{"user_id":294,"name":"GogsCrunchyNuts","steam_id":76561198150599213,"connected_time":529000000000,"state":"active","ping":75},{"user_id":275,"name":"Saufkumpel","steam_id":76561197991911374,"connected_time":1343000000000,"state":"active","ping":56},{"user_id":279,"name":"☁ Lou1smeister ☁","steam_id":76561198004032968,"connected_time":1202000000000,"state":"active","ping":65},{"user_id":295,"name":"ShadyP00","steam_id":76561198065308906,"connected_time":278000000000,"state":"active","ping":140},{"user_id":299,"name":"MaypulSoyrup","steam_id":76561199213966821,"connected_time":186000000000,"state":"active","ping":80},{"user_id":280,"name":"geriatric joel","steam_id":76561198132922827,"connected_time":1188000000000,"state":"active","ping":31},{"user_id":281,"name":"MEOWRON","steam_id":76561198423803012,"connected_time":1187000000000,"state":"active","ping":56},{"user_id":297,"name":"Birbmang","steam_id":76561198035119964,"connected_time":259000000000,"state":"active","ping":46},{"user_id":296,"name":"w+m1","steam_id":76561198010428082,"connected_time":273000000000,"state":"active","ping":63},{"user_id":284,"name":"Haha?","steam_id":76561198056882245,"connected_time":1100000000000,"state":"active","ping":35},{"user_id":206,"name":"Houlles","steam_id":76561198095277383,"connected_time":5402000000000,"state":"active","ping":56},{"user_id":300,"name":"Burbie","steam_id":76561198046069449,"connected_time":153000000000,"state":"active","ping":48},{"user_id":285,"name":"Marty Pants","steam_id":76561198004449634,"connected_time":1089000000000,"state":"active","ping":59},{"user_id":301,"name":"Yuzu","steam_id":76561198121694613,"connected_time":152000000000,"state":"active","ping":53},{"user_id":274,"name":"Dangerousbros","steam_id":76561198088952519,"connected_time":1426000000000,"state":"active","ping":40},{"user_id":302,"name":"A Table","steam_id":76561198056456470,"connected_time":131000000000,"state":"active","ping":66},{"user_id":303,"name":"Vince","steam_id":76561199103000131,"connected_time":44000000000,"state":"active","ping":45},{"user_id":289,"name":"Nag","steam_id":76561197970488206,"connected_time":977000000000,"state":"active","ping":71},{"user_id":290,"name":"LivEssense","steam_id":76561198052476979,"connected_time":973000000000,"state":"active","ping":86},{"user_id":218,"name":"b0g","steam_id":76561198051124946,"connected_time":4502000000000,"state":"active","ping":59}]},{"server_id":40,"name":"Uncletopia | London | 7 | Stopwatch","name_short":"lon-7","host":"lon-1.uk.uncletopia.com","port":27075,"enabled":true,"region":"eu","cc":"gb","latitude":51.509865,"longitude":-0.118092,"reserved":0,"last_update":"0001-01-01T00:00:00Z","name_a2s":"Uncletopia | London | 7 | Stopwatch","protocol":17,"map":"workshop/koth_clearcut_b15.ugc2107050255","folder":"tf","game":"Team Fortress","app_id":440,"player_count":0,"max_players":24,"Bots":0,"server_type":"Dedicated","server_os":"Linux","password":true,"vac":true,"version":"7961495","steam_id":85568392924964314,"keywords":["cp","nocrits","nodmgspread","uncletopia"],"game_id":440,"stv_port":27076,"stv_name":"Uncletopia | London | 7 | Stopwatch | STV","players":null},{"server_id":41,"name":"Uncletopia | London | 8 | Community","name_short":"lon-8","host":"lon-1.uk.uncletopia.com","port":27085,"enabled":true,"region":"eu","cc":"gb","latitude":51.509865,"longitude":-0.118092,"reserved":0,"last_update":"0001-01-01T00:00:00Z","name_a2s":"Uncletopia | London | 8 | Community","protocol":17,"map":"workshop/pl_boundary_final1.ugc456799153","folder":"tf","game":"Team Fortress","app_id":440,"player_count":0,"max_players":24,"Bots":0,"server_type":"Dedicated","server_os":"Linux","password":true,"vac":true,"version":"7961495","steam_id":85568392924964315,"keywords":["nocrits","nodmgspread","payload","uncletopia"],"game_id":440,"stv_port":27086,"stv_name":"Uncletopia | London | 8 | Community | STV","players":null},{"server_id":300,"name":"Uncletopia | Montréal | 1 | One Thousand Uncles","name_short":"mtl-1","host":"mtl-1.ca.uncletopia.com","port":27015,"enabled":true,"region":"us-east","cc":"ca","latitude":45.50889,"longitude":-73.56167,"reserved":0,"last_update":"0001-01-01T00:00:00Z","name_a2s":"Uncletopia | Montréal | 1 | One Thousand Uncles","protocol":17,"map":"pl_thundermountain","folder":"tf","game":"Team Fortress","app_id":440,"player_count":28,"max_players":32,"Bots":16,"server_type":"Dedicated","server_os":"Linux","password":true,"vac":true,"version":"7961495","steam_id":85568392924500087,"keywords":["alltalk","bots","danepve","increased_maxplayers","norespawntime","payload","uncletopia"],"game_id":440,"stv_port":0,"stv_name":"","players":[{"user_id":117,"name":"Ze Healing","steam_id":76561198292152075,"connected_time":5688000000000,"state":"active","ping":53},{"user_id":202,"name":"melon soda","steam_id":76561198066748230,"connected_time":1399000000000,"state":"active","ping":77},{"user_id":119,"name":"Im Groot","steam_id":76561198294943420,"connected_time":5393000000000,"state":"active","ping":83},{"user_id":215,"name":"brick-oven","steam_id":76561199029501468,"connected_time":282000000000,"state":"active","ping":90},{"user_id":207,"name":"flamingo","steam_id":76561198854099251,"connected_time":940000000000,"state":"active","ping":207},{"user_id":209,"name":"Koshiethedeathless","steam_id":76561199090202897,"connected_time":702000000000,"state":"active","ping":81},{"user_id":152,"name":"blonk-182","steam_id":76561198035304483,"connected_time":3963000000000,"state":"active","ping":68},{"user_id":205,"name":"TheBeefCow","steam_id":76561198396895911,"connected_time":1048000000000,"state":"active","ping":51},{"user_id":211,"name":"Evilface38","steam_id":76561198088811686,"connected_time":457000000000,"state":"active","ping":147},{"user_id":182,"name":"Grand Wizard","steam_id":76561199382783363,"connected_time":1941000000000,"state":"active","ping":87},{"user_id":216,"name":"boogers","steam_id":76561198980450175,"connected_time":252000000000,"state":"active","ping":76},{"user_id":213,"name":"beetleman32","steam_id":76561198360535102,"connected_time":445000000000,"state":"active","ping":151}]},{"server_id":301,"name":"Uncletopia | Montréal | 2 | One Thousand Uncles","name_short":"mtl-2","host":"mtl-1.ca.uncletopia.com","port":27025,"enabled":true,"region":"us-east","cc":"ca","latitude":45.50889,"longitude":-73.56167,"reserved":0,"last_update":"0001-01-01T00:00:00Z","name_a2s":"Uncletopia | Montréal | 2 | One Thousand Uncles","protocol":17,"map":"pl_chilly","folder":"tf","game":"Team Fortress","app_id":440,"player_count":0,"max_players":32,"Bots":0,"server_type":"Dedicated","server_os":"Linux","password":true,"vac":true,"version":"7961495","steam_id":85568392924500088,"keywords":["alltalk","danepve","increased_maxplayers","norespawntime","payload","uncletopia"],"game_id":440,"stv_port":0,"stv_name":"","players":null},{"server_id":302,"name":"Uncletopia | Montréal | 3 | One Thousand Uncles","name_short":"mtl-3","host":"mtl-1.ca.uncletopia.com","port":27035,"enabled":true,"region":"us-east","cc":"ca","latitude":45.50889,"longitude":-73.56167,"reserved":0,"last_update":"0001-01-01T00:00:00Z","name_a2s":"Uncletopia | Montréal | 3 | One Thousand Uncles","protocol":17,"map":"pl_upward","folder":"tf","game":"Team Fortress","app_id":440,"player_count":21,"max_players":32,"Bots":16,"server_type":"Dedicated","server_os":"Linux","password":true,"vac":true,"version":"7961495","steam_id":85568392924500089,"keywords":["alltalk","bots","danepve","increased_maxplayers","norespawntime","payload","uncletopia"],"game_id":440,"stv_port":0,"stv_name":"","players":[{"user_id":152,"name":"killeroverscore123","steam_id":76561199168131321,"connected_time":1000000000,"state":"spawning","ping":68},{"user_id":151,"name":"Asparagee","steam_id":76561198093051650,"connected_time":53000000000,"state":"active","ping":63},{"user_id":142,"name":"C Papi","steam_id":76561198027779564,"connected_time":2857000000000,"state":"active","ping":67},{"user_id":147,"name":"Why not Zoidberg?","steam_id":76561197982207556,"connected_time":698000000000,"state":"active","ping":77},{"user_id":150,"name":"Pickle-down Rickonomics","steam_id":76561198096318921,"connected_time":226000000000,"state":"active","ping":57}]},{"server_id":13,"name":"Uncletopia | New York City | 1 | All Maps","name_short":"nyc-1","host":"nyc-1.us.uncletopia.com","port":27015,"enabled":true,"region":"us-east","cc":"us","latitude":40.73061,"longitude":-73.93524,"reserved":0,"last_update":"0001-01-01T00:00:00Z","name_a2s":"Uncletopia | New York City | 1 | All Maps","protocol":17,"map":"koth_brazil","folder":"tf","game":"Team Fortress","app_id":440,"player_count":0,"max_players":24,"Bots":0,"server_type":"Dedicated","server_os":"Linux","password":true,"vac":true,"version":"7961495","steam_id":85568392924469993,"keywords":["cp","nocrits","nodmgspread","uncletopia"],"game_id":440,"stv_port":27016,"stv_name":"Uncletopia | New York City | 1 | All Maps | STV","players":null},{"server_id":14,"name":"Uncletopia | New York City | 2 | All Maps","name_short":"nyc-2","host":"nyc-1.us.uncletopia.com","port":27025,"enabled":true,"region":"us-east","cc":"us","latitude":40.73061,"longitude":-73.93524,"reserved":0,"last_update":"0001-01-01T00:00:00Z","name_a2s":"Uncletopia | New York City | 2 | All Maps","protocol":17,"map":"pl_swiftwater_final1","folder":"tf","game":"Team Fortress","app_id":440,"player_count":24,"max_players":24,"Bots":0,"server_type":"Dedicated","server_os":"Linux","password":true,"vac":true,"version":"7961495","steam_id":85568392924469994,"keywords":["nocrits","nodmgspread","payload","uncletopia"],"game_id":440,"stv_port":27026,"stv_name":"Uncletopia | New York City | 2 | All Maps | STV","players":[{"user_id":19,"name":"Noobert McGlitchington the 3st","steam_id":76561198073176682,"connected_time":2068000000000,"state":"active","ping":74},{"user_id":20,"name":"ʏᴜᴊɪ","steam_id":76561198401572620,"connected_time":2021000000000,"state":"active","ping":69},{"user_id":52,"name":"Cheeseboi","steam_id":76561198151598074,"connected_time":1041000000000,"state":"active","ping":47},{"user_id":55,"name":"Nansral26","steam_id":76561198886650496,"connected_time":907000000000,"state":"active","ping":47},{"user_id":23,"name":"Coop","steam_id":76561198042839356,"connected_time":1874000000000,"state":"active","ping":51},{"user_id":46,"name":"Antian","steam_id":76561198368683614,"connected_time":1181000000000,"state":"active","ping":47},{"user_id":25,"name":"TRANSGENDER ROBOTNIK","steam_id":76561198371941425,"connected_time":1654000000000,"state":"active","ping":41},{"user_id":26,"name":"OKLOLOM3","steam_id":76561199151881507,"connected_time":1620000000000,"state":"active","ping":43},{"user_id":27,"name":"duncetheman52","steam_id":76561199375775410,"connected_time":1545000000000,"state":"active","ping":46},{"user_id":28,"name":"lliwwill1","steam_id":76561198116603193,"connected_time":1470000000000,"state":"active","ping":56},{"user_id":30,"name":"kyuta","steam_id":76561198382281653,"connected_time":1383000000000,"state":"active","ping":164},{"user_id":54,"name":"Lucky","steam_id":76561198124910662,"connected_time":920000000000,"state":"active","ping":106},{"user_id":32,"name":"Luke_734","steam_id":76561199229582902,"connected_time":1328000000000,"state":"active","ping":71},{"user_id":33,"name":"JellyParrot","steam_id":76561199190990163,"connected_time":1319000000000,"state":"active","ping":65},{"user_id":59,"name":"Fishybros","steam_id":76561198182045699,"connected_time":40000000000,"state":"active","ping":48},{"user_id":37,"name":"mycoolcucumber","steam_id":76561198177586211,"connected_time":1290000000000,"state":"active","ping":66},{"user_id":38,"name":"Versuski","steam_id":76561198085193084,"connected_time":1283000000000,"state":"active","ping":48},{"user_id":53,"name":"Alexthegreat","steam_id":76561197996796222,"connected_time":944000000000,"state":"active","ping":47},{"user_id":60,"name":"just call me joe","steam_id":76561198043911582,"connected_time":6000000000,"state":"spawning","ping":44},{"user_id":47,"name":"Tanner Jarring","steam_id":76561198172024365,"connected_time":1164000000000,"state":"active","ping":59},{"user_id":58,"name":"PointyCactus","steam_id":76561199377064707,"connected_time":341000000000,"state":"active","ping":54},{"user_id":43,"name":"ItchyThunder111","steam_id":76561199149907692,"connected_time":1240000000000,"state":"active","ping":113},{"user_id":51,"name":"Mer","steam_id":76561198192171041,"connected_time":1048000000000,"state":"active","ping":111},{"user_id":56,"name":"Cowabummer","steam_id":76561198272640432,"connected_time":900000000000,"state":"active","ping":74}]},{"server_id":15,"name":"Uncletopia | New York City | 3 | Stopwatch","name_short":"nyc-3","host":"nyc-1.us.uncletopia.com","port":27035,"enabled":true,"region":"us-east","cc":"us","latitude":40.73061,"longitude":-73.93524,"reserved":0,"last_update":"0001-01-01T00:00:00Z","name_a2s":"Uncletopia | New York City | 3 | Stopwatch","protocol":17,"map":"workshop/cp_reckoner_rc6.ugc674719999","folder":"tf","game":"Team Fortress","app_id":440,"player_count":0,"max_players":24,"Bots":0,"server_type":"Dedicated","server_os":"Linux","password":true,"vac":true,"version":"7961495","steam_id":85568392924742820,"keywords":["cp","nocrits","nodmgspread","uncletopia"],"game_id":440,"stv_port":27036,"stv_name":"Uncletopia | New York City | 3 | Stopwatch | STV","players":null},{"server_id":16,"name":"Uncletopia | New York City | 4 | Community","name_short":"nyc-4","host":"nyc-1.us.uncletopia.com","port":27045,"enabled":true,"region":"us-east","cc":"us","latitude":40.73061,"longitude":-73.93524,"reserved":0,"last_update":"0001-01-01T00:00:00Z","name_a2s":"Uncletopia | New York City | 4 | Community","protocol":17,"map":"workshop/cp_indulge.ugc528106646","folder":"tf","game":"Team Fortress","app_id":440,"player_count":0,"max_players":24,"Bots":0,"server_type":"Dedicated","server_os":"Linux","password":true,"vac":true,"version":"7961495","steam_id":85568392924742821,"keywords":["cp","nocrits","nodmgspread","uncletopia"],"game_id":440,"stv_port":27046,"stv_name":"Uncletopia | New York City | 4 | Community | STV","players":null},{"server_id":142,"name":"Uncletopia | São Paulo | 1 | All Maps","name_short":"sao-1","host":"sao-1.br.uncletopia.com","port":27015,"enabled":true,"region":"sa","cc":"br","latitude":-23.533773,"longitude":-46.62529,"reserved":0,"last_update":"0001-01-01T00:00:00Z","name_a2s":"Uncletopia | São Paulo | 1 | All Maps","protocol":17,"map":"cp_granary","folder":"tf","game":"Team Fortress","app_id":440,"player_count":0,"max_players":24,"Bots":0,"server_type":"Dedicated","server_os":"Linux","password":true,"vac":true,"version":"7961495","steam_id":85568392924469996,"keywords":["cp","nocrits","nodmgspread","uncletopia"],"game_id":440,"stv_port":27016,"stv_name":"Uncletopia | São Paulo | 1 | All Maps | STV","players":null},{"server_id":143,"name":"Uncletopia | São Paulo | 2 | Community","name_short":"sao-2","host":"sao-2.br.uncletopia.com","port":27015,"enabled":true,"region":"sa","cc":"br","latitude":-23.533773,"longitude":-46.62529,"reserved":0,"last_update":"0001-01-01T00:00:00Z","name_a2s":"Uncletopia | São Paulo | 2 | Community","protocol":17,"map":"workshop/koth_product_final.ugc454272353","folder":"tf","game":"Team Fortress","app_id":440,"player_count":0,"max_players":24,"Bots":0,"server_type":"Dedicated","server_os":"Linux","password":true,"vac":true,"version":"7961495","steam_id":85568392924485349,"keywords":["cp","nocrits","nodmgspread","uncletopia"],"game_id":440,"stv_port":27016,"stv_name":"Uncletopia | São Paulo | 2 | Community | STV","players":null},{"server_id":7,"name":"Uncletopia | Seattle | 1 | All Maps","name_short":"sea-1","host":"sea-1.us.uncletopia.com","port":27015,"enabled":true,"region":"us-west","cc":"us","latitude":47.608013,"longitude":-122.33517,"reserved":0,"last_update":"0001-01-01T00:00:00Z","name_a2s":"Uncletopia | Seattle | 1 | All Maps","protocol":17,"map":"pl_upward","folder":"tf","game":"Team Fortress","app_id":440,"player_count":24,"max_players":24,"Bots":0,"server_type":"Dedicated","server_os":"Linux","password":true,"vac":true,"version":"7961495","steam_id":85568392924469997,"keywords":["nocrits","nodmgspread","payload","uncletopia"],"game_id":440,"stv_port":27016,"stv_name":"Uncletopia | Seattle | 1 | All Maps | STV","players":[{"user_id":437,"name":"the man","steam_id":76561198389268114,"connected_time":156000000000,"state":"active","ping":109},{"user_id":441,"name":"RiceFarmer","steam_id":76561198869180993,"connected_time":56000000000,"state":"spawning","ping":75},{"user_id":370,"name":"The Grungler","steam_id":76561198126561438,"connected_time":4377000000000,"state":"active","ping":72},{"user_id":415,"name":"Lane (She/Her)","steam_id":76561199048555878,"connected_time":1096000000000,"state":"active","ping":46},{"user_id":425,"name":"Greskrendtregk","steam_id":76561197969553142,"connected_time":553000000000,"state":"active","ping":53},{"user_id":439,"name":"Cave Dweller","steam_id":76561198374825685,"connected_time":106000000000,"state":"active","ping":74},{"user_id":422,"name":"Postmaster","steam_id":76561198078500859,"connected_time":699000000000,"state":"active","ping":39},{"user_id":373,"name":"Mexican Elvis","steam_id":76561198165100210,"connected_time":4294000000000,"state":"active","ping":88},{"user_id":367,"name":"Just a Good Friend","steam_id":76561198140052403,"connected_time":4819000000000,"state":"active","ping":59},{"user_id":374,"name":"MineOpal","steam_id":76561198044716407,"connected_time":4293000000000,"state":"active","ping":77},{"user_id":419,"name":"Nina","steam_id":76561198875007138,"connected_time":920000000000,"state":"active","ping":45},{"user_id":426,"name":"goos  e","steam_id":76561198036774894,"connected_time":537000000000,"state":"active","ping":48},{"user_id":427,"name":"YAGOO GAMING","steam_id":76561198219019875,"connected_time":523000000000,"state":"active","ping":72},{"user_id":405,"name":"Local","steam_id":76561198069537437,"connected_time":1501000000000,"state":"active","ping":91},{"user_id":424,"name":"MASH SPACEBAR TO GO FAST","steam_id":76561198111440909,"connected_time":582000000000,"state":"active","ping":91},{"user_id":440,"name":"Boxcars","steam_id":76561198120978767,"connected_time":71000000000,"state":"active","ping":78},{"user_id":336,"name":"Katie XXII","steam_id":76561198135534297,"connected_time":7314000000000,"state":"active","ping":48},{"user_id":404,"name":"top 10 sidewalks","steam_id":76561198844273999,"connected_time":1563000000000,"state":"active","ping":45},{"user_id":406,"name":"Furry Femboy Hooters (CEO)","steam_id":76561198097745857,"connected_time":1499000000000,"state":"active","ping":52},{"user_id":399,"name":"Seshreb","steam_id":76561198846614634,"connected_time":2320000000000,"state":"active","ping":87},{"user_id":389,"name":"level 7 firemancer","steam_id":76561198209571677,"connected_time":2940000000000,"state":"active","ping":125},{"user_id":369,"name":"Thexx she/they","steam_id":76561198113823050,"connected_time":4555000000000,"state":"active","ping":54},{"user_id":417,"name":"Tom Buckle","steam_id":76561198870649125,"connected_time":945000000000,"state":"active","ping":83},{"user_id":393,"name":"Robogineer","steam_id":76561198026994739,"connected_time":2747000000000,"state":"active","ping":75}]},{"server_id":119,"name":"Uncletopia | Seattle | 2 | All Maps","name_short":"sea-2","host":"sea-1.us.uncletopia.com","port":27025,"enabled":true,"region":"us-west","cc":"us","latitude":47.608013,"longitude":-122.33517,"reserved":0,"last_update":"0001-01-01T00:00:00Z","name_a2s":"Uncletopia | Seattle | 2 | All Maps","protocol":17,"map":"koth_lakeside_final","folder":"tf","game":"Team Fortress","app_id":440,"player_count":0,"max_players":24,"Bots":0,"server_type":"Dedicated","server_os":"Linux","password":true,"vac":true,"version":"7961495","steam_id":85568392924469998,"keywords":["cp","nocrits","nodmgspread","uncletopia"],"game_id":440,"stv_port":27026,"stv_name":"Uncletopia | Seattle | 2 | All Maps | STV","players":null},{"server_id":406,"name":"Uncletopia | Seattle | 3 | Stopwatch","name_short":"sea-3","host":"sea-1.us.uncletopia.com","port":27035,"enabled":true,"region":"us-west","cc":"us","latitude":47.608013,"longitude":-122.33517,"reserved":0,"last_update":"0001-01-01T00:00:00Z","name_a2s":"Uncletopia | Seattle | 3 | Stopwatch","protocol":17,"map":"workshop/koth_jamram_rc1a.ugc2964065613","folder":"tf","game":"Team Fortress","app_id":440,"player_count":0,"max_players":24,"Bots":0,"server_type":"Dedicated","server_os":"Linux","password":true,"vac":true,"version":"7961495","steam_id":85568392924515217,"keywords":["cp","nocrits","nodmgspread","uncletopia"],"game_id":440,"stv_port":27036,"stv_name":"Uncletopia | Seattle | 3 | Stopwatch | STV","players":null},{"server_id":17,"name":"Uncletopia | San Francisco | 1 | All Maps","name_short":"sfo-1","host":"sfo-1.us.uncletopia.com","port":27015,"enabled":true,"region":"us-west","cc":"us","latitude":37.77397,"longitude":-122.4313,"reserved":0,"last_update":"0001-01-01T00:00:00Z","name_a2s":"Uncletopia | San Francisco | 1 | All Maps","protocol":17,"map":"koth_highpass","folder":"tf","game":"Team Fortress","app_id":440,"player_count":0,"max_players":24,"Bots":0,"server_type":"Dedicated","server_os":"Linux","password":true,"vac":true,"version":"7961495","steam_id":85568392924469999,"keywords":["cp","nocrits","nodmgspread","uncletopia"],"game_id":440,"stv_port":27016,"stv_name":"Uncletopia | San Francisco | 1 | All Maps | STV","players":null},{"server_id":18,"name":"Uncletopia | San Francisco | 2 | All Maps","name_short":"sfo-2","host":"sfo-1.us.uncletopia.com","port":27025,"enabled":true,"region":"us-west","cc":"us","latitude":37.77397,"longitude":-122.4313,"reserved":0,"last_update":"0001-01-01T00:00:00Z","name_a2s":"Uncletopia | San Francisco | 2 | All Maps","protocol":17,"map":"koth_cascade","folder":"tf","game":"Team Fortress","app_id":440,"player_count":0,"max_players":24,"Bots":0,"server_type":"Dedicated","server_os":"Linux","password":true,"vac":true,"version":"7961495","steam_id":85568392924470000,"keywords":["cp","nocrits","nodmgspread","uncletopia"],"game_id":440,"stv_port":27026,"stv_name":"Uncletopia | San Francisco | 2 | All Maps | STV","players":null},{"server_id":19,"name":"Uncletopia | San Francisco | 3 | Stopwatch","name_short":"sfo-3","host":"sfo-1.us.uncletopia.com","port":27035,"enabled":true,"region":"us-west","cc":"us","latitude":37.77397,"longitude":-122.4313,"reserved":0,"last_update":"0001-01-01T00:00:00Z","name_a2s":"Uncletopia | San Francisco | 3 | Stopwatch","protocol":17,"map":"pl_swiftwater_final1","folder":"tf","game":"Team Fortress","app_id":440,"player_count":0,"max_players":24,"Bots":0,"server_type":"Dedicated","server_os":"Linux","password":true,"vac":true,"version":"7961495","steam_id":85568392924742824,"keywords":["nocrits","nodmgspread","payload","uncletopia"],"game_id":440,"stv_port":27036,"stv_name":"Uncletopia | San Francisco | 3 | Stopwatch | STV","players":null},{"server_id":20,"name":"Uncletopia | San Francisco | 4 | Community","name_short":"sfo-4","host":"sfo-1.us.uncletopia.com","port":27045,"enabled":true,"region":"us-west","cc":"us","latitude":37.77397,"longitude":-122.4313,"reserved":0,"last_update":"0001-01-01T00:00:00Z","name_a2s":"Uncletopia | San Francisco | 4 | Community","protocol":17,"map":"workshop/pl_shoreleave_rc2.ugc1238849347","folder":"tf","game":"Team Fortress","app_id":440,"player_count":0,"max_players":24,"Bots":0,"server_type":"Dedicated","server_os":"Linux","password":true,"vac":true,"version":"7961495","steam_id":85568392924742826,"keywords":["nocrits","nodmgspread","payload","uncletopia"],"game_id":440,"stv_port":27046,"stv_name":"Uncletopia | San Francisco | 4 | Community | STV","players":null},{"server_id":141,"name":"Uncletopia | Sydney | 1 | All Maps","name_short":"syd-1","host":"syd-1.au.uncletopia.com","port":27015,"enabled":true,"region":"au","cc":"au","latitude":-33.865143,"longitude":151.2099,"reserved":0,"last_update":"0001-01-01T00:00:00Z","name_a2s":"Uncletopia | Sydney | 1 | All Maps","protocol":17,"map":"koth_nucleus","folder":"tf","game":"Team Fortress","app_id":440,"player_count":0,"max_players":24,"Bots":0,"server_type":"Dedicated","server_os":"Linux","password":true,"vac":true,"version":"7961495","steam_id":85568392924470001,"keywords":["cp","nocrits","nodmgspread","uncletopia"],"game_id":440,"stv_port":27016,"stv_name":"Uncletopia | Sydney | 1 | All Maps | STV","players":null},{"server_id":123,"name":"Uncletopia | Sydney | 2 | All Maps","name_short":"syd-2","host":"syd-1.au.uncletopia.com","port":27025,"enabled":true,"region":"au","cc":"au","latitude":-33.865143,"longitude":151.2099,"reserved":0,"last_update":"0001-01-01T00:00:00Z","name_a2s":"Uncletopia | Sydney | 2 | All Maps","protocol":17,"map":"cp_fastlane","folder":"tf","game":"Team Fortress","app_id":440,"player_count":0,"max_players":24,"Bots":0,"server_type":"Dedicated","server_os":"Linux","password":true,"vac":true,"version":"7961495","steam_id":85568392924470002,"keywords":["cp","nocrits","nodmgspread","uncletopia"],"game_id":440,"stv_port":27026,"stv_name":"Uncletopia | Sydney | 2 | All Maps | STV","players":null},{"server_id":395,"name":"Uncletopia | Sydney | 3 | All Maps","name_short":"syd-3","host":"syd-1.au.uncletopia.com","port":27035,"enabled":true,"region":"au","cc":"au","latitude":-33.865143,"longitude":151.2099,"reserved":0,"last_update":"0001-01-01T00:00:00Z","name_a2s":"Uncletopia | Sydney | 3 | All Maps","protocol":17,"map":"cp_metalworks","folder":"tf","game":"Team Fortress","app_id":440,"player_count":0,"max_players":24,"Bots":0,"server_type":"Dedicated","server_os":"Linux","password":true,"vac":true,"version":"7961495","steam_id":85568392925194467,"keywords":["cp","nocrits","nodmgspread","uncletopia"],"game_id":440,"stv_port":27036,"stv_name":"Uncletopia | Sydney | 3 | All Maps | STV","players":null},{"server_id":396,"name":"Uncletopia | Sydney | 4 | All Maps","name_short":"syd-4","host":"syd-1.au.uncletopia.com","port":27045,"enabled":true,"region":"au","cc":"au","latitude":-33.865143,"longitude":151.2099,"reserved":0,"last_update":"0001-01-01T00:00:00Z","name_a2s":"Uncletopia | Sydney | 4 | All Maps","protocol":17,"map":"koth_cascade","folder":"tf","game":"Team Fortress","app_id":440,"player_count":0,"max_players":24,"Bots":0,"server_type":"Dedicated","server_os":"Linux","password":true,"vac":true,"version":"7961495","steam_id":85568392925397958,"keywords":["cp","nocrits","nodmgspread","uncletopia"],"game_id":440,"stv_port":27046,"stv_name":"Uncletopia | Sydney | 4 | All Maps | STV","players":null},{"server_id":58,"name":"Uncletopia | Sydney | 5 | Stopwatch","name_short":"syd-5","host":"syd-1.au.uncletopia.com","port":27055,"enabled":true,"region":"au","cc":"au","latitude":-33.865143,"longitude":151.2099,"reserved":0,"last_update":"0001-01-01T00:00:00Z","name_a2s":"Uncletopia | Sydney | 5 | Stopwatch","protocol":17,"map":"workshop/koth_product_final.ugc454272353","folder":"tf","game":"Team Fortress","app_id":440,"player_count":0,"max_players":24,"Bots":0,"server_type":"Dedicated","server_os":"Linux","password":true,"vac":true,"version":"7961495","steam_id":85568392925397959,"keywords":["cp","nocrits","nodmgspread","uncletopia"],"game_id":440,"stv_port":27056,"stv_name":"Uncletopia | Sydney | 5 | Stopwatch | STV","players":null},{"server_id":59,"name":"Uncletopia | Sydney | 6 | Community","name_short":"syd-6","host":"syd-1.au.uncletopia.com","port":27065,"enabled":true,"region":"au","cc":"au","latitude":-33.865143,"longitude":151.2099,"reserved":0,"last_update":"0001-01-01T00:00:00Z","name_a2s":"Uncletopia | Sydney | 6 | Community","protocol":17,"map":"workshop/koth_trenchfoot_ab1.ugc731436616","folder":"tf","game":"Team Fortress","app_id":440,"player_count":0,"max_players":24,"Bots":0,"server_type":"Dedicated","server_os":"Linux","password":true,"vac":true,"version":"7961495","steam_id":85568392925397960,"keywords":["cp","nocrits","nodmgspread","uncletopia"],"game_id":440,"stv_port":27066,"stv_name":"Uncletopia | Sydney | 6 | Community | STV","players":null},{"server_id":49,"name":"Uncletopia | Warsaw | 1 | One Thousand Uncles","name_short":"waw-1","host":"waw-1.pl.uncletopia.com","port":27015,"enabled":true,"region":"eu","cc":"pl","latitude":52.2297,"longitude":21.017532,"reserved":0,"last_update":"0001-01-01T00:00:00Z","name_a2s":"Uncletopia | Warsaw | 1 | One Thousand Uncles","protocol":17,"map":"cp_dustbowl","folder":"tf","game":"Team Fortress","app_id":440,"player_count":24,"max_players":32,"Bots":16,"server_type":"Dedicated","server_os":"Linux","password":true,"vac":true,"version":"7961495","steam_id":85568392925397850,"keywords":["alltalk","bots","cp","danepve","increased_maxplayers","norespawntime","uncletopia"],"game_id":440,"stv_port":0,"stv_name":"","players":[{"user_id":624,"name":"[HK]我係香港人","steam_id":76561198165376815,"connected_time":7555000000000,"state":"active","ping":73},{"user_id":693,"name":"Tispy","steam_id":76561199207410049,"connected_time":72000000000,"state":"active","ping":112},{"user_id":625,"name":"0scr_","steam_id":76561198042631352,"connected_time":7470000000000,"state":"active","ping":82},{"user_id":686,"name":"uninspired","steam_id":76561199107097373,"connected_time":752000000000,"state":"active","ping":87},{"user_id":626,"name":"7","steam_id":76561198086304421,"connected_time":7398000000000,"state":"active","ping":82},{"user_id":687,"name":"DylPyckle_","steam_id":76561199380584034,"connected_time":712000000000,"state":"active","ping":147},{"user_id":629,"name":"BigBakedpotato","steam_id":76561199455683923,"connected_time":7085000000000,"state":"active","ping":164},{"user_id":681,"name":"Marcus","steam_id":76561198086814162,"connected_time":3456000000000,"state":"active","ping":63}]},{"server_id":50,"name":"Uncletopia | Warsaw | 2 | One Thousand Uncles","name_short":"waw-2","host":"waw-1.pl.uncletopia.com","port":27025,"enabled":true,"region":"eu","cc":"pl","latitude":52.2297,"longitude":21.017532,"reserved":0,"last_update":"0001-01-01T00:00:00Z","name_a2s":"Uncletopia | Warsaw | 2 | One Thousand Uncles","protocol":17,"map":"pl_pier","folder":"tf","game":"Team Fortress","app_id":440,"player_count":0,"max_players":32,"Bots":0,"server_type":"Dedicated","server_os":"Linux","password":true,"vac":true,"version":"7961495","steam_id":85568392925397851,"keywords":["alltalk","danepve","increased_maxplayers","norespawntime","payload","uncletopia"],"game_id":440,"stv_port":0,"stv_name":"","players":null},{"server_id":51,"name":"Uncletopia | Warsaw | 3 | All Maps","name_short":"waw-3","host":"waw-1.pl.uncletopia.com","port":27035,"enabled":true,"region":"eu","cc":"pl","latitude":52.2297,"longitude":21.017532,"reserved":0,"last_update":"0001-01-01T00:00:00Z","name_a2s":"Uncletopia | Warsaw | 3 | All Maps","protocol":17,"map":"koth_viaduct","folder":"tf","game":"Team Fortress","app_id":440,"player_count":2,"max_players":24,"Bots":0,"server_type":"Dedicated","server_os":"Linux","password":true,"vac":true,"version":"7961495","steam_id":85568392925397852,"keywords":["cp","nocrits","nodmgspread","uncletopia"],"game_id":440,"stv_port":27036,"stv_name":"Uncletopia | Warsaw | 3 | All Maps | STV","players":[{"user_id":11,"name":"Klicks_","steam_id":76561199026721671,"connected_time":307000000000,"state":"active","ping":181},{"user_id":12,"name":"Scout","steam_id":76561199033381009,"connected_time":254000000000,"state":"active","ping":186}]},{"server_id":52,"name":"Uncletopia | Warsaw | 4 | All Maps","name_short":"waw-4","host":"waw-1.pl.uncletopia.com","port":27045,"enabled":true,"region":"eu","cc":"pl","latitude":52.2297,"longitude":21.017532,"reserved":0,"last_update":"0001-01-01T00:00:00Z","name_a2s":"Uncletopia | Warsaw | 4 | All Maps","protocol":17,"map":"koth_cascade","folder":"tf","game":"Team Fortress","app_id":440,"player_count":0,"max_players":24,"Bots":0,"server_type":"Dedicated","server_os":"Linux","password":true,"vac":true,"version":"7961495","steam_id":85568392925397853,"keywords":["cp","nocrits","nodmgspread","uncletopia"],"game_id":440,"stv_port":27046,"stv_name":"Uncletopia | Warsaw | 4 | All Maps | STV","players":null},{"server_id":53,"name":"Uncletopia | Warsaw | 5 | Stopwatch","name_short":"waw-5","host":"waw-1.pl.uncletopia.com","port":27055,"enabled":true,"region":"eu","cc":"pl","latitude":52.2297,"longitude":21.017532,"reserved":0,"last_update":"0001-01-01T00:00:00Z","name_a2s":"Uncletopia | Warsaw | 5 | Stopwatch","protocol":17,"map":"koth_highpass","folder":"tf","game":"Team Fortress","app_id":440,"player_count":0,"max_players":24,"Bots":0,"server_type":"Dedicated","server_os":"Linux","password":true,"vac":true,"version":"7961495","steam_id":85568392925397854,"keywords":["cp","nocrits","nodmgspread","uncletopia"],"game_id":440,"stv_port":27056,"stv_name":"Uncletopia | Warsaw | 5 | Stopwatch | STV","players":null},{"server_id":54,"name":"Uncletopia | Warsaw | 6 | Community","name_short":"waw-6","host":"waw-1.pl.uncletopia.com","port":27065,"enabled":true,"region":"eu","cc":"pl","latitude":52.2297,"longitude":21.017532,"reserved":0,"last_update":"0001-01-01T00:00:00Z","name_a2s":"Uncletopia | Warsaw | 6 | Community","protocol":17,"map":"workshop/cp_overgrown_rc8.ugc503939302","folder":"tf","game":"Team Fortress","app_id":440,"player_count":0,"max_players":24,"Bots":0,"server_type":"Dedicated","server_os":"Linux","password":true,"vac":true,"version":"7961495","steam_id":85568392925397856,"keywords":["cp","nocrits","nodmgspread","uncletopia"],"game_id":440,"stv_port":27066,"stv_name":"Uncletopia | Warsaw | 6 | Community | STV","players":null}]}