{"status":true,"message":"","result":[{"server_id":9,"name":"Uncletopia | Atlanta | 1 | All Maps","name_short":"atl-1","host":"atl-1.us.uncletopia.com","port":27015,"enabled":true,"region":"us-east","cc":"us","latitude":33.753746,"longitude":-84.38633,"reserved":0,"last_update":"0001-01-01T00:00:00Z","name_a2s":"Uncletopia | Atlanta | 1 | All Maps","protocol":17,"map":"cp_powerhouse","folder":"tf","game":"Team Fortress","app_id":440,"player_count":23,"max_players":24,"Bots":0,"server_type":"Dedicated","server_os":"Linux","password":true,"vac":true,"version":"7695204","steam_id":85568392924469982,"keywords":["cp","nocrits","nodmgspread","uncletopia"],"game_id":440,"stv_port":27016,"stv_name":"Uncletopia | Atlanta | 1 | All Maps | STV","players":[{"user_id":294,"name":"Big Yoshi","steam_id":76561199160576376,"connected_time":2230000000000,"state":"active","ping":118},{"user_id":309,"name":"swan","steam_id":76561198012569200,"connected_time":1023000000000,"state":"active","ping":93},{"user_id":265,"name":"Festive Fire Starting Rock","steam_id":76561198066547582,"connected_time":4676000000000,"state":"active","ping":106},{"user_id":273,"name":"joe lft","steam_id":76561198045781320,"connected_time":3805000000000,"state":"active","ping":62},{"user_id":298,"name":"Winter the Witchie","steam_id":76561198151971178,"connected_time":1499000000000,"state":"active","ping":103},{"user_id":301,"name":"Try Gardening","steam_id":76561198120311340,"connected_time":1332000000000,"state":"active","ping":66},{"user_id":280,"name":"Young-OG","steam_id":76561198058800479,"connected_time":2953000000000,"state":"active","ping":71},{"user_id":310,"name":"SomeRandomCat","steam_id":76561199107044061,"connected_time":1006000000000,"state":"active","ping":68},{"user_id":249,"name":"ATL1 | eish","steam_id":76561198089463603,"connected_time":6443000000000,"state":"active","ping":123},{"user_id":323,"name":"Christoph Waltz eating a burger","steam_id":76561199215811448,"connected_time":113000000000,"state":"active","ping":83},{"user_id":320,"name":"Agent Bowtie","steam_id":76561198175839279,"connected_time":321000000000,"state":"active","ping":82},{"user_id":322,"name":"Klee","steam_id":76561198419619684,"connected_time":192000000000,"state":"active","ping":61},{"user_id":311,"name":"SparkStorm","steam_id":76561198095817025,"connected_time":1003000000000,"state":"active","ping":40},{"user_id":319,"name":"McMatthew","steam_id":76561198031741388,"connected_time":357000000000,"state":"active","ping":81},{"user_id":302,"name":"p0rps","steam_id":76561198000014631,"connected_time":1320000000000,"state":"active","ping":62},{"user_id":317,"name":"Frongus","steam_id":76561197979056451,"connected_time":438000000000,"state":"active","ping":106},{"user_id":307,"name":"Inky (Coolest)","steam_id":76561198968337022,"connected_time":1070000000000,"state":"active","ping":60},{"user_id":321,"name":"Pmuts","steam_id":76561198068807122,"connected_time":311000000000,"state":"active","ping":86},{"user_id":324,"name":"bogginwater","steam_id":76561198155547142,"connected_time":57000000000,"state":"active","ping":79},{"user_id":284,"name":"orchids","steam_id":76561198070063578,"connected_time":2522000000000,"state":"active","ping":46},{"user_id":293,"name":"Jamie Hyneman","steam_id":76561199196036481,"connected_time":2250000000000,"state":"active","ping":93},{"user_id":312,"name":"Azuma","steam_id":76561198271878391,"connected_time":1000000000000,"state":"active","ping":47},{"user_id":313,"name":"Foomfa","steam_id":76561198007033616,"connected_time":1000000000000,"state":"active","ping":60}]},{"server_id":400,"name":"Uncletopia | Atlanta | 3 | All Maps","name_short":"atl-3","host":"atl-1.us.uncletopia.com","port":27035,"enabled":true,"region":"us-east","cc":"us","latitude":33.753746,"longitude":-84.38633,"reserved":0,"last_update":"0001-01-01T00:00:00Z","name_a2s":"Uncletopia | Atlanta | 3 | All Maps","protocol":17,"map":"cp_dustbowl","folder":"tf","game":"Team Fortress","app_id":440,"player_count":24,"max_players":24,"Bots":0,"server_type":"Dedicated","server_os":"Linux","password":true,"vac":true,"version":"7695204","steam_id":85568392924515187,"keywords":["cp","nocrits","nodmgspread","uncletopia"],"game_id":440,"stv_port":27036,"stv_name":"Uncletopia | Atlanta | 3 | All Maps | STV","players":[{"user_id":365,"name":"flappyflap2","steam_id":76561198285048973,"connected_time":4547000000000,"state":"active","ping":64},{"user_id":415,"name":"HarryjusttHarry","steam_id":76561198982810452,"connected_time":755000000000,"state":"active","ping":75},{"user_id":418,"name":"Crimson","steam_id":76561198106081536,"connected_time":365000000000,"state":"active","ping":77},{"user_id":413,"name":"TYRedViking","steam_id":76561199152031620,"connected_time":1056000000000,"state":"active","ping":69},{"user_id":355,"name":"Macko","steam_id":76561198452005461,"connected_time":5141000000000,"state":"active","ping":60},{"user_id":384,"name":"BlueVortex","steam_id":76561198117422148,"connected_time":2733000000000,"state":"active","ping":94},{"user_id":410,"name":"Probably wheatly","steam_id":76561199023936126,"connected_time":1253000000000,"state":"active","ping":69},{"user_id":412,"name":"Johnson FLX.GG","steam_id":76561197991937277,"connected_time":1129000000000,"state":"active","ping":61},{"user_id":401,"name":"fudo myoo","steam_id":76561198456258164,"connected_time":1993000000000,"state":"active","ping":60},{"user_id":392,"name":"DropSkizm","steam_id":76561198389116044,"connected_time":2269000000000,"state":"active","ping":58},{"user_id":385,"name":"fortnite.jimmy.2014","steam_id":76561199177672325,"connected_time":2487000000000,"state":"active","ping":45},{"user_id":402,"name":"elyk37","steam_id":76561198124135253,"connected_time":1952000000000,"state":"active","ping":84},{"user_id":414,"name":"Strangelove","steam_id":76561198353773611,"connected_time":985000000000,"state":"active","ping":87},{"user_id":369,"name":"Ben","steam_id":76561198129254533,"connected_time":3947000000000,"state":"active","ping":67},{"user_id":374,"name":"MissRaptor","steam_id":76561198105613110,"connected_time":3729000000000,"state":"active","ping":75},{"user_id":417,"name":"dragonborn24816","steam_id":76561199050602724,"connected_time":470000000000,"state":"active","ping":130},{"user_id":419,"name":"plutonium isotope","steam_id":76561198319442494,"connected_time":264000000000,"state":"active","ping":102},{"user_id":420,"name":"Bird","steam_id":76561198247484514,"connected_time":248000000000,"state":"active","ping":62},{"user_id":391,"name":"JamesDM14","steam_id":76561198124204470,"connected_time":2346000000000,"state":"active","ping":72},{"user_id":337,"name":"Some Dough","steam_id":76561198003827633,"connected_time":6670000000000,"state":"active","ping":102},{"user_id":409,"name":"dark souls on 3ds","steam_id":76561198078721142,"connected_time":1463000000000,"state":"active","ping":65},{"user_id":404,"name":"TeriyakiDynamite","steam_id":76561198050049346,"connected_time":1938000000000,"state":"active","ping":108},{"user_id":363,"name":"Psych03","steam_id":76561198061753667,"connected_time":4785000000000,"state":"active","ping":101},{"user_id":386,"name":"[TF2Apples] Intense Green Apple","steam_id":76561198803561622,"connected_time":2486000000000,"state":"active","ping":84}]},{"server_id":401,"name":"Uncletopia | Atlanta | 4 | No Payload","name_short":"atl-4","host":"atl-1.us.uncletopia.com","port":27045,"enabled":true,"region":"us-east","cc":"us","latitude":33.753746,"longitude":-84.38633,"reserved":0,"last_update":"0001-01-01T00:00:00Z","name_a2s":"Uncletopia | Atlanta | 4 | No Payload","protocol":17,"map":"cp_yukon_final","folder":"tf","game":"Team Fortress","app_id":440,"player_count":0,"max_players":24,"Bots":0,"server_type":"Dedicated","server_os":"Linux","password":true,"vac":true,"version":"7695204","steam_id":85568392924515188,"keywords":["cp","nocrits","nodmgspread","uncletopia"],"game_id":440,"stv_port":27046,"stv_name":"Uncletopia | Atlanta | 4 | No Payload | STV","players":null},{"server_id":2,"name":"Uncletopia | Chicago | 1 | All Maps","name_short":"chi-1","host":"chi-1.us.uncletopia.com","port":27015,"enabled":true,"region":"us-central","cc":"us","latitude":41.881832,"longitude":-87.62318,"reserved":0,"last_update":"0001-01-01T00:00:00Z","name_a2s":"Uncletopia | Chicago | 1 | All Maps","protocol":17,"map":"pl_borneo","folder":"tf","game":"Team Fortress","app_id":440,"player_count":16,"max_players":24,"Bots":0,"server_type":"Dedicated","server_os":"Linux","password":true,"vac":true,"version":"7695204","steam_id":85568392924469984,"keywords":["nocrits","nodmgspread","payload","uncletopia"],"game_id":440,"stv_port":27016,"stv_name":"Uncletopia | Chicago | 1 | All Maps | STV","players":[{"user_id":566,"name":"SanitysEdge","steam_id":76561198130732813,"connected_time":97000000000,"state":"active","ping":100},{"user_id":542,"name":"CoconutRice","steam_id":76561198114909164,"connected_time":1815000000000,"state":"active","ping":46},{"user_id":519,"name":"radical larry","steam_id":76561198172246829,"connected_time":3540000000000,"state":"active","ping":46},{"user_id":567,"name":"HellRaiser","steam_id":76561199051660033,"connected_time":75000000000,"state":"active","ping":76},{"user_id":563,"name":"Crab Rangoon","steam_id":76561198059310510,"connected_time":335000000000,"state":"active","ping":55},{"user_id":511,"name":"tacofever","steam_id":76561198010966507,"connected_time":3650000000000,"state":"active","ping":100},{"user_id":568,"name":"Snapdragron","steam_id":76561198348485302,"connected_time":45000000000,"state":"active","ping":71},{"user_id":569,"name":"Medical Asshat","steam_id":76561198004584315,"connected_time":27000000000,"state":"active","ping":63},{"user_id":565,"name":"Adam (Cursed Confetti Creature)","steam_id":76561198317690197,"connected_time":137000000000,"state":"active","ping":42},{"user_id":548,"name":"Johnny Lawrence #JohnnyMaxxing","steam_id":76561199367141671,"connected_time":1741000000000,"state":"active","ping":59},{"user_id":530,"name":"floof","steam_id":76561198167756375,"connected_time":2419000000000,"state":"active","ping":90},{"user_id":556,"name":"Aerris","steam_id":76561199178877456,"connected_time":813000000000,"state":"active","ping":70},{"user_id":555,"name":"shnowshner","steam_id":76561198066450438,"connected_time":1037000000000,"state":"active","ping":130},{"user_id":557,"name":"i'll have what you're having","steam_id":76561198035337657,"connected_time":811000000000,"state":"active","ping":64},{"user_id":562,"name":"Qball","steam_id":76561198179016466,"connected_time":473000000000,"state":"active","ping":58},{"user_id":564,"name":"Raniel Dicciardo","steam_id":76561198053859538,"connected_time":158000000000,"state":"active","ping":70}]},{"server_id":106,"name":"Uncletopia | Chicago | 2 | All Maps","name_short":"chi-2","host":"chi-1.us.uncletopia.com","port":27025,"enabled":true,"region":"us-central","cc":"us","latitude":41.881832,"longitude":-87.62318,"reserved":0,"last_update":"0001-01-01T00:00:00Z","name_a2s":"Uncletopia | Chicago | 2 | All Maps","protocol":17,"map":"pl_badwater","folder":"tf","game":"Team Fortress","app_id":440,"player_count":22,"max_players":24,"Bots":0,"server_type":"Dedicated","server_os":"Linux","password":true,"vac":true,"version":"7695204","steam_id":85568392924469985,"keywords":["nocrits","nodmgspread","payload","uncletopia"],"game_id":440,"stv_port":27026,"stv_name":"Uncletopia | Chicago | 2 | All Maps | STV","players":[{"user_id":426,"name":"Tick","steam_id":76561198184161214,"connected_time":1812000000000,"state":"active","ping":42},{"user_id":427,"name":"my mom","steam_id":76561199225201569,"connected_time":1807000000000,"state":"active","ping":66},{"user_id":432,"name":"King Louis IX","steam_id":76561198080283962,"connected_time":1465000000000,"state":"active","ping":108},{"user_id":412,"name":"Scum Knight","steam_id":76561198282444763,"connected_time":2331000000000,"state":"active","ping":59},{"user_id":447,"name":"summertime sadness","steam_id":76561198063313115,"connected_time":11000000000,"state":"active","ping":57},{"user_id":413,"name":"breakfast","steam_id":76561198043712978,"connected_time":2330000000000,"state":"active","ping":96},{"user_id":317,"name":"hej","steam_id":76561197996366940,"connected_time":8198000000000,"state":"active","ping":60},{"user_id":394,"name":"Joshy","steam_id":76561198061405421,"connected_time":3718000000000,"state":"active","ping":85},{"user_id":440,"name":"Ecliptica","steam_id":76561198171951333,"connected_time":800000000000,"state":"active","ping":83},{"user_id":437,"name":"Big bathroom","steam_id":76561198034771900,"connected_time":1306000000000,"state":"active","ping":77},{"user_id":405,"name":"MedRed™ #IATAH","steam_id":76561198002962970,"connected_time":2710000000000,"state":"active","ping":96},{"user_id":401,"name":"SuperJagops","steam_id":76561198034689716,"connected_time":3215000000000,"state":"active","ping":58},{"user_id":446,"name":"Sneetch [sRb]","steam_id":76561197996693506,"connected_time":480000000000,"state":"active","ping":77},{"user_id":444,"name":"Chippy Jr.","steam_id":76561198044099723,"connected_time":535000000000,"state":"active","ping":48},{"user_id":418,"name":"boneyard","steam_id":76561199080454140,"connected_time":2268000000000,"state":"active","ping":66},{"user_id":332,"name":"money squared","steam_id":76561198046775352,"connected_time":7283000000000,"state":"active","ping":89},{"user_id":435,"name":"PossumInASock","steam_id":76561198057138795,"connected_time":1380000000000,"state":"active","ping":129},{"user_id":431,"name":"a crazy hobo","steam_id":76561198289650060,"connected_time":1726000000000,"state":"active","ping":80},{"user_id":441,"name":"Sierra Foxtrot","steam_id":76561197996667382,"connected_time":791000000000,"state":"active","ping":45},{"user_id":421,"name":"TaintedCap","steam_id":76561199115792397,"connected_time":2244000000000,"state":"active","ping":69},{"user_id":445,"name":"forklift circumcised","steam_id":76561198278756087,"connected_time":531000000000,"state":"active","ping":90},{"user_id":439,"name":"dakota__","steam_id":76561198076596506,"connected_time":1289000000000,"state":"active","ping":69}]},{"server_id":402,"name":"Uncletopia | Chicago | 3 | All Maps","name_short":"chi-3","host":"chi-1.us.uncletopia.com","port":27035,"enabled":true,"region":"us-central","cc":"us","latitude":41.881832,"longitude":-87.62318,"reserved":0,"last_update":"0001-01-01T00:00:00Z","name_a2s":"Uncletopia | Chicago | 3 | All Maps","protocol":17,"map":"pl_frontier_final","folder":"tf","game":"Team Fortress","app_id":440,"player_count":24,"max_players":24,"Bots":0,"server_type":"Dedicated","server_os":"Linux","password":true,"vac":true,"version":"7695204","steam_id":85568392924515191,"keywords":["nocrits","nodmgspread","payload","uncletopia"],"game_id":440,"stv_port":27036,"stv_name":"Uncletopia | Chicago | 3 | All Maps | STV","players":[{"user_id":440,"name":"Level 1 Crook","steam_id":76561198441098132,"connected_time":1312000000000,"state":"active","ping":58},{"user_id":406,"name":"a real gummy krabby patty","steam_id":76561198238842076,"connected_time":3266000000000,"state":"active","ping":64},{"user_id":443,"name":"guy","steam_id":76561199001689805,"connected_time":895000000000,"state":"active","ping":74},{"user_id":442,"name":"N0xferatu","steam_id":76561198013225832,"connected_time":939000000000,"state":"active","ping":80},{"user_id":438,"name":"BNGR | Sin Kiske Has Dandy Step","steam_id":76561198257691881,"connected_time":1553000000000,"state":"active","ping":79},{"user_id":422,"name":"snale","steam_id":76561198185195698,"connected_time":2707000000000,"state":"active","ping":113},{"user_id":456,"name":"triangleman","steam_id":76561198972733542,"connected_time":322000000000,"state":"active","ping":63},{"user_id":404,"name":"Tpoyo","steam_id":76561198049951724,"connected_time":3423000000000,"state":"active","ping":64},{"user_id":458,"name":"asbestos","steam_id":76561198079178866,"connected_time":218000000000,"state":"active","ping":63},{"user_id":445,"name":"Not Slavoj Žižek","steam_id":76561198004619616,"connected_time":879000000000,"state":"active","ping":103},{"user_id":450,"name":"Meh but good","steam_id":76561199005772246,"connected_time":785000000000,"state":"active","ping":73},{"user_id":432,"name":"Uncle Kalashnikov","steam_id":76561198028608120,"connected_time":1776000000000,"state":"active","ping":75},{"user_id":402,"name":"triple eco","steam_id":76561198079892116,"connected_time":3565000000000,"state":"active","ping":45},{"user_id":427,"name":"toodleflower22","steam_id":76561198023888890,"connected_time":2249000000000,"state":"active","ping":89},{"user_id":454,"name":"{[F.H]} Hydroida","steam_id":76561197999797274,"connected_time":501000000000,"state":"active","ping":50},{"user_id":367,"name":"OmniXVII","steam_id":76561198027183394,"connected_time":6198000000000,"state":"active","ping":89},{"user_id":457,"name":"OrbyyOrbinaut","steam_id":76561198439425288,"connected_time":295000000000,"state":"active","ping":56},{"user_id":377,"name":"Snazzi","steam_id":76561198085208276,"connected_time":5270000000000,"state":"active","ping":88},{"user_id":447,"name":"LilDreamer","steam_id":76561198804054102,"connected_time":869000000000,"state":"active","ping":43},{"user_id":453,"name":"Grease monkey","steam_id":76561199229169396,"connected_time":586000000000,"state":"active","ping":84},{"user_id":449,"name":"dreammaker3645","steam_id":76561198799312326,"connected_time":838000000000,"state":"active","ping":94},{"user_id":413,"name":"Naut A. Spy","steam_id":76561197964920392,"connected_time":3056000000000,"state":"active","ping":74},{"user_id":459,"name":"sora","steam_id":76561198094256973,"connected_time":210000000000,"state":"active","ping":102},{"user_id":452,"name":"scout.tf2","steam_id":76561199262262606,"connected_time":757000000000,"state":"active","ping":97}]},{"server_id":403,"name":"Uncletopia | Chicago | 4 | All Maps","name_short":"chi-4","host":"chi-1.us.uncletopia.com","port":27045,"enabled":true,"region":"us-central","cc":"us","latitude":41.881832,"longitude":-87.62318,"reserved":0,"last_update":"0001-01-01T00:00:00Z","name_a2s":"Uncletopia | Chicago | 4 | All Maps","protocol":17,"map":"pl_snowycoast","folder":"tf","game":"Team Fortress","app_id":440,"player_count":24,"max_players":24,"Bots":0,"server_type":"Dedicated","server_os":"Linux","password":true,"vac":true,"version":"7695204","steam_id":85568392924515193,"keywords":["nocrits","nodmgspread","payload","uncletopia"],"game_id":440,"stv_port":27046,"stv_name":"Uncletopia | Chicago | 4 | All Maps | STV","players":[{"user_id":307,"name":"dohnuts","steam_id":76561198025965230,"connected_time":1236000000000,"state":"active","ping":66},{"user_id":304,"name":"Pan Piotr","steam_id":76561198140016126,"connected_time":1365000000000,"state":"active","ping":165},{"user_id":308,"name":"sollarious101","steam_id":76561199086649385,"connected_time":1206000000000,"state":"active","ping":68},{"user_id":327,"name":"your xmas forecast","steam_id":76561198042243083,"connected_time":725000000000,"state":"active","ping":66},{"user_id":290,"name":"2cats_2curious","steam_id":76561198027143149,"connected_time":1821000000000,"state":"active","ping":43},{"user_id":314,"name":"Chechens Spotted","steam_id":76561199028910893,"connected_time":1104000000000,"state":"active","ping":79},{"user_id":215,"name":"Jordicr100","steam_id":76561198030999491,"connected_time":6678000000000,"state":"active","ping":128},{"user_id":312,"name":"StarWither","steam_id":76561198383264295,"connected_time":1158000000000,"state":"active","ping":100},{"user_id":303,"name":"حمورابي","steam_id":76561198190164449,"connected_time":1432000000000,"state":"active","ping":70},{"user_id":326,"name":"ttv.scarybroccoli","steam_id":76561198296440084,"connected_time":759000000000,"state":"active","ping":84},{"user_id":293,"name":"Hodeman","steam_id":76561197975982368,"connected_time":1789000000000,"state":"active","ping":61},{"user_id":328,"name":"Bo Nana","steam_id":76561198049832808,"connected_time":443000000000,"state":"active","ping":60},{"user_id":323,"name":"Happyface","steam_id":76561199013236878,"connected_time":838000000000,"state":"active","ping":73},{"user_id":261,"name":"Rukks","steam_id":76561197993918954,"connected_time":2950000000000,"state":"active","ping":79},{"user_id":267,"name":"Tannenbaum Trotsky","steam_id":76561199101638460,"connected_time":2488000000000,"state":"active","ping":79},{"user_id":315,"name":"❄Admiral Pete❄ The Penguin","steam_id":76561198452656581,"connected_time":1100000000000,"state":"active","ping":68},{"user_id":319,"name":"silver","steam_id":76561198081906712,"connected_time":979000000000,"state":"active","ping":44},{"user_id":210,"name":"A Rhino with Coronavirus","steam_id":76561197999451366,"connected_time":6973000000000,"state":"active","ping":73},{"user_id":255,"name":"GRONT","steam_id":76561198040464533,"connected_time":3489000000000,"state":"active","ping":65},{"user_id":320,"name":"Nate","steam_id":76561198068225765,"connected_time":959000000000,"state":"active","ping":65},{"user_id":251,"name":"esoobac","steam_id":76561198010370396,"connected_time":3673000000000,"state":"active","ping":49},{"user_id":325,"name":"Flammenwerfer Enjoyer","steam_id":76561199079034911,"connected_time":783000000000,"state":"active","ping":53},{"user_id":272,"name":"DJ Chalice","steam_id":76561197974872458,"connected_time":2419000000000,"state":"active","ping":65},{"user_id":260,"name":"ASadTeddyBear","steam_id":76561198968206673,"connected_time":2965000000000,"state":"active","ping":80}]},{"server_id":36,"name":"Uncletopia | Chicago | 5 | All Maps","name_short":"chi-5","host":"chi-2.us.uncletopia.com","port":27015,"enabled":true,"region":"us-central","cc":"us","latitude":41.881832,"longitude":-87.62318,"reserved":0,"last_update":"0001-01-01T00:00:00Z","name_a2s":"Uncletopia | Chicago | 5 | All Maps","protocol":17,"map":"koth_cascade","folder":"tf","game":"Team Fortress","app_id":440,"player_count":0,"max_players":24,"Bots":0,"server_type":"Dedicated","server_os":"Linux","password":true,"vac":true,"version":"7695204","steam_id":85568392924866362,"keywords":["cp","nocrits","nodmgspread","uncletopia"],"game_id":440,"stv_port":27016,"stv_name":"Uncletopia | Chicago | 5 | All Maps | STV","players":null},{"server_id":37,"name":"Uncletopia | Chicago | 6 | All Maps","name_short":"chi-6","host":"chi-2.us.uncletopia.com","port":27025,"enabled":true,"region":"us-central","cc":"us","latitude":41.881832,"longitude":-87.62318,"reserved":0,"last_update":"0001-01-01T00:00:00Z","name_a2s":"Uncletopia | Chicago | 6 | All Maps","protocol":17,"map":"koth_lakeside_final","folder":"tf","game":"Team Fortress","app_id":440,"player_count":1,"max_players":24,"Bots":0,"server_type":"Dedicated","server_os":"Linux","password":true,"vac":true,"version":"7695204","steam_id":85568392924866363,"keywords":["cp","nocrits","nodmgspread","uncletopia"],"game_id":440,"stv_port":27026,"stv_name":"Uncletopia | Chicago | 6 | All Maps | STV","players":[{"user_id":16,"name":"[wheat warriors]Breadbank78","steam_id":76561199082498273,"connected_time":104000000000,"state":"active","ping":61}]},{"server_id":38,"name":"Uncletopia | Chicago | 7 | No Payload","name_short":"chi-7","host":"chi-2.us.uncletopia.com","port":27035,"enabled":true,"region":"us-central","cc":"us","latitude":41.881832,"longitude":-87.62318,"reserved":0,"last_update":"0001-01-01T00:00:00Z","name_a2s":"Uncletopia | Chicago | 7 | No Payload","protocol":17,"map":"cp_dustbowl","folder":"tf","game":"Team Fortress","app_id":440,"player_count":23,"max_players":24,"Bots":0,"server_type":"Dedicated","server_os":"Linux","password":true,"vac":true,"version":"7695204","steam_id":85568392924866364,"keywords":["cp","nocrits","nodmgspread","uncletopia"],"game_id":440,"stv_port":27036,"stv_name":"Uncletopia | Chicago | 7 | No Payload | STV","players":[{"user_id":319,"name":"MESSIAH","steam_id":76561198051881047,"connected_time":376000000000,"state":"active","ping":37},{"user_id":309,"name":"a weapon to surpass Papa John","steam_id":76561198116093726,"connected_time":1885000000000,"state":"active","ping":80},{"user_id":310,"name":"buttermilkjesus","steam_id":76561198984974048,"connected_time":1857000000000,"state":"active","ping":80},{"user_id":322,"name":"beans","steam_id":76561198137465310,"connected_time":344000000000,"state":"active","ping":70},{"user_id":306,"name":"froGG technomo","steam_id":76561198068453220,"connected_time":2056000000000,"state":"active","ping":56},{"user_id":303,"name":"DDD14","steam_id":76561198061485026,"connected_time":2131000000000,"state":"active","ping":60},{"user_id":223,"name":"Soap","steam_id":76561198074619142,"connected_time":7240000000000,"state":"active","ping":58},{"user_id":320,"name":"Ze_Über_Nerd","steam_id":76561198091148675,"connected_time":370000000000,"state":"active","ping":73},{"user_id":316,"name":"ferscot1000","steam_id":76561198110722940,"connected_time":1193000000000,"state":"active","ping":56},{"user_id":321,"name":"PapaTheBear123","steam_id":76561198885286869,"connected_time":365000000000,"state":"active","ping":164},{"user_id":323,"name":"Ok then","steam_id":76561198891914787,"connected_time":323000000000,"state":"active","ping":121},{"user_id":324,"name":"11 INCH TGIRL SCHLONG","steam_id":76561198122059018,"connected_time":300000000000,"state":"active","ping":56},{"user_id":325,"name":"BÉBÉ BOSS","steam_id":76561198072893379,"connected_time":293000000000,"state":"active","ping":60},{"user_id":326,"name":"InstantSnowcone","steam_id":76561198067556825,"connected_time":283000000000,"state":"active","ping":66},{"user_id":311,"name":"Wally The Fukn Walrus","steam_id":76561198019034045,"connected_time":1740000000000,"state":"active","ping":58},{"user_id":327,"name":"big guy","steam_id":76561198128596313,"connected_time":259000000000,"state":"active","ping":80},{"user_id":328,"name":"idk","steam_id":76561199121113216,"connected_time":257000000000,"state":"active","ping":82},{"user_id":304,"name":"...","steam_id":76561198312298321,"connected_time":2111000000000,"state":"active","ping":55},{"user_id":312,"name":"Dr. Game and Watch","steam_id":76561197999615565,"connected_time":1703000000000,"state":"active","ping":75},{"user_id":287,"name":"Censure","steam_id":76561198850891374,"connected_time":3288000000000,"state":"active","ping":74},{"user_id":292,"name":"Braindawg","steam_id":76561197988531991,"connected_time":3119000000000,"state":"active","ping":92},{"user_id":203,"name":"Zo","steam_id":76561198018758753,"connected_time":8350000000000,"state":"active","ping":55},{"user_id":329,"name":"SaltBank","steam_id":76561198059714257,"connected_time":250000000000,"state":"active","ping":67}]},{"server_id":39,"name":"Uncletopia | Chicago | 8 | Community","name_short":"chi-8","host":"chi-2.us.uncletopia.com","port":27045,"enabled":true,"region":"us-central","cc":"us","latitude":41.881832,"longitude":-87.62318,"reserved":0,"last_update":"0001-01-01T00:00:00Z","name_a2s":"Uncletopia | Chicago | 8 | Community","protocol":17,"map":"workshop/koth_slaughter_rc1.ugc1712845210","folder":"tf","game":"Team Fortress","app_id":440,"player_count":0,"max_players":24,"Bots":0,"server_type":"Dedicated","server_os":"Linux","password":true,"vac":true,"version":"7695204","steam_id":85568392924866365,"keywords":["cp","nocrits","nodmgspread","uncletopia"],"game_id":440,"stv_port":27046,"stv_name":"Uncletopia | Chicago | 8 | Community | STV","players":null},{"server_id":8,"name":"Uncletopia | Dallas | 1 | All Maps","name_short":"dal-1","host":"dal-1.us.uncletopia.com","port":27015,"enabled":true,"region":"us-central","cc":"us","latitude":32.779167,"longitude":-96.80889,"reserved":0,"last_update":"0001-01-01T00:00:00Z","name_a2s":"Uncletopia | Dallas | 1 | All Maps","protocol":17,"map":"pl_borneo","folder":"tf","game":"Team Fortress","app_id":440,"player_count":24,"max_players":24,"Bots":0,"server_type":"Dedicated","server_os":"Linux","password":true,"vac":true,"version":"7695204","steam_id":85568392924469986,"keywords":["nocrits","nodmgspread","payload","uncletopia"],"game_id":440,"stv_port":27016,"stv_name":"Uncletopia | Dallas | 1 | All Maps | STV","players":[{"user_id":32,"name":"The Ultimate Coomer","steam_id":76561199128833757,"connected_time":2033000000000,"state":"active","ping":43},{"user_id":70,"name":"The Krinkler","steam_id":76561198020308956,"connected_time":176000000000,"state":"active","ping":68},{"user_id":57,"name":"That Dude","steam_id":76561198980486227,"connected_time":908000000000,"state":"active","ping":78},{"user_id":68,"name":"Sim Gishel","steam_id":76561198402400068,"connected_time":380000000000,"state":"active","ping":133},{"user_id":37,"name":"Rugbmilk","steam_id":76561199389283507,"connected_time":1575000000000,"state":"active","ping":99},{"user_id":64,"name":"Cereal","steam_id":76561198045889032,"connected_time":423000000000,"state":"active","ping":124},{"user_id":39,"name":"haadis55555","steam_id":76561199117504724,"connected_time":1423000000000,"state":"active","ping":119},{"user_id":40,"name":"Jules","steam_id":76561199065191952,"connected_time":1334000000000,"state":"active","ping":60},{"user_id":41,"name":"Statutory Ape","steam_id":76561197990346445,"connected_time":1333000000000,"state":"active","ping":55},{"user_id":43,"name":"1ncel","steam_id":76561198950243192,"connected_time":1270000000000,"state":"active","ping":83},{"user_id":45,"name":"mdharsy","steam_id":76561198065831053,"connected_time":1139000000000,"state":"active","ping":98},{"user_id":46,"name":"Sydney","steam_id":76561198797603297,"connected_time":1129000000000,"state":"active","ping":45},{"user_id":47,"name":"Caoticaos","steam_id":76561198114800227,"connected_time":1082000000000,"state":"active","ping":144},{"user_id":48,"name":"Flora of the Moon","steam_id":76561198083943268,"connected_time":1066000000000,"state":"active","ping":74},{"user_id":61,"name":"Zokie0","steam_id":76561198056035567,"connected_time":835000000000,"state":"active","ping":96},{"user_id":63,"name":"-=Bits=-Dinkleberg","steam_id":76561198080367616,"connected_time":733000000000,"state":"active","ping":60},{"user_id":51,"name":"Emma","steam_id":76561198318093783,"connected_time":1013000000000,"state":"active","ping":67},{"user_id":69,"name":"Pop Pop","steam_id":76561198211396781,"connected_time":375000000000,"state":"active","ping":87},{"user_id":53,"name":"donkley kong","steam_id":76561199067637033,"connected_time":986000000000,"state":"active","ping":100},{"user_id":54,"name":"JellyBeanBrainz","steam_id":76561198052510482,"connected_time":980000000000,"state":"active","ping":83},{"user_id":55,"name":"Mixer","steam_id":76561199020200249,"connected_time":939000000000,"state":"active","ping":47},{"user_id":56,"name":"kan kan mikan","steam_id":76561198051009497,"connected_time":926000000000,"state":"active","ping":75},{"user_id":58,"name":"www.yourteamsucks.org","steam_id":76561198062054335,"connected_time":901000000000,"state":"active","ping":88},{"user_id":71,"name":":3","steam_id":76561198098099826,"connected_time":127000000000,"state":"active","ping":75}]},{"server_id":108,"name":"Uncletopia | Dallas | 2 | All Maps","name_short":"dal-2","host":"dal-1.us.uncletopia.com","port":27025,"enabled":true,"region":"us-central","cc":"us","latitude":32.779167,"longitude":-96.80889,"reserved":0,"last_update":"0001-01-01T00:00:00Z","name_a2s":"Uncletopia | Dallas | 2 | All Maps","protocol":17,"map":"pl_swiftwater_final1","folder":"tf","game":"Team Fortress","app_id":440,"player_count":24,"max_players":24,"Bots":0,"server_type":"Dedicated","server_os":"Linux","password":true,"vac":true,"version":"7695204","steam_id":85568392924469988,"keywords":["nocrits","nodmgspread","payload","uncletopia"],"game_id":440,"stv_port":27026,"stv_name":"Uncletopia | Dallas | 2 | All Maps | STV","players":[{"user_id":118,"name":"all my holes are full of pilk","steam_id":76561199157846537,"connected_time":410000000000,"state":"active","ping":174},{"user_id":50,"name":"Eightyy  Fourr","steam_id":76561197960374225,"connected_time":5072000000000,"state":"active","ping":50},{"user_id":84,"name":"Garbage Mammal The Raccoon","steam_id":76561198820507269,"connected_time":3202000000000,"state":"active","ping":81},{"user_id":98,"name":"Lezabel","steam_id":76561198970753261,"connected_time":2170000000000,"state":"active","ping":70},{"user_id":8,"name":"Maranata","steam_id":76561198830158092,"connected_time":7045000000000,"state":"active","ping":79},{"user_id":10,"name":"BuhByeFalecia","steam_id":76561198364710587,"connected_time":6877000000000,"state":"active","ping":57},{"user_id":107,"name":"world's dumbest himbo","steam_id":76561199143725014,"connected_time":1019000000000,"state":"active","ping":91},{"user_id":111,"name":"SpiderString","steam_id":76561198092409181,"connected_time":744000000000,"state":"active","ping":136},{"user_id":65,"name":"❤ Ashley ❤","steam_id":76561198056428303,"connected_time":4525000000000,"state":"active","ping":80},{"user_id":117,"name":"BIGBOTTYJUDI","steam_id":76561198369905004,"connected_time":432000000000,"state":"active","ping":71},{"user_id":114,"name":"WHATDUH","steam_id":76561199126516537,"connected_time":681000000000,"state":"active","ping":60},{"user_id":109,"name":"FemboyNate","steam_id":76561198146636410,"connected_time":752000000000,"state":"active","ping":92},{"user_id":119,"name":"patrick pound","steam_id":76561198004481006,"connected_time":176000000000,"state":"active","ping":75},{"user_id":110,"name":"september 10th 2001","steam_id":76561198363948501,"connected_time":751000000000,"state":"active","ping":61},{"user_id":115,"name":"Kaiyen819","steam_id":76561199198902869,"connected_time":655000000000,"state":"active","ping":108},{"user_id":93,"name":"Krow","steam_id":76561198010392099,"connected_time":2594000000000,"state":"active","ping":56},{"user_id":105,"name":"Endo998","steam_id":76561197998220775,"connected_time":1472000000000,"state":"active","ping":67},{"user_id":103,"name":"ghostedghost","steam_id":76561198111410905,"connected_time":1992000000000,"state":"active","ping":215},{"user_id":95,"name":"pancake","steam_id":76561199085012370,"connected_time":2527000000000,"state":"active","ping":74},{"user_id":71,"name":"Bonweth","steam_id":76561198065437421,"connected_time":4013000000000,"state":"active","ping":52},{"user_id":90,"name":"???","steam_id":76561198200155343,"connected_time":2658000000000,"state":"active","ping":46},{"user_id":116,"name":"Carpet Magnet","steam_id":76561199067860158,"connected_time":585000000000,"state":"active","ping":44},{"user_id":104,"name":"GrimThyReaper","steam_id":76561198828522727,"connected_time":1566000000000,"state":"active","ping":64},{"user_id":64,"name":"weewa","steam_id":76561198064876090,"connected_time":4635000000000,"state":"active","ping":81}]},{"server_id":5,"name":"Uncletopia | Frankfurt | 1 | All Maps","name_short":"frk-1","host":"frk-1.de.uncletopia.com","port":27015,"enabled":true,"region":"eu","cc":"de","latitude":50.110924,"longitude":8.682127,"reserved":0,"last_update":"0001-01-01T00:00:00Z","name_a2s":"Uncletopia | Frankfurt | 1 | All Maps","protocol":17,"map":"pl_barnblitz","folder":"tf","game":"Team Fortress","app_id":440,"player_count":0,"max_players":24,"Bots":0,"server_type":"Dedicated","server_os":"Linux","password":true,"vac":true,"version":"7695204","steam_id":85568392924469989,"keywords":["nocrits","nodmgspread","payload","uncletopia"],"game_id":440,"stv_port":27016,"stv_name":"Uncletopia | Frankfurt | 1 | All Maps | STV","players":null},{"server_id":110,"name":"Uncletopia | Frankfurt | 2 | All Maps","name_short":"frk-2","host":"frk-1.de.uncletopia.com","port":27025,"enabled":true,"region":"eu","cc":"de","latitude":50.110924,"longitude":8.682127,"reserved":0,"last_update":"0001-01-01T00:00:00Z","name_a2s":"Uncletopia | Frankfurt | 2 | All Maps","protocol":17,"map":"pl_pier","folder":"tf","game":"Team Fortress","app_id":440,"player_count":0,"max_players":24,"Bots":0,"server_type":"Dedicated","server_os":"Linux","password":true,"vac":true,"version":"7695204","steam_id":85568392924469990,"keywords":["nocrits","nodmgspread","payload","uncletopia"],"game_id":440,"stv_port":27026,"stv_name":"Uncletopia | Frankfurt | 2 | All Maps | STV","players":null},{"server_id":308,"name":"Uncletopia | Frankfurt | 3 | All Maps","name_short":"frk-3","host":"frk-1.de.uncletopia.com","port":27035,"enabled":true,"region":"eu","cc":"de","latitude":50.110924,"longitude":8.682127,"reserved":0,"last_update":"0001-01-01T00:00:00Z","name_a2s":"Uncletopia | Frankfurt | 3 | All Maps","protocol":17,"map":"pl_frontier_final","folder":"tf","game":"Team Fortress","app_id":440,"player_count":24,"max_players":24,"Bots":0,"server_type":"Dedicated","server_os":"Linux","password":true,"vac":true,"version":"7695204","steam_id":85568392924504274,"keywords":["nocrits","nodmgspread","payload","uncletopia"],"game_id":440,"stv_port":27036,"stv_name":"Uncletopia | Frankfurt | 3 | All Maps | STV","players":[{"user_id":663,"name":"hananamanna","steam_id":76561198006570285,"connected_time":4453000000000,"state":"active","ping":114},{"user_id":684,"name":"Juusto","steam_id":76561198024215551,"connected_time":2954000000000,"state":"active","ping":75},{"user_id":709,"name":"triple!!!","steam_id":76561198119449463,"connected_time":134000000000,"state":"active","ping":74},{"user_id":701,"name":"Sneaky boi","steam_id":76561199195985387,"connected_time":855000000000,"state":"active","ping":86},{"user_id":694,"name":"breedable","steam_id":76561198010300032,"connected_time":1453000000000,"state":"active","ping":60},{"user_id":664,"name":"nedilya","steam_id":76561198039692077,"connected_time":4440000000000,"state":"active","ping":71},{"user_id":662,"name":"uu","steam_id":76561197994492154,"connected_time":4463000000000,"state":"active","ping":60},{"user_id":665,"name":"weed dragon of rad","steam_id":76561198064342804,"connected_time":4436000000000,"state":"active","ping":75},{"user_id":697,"name":"gamer_","steam_id":76561198094125769,"connected_time":1402000000000,"state":"active","ping":77},{"user_id":708,"name":"manKe","steam_id":76561198008564860,"connected_time":282000000000,"state":"active","ping":56},{"user_id":705,"name":"Lena ^^","steam_id":76561199435586696,"connected_time":359000000000,"state":"active","ping":86},{"user_id":706,"name":"pryate","steam_id":76561198135960359,"connected_time":343000000000,"state":"active","ping":60},{"user_id":712,"name":"D D","steam_id":76561198257836694,"connected_time":116000000000,"state":"active","ping":53},{"user_id":710,"name":"Rat head","steam_id":76561198184360615,"connected_time":133000000000,"state":"active","ping":90},{"user_id":707,"name":":)","steam_id":76561198422006468,"connected_time":328000000000,"state":"active","ping":90},{"user_id":676,"name":"HERISSON","steam_id":76561199062194778,"connected_time":3912000000000,"state":"active","ping":80},{"user_id":656,"name":"M2rtRa","steam_id":76561198111036466,"connected_time":4731000000000,"state":"active","ping":70},{"user_id":699,"name":"John Ross","steam_id":76561198034560808,"connected_time":1329000000000,"state":"active","ping":60},{"user_id":570,"name":"Vershal Smershal","steam_id":76561198116223995,"connected_time":12763000000000,"state":"active","ping":59},{"user_id":711,"name":"Saint Az","steam_id":76561198156801417,"connected_time":127000000000,"state":"active","ping":53},{"user_id":698,"name":"Thryck","steam_id":76561198017054318,"connected_time":1400000000000,"state":"active","ping":61},{"user_id":677,"name":"agent youppii","steam_id":76561198055264447,"connected_time":3269000000000,"state":"active","ping":69},{"user_id":674,"name":"Andrew Tate TF2EASY.COM","steam_id":76561198408907123,"connected_time":4305000000000,"state":"active","ping":78},{"user_id":689,"name":"Monet","steam_id":76561198087656854,"connected_time":2004000000000,"state":"active","ping":76}]},{"server_id":309,"name":"Uncletopia | Frankfurt | 4 | All Maps","name_short":"frk-4","host":"frk-1.de.uncletopia.com","port":27045,"enabled":true,"region":"eu","cc":"de","latitude":50.110924,"longitude":8.682127,"reserved":0,"last_update":"0001-01-01T00:00:00Z","name_a2s":"Uncletopia | Frankfurt | 4 | All Maps","protocol":17,"map":"cp_dustbowl","folder":"tf","game":"Team Fortress","app_id":440,"player_count":0,"max_players":24,"Bots":0,"server_type":"Dedicated","server_os":"Linux","password":true,"vac":true,"version":"7695204","steam_id":85568392924504275,"keywords":["cp","nocrits","nodmgspread","uncletopia"],"game_id":440,"stv_port":27046,"stv_name":"Uncletopia | Frankfurt | 4 | All Maps | STV","players":null},{"server_id":310,"name":"Uncletopia | Frankfurt | 5 | All Maps","name_short":"frk-5","host":"frk-1.de.uncletopia.com","port":27055,"enabled":true,"region":"eu","cc":"de","latitude":50.110924,"longitude":8.682127,"reserved":0,"last_update":"0001-01-01T00:00:00Z","name_a2s":"Uncletopia | Frankfurt | 5 | All Maps","protocol":17,"map":"cp_snakewater_final1","folder":"tf","game":"Team Fortress","app_id":440,"player_count":0,"max_players":24,"Bots":0,"server_type":"Dedicated","server_os":"Linux","password":true,"vac":true,"version":"7695204","steam_id":85568392924504277,"keywords":["cp","nocrits","nodmgspread","uncletopia"],"game_id":440,"stv_port":27056,"stv_name":"Uncletopia | Frankfurt | 5 | All Maps | STV","players":null},{"server_id":311,"name":"Uncletopia | Frankfurt | 6 | All Maps","name_short":"frk-6","host":"frk-1.de.uncletopia.com","port":27065,"enabled":true,"region":"eu","cc":"de","latitude":50.110924,"longitude":8.682127,"reserved":0,"last_update":"0001-01-01T00:00:00Z","name_a2s":"Uncletopia | Frankfurt | 6 | All Maps","protocol":17,"map":"cp_snakewater_final1","folder":"tf","game":"Team Fortress","app_id":440,"player_count":4,"max_players":24,"Bots":0,"server_type":"Dedicated","server_os":"Linux","password":true,"vac":true,"version":"7695204","steam_id":85568392924504278,"keywords":["cp","nocrits","nodmgspread","uncletopia"],"game_id":440,"stv_port":27066,"stv_name":"Uncletopia | Frankfurt | 6 | All Maps | STV","players":[{"user_id":668,"name":"Efmixos","steam_id":76561198393929835,"connected_time":5303000000000,"state":"active","ping":94},{"user_id":705,"name":"Danipp","steam_id":76561198027147377,"connected_time":1552000000000,"state":"active","ping":64},{"user_id":646,"name":"New","steam_id":76561198402195911,"connected_time":6158000000000,"state":"active","ping":106},{"user_id":702,"name":"White_spyro","steam_id":76561198155791335,"connected_time":1791000000000,"state":"active","ping":56}]},{"server_id":23,"name":"Uncletopia | Frankfurt | 7 | No Payload","name_short":"frk-7","host":"frk-1.de.uncletopia.com","port":27075,"enabled":true,"region":"eu","cc":"de","latitude":50.110924,"longitude":8.682127,"reserved":0,"last_update":"0001-01-01T00:00:00Z","name_a2s":"Uncletopia | Frankfurt | 7 | No Payload","protocol":17,"map":"cp_fastlane","folder":"tf","game":"Team Fortress","app_id":440,"player_count":0,"max_players":24,"Bots":0,"server_type":"Dedicated","server_os":"Linux","password":true,"vac":true,"version":"7695204","steam_id":85568392924742827,"keywords":["cp","nocrits","nodmgspread","uncletopia"],"game_id":440,"stv_port":27076,"stv_name":"Uncletopia | Frankfurt | 7 | No Payload | STV","players":null},{"server_id":24,"name":"Uncletopia | Frankfurt | 8 | Community","name_short":"frk-8","host":"frk-1.de.uncletopia.com","port":27085,"enabled":true,"region":"eu","cc":"de","latitude":50.110924,"longitude":8.682127,"reserved":0,"last_update":"0001-01-01T00:00:00Z","name_a2s":"Uncletopia | Frankfurt | 8 | Community","protocol":17,"map":"workshop/koth_bagel_rc5.ugc2514036946","folder":"tf","game":"Team Fortress","app_id":440,"player_count":0,"max_players":24,"Bots":0,"server_type":"Dedicated","server_os":"Linux","password":true,"vac":true,"version":"7695204","steam_id":85568392924742828,"keywords":["cp","nocrits","nodmgspread","uncletopia"],"game_id":440,"stv_port":27086,"stv_name":"Uncletopia | Frankfurt | 8 | Community | STV","players":null},{"server_id":202,"name":"Uncletopia | Hong Kong | 1 | All Maps","name_short":"hgk-1","host":"hgk-1.hk.uncletopia.com","port":27015,"enabled":true,"region":"asia","cc":"hk","latitude":22.302711,"longitude":114.177216,"reserved":0,"last_update":"0001-01-01T00:00:00Z","name_a2s":"Uncletopia | Hong Kong | 1 | All Maps","protocol":17,"map":"pl_upward","folder":"tf","game":"Team Fortress","app_id":440,"player_count":0,"max_players":24,"Bots":0,"server_type":"Dedicated","server_os":"Linux","password":true,"vac":true,"version":"7695204","steam_id":85568392924494504,"keywords":["nocrits","nodmgspread","payload","uncletopia"],"game_id":440,"stv_port":0,"stv_name":"","players":null},{"server_id":1,"name":"Uncletopia | Los Angeles | 1 | All Maps","name_short":"lax-1","host":"lax-1.us.uncletopia.com","port":27015,"enabled":true,"region":"us-west","cc":"us","latitude":33.94279,"longitude":-118.41004,"reserved":0,"last_update":"0001-01-01T00:00:00Z","name_a2s":"Uncletopia | Los Angeles | 1 | All Maps","protocol":17,"map":"pl_swiftwater_final1","folder":"tf","game":"Team Fortress","app_id":440,"player_count":24,"max_players":24,"Bots":0,"server_type":"Dedicated","server_os":"Linux","password":true,"vac":true,"version":"7695204","steam_id":85568392924469991,"keywords":["nocrits","nodmgspread","payload","uncletopia"],"game_id":440,"stv_port":27016,"stv_name":"Uncletopia | Los Angeles | 1 | All Maps | STV","players":[{"user_id":120,"name":"look up","steam_id":76561198057487880,"connected_time":2290000000000,"state":"active","ping":85},{"user_id":123,"name":"Grotiox","steam_id":76561199181134950,"connected_time":2118000000000,"state":"active","ping":29},{"user_id":82,"name":"haley","steam_id":76561199102391736,"connected_time":3659000000000,"state":"active","ping":46},{"user_id":138,"name":"Noire","steam_id":76561198077601563,"connected_time":544000000000,"state":"active","ping":78},{"user_id":136,"name":"devil in a new dress","steam_id":76561198265633146,"connected_time":571000000000,"state":"active","ping":56},{"user_id":139,"name":"pillagon","steam_id":76561198183894834,"connected_time":527000000000,"state":"active","ping":56},{"user_id":128,"name":"Angel™","steam_id":76561198171651470,"connected_time":2047000000000,"state":"active","ping":115},{"user_id":130,"name":"John Calibur","steam_id":76561197999986606,"connected_time":1920000000000,"state":"active","ping":44},{"user_id":148,"name":"HAT-WEARING™ Maggot Gamer Cat","steam_id":76561197973992705,"connected_time":270000000000,"state":"active","ping":62},{"user_id":141,"name":"Spearit5464","steam_id":76561199241807676,"connected_time":516000000000,"state":"active","ping":80},{"user_id":116,"name":"Connie","steam_id":76561198068661013,"connected_time":2342000000000,"state":"active","ping":109},{"user_id":147,"name":"JDizzle","steam_id":76561199122696841,"connected_time":366000000000,"state":"active","ping":61},{"user_id":143,"name":"rwrangler05","steam_id":76561198922899122,"connected_time":410000000000,"state":"active","ping":138},{"user_id":125,"name":"Kras","steam_id":76561198339398992,"connected_time":2070000000000,"state":"active","ping":102},{"user_id":149,"name":"NFL.com","steam_id":76561198113405376,"connected_time":29000000000,"state":"active","ping":61},{"user_id":144,"name":"Yakts","steam_id":76561198115044159,"connected_time":402000000000,"state":"active","ping":72},{"user_id":80,"name":"cielael","steam_id":76561198043971956,"connected_time":3771000000000,"state":"active","ping":47},{"user_id":75,"name":"jolly and cozypilled","steam_id":76561198342480009,"connected_time":4006000000000,"state":"active","ping":54},{"user_id":85,"name":"trans gaming troll (she/her)","steam_id":76561198085410622,"connected_time":3590000000000,"state":"active","ping":75},{"user_id":145,"name":"ryghehn","steam_id":76561198195359229,"connected_time":385000000000,"state":"active","ping":75},{"user_id":146,"name":"Skippies","steam_id":76561198131280715,"connected_time":380000000000,"state":"active","ping":115},{"user_id":96,"name":"5 Piece Mini-Churro","steam_id":76561198062438923,"connected_time":3146000000000,"state":"active","ping":91},{"user_id":101,"name":"mao zedong","steam_id":76561199060687332,"connected_time":2920000000000,"state":"active","ping":46},{"user_id":122,"name":"plz talk about dogs","steam_id":76561198062924973,"connected_time":2162000000000,"state":"active","ping":55}]},{"server_id":112,"name":"Uncletopia | Los Angeles | 2 | All Maps","name_short":"lax-2","host":"lax-1.us.uncletopia.com","port":27025,"enabled":true,"region":"us-west","cc":"us","latitude":33.94279,"longitude":-118.41004,"reserved":0,"last_update":"0001-01-01T00:00:00Z","name_a2s":"Uncletopia | Los Angeles | 2 | All Maps","protocol":17,"map":"ctf_turbine","folder":"tf","game":"Team Fortress","app_id":440,"player_count":1,"max_players":24,"Bots":0,"server_type":"Dedicated","server_os":"Linux","password":true,"vac":true,"version":"7695204","steam_id":85568392924469992,"keywords":["ctf","nocrits","nodmgspread","uncletopia"],"game_id":440,"stv_port":27026,"stv_name":"Uncletopia | Los Angeles | 2 | All Maps | STV","players":[{"user_id":12,"name":"Feel the bern","steam_id":76561198078824519,"connected_time":613000000000,"state":"active","ping":45}]},{"server_id":324,"name":"Uncletopia | Los Angeles | 3 | All Maps","name_short":"lax-3","host":"lax-1.us.uncletopia.com","port":27035,"enabled":true,"region":"us-west","cc":"us","latitude":33.94279,"longitude":-118.41004,"reserved":0,"last_update":"0001-01-01T00:00:00Z","name_a2s":"Uncletopia | Los Angeles | 3 | All Maps","protocol":17,"map":"pl_pier","folder":"tf","game":"Team Fortress","app_id":440,"player_count":0,"max_players":24,"Bots":0,"server_type":"Dedicated","server_os":"Linux","password":true,"vac":true,"version":"7695204","steam_id":85568392924510198,"keywords":["nocrits","nodmgspread","payload","uncletopia"],"game_id":440,"stv_port":27036,"stv_name":"Uncletopia | Los Angeles | 3 | All Maps | STV","players":null},{"server_id":25,"name":"Uncletopia | Los Angeles | 4 | No Payload","name_short":"lax-4","host":"lax-1.us.uncletopia.com","port":27045,"enabled":true,"region":"us-west","cc":"us","latitude":33.94279,"longitude":-118.41004,"reserved":0,"last_update":"0001-01-01T00:00:00Z","name_a2s":"Uncletopia | Los Angeles | 4 | No Payload","protocol":17,"map":"koth_highpass","folder":"tf","game":"Team Fortress","app_id":440,"player_count":0,"max_players":24,"Bots":0,"server_type":"Dedicated","server_os":"Linux","password":true,"vac":true,"version":"7695204","steam_id":85568392924510199,"keywords":["cp","nocrits","nodmgspread","uncletopia"],"game_id":440,"stv_port":27046,"stv_name":"Uncletopia | Los Angeles | 4 | No Payload | STV","players":null},{"server_id":11,"name":"Uncletopia | London | 1 | All Maps","name_short":"lon-1","host":"lon-1.uk.uncletopia.com","port":27015,"enabled":true,"region":"eu","cc":"gb","latitude":51.509865,"longitude":-0.118092,"reserved":0,"last_update":"0001-01-01T00:00:00Z","name_a2s":"Uncletopia | London | 1 | All Maps","protocol":17,"map":"cp_gullywash_final1","folder":"tf","game":"Team Fortress","app_id":440,"player_count":0,"max_players":24,"Bots":0,"server_type":"Dedicated","server_os":"Linux","password":true,"vac":true,"version":"7695204","steam_id":85568392924367362,"keywords":["cp","nocrits","nodmgspread","uncletopia"],"game_id":440,"stv_port":27016,"stv_name":"Uncletopia | London | 1 | All Maps | STV","players":null},{"server_id":114,"name":"Uncletopia | London | 2 | All Maps","name_short":"lon-2","host":"lon-1.uk.uncletopia.com","port":27025,"enabled":true,"region":"eu","cc":"gb","latitude":51.509865,"longitude":-0.118092,"reserved":0,"last_update":"0001-01-01T00:00:00Z","name_a2s":"Uncletopia | London | 2 | All Maps","protocol":17,"map":"pl_borneo","folder":"tf","game":"Team Fortress","app_id":440,"player_count":24,"max_players":24,"Bots":0,"server_type":"Dedicated","server_os":"Linux","password":true,"vac":true,"version":"7695204","steam_id":85568392924470941,"keywords":["nocrits","nodmgspread","payload","uncletopia"],"game_id":440,"stv_port":27026,"stv_name":"Uncletopia | London | 2 | All Maps | STV","players":[{"user_id":437,"name":"merry beebo","steam_id":76561199120277007,"connected_time":1981000000000,"state":"active","ping":44},{"user_id":434,"name":"festive baby :)","steam_id":76561198257497429,"connected_time":2082000000000,"state":"active","ping":58},{"user_id":435,"name":"lephanukkah","steam_id":76561198797345502,"connected_time":2014000000000,"state":"active","ping":41},{"user_id":436,"name":"dova","steam_id":76561198068912078,"connected_time":2009000000000,"state":"active","ping":73},{"user_id":438,"name":"cat (they/them)","steam_id":76561198416657815,"connected_time":1867000000000,"state":"active","ping":247},{"user_id":463,"name":"Steen","steam_id":76561198122992510,"connected_time":370000000000,"state":"active","ping":33},{"user_id":440,"name":"Johnny Amoeba Of Christmas Past","steam_id":76561198079530054,"connected_time":1290000000000,"state":"active","ping":48},{"user_id":441,"name":"whimsmas.","steam_id":76561198878171763,"connected_time":1281000000000,"state":"active","ping":46},{"user_id":451,"name":"abi christmas advert","steam_id":76561198166953966,"connected_time":705000000000,"state":"active","ping":56},{"user_id":443,"name":"BreadBaubbles","steam_id":76561198174332826,"connected_time":1153000000000,"state":"active","ping":58},{"user_id":444,"name":"Billy Genie","steam_id":76561198061724014,"connected_time":1131000000000,"state":"active","ping":41},{"user_id":445,"name":"festive jones","steam_id":76561198073975078,"connected_time":1065000000000,"state":"active","ping":45},{"user_id":446,"name":"✪ J","steam_id":76561198094911581,"connected_time":1059000000000,"state":"active","ping":50},{"user_id":450,"name":"neet","steam_id":76561197968115168,"connected_time":792000000000,"state":"active","ping":120},{"user_id":448,"name":"Boobs rater","steam_id":76561198066977580,"connected_time":906000000000,"state":"active","ping":107},{"user_id":452,"name":"Linux Lesbian","steam_id":76561198205464653,"connected_time":697000000000,"state":"active","ping":140},{"user_id":453,"name":"waffle toaster","steam_id":76561198799089628,"connected_time":666000000000,"state":"active","ping":48},{"user_id":456,"name":"vexo","steam_id":76561198186680410,"connected_time":599000000000,"state":"active","ping":44},{"user_id":455,"name":"torn","steam_id":76561198223003236,"connected_time":635000000000,"state":"active","ping":32},{"user_id":458,"name":"Cahl","steam_id":76561198980863125,"connected_time":558000000000,"state":"active","ping":45},{"user_id":459,"name":"jijiklidrop","steam_id":76561198042328253,"connected_time":557000000000,"state":"active","ping":61},{"user_id":462,"name":"DaveyTheDuck","steam_id":76561198163000315,"connected_time":512000000000,"state":"active","ping":122},{"user_id":461,"name":"nalapl3","steam_id":76561198197607383,"connected_time":540000000000,"state":"active","ping":70},{"user_id":465,"name":"help","steam_id":76561199056338917,"connected_time":53000000000,"state":"active","ping":160}]},{"server_id":320,"name":"Uncletopia | London | 3 | All Maps","name_short":"lon-3","host":"lon-1.uk.uncletopia.com","port":27035,"enabled":true,"region":"eu","cc":"gb","latitude":51.509865,"longitude":-0.118092,"reserved":0,"last_update":"0001-01-01T00:00:00Z","name_a2s":"Uncletopia | London | 3 | All Maps","protocol":17,"map":"cp_dustbowl","folder":"tf","game":"Team Fortress","app_id":440,"player_count":14,"max_players":24,"Bots":0,"server_type":"Dedicated","server_os":"Linux","password":true,"vac":true,"version":"7695204","steam_id":85568392924510192,"keywords":["cp","nocrits","nodmgspread","uncletopia"],"game_id":440,"stv_port":27036,"stv_name":"Uncletopia | London | 3 | All Maps | STV","players":[{"user_id":912,"name":"Gety0","steam_id":76561198044387185,"connected_time":779000000000,"state":"active","ping":97},{"user_id":914,"name":"DeToxTea","steam_id":76561198134689959,"connected_time":464000000000,"state":"active","ping":88},{"user_id":861,"name":"Eden","steam_id":76561198180281859,"connected_time":4084000000000,"state":"active","ping":67},{"user_id":918,"name":"E1s","steam_id":76561198894958917,"connected_time":283000000000,"state":"active","ping":54},{"user_id":862,"name":"Economic crisis","steam_id":76561198063562843,"connected_time":4068000000000,"state":"active","ping":60},{"user_id":894,"name":"Theo","steam_id":76561198144205951,"connected_time":1512000000000,"state":"active","ping":98},{"user_id":919,"name":"Cool Dakota - Lesbian Supreme","steam_id":76561198094892479,"connected_time":273000000000,"state":"active","ping":121},{"user_id":872,"name":"El Pybro","steam_id":76561198104675157,"connected_time":3535000000000,"state":"active","ping":70},{"user_id":907,"name":"Cuomo of Rivera","steam_id":76561198116981188,"connected_time":1012000000000,"state":"active","ping":45},{"user_id":920,"name":"TDrake119791","steam_id":76561199123098013,"connected_time":263000000000,"state":"active","ping":176},{"user_id":922,"name":"beurgeur","steam_id":76561198872426314,"connected_time":209000000000,"state":"active","ping":30},{"user_id":923,"name":"็","steam_id":76561199407273335,"connected_time":202000000000,"state":"active","ping":49},{"user_id":886,"name":"Check Your Posture!","steam_id":76561198097466136,"connected_time":2132000000000,"state":"active","ping":60},{"user_id":911,"name":"Powerglide","steam_id":76561198078045108,"connected_time":843000000000,"state":"active","ping":83}]},{"server_id":321,"name":"Uncletopia | London | 4 | All Maps","name_short":"lon-4","host":"lon-1.uk.uncletopia.com","port":27045,"enabled":true,"region":"eu","cc":"gb","latitude":51.509865,"longitude":-0.118092,"reserved":0,"last_update":"0001-01-01T00:00:00Z","name_a2s":"Uncletopia | London | 4 | All Maps","protocol":17,"map":"pl_swiftwater_final1","folder":"tf","game":"Team Fortress","app_id":440,"player_count":24,"max_players":24,"Bots":0,"server_type":"Dedicated","server_os":"Linux","password":true,"vac":true,"version":"7695204","steam_id":85568392924510193,"keywords":["nocrits","nodmgspread","payload","uncletopia"],"game_id":440,"stv_port":27046,"stv_name":"Uncletopia | London | 4 | All Maps | STV","players":[{"user_id":264,"name":"Aoshi","steam_id":76561198043868358,"connected_time":869000000000,"state":"active","ping":61},{"user_id":265,"name":"Ged","steam_id":76561198079288943,"connected_time":829000000000,"state":"active","ping":139},{"user_id":263,"name":"Sugercrash","steam_id":76561199187685119,"connected_time":980000000000,"state":"active","ping":168},{"user_id":266,"name":"Piteras","steam_id":76561198858532207,"connected_time":779000000000,"state":"active","ping":76},{"user_id":258,"name":"Aquatical","steam_id":76561198097333170,"connected_time":1398000000000,"state":"active","ping":84},{"user_id":249,"name":"Boldozofuriozo","steam_id":76561198088667146,"connected_time":2201000000000,"state":"active","ping":67},{"user_id":240,"name":"«Bigly»","steam_id":76561198067284969,"connected_time":2632000000000,"state":"active","ping":78},{"user_id":278,"name":"puddy","steam_id":76561198042047036,"connected_time":22000000000,"state":"active","ping":178},{"user_id":277,"name":"Incoming","steam_id":76561199062581310,"connected_time":70000000000,"state":"active","ping":140},{"user_id":268,"name":"Dr.Disrespect","steam_id":76561198043820228,"connected_time":772000000000,"state":"active","ping":56},{"user_id":215,"name":"bubblojoe","steam_id":76561198044534119,"connected_time":4049000000000,"state":"active","ping":56},{"user_id":255,"name":"cagi","steam_id":76561198059806422,"connected_time":1550000000000,"state":"active","ping":65},{"user_id":241,"name":"rd","steam_id":76561198062362168,"connected_time":2619000000000,"state":"active","ping":65},{"user_id":269,"name":"Burpman","steam_id":76561198022897937,"connected_time":709000000000,"state":"active","ping":46},{"user_id":270,"name":"[P-roc] Cmm Bert","steam_id":76561198016658674,"connected_time":631000000000,"state":"active","ping":53},{"user_id":234,"name":"lowcostfish.co.uk","steam_id":76561198126022039,"connected_time":3246000000000,"state":"active","ping":46},{"user_id":243,"name":"Breadcrab","steam_id":76561198015924039,"connected_time":2602000000000,"state":"active","ping":64},{"user_id":252,"name":"random_player691","steam_id":76561199209946306,"connected_time":1997000000000,"state":"active","ping":57},{"user_id":224,"name":"val","steam_id":76561198324316160,"connected_time":3704000000000,"state":"active","ping":58},{"user_id":196,"name":"nejurnia","steam_id":76561198010360372,"connected_time":5189000000000,"state":"active","ping":67},{"user_id":273,"name":"Darkmaen","steam_id":76561198060543390,"connected_time":402000000000,"state":"active","ping":55},{"user_id":274,"name":"tone","steam_id":76561197975301462,"connected_time":379000000000,"state":"active","ping":74},{"user_id":275,"name":"chh","steam_id":76561198060870605,"connected_time":375000000000,"state":"active","ping":53}]},{"server_id":21,"name":"Uncletopia | London | 5 | All Maps","name_short":"lon-5","host":"lon-1.uk.uncletopia.com","port":27055,"enabled":true,"region":"eu","cc":"gb","latitude":51.509865,"longitude":-0.118092,"reserved":0,"last_update":"0001-01-01T00:00:00Z","name_a2s":"Uncletopia | London | 5 | All Maps","protocol":17,"map":"cp_mountainlab","folder":"tf","game":"Team Fortress","app_id":440,"player_count":0,"max_players":24,"Bots":0,"server_type":"Dedicated","server_os":"Linux","password":true,"vac":true,"version":"7695204","steam_id":85568392924742829,"keywords":["cp","nocrits","nodmgspread","uncletopia"],"game_id":440,"stv_port":27056,"stv_name":"Uncletopia | London | 5 | All Maps | STV","players":null},{"server_id":22,"name":"Uncletopia | London | 6 | All Maps","name_short":"lon-6","host":"lon-1.uk.uncletopia.com","port":27065,"enabled":true,"region":"eu","cc":"gb","latitude":51.509865,"longitude":-0.118092,"reserved":0,"last_update":"0001-01-01T00:00:00Z","name_a2s":"Uncletopia | London | 6 | All Maps","protocol":17,"map":"pl_badwater","folder":"tf","game":"Team Fortress","app_id":440,"player_count":24,"max_players":24,"Bots":0,"server_type":"Dedicated","server_os":"Linux","password":true,"vac":true,"version":"7695204","steam_id":85568392924742830,"keywords":["nocrits","nodmgspread","payload","uncletopia"],"game_id":440,"stv_port":27066,"stv_name":"Uncletopia | London | 6 | All Maps | STV","players":[{"user_id":366,"name":"Hypertension","steam_id":76561198420221975,"connected_time":1767000000000,"state":"active","ping":53},{"user_id":370,"name":"dustee","steam_id":76561198023486582,"connected_time":1295000000000,"state":"active","ping":60},{"user_id":359,"name":"Mr_Pulse_","steam_id":76561198095001602,"connected_time":2660000000000,"state":"active","ping":98},{"user_id":380,"name":"Nyarley","steam_id":76561197961152751,"connected_time":347000000000,"state":"active","ping":54},{"user_id":254,"name":"Tengu","steam_id":76561198024146649,"connected_time":10799000000000,"state":"active","ping":42},{"user_id":263,"name":"The Tengu Wrangler","steam_id":76561198138560080,"connected_time":9576000000000,"state":"active","ping":142},{"user_id":362,"name":"Octis","steam_id":76561198015536917,"connected_time":1995000000000,"state":"active","ping":85},{"user_id":374,"name":"Beans on toast","steam_id":76561198007308717,"connected_time":1041000000000,"state":"active","ping":61},{"user_id":372,"name":"Choruptian","steam_id":76561198017686366,"connected_time":1200000000000,"state":"active","ping":72},{"user_id":341,"name":"Xbox Live","steam_id":76561198012263719,"connected_time":3799000000000,"state":"active","ping":85},{"user_id":373,"name":"Purps","steam_id":76561198053886680,"connected_time":1099000000000,"state":"active","ping":32},{"user_id":354,"name":"Midoriaga","steam_id":76561198010699090,"connected_time":2726000000000,"state":"active","ping":48},{"user_id":259,"name":"pandeux","steam_id":76561198343527617,"connected_time":10039000000000,"state":"active","ping":63},{"user_id":364,"name":"Marty Byrde IRL","steam_id":76561199427269098,"connected_time":1961000000000,"state":"active","ping":156},{"user_id":376,"name":"jaMie","steam_id":76561198170148783,"connected_time":959000000000,"state":"active","ping":42},{"user_id":375,"name":"Buried Alive","steam_id":76561198367800260,"connected_time":1037000000000,"state":"active","ping":68},{"user_id":355,"name":"Belithe","steam_id":76561198082612324,"connected_time":2724000000000,"state":"active","ping":58},{"user_id":344,"name":"Korki","steam_id":76561198146829203,"connected_time":3768000000000,"state":"active","ping":71},{"user_id":356,"name":"Z'nacky09","steam_id":76561198041994406,"connected_time":2721000000000,"state":"active","ping":52},{"user_id":345,"name":"Ferore","steam_id":76561198152824336,"connected_time":3756000000000,"state":"active","ping":47},{"user_id":350,"name":"hoobichan","steam_id":76561198299094088,"connected_time":3153000000000,"state":"active","ping":161},{"user_id":378,"name":"EnderCorePL","steam_id":76561198047531323,"connected_time":632000000000,"state":"active","ping":71},{"user_id":367,"name":"The Coffee","steam_id":76561198171941807,"connected_time":1757000000000,"state":"active","ping":146},{"user_id":365,"name":"dems","steam_id":76561198122546674,"connected_time":1955000000000,"state":"active","ping":52}]},{"server_id":40,"name":"Uncletopia | London | 7 | No Payload","name_short":"lon-7","host":"lon-1.uk.uncletopia.com","port":27075,"enabled":true,"region":"eu","cc":"gb","latitude":51.509865,"longitude":-0.118092,"reserved":0,"last_update":"0001-01-01T00:00:00Z","name_a2s":"Uncletopia | London | 7 | No Payload","protocol":17,"map":"koth_lakeside_final","folder":"tf","game":"Team Fortress","app_id":440,"player_count":0,"max_players":24,"Bots":0,"server_type":"Dedicated","server_os":"Linux","password":true,"vac":true,"version":"7695204","steam_id":85568392924964314,"keywords":["cp","nocrits","nodmgspread","uncletopia"],"game_id":440,"stv_port":27076,"stv_name":"Uncletopia | London | 7 | No Payload | STV","players":null},{"server_id":41,"name":"Uncletopia | London | 8 | Community","name_short":"lon-8","host":"lon-1.uk.uncletopia.com","port":27085,"enabled":true,"region":"eu","cc":"gb","latitude":51.509865,"longitude":-0.118092,"reserved":0,"last_update":"0001-01-01T00:00:00Z","name_a2s":"Uncletopia | London | 8 | Community","protocol":17,"map":"workshop/koth_slaughter_rc1.ugc1712845210","folder":"tf","game":"Team Fortress","app_id":440,"player_count":0,"max_players":24,"Bots":0,"server_type":"Dedicated","server_os":"Linux","password":true,"vac":true,"version":"7695204","steam_id":85568392924964315,"keywords":["cp","nocrits","nodmgspread","uncletopia"],"game_id":440,"stv_port":27086,"stv_name":"Uncletopia | London | 8 | Community | STV","players":null},{"server_id":300,"name":"Uncletopia | Montréal | 1 | All Maps","name_short":"mtl-1","host":"mtl-1.ca.uncletopia.com","port":27015,"enabled":true,"region":"us-east","cc":"ca","latitude":45.50889,"longitude":-73.56167,"reserved":0,"last_update":"0001-01-01T00:00:00Z","name_a2s":"Uncletopia | Montréal | 1 | All Maps","protocol":17,"map":"koth_highpass","folder":"tf","game":"Team Fortress","app_id":440,"player_count":2,"max_players":24,"Bots":0,"server_type":"Dedicated","server_os":"Linux","password":true,"vac":true,"version":"7695204","steam_id":85568392924500087,"keywords":["cp","nocrits","nodmgspread","uncletopia"],"game_id":440,"stv_port":27016,"stv_name":"Uncletopia | Montréal | 1 | All Maps | STV","players":[{"user_id":34,"name":"shesmydisease","steam_id":76561197991036127,"connected_time":618000000000,"state":"active","ping":79},{"user_id":35,"name":"Moonadoo","steam_id":76561198133377546,"connected_time":607000000000,"state":"active","ping":87}]},{"server_id":301,"name":"Uncletopia | Montréal | 2 | All Maps","name_short":"mtl-2","host":"mtl-1.ca.uncletopia.com","port":27025,"enabled":true,"region":"us-east","cc":"ca","latitude":45.50889,"longitude":-73.56167,"reserved":0,"last_update":"0001-01-01T00:00:00Z","name_a2s":"Uncletopia | Montréal | 2 | All Maps","protocol":17,"map":"koth_viaduct","folder":"tf","game":"Team Fortress","app_id":440,"player_count":0,"max_players":24,"Bots":0,"server_type":"Dedicated","server_os":"Linux","password":true,"vac":true,"version":"7695204","steam_id":85568392924500088,"keywords":["cp","nocrits","nodmgspread","uncletopia"],"game_id":440,"stv_port":27026,"stv_name":"Uncletopia | Montréal | 2 | All Maps | STV","players":null},{"server_id":302,"name":"Uncletopia | Montréal | 3 | All Maps","name_short":"mtl-3","host":"mtl-1.ca.uncletopia.com","port":27035,"enabled":true,"region":"us-east","cc":"ca","latitude":45.50889,"longitude":-73.56167,"reserved":0,"last_update":"0001-01-01T00:00:00Z","name_a2s":"Uncletopia | Montréal | 3 | All Maps","protocol":17,"map":"koth_viaduct","folder":"tf","game":"Team Fortress","app_id":440,"player_count":0,"max_players":24,"Bots":0,"server_type":"Dedicated","server_os":"Linux","password":true,"vac":true,"version":"7695204","steam_id":85568392924500089,"keywords":["cp","nocrits","nodmgspread","uncletopia"],"game_id":440,"stv_port":0,"stv_name":"","players":null},{"server_id":303,"name":"Uncletopia | Montréal | 4 | No Payload","name_short":"mtl-4","host":"mtl-1.ca.uncletopia.com","port":27045,"enabled":true,"region":"us-east","cc":"ca","latitude":45.50889,"longitude":-73.56167,"reserved":0,"last_update":"0001-01-01T00:00:00Z","name_a2s":"Uncletopia | Montréal | 4 | No Payload","protocol":17,"map":"plr_nightfall_final","folder":"tf","game":"Team Fortress","app_id":440,"player_count":0,"max_players":24,"Bots":0,"server_type":"Dedicated","server_os":"Linux","password":true,"vac":true,"version":"7695204","steam_id":85568392924500090,"keywords":["nocrits","nodmgspread","payload","uncletopia"],"game_id":440,"stv_port":27046,"stv_name":"Uncletopia | Montréal | 4 | No Payload | STV","players":null},{"server_id":13,"name":"Uncletopia | New York City | 1 | All Maps","name_short":"nyc-1","host":"nyc-1.us.uncletopia.com","port":27015,"enabled":true,"region":"us-east","cc":"us","latitude":40.73061,"longitude":-73.93524,"reserved":0,"last_update":"0001-01-01T00:00:00Z","name_a2s":"Uncletopia | New York City | 1 | All Maps","protocol":17,"map":"cp_process_final","folder":"tf","game":"Team Fortress","app_id":440,"player_count":24,"max_players":24,"Bots":0,"server_type":"Dedicated","server_os":"Linux","password":true,"vac":true,"version":"7695204","steam_id":85568392924469993,"keywords":["cp","nocrits","nodmgspread","uncletopia"],"game_id":440,"stv_port":27016,"stv_name":"Uncletopia | New York City | 1 | All Maps | STV","players":[{"user_id":476,"name":"Thilo","steam_id":76561197987278784,"connected_time":681000000000,"state":"active","ping":80},{"user_id":460,"name":"Samus","steam_id":76561198045943019,"connected_time":1878000000000,"state":"active","ping":151},{"user_id":486,"name":"fatcat","steam_id":76561197993786013,"connected_time":80000000000,"state":"active","ping":49},{"user_id":483,"name":"Anonymous_Cletus_TTV","steam_id":76561198243740340,"connected_time":603000000000,"state":"active","ping":67},{"user_id":470,"name":"Hell's Reindeer","steam_id":76561198065310364,"connected_time":838000000000,"state":"active","ping":65},{"user_id":471,"name":"Dajer","steam_id":76561198321675742,"connected_time":835000000000,"state":"active","ping":77},{"user_id":479,"name":"ExtraSoap","steam_id":76561198008712409,"connected_time":645000000000,"state":"active","ping":45},{"user_id":442,"name":"Superstarjoe","steam_id":76561198206915477,"connected_time":3425000000000,"state":"active","ping":60},{"user_id":477,"name":"Scorpsy","steam_id":76561198024477688,"connected_time":663000000000,"state":"active","ping":59},{"user_id":485,"name":"TheSoleSurvivor07","steam_id":76561199059441756,"connected_time":137000000000,"state":"active","ping":127},{"user_id":393,"name":"Godmode","steam_id":76561198076240365,"connected_time":5962000000000,"state":"active","ping":76},{"user_id":487,"name":"exa","steam_id":76561198044511912,"connected_time":39000000000,"state":"active","ping":114},{"user_id":464,"name":"Michaelpc1","steam_id":76561198088365519,"connected_time":1852000000000,"state":"active","ping":61},{"user_id":474,"name":"axfty","steam_id":76561198000359738,"connected_time":723000000000,"state":"active","ping":82},{"user_id":488,"name":"GLEEKY","steam_id":76561198287245599,"connected_time":26000000000,"state":"active","ping":85},{"user_id":473,"name":"Ch4rl33","steam_id":76561198037008621,"connected_time":752000000000,"state":"active","ping":63},{"user_id":484,"name":"Zelohs","steam_id":76561198177899722,"connected_time":534000000000,"state":"active","ping":63},{"user_id":437,"name":"sleepy","steam_id":76561198450003554,"connected_time":3578000000000,"state":"active","ping":70},{"user_id":427,"name":"Big Thrust","steam_id":76561198038173702,"connected_time":4320000000000,"state":"active","ping":78},{"user_id":489,"name":"Homosimpian","steam_id":76561198130055653,"connected_time":18000000000,"state":"active","ping":86},{"user_id":481,"name":"toq","steam_id":76561198400316620,"connected_time":628000000000,"state":"active","ping":73},{"user_id":458,"name":"Owl Pacino","steam_id":76561197979970666,"connected_time":2729000000000,"state":"active","ping":68},{"user_id":490,"name":"LARGE","steam_id":76561198124583948,"connected_time":14000000000,"state":"spawning","ping":93},{"user_id":469,"name":"t.tv/ibbKitty∑:3","steam_id":76561198110858518,"connected_time":1229000000000,"state":"active","ping":44}]},{"server_id":14,"name":"Uncletopia | New York City | 2 | All Maps","name_short":"nyc-2","host":"nyc-1.us.uncletopia.com","port":27025,"enabled":true,"region":"us-east","cc":"us","latitude":40.73061,"longitude":-73.93524,"reserved":0,"last_update":"0001-01-01T00:00:00Z","name_a2s":"Uncletopia | New York City | 2 | All Maps","protocol":17,"map":"koth_cascade","folder":"tf","game":"Team Fortress","app_id":440,"player_count":24,"max_players":24,"Bots":0,"server_type":"Dedicated","server_os":"Linux","password":true,"vac":true,"version":"7695204","steam_id":85568392924469994,"keywords":["cp","nocrits","nodmgspread","uncletopia"],"game_id":440,"stv_port":27026,"stv_name":"Uncletopia | New York City | 2 | All Maps | STV","players":[{"user_id":328,"name":"Karma","steam_id":76561198030565234,"connected_time":3977000000000,"state":"active","ping":48},{"user_id":375,"name":"Devious","steam_id":76561198160206743,"connected_time":1358000000000,"state":"active","ping":83},{"user_id":391,"name":"Fuzzy Toast","steam_id":76561198028067781,"connected_time":340000000000,"state":"active","ping":59},{"user_id":339,"name":"JoCaleb02","steam_id":76561198272389829,"connected_time":3047000000000,"state":"active","ping":76},{"user_id":390,"name":"Gibby","steam_id":76561199336569123,"connected_time":426000000000,"state":"active","ping":181},{"user_id":361,"name":"yitz","steam_id":76561198375575841,"connected_time":1567000000000,"state":"active","ping":73},{"user_id":354,"name":"Kivertsy","steam_id":76561199162661290,"connected_time":2050000000000,"state":"active","ping":66},{"user_id":316,"name":"Hector Salamanca","steam_id":76561198093836635,"connected_time":5069000000000,"state":"active","ping":112},{"user_id":368,"name":"Johnny Esports","steam_id":76561198115812405,"connected_time":1502000000000,"state":"active","ping":70},{"user_id":395,"name":"banjo","steam_id":76561199263719064,"connected_time":41000000000,"state":"active","ping":54},{"user_id":381,"name":"breathingtrees","steam_id":76561198118931690,"connected_time":1188000000000,"state":"active","ping":59},{"user_id":342,"name":"Little Leo","steam_id":76561198018280180,"connected_time":2950000000000,"state":"active","ping":54},{"user_id":357,"name":"King Wizard","steam_id":76561198156049731,"connected_time":1887000000000,"state":"active","ping":79},{"user_id":369,"name":"Bart simpson","steam_id":76561198380666998,"connected_time":1499000000000,"state":"active","ping":93},{"user_id":273,"name":"RedNax","steam_id":76561198427967575,"connected_time":8125000000000,"state":"active","ping":95},{"user_id":377,"name":"moarN (no hoes arc)","steam_id":76561199048057457,"connected_time":1281000000000,"state":"active","ping":58},{"user_id":387,"name":"Gitta","steam_id":76561198108665909,"connected_time":741000000000,"state":"active","ping":95},{"user_id":374,"name":"anal princess","steam_id":76561198104682583,"connected_time":1409000000000,"state":"active","ping":62},{"user_id":372,"name":"alexiotron","steam_id":76561199082573729,"connected_time":1465000000000,"state":"active","ping":63},{"user_id":360,"name":"Bootes","steam_id":76561197968255551,"connected_time":1576000000000,"state":"active","ping":55},{"user_id":393,"name":"HornedAccomplice","steam_id":76561198171126347,"connected_time":201000000000,"state":"active","ping":75},{"user_id":358,"name":"✿ willing victim of a canniba","steam_id":76561198294013916,"connected_time":1683000000000,"state":"active","ping":41},{"user_id":389,"name":"Droopy","steam_id":76561198311784567,"connected_time":603000000000,"state":"active","ping":75},{"user_id":392,"name":"A Hard Boiled Egg","steam_id":76561197979078330,"connected_time":227000000000,"state":"active","ping":69}]},{"server_id":15,"name":"Uncletopia | New York City | 3 | All Maps","name_short":"nyc-3","host":"nyc-1.us.uncletopia.com","port":27035,"enabled":true,"region":"us-east","cc":"us","latitude":40.73061,"longitude":-73.93524,"reserved":0,"last_update":"0001-01-01T00:00:00Z","name_a2s":"Uncletopia | New York City | 3 | All Maps","protocol":17,"map":"koth_lakeside_final","folder":"tf","game":"Team Fortress","app_id":440,"player_count":0,"max_players":24,"Bots":0,"server_type":"Dedicated","server_os":"Linux","password":true,"vac":true,"version":"7695204","steam_id":85568392924742820,"keywords":["cp","nocrits","nodmgspread","uncletopia"],"game_id":440,"stv_port":27036,"stv_name":"Uncletopia | New York City | 3 | All Maps | STV","players":null},{"server_id":16,"name":"Uncletopia | New York City | 4 | Community","name_short":"nyc-4","host":"nyc-1.us.uncletopia.com","port":27045,"enabled":true,"region":"us-east","cc":"us","latitude":40.73061,"longitude":-73.93524,"reserved":0,"last_update":"0001-01-01T00:00:00Z","name_a2s":"Uncletopia | New York City | 4 | Community","protocol":17,"map":"workshop/cp_sulfur_rc2.ugc619869471","folder":"tf","game":"Team Fortress","app_id":440,"player_count":21,"max_players":24,"Bots":0,"server_type":"Dedicated","server_os":"Linux","password":true,"vac":true,"version":"7695204","steam_id":85568392924742821,"keywords":["cp","nocrits","nodmgspread","uncletopia"],"game_id":440,"stv_port":27046,"stv_name":"Uncletopia | New York City | 4 | Community | STV","players":[{"user_id":210,"name":"masterjioncooperyah","steam_id":76561198119090832,"connected_time":377000000000,"state":"active","ping":53},{"user_id":92,"name":"\"InsertWittyNameHere\"","steam_id":76561198273918841,"connected_time":7407000000000,"state":"active","ping":48},{"user_id":168,"name":"Duke Rasputin","steam_id":76561198091823164,"connected_time":2635000000000,"state":"active","ping":61},{"user_id":213,"name":"swooce","steam_id":76561198156232484,"connected_time":35000000000,"state":"spawning","ping":256},{"user_id":144,"name":"Rusted Cake","steam_id":76561198209755931,"connected_time":4289000000000,"state":"active","ping":104},{"user_id":112,"name":"crippling fumo addiction","steam_id":76561198115874625,"connected_time":5558000000000,"state":"active","ping":50},{"user_id":185,"name":"William Phigglebottom IV","steam_id":76561198437404353,"connected_time":1732000000000,"state":"active","ping":61},{"user_id":165,"name":"ForTheRecord","steam_id":76561199093732833,"connected_time":2888000000000,"state":"active","ping":91},{"user_id":155,"name":"wheeledcheese","steam_id":76561198398611901,"connected_time":3204000000000,"state":"active","ping":75},{"user_id":196,"name":"Floattube","steam_id":76561198005720144,"connected_time":1281000000000,"state":"active","ping":75},{"user_id":197,"name":"faxxy","steam_id":76561198079621240,"connected_time":1180000000000,"state":"active","ping":78},{"user_id":198,"name":"(✿ ◡ )","steam_id":76561199349244576,"connected_time":1148000000000,"state":"active","ping":96},{"user_id":187,"name":"cblu","steam_id":76561199207457676,"connected_time":1630000000000,"state":"active","ping":81},{"user_id":207,"name":"Rue","steam_id":76561198013135993,"connected_time":793000000000,"state":"active","ping":72},{"user_id":178,"name":"Normalux","steam_id":76561198293891426,"connected_time":2352000000000,"state":"active","ping":73},{"user_id":183,"name":"Tom","steam_id":76561198258980884,"connected_time":1964000000000,"state":"active","ping":121},{"user_id":204,"name":"goo addict","steam_id":76561198036108965,"connected_time":952000000000,"state":"active","ping":48},{"user_id":195,"name":"Xx_Savage_Twerks_xX","steam_id":76561198011665915,"connected_time":1346000000000,"state":"active","ping":55},{"user_id":203,"name":"i eat bees","steam_id":76561198125442804,"connected_time":961000000000,"state":"active","ping":70},{"user_id":175,"name":"Rx Auntie","steam_id":76561198051618393,"connected_time":2454000000000,"state":"active","ping":47},{"user_id":206,"name":"CougarHunter445","steam_id":76561198389342917,"connected_time":867000000000,"state":"active","ping":45}]},{"server_id":142,"name":"Uncletopia | São Paulo | 1 | All Maps","name_short":"sao-1","host":"sao-1.br.uncletopia.com","port":27015,"enabled":true,"region":"sa","cc":"br","latitude":-23.533773,"longitude":-46.62529,"reserved":0,"last_update":"0001-01-01T00:00:00Z","name_a2s":"Uncletopia | São Paulo | 1 | All Maps","protocol":17,"map":"cp_dustbowl","folder":"tf","game":"Team Fortress","app_id":440,"player_count":7,"max_players":24,"Bots":0,"server_type":"Dedicated","server_os":"Linux","password":true,"vac":true,"version":"7695204","steam_id":85568392924469996,"keywords":["cp","nocrits","nodmgspread","uncletopia"],"game_id":440,"stv_port":27016,"stv_name":"Uncletopia | São Paulo | 1 | All Maps | STV","players":[{"user_id":79,"name":"dramilos","steam_id":76561199103481922,"connected_time":200000000000,"state":"active","ping":70},{"user_id":78,"name":"Rodiza","steam_id":76561198069029324,"connected_time":532000000000,"state":"active","ping":32},{"user_id":69,"name":"Xomy' Haw","steam_id":76561198076474887,"connected_time":1639000000000,"state":"active","ping":52},{"user_id":80,"name":"Daelm","steam_id":76561198063381258,"connected_time":184000000000,"state":"active","ping":40},{"user_id":71,"name":"Dude McAwesome","steam_id":76561198078644281,"connected_time":1325000000000,"state":"active","ping":56},{"user_id":81,"name":"Edge","steam_id":76561198850405241,"connected_time":121000000000,"state":"active","ping":46},{"user_id":75,"name":"lilygata","steam_id":76561198042448105,"connected_time":1098000000000,"state":"active","ping":60}]},{"server_id":143,"name":"Uncletopia | São Paulo | 2 | All Maps","name_short":"sao-2","host":"sao-2.br.uncletopia.com","port":27015,"enabled":true,"region":"sa","cc":"br","latitude":-23.533773,"longitude":-46.62529,"reserved":0,"last_update":"0001-01-01T00:00:00Z","name_a2s":"Uncletopia | São Paulo | 2 | All Maps","protocol":17,"map":"koth_viaduct","folder":"tf","game":"Team Fortress","app_id":440,"player_count":24,"max_players":24,"Bots":0,"server_type":"Dedicated","server_os":"Linux","password":true,"vac":true,"version":"7695204","steam_id":85568392924485349,"keywords":["cp","nocrits","nodmgspread","uncletopia"],"game_id":440,"stv_port":27016,"stv_name":"Uncletopia | São Paulo | 2 | All Maps | STV","players":[{"user_id":284,"name":"Gogoyle50","steam_id":76561198148524228,"connected_time":5240000000000,"state":"active","ping":49},{"user_id":335,"name":"Gustavocoste","steam_id":76561198233692404,"connected_time":888000000000,"state":"active","ping":36},{"user_id":295,"name":"NenF | Yatosemtato","steam_id":76561199066360306,"connected_time":4297000000000,"state":"active","ping":79},{"user_id":333,"name":"Pan","steam_id":76561198161899287,"connected_time":906000000000,"state":"active","ping":81},{"user_id":307,"name":"Leo","steam_id":76561198146075321,"connected_time":4022000000000,"state":"active","ping":52},{"user_id":283,"name":"ayumi","steam_id":76561197977365746,"connected_time":5274000000000,"state":"active","ping":45},{"user_id":321,"name":"polaco","steam_id":76561198002562184,"connected_time":2332000000000,"state":"active","ping":53},{"user_id":332,"name":"leoextremo","steam_id":76561198867928520,"connected_time":1677000000000,"state":"active","ping":51},{"user_id":314,"name":"LULA ➀➂ ♥ ex-medicina UEA","steam_id":76561198245335750,"connected_time":3122000000000,"state":"active","ping":102},{"user_id":340,"name":"Besteirol Coruscant","steam_id":76561198354898457,"connected_time":811000000000,"state":"active","ping":42},{"user_id":306,"name":"SPYRYTTS","steam_id":76561197983312920,"connected_time":4114000000000,"state":"active","ping":64},{"user_id":344,"name":"Zoom!","steam_id":76561198289562649,"connected_time":566000000000,"state":"active","ping":44},{"user_id":244,"name":"mimimito","steam_id":76561198002565927,"connected_time":8523000000000,"state":"active","ping":36},{"user_id":290,"name":"Cherry Cupcake","steam_id":76561198012448942,"connected_time":5002000000000,"state":"active","ping":39},{"user_id":346,"name":"palmeri","steam_id":76561198276113571,"connected_time":401000000000,"state":"active","ping":41},{"user_id":347,"name":"too soon junior","steam_id":76561198044499885,"connected_time":394000000000,"state":"active","ping":48},{"user_id":334,"name":"ＥｎｄｅｒＮｅｃｒｏ","steam_id":76561198044304293,"connected_time":905000000000,"state":"active","ping":42},{"user_id":337,"name":"Ah lo que hizo roman","steam_id":76561198118782706,"connected_time":874000000000,"state":"active","ping":78},{"user_id":342,"name":"--LEMES--","steam_id":76561198029640827,"connected_time":697000000000,"state":"active","ping":58},{"user_id":262,"name":"V̴̢̘͕͛̒̓_Rupt","steam_id":76561198056688070,"connected_time":7377000000000,"state":"active","ping":50},{"user_id":348,"name":"Pr公道レース","steam_id":76561198976110673,"connected_time":366000000000,"state":"active","ping":71},{"user_id":343,"name":"Agepê","steam_id":76561198332577325,"connected_time":696000000000,"state":"active","ping":51},{"user_id":320,"name":"Flunkey","steam_id":76561198001239938,"connected_time":2592000000000,"state":"active","ping":61},{"user_id":207,"name":"Heisenmatt","steam_id":76561198308358530,"connected_time":10885000000000,"state":"active","ping":53}]},{"server_id":7,"name":"Uncletopia | Seattle | 1 | All Maps","name_short":"sea-1","host":"sea-1.us.uncletopia.com","port":27015,"enabled":true,"region":"us-west","cc":"us","latitude":47.608013,"longitude":-122.33517,"reserved":0,"last_update":"0001-01-01T00:00:00Z","name_a2s":"Uncletopia | Seattle | 1 | All Maps","protocol":17,"map":"pl_barnblitz","folder":"tf","game":"Team Fortress","app_id":440,"player_count":24,"max_players":24,"Bots":0,"server_type":"Dedicated","server_os":"Linux","password":true,"vac":true,"version":"7695204","steam_id":85568392924469997,"keywords":["nocrits","nodmgspread","payload","uncletopia"],"game_id":440,"stv_port":27016,"stv_name":"Uncletopia | Seattle | 1 | All Maps | STV","players":[{"user_id":199,"name":"Shah","steam_id":76561198047508851,"connected_time":205000000000,"state":"active","ping":46},{"user_id":181,"name":"holiday enthusiast","steam_id":76561197993919776,"connected_time":2104000000000,"state":"active","ping":47},{"user_id":179,"name":"Sir_Gooseingham","steam_id":76561198179607561,"connected_time":2301000000000,"state":"active","ping":73},{"user_id":170,"name":"kenZino","steam_id":76561197967971192,"connected_time":2889000000000,"state":"active","ping":45},{"user_id":196,"name":"Capt on PC","steam_id":76561198396814154,"connected_time":478000000000,"state":"active","ping":82},{"user_id":182,"name":"TROY","steam_id":76561197983852176,"connected_time":1984000000000,"state":"active","ping":75},{"user_id":94,"name":"fL0","steam_id":76561197990989939,"connected_time":9022000000000,"state":"active","ping":47},{"user_id":186,"name":"drive","steam_id":76561198041818185,"connected_time":1013000000000,"state":"active","ping":111},{"user_id":138,"name":"Tom Skirrett","steam_id":76561198014600788,"connected_time":6674000000000,"state":"active","ping":72},{"user_id":183,"name":"cheddabob","steam_id":76561198993259948,"connected_time":1698000000000,"state":"active","ping":56},{"user_id":187,"name":"J U K I E","steam_id":76561197962841151,"connected_time":1007000000000,"state":"active","ping":56},{"user_id":166,"name":"Level 99 Mudcrab","steam_id":76561198077452771,"connected_time":3564000000000,"state":"active","ping":59},{"user_id":188,"name":"TheGamingofGaming","steam_id":76561199187061344,"connected_time":988000000000,"state":"active","ping":123},{"user_id":185,"name":"Salazar9","steam_id":76561198049903973,"connected_time":1601000000000,"state":"active","ping":53},{"user_id":158,"name":"Sweatpants","steam_id":76561198097188001,"connected_time":5095000000000,"state":"active","ping":53},{"user_id":189,"name":"zinnk","steam_id":76561198092081825,"connected_time":938000000000,"state":"active","ping":75},{"user_id":200,"name":"A Z U R E","steam_id":76561198799958027,"connected_time":145000000000,"state":"active","ping":46},{"user_id":198,"name":"Skarp129","steam_id":76561198108679057,"connected_time":216000000000,"state":"active","ping":71},{"user_id":194,"name":"Can of Oranges","steam_id":76561199121813529,"connected_time":685000000000,"state":"active","ping":44},{"user_id":191,"name":"Dimple","steam_id":76561198980324190,"connected_time":917000000000,"state":"active","ping":65},{"user_id":201,"name":"Common","steam_id":76561198041083863,"connected_time":4000000000,"state":"spawning","ping":45},{"user_id":195,"name":"yup","steam_id":76561199190800520,"connected_time":672000000000,"state":"active","ping":44},{"user_id":159,"name":"azureglxy","steam_id":76561198861388315,"connected_time":5003000000000,"state":"active","ping":75},{"user_id":193,"name":"packlord","steam_id":76561198118644686,"connected_time":902000000000,"state":"active","ping":88}]},{"server_id":119,"name":"Uncletopia | Seattle | 2 | All Maps","name_short":"sea-2","host":"sea-1.us.uncletopia.com","port":27025,"enabled":true,"region":"us-west","cc":"us","latitude":47.608013,"longitude":-122.33517,"reserved":0,"last_update":"0001-01-01T00:00:00Z","name_a2s":"Uncletopia | Seattle | 2 | All Maps","protocol":17,"map":"pl_barnblitz","folder":"tf","game":"Team Fortress","app_id":440,"player_count":21,"max_players":24,"Bots":0,"server_type":"Dedicated","server_os":"Linux","password":true,"vac":true,"version":"7695204","steam_id":85568392924469998,"keywords":["nocrits","nodmgspread","payload","uncletopia"],"game_id":440,"stv_port":27026,"stv_name":"Uncletopia | Seattle | 2 | All Maps | STV","players":[{"user_id":330,"name":"exephur","steam_id":76561198135763234,"connected_time":496000000000,"state":"active","ping":60},{"user_id":294,"name":"purplediddykong","steam_id":76561198044718465,"connected_time":3521000000000,"state":"active","ping":96},{"user_id":307,"name":"DrD","steam_id":76561198067266383,"connected_time":2357000000000,"state":"active","ping":36},{"user_id":332,"name":"Steve","steam_id":76561198352805460,"connected_time":12000000000,"state":"active","ping":66},{"user_id":321,"name":"asterismz","steam_id":76561198271895997,"connected_time":1053000000000,"state":"active","ping":55},{"user_id":331,"name":"Pneumo.","steam_id":76561197987911883,"connected_time":133000000000,"state":"active","ping":52},{"user_id":235,"name":"IgroSome","steam_id":76561198325586557,"connected_time":7862000000000,"state":"active","ping":66},{"user_id":248,"name":"dust","steam_id":76561198045218909,"connected_time":6767000000000,"state":"active","ping":44},{"user_id":276,"name":"Level 2 Fat Scout (KaiserArc)","steam_id":76561198201702142,"connected_time":4423000000000,"state":"active","ping":63},{"user_id":327,"name":"Jerry Bondle","steam_id":76561198337512213,"connected_time":721000000000,"state":"active","ping":106},{"user_id":291,"name":"ubiquitous man","steam_id":76561198073782350,"connected_time":3668000000000,"state":"active","ping":126},{"user_id":329,"name":"dodecadron","steam_id":76561198027397222,"connected_time":690000000000,"state":"active","ping":57},{"user_id":324,"name":"Grnny","steam_id":76561198115699456,"connected_time":821000000000,"state":"active","ping":89},{"user_id":310,"name":"Ohio feet tickling bandit","steam_id":76561199158397833,"connected_time":1905000000000,"state":"active","ping":107},{"user_id":326,"name":"Kafe","steam_id":76561198978781762,"connected_time":729000000000,"state":"active","ping":76},{"user_id":313,"name":"The Super Mario Bros. Movie","steam_id":76561198871692156,"connected_time":1620000000000,"state":"active","ping":64},{"user_id":318,"name":"ki3ly4","steam_id":76561198249172818,"connected_time":1229000000000,"state":"active","ping":121},{"user_id":319,"name":"LoneSnowtroop","steam_id":76561198401141370,"connected_time":1185000000000,"state":"active","ping":91},{"user_id":320,"name":"PorgyPork","steam_id":76561198824399078,"connected_time":1109000000000,"state":"active","ping":45},{"user_id":300,"name":"ZenithWhoExists","steam_id":76561198926477288,"connected_time":3202000000000,"state":"active","ping":51},{"user_id":316,"name":"The mook","steam_id":76561198963551905,"connected_time":1556000000000,"state":"active","ping":121}]},{"server_id":17,"name":"Uncletopia | San Francisco | 1 | All Maps","name_short":"sfo-1","host":"sfo-1.us.uncletopia.com","port":27015,"enabled":true,"region":"us-west","cc":"us","latitude":37.77397,"longitude":-122.4313,"reserved":0,"last_update":"0001-01-01T00:00:00Z","name_a2s":"Uncletopia | San Francisco | 1 | All Maps","protocol":17,"map":"pl_barnblitz","folder":"tf","game":"Team Fortress","app_id":440,"player_count":24,"max_players":24,"Bots":0,"server_type":"Dedicated","server_os":"Linux","password":true,"vac":true,"version":"7695204","steam_id":85568392924469999,"keywords":["nocrits","nodmgspread","payload","uncletopia"],"game_id":440,"stv_port":27016,"stv_name":"Uncletopia | San Francisco | 1 | All Maps | STV","players":[{"user_id":567,"name":"Chef","steam_id":76561198037041957,"connected_time":138000000000,"state":"active","ping":51},{"user_id":483,"name":"Ngsterson","steam_id":76561198162108154,"connected_time":5548000000000,"state":"active","ping":62},{"user_id":462,"name":"ULTRAHORRAN","steam_id":76561198126029630,"connected_time":6766000000000,"state":"active","ping":115},{"user_id":537,"name":"sock","steam_id":76561199117597830,"connected_time":1033000000000,"state":"active","ping":98},{"user_id":467,"name":"June","steam_id":76561198141803658,"connected_time":6597000000000,"state":"active","ping":59},{"user_id":542,"name":"Many Bees' Chilling","steam_id":76561198079641282,"connected_time":897000000000,"state":"active","ping":84},{"user_id":543,"name":"ManOfKazoo","steam_id":76561198869485901,"connected_time":882000000000,"state":"active","ping":105},{"user_id":521,"name":"corbenis","steam_id":76561199012442511,"connected_time":2314000000000,"state":"active","ping":62},{"user_id":544,"name":"boccci","steam_id":76561198078954756,"connected_time":878000000000,"state":"active","ping":83},{"user_id":556,"name":"Misclick","steam_id":76561198050855911,"connected_time":390000000000,"state":"active","ping":85},{"user_id":565,"name":"Sad Sapling","steam_id":76561198075612150,"connected_time":164000000000,"state":"active","ping":59},{"user_id":545,"name":"Back with the milk","steam_id":76561199020105501,"connected_time":854000000000,"state":"active","ping":130},{"user_id":513,"name":"Sir Nope (TSS)","steam_id":76561198035935649,"connected_time":2583000000000,"state":"active","ping":56},{"user_id":559,"name":"kopirate","steam_id":76561198170448097,"connected_time":334000000000,"state":"active","ping":83},{"user_id":555,"name":"Herr Müller","steam_id":76561198064876829,"connected_time":589000000000,"state":"active","ping":126},{"user_id":564,"name":"RobloxFan2016","steam_id":76561198864845171,"connected_time":193000000000,"state":"active","ping":67},{"user_id":566,"name":"Strange Potato","steam_id":76561199059013304,"connected_time":156000000000,"state":"active","ping":63},{"user_id":481,"name":"Genius Meme","steam_id":76561198162911254,"connected_time":5750000000000,"state":"active","ping":80},{"user_id":550,"name":"Punished Jඞff #NeverSimpAgain","steam_id":76561198304252584,"connected_time":781000000000,"state":"active","ping":61},{"user_id":562,"name":"OrangeShoes","steam_id":76561197971249940,"connected_time":316000000000,"state":"active","ping":102},{"user_id":552,"name":"A UsedNom","steam_id":76561198402832756,"connected_time":756000000000,"state":"active","ping":47},{"user_id":553,"name":"ALBERTANOLAGUNA","steam_id":76561198010609813,"connected_time":705000000000,"state":"active","ping":62},{"user_id":563,"name":"TheOtherBrush","steam_id":76561199048222977,"connected_time":308000000000,"state":"active","ping":62},{"user_id":569,"name":"trix","steam_id":76561198982584470,"connected_time":36000000000,"state":"active","ping":104}]},{"server_id":18,"name":"Uncletopia | San Francisco | 2 | All Maps","name_short":"sfo-2","host":"sfo-1.us.uncletopia.com","port":27025,"enabled":true,"region":"us-west","cc":"us","latitude":37.77397,"longitude":-122.4313,"reserved":0,"last_update":"0001-01-01T00:00:00Z","name_a2s":"Uncletopia | San Francisco | 2 | All Maps","protocol":17,"map":"koth_lakeside_final","folder":"tf","game":"Team Fortress","app_id":440,"player_count":0,"max_players":24,"Bots":0,"server_type":"Dedicated","server_os":"Linux","password":true,"vac":true,"version":"7695204","steam_id":85568392924470000,"keywords":["cp","nocrits","nodmgspread","uncletopia"],"game_id":440,"stv_port":27026,"stv_name":"Uncletopia | San Francisco | 2 | All Maps | STV","players":null},{"server_id":19,"name":"Uncletopia | San Francisco | 3 | No Payload","name_short":"sfo-3","host":"sfo-1.us.uncletopia.com","port":27035,"enabled":true,"region":"us-west","cc":"us","latitude":37.77397,"longitude":-122.4313,"reserved":0,"last_update":"0001-01-01T00:00:00Z","name_a2s":"Uncletopia | San Francisco | 3 | No Payload","protocol":17,"map":"ctf_well","folder":"tf","game":"Team Fortress","app_id":440,"player_count":0,"max_players":24,"Bots":0,"server_type":"Dedicated","server_os":"Linux","password":true,"vac":true,"version":"7695204","steam_id":85568392924742824,"keywords":["ctf","nocrits","nodmgspread","uncletopia"],"game_id":440,"stv_port":27036,"stv_name":"Uncletopia | San Francisco | 3 | No Payload | STV","players":null},{"server_id":20,"name":"Uncletopia | San Francisco | 4 | Community","name_short":"sfo-4","host":"sfo-1.us.uncletopia.com","port":27045,"enabled":true,"region":"us-west","cc":"us","latitude":37.77397,"longitude":-122.4313,"reserved":0,"last_update":"0001-01-01T00:00:00Z","name_a2s":"Uncletopia | San Francisco | 4 | Community","protocol":17,"map":"koth_highpass","folder":"tf","game":"Team Fortress","app_id":440,"player_count":0,"max_players":24,"Bots":0,"server_type":"Dedicated","server_os":"Linux","password":true,"vac":true,"version":"7695204","steam_id":85568392924742826,"keywords":["cp","nocrits","nodmgspread","uncletopia"],"game_id":440,"stv_port":0,"stv_name":"","players":null},{"server_id":141,"name":"Uncletopia | Sydney | 1 | All Maps","name_short":"syd-1","host":"syd-1.au.uncletopia.com","port":27015,"enabled":true,"region":"au","cc":"au","latitude":-33.865143,"longitude":151.2099,"reserved":0,"last_update":"0001-01-01T00:00:00Z","name_a2s":"Uncletopia | Sydney | 1 | All Maps","protocol":17,"map":"pl_snowycoast","folder":"tf","game":"Team Fortress","app_id":440,"player_count":6,"max_players":24,"Bots":0,"server_type":"Dedicated","server_os":"Linux","password":true,"vac":true,"version":"7695204","steam_id":85568392924470001,"keywords":["nocrits","nodmgspread","payload","uncletopia"],"game_id":440,"stv_port":27016,"stv_name":"Uncletopia | Sydney | 1 | All Maps | STV","players":[{"user_id":32,"name":"Pomson Mann","steam_id":76561198841932913,"connected_time":342000000000,"state":"active","ping":75},{"user_id":4,"name":"cakey","steam_id":76561198173746761,"connected_time":6829000000000,"state":"active","ping":45},{"user_id":33,"name":"michael","steam_id":76561198052848358,"connected_time":337000000000,"state":"active","ping":56},{"user_id":31,"name":"Humorvoll","steam_id":76561199231517992,"connected_time":1189000000000,"state":"active","ping":302},{"user_id":13,"name":"Mr.pringle","steam_id":76561199224066095,"connected_time":5805000000000,"state":"active","ping":348},{"user_id":34,"name":"Alicia ♥","steam_id":76561198241303512,"connected_time":247000000000,"state":"active","ping":52}]},{"server_id":123,"name":"Uncletopia | Sydney | 2 | All Maps","name_short":"syd-2","host":"syd-1.au.uncletopia.com","port":27025,"enabled":true,"region":"au","cc":"au","latitude":-33.865143,"longitude":151.2099,"reserved":0,"last_update":"0001-01-01T00:00:00Z","name_a2s":"Uncletopia | Sydney | 2 | All Maps","protocol":17,"map":"cp_process_final","folder":"tf","game":"Team Fortress","app_id":440,"player_count":0,"max_players":24,"Bots":0,"server_type":"Dedicated","server_os":"Linux","password":true,"vac":true,"version":"7695204","steam_id":85568392924470002,"keywords":["cp","nocrits","nodmgspread","uncletopia"],"game_id":440,"stv_port":0,"stv_name":"","players":null},{"server_id":395,"name":"Uncletopia | Sydney | 3 | All Maps","name_short":"syd-3","host":"syd-1.au.uncletopia.com","port":27035,"enabled":true,"region":"au","cc":"au","latitude":-33.865143,"longitude":151.2099,"reserved":0,"last_update":"0001-01-01T00:00:00Z","name_a2s":"Uncletopia | Sydney | 3 | All Maps","protocol":17,"map":"cp_sunshine","folder":"tf","game":"Team Fortress","app_id":440,"player_count":0,"max_players":24,"Bots":0,"server_type":"Dedicated","server_os":"Linux","password":true,"vac":true,"version":"7695204","steam_id":85568392925194467,"keywords":["cp","nocrits","nodmgspread","uncletopia"],"game_id":440,"stv_port":27036,"stv_name":"Uncletopia | Sydney | 3 | All Maps | STV","players":null},{"server_id":396,"name":"Uncletopia | Sydney | 4 | All Maps","name_short":"syd-4","host":"syd-1.au.uncletopia.com","port":27045,"enabled":true,"region":"au","cc":"au","latitude":-33.865143,"longitude":151.2099,"reserved":0,"last_update":"0001-01-01T00:00:00Z","name_a2s":"Uncletopia | Sydney | 4 | All Maps","protocol":17,"map":"pl_swiftwater_final1","folder":"tf","game":"Team Fortress","app_id":440,"player_count":0,"max_players":24,"Bots":0,"server_type":"Dedicated","server_os":"Linux","password":true,"vac":true,"version":"7695204","steam_id":85568392925397958,"keywords":["nocrits","nodmgspread","payload","uncletopia"],"game_id":440,"stv_port":0,"stv_name":"","players":null},{"server_id":58,"name":"Uncletopia | Sydney | 5 | No Payload","name_short":"syd-5","host":"syd-1.au.uncletopia.com","port":27055,"enabled":true,"region":"au","cc":"au","latitude":-33.865143,"longitude":151.2099,"reserved":0,"last_update":"0001-01-01T00:00:00Z","name_a2s":"Uncletopia | Sydney | 5 | No Payload","protocol":17,"map":"koth_viaduct","folder":"tf","game":"Team Fortress","app_id":440,"player_count":0,"max_players":24,"Bots":0,"server_type":"Dedicated","server_os":"Linux","password":true,"vac":true,"version":"7695204","steam_id":85568392925397959,"keywords":["cp","nocrits","nodmgspread","uncletopia"],"game_id":440,"stv_port":0,"stv_name":"","players":null},{"server_id":59,"name":"Uncletopia | Sydney | 6 | Community","name_short":"syd-6","host":"syd-1.au.uncletopia.com","port":27065,"enabled":true,"region":"au","cc":"au","latitude":-33.865143,"longitude":151.2099,"reserved":0,"last_update":"0001-01-01T00:00:00Z","name_a2s":"Uncletopia | Sydney | 6 | Community","protocol":17,"map":"workshop/cp_logjam_rc12.ugc454812035","folder":"tf","game":"Team Fortress","app_id":440,"player_count":0,"max_players":24,"Bots":0,"server_type":"Dedicated","server_os":"Linux","password":true,"vac":true,"version":"7695204","steam_id":85568392925397960,"keywords":["cp","nocrits","nodmgspread","uncletopia"],"game_id":440,"stv_port":27066,"stv_name":"Uncletopia | Sydney | 6 | Community | STV","players":null},{"server_id":49,"name":"Uncletopia | Warsaw | 1 | All Maps","name_short":"waw-1","host":"waw-1.pl.uncletopia.com","port":27015,"enabled":true,"region":"eu","cc":"pl","latitude":52.2297,"longitude":21.017532,"reserved":0,"last_update":"0001-01-01T00:00:00Z","name_a2s":"Uncletopia | Warsaw | 1 | All Maps","protocol":17,"map":"koth_viaduct","folder":"tf","game":"Team Fortress","app_id":440,"player_count":0,"max_players":24,"Bots":0,"server_type":"Dedicated","server_os":"Linux","password":true,"vac":true,"version":"7695204","steam_id":85568392925397850,"keywords":["cp","nocrits","nodmgspread","uncletopia"],"game_id":440,"stv_port":27016,"stv_name":"Uncletopia | Warsaw | 1 | All Maps | STV","players":null},{"server_id":50,"name":"Uncletopia | Warsaw | 2 | All Maps","name_short":"waw-2","host":"waw-1.pl.uncletopia.com","port":27025,"enabled":true,"region":"eu","cc":"pl","latitude":52.2297,"longitude":21.017532,"reserved":0,"last_update":"0001-01-01T00:00:00Z","name_a2s":"Uncletopia | Warsaw | 2 | All Maps","protocol":17,"map":"koth_highpass","folder":"tf","game":"Team Fortress","app_id":440,"player_count":0,"max_players":24,"Bots":0,"server_type":"Dedicated","server_os":"Linux","password":true,"vac":true,"version":"7695204","steam_id":85568392925397851,"keywords":["cp","nocrits","nodmgspread","uncletopia"],"game_id":440,"stv_port":27026,"stv_name":"Uncletopia | Warsaw | 2 | All Maps | STV","players":null},{"server_id":51,"name":"Uncletopia | Warsaw | 3 | All Maps","name_short":"waw-3","host":"waw-1.pl.uncletopia.com","port":27035,"enabled":true,"region":"eu","cc":"pl","latitude":52.2297,"longitude":21.017532,"reserved":0,"last_update":"0001-01-01T00:00:00Z","name_a2s":"Uncletopia | Warsaw | 3 | All Maps","protocol":17,"map":"koth_viaduct","folder":"tf","game":"Team Fortress","app_id":440,"player_count":0,"max_players":24,"Bots":0,"server_type":"Dedicated","server_os":"Linux","password":true,"vac":true,"version":"7695204","steam_id":85568392925397852,"keywords":["cp","nocrits","nodmgspread","uncletopia"],"game_id":440,"stv_port":27036,"stv_name":"Uncletopia | Warsaw | 3 | All Maps | STV","players":null},{"server_id":52,"name":"Uncletopia | Warsaw | 4 | All Maps","name_short":"waw-4","host":"waw-1.pl.uncletopia.com","port":27045,"enabled":true,"region":"eu","cc":"pl","latitude":52.2297,"longitude":21.017532,"reserved":0,"last_update":"0001-01-01T00:00:00Z","name_a2s":"Uncletopia | Warsaw | 4 | All Maps","protocol":17,"map":"pl_barnblitz","folder":"tf","game":"Team Fortress","app_id":440,"player_count":0,"max_players":24,"Bots":0,"server_type":"Dedicated","server_os":"Linux","password":true,"vac":true,"version":"7695204","steam_id":85568392925397853,"keywords":["nocrits","nodmgspread","payload","uncletopia"],"game_id":440,"stv_port":27046,"stv_name":"Uncletopia | Warsaw | 4 | All Maps | STV","players":null},{"server_id":53,"name":"Uncletopia | Warsaw | 5 | No Payload","name_short":"waw-5","host":"waw-1.pl.uncletopia.com","port":27055,"enabled":true,"region":"eu","cc":"pl","latitude":52.2297,"longitude":21.017532,"reserved":0,"last_update":"0001-01-01T00:00:00Z","name_a2s":"Uncletopia | Warsaw | 5 | No Payload","protocol":17,"map":"koth_highpass","folder":"tf","game":"Team Fortress","app_id":440,"player_count":0,"max_players":24,"Bots":0,"server_type":"Dedicated","server_os":"Linux","password":true,"vac":true,"version":"7695204","steam_id":85568392925397854,"keywords":["cp","nocrits","nodmgspread","uncletopia"],"game_id":440,"stv_port":27056,"stv_name":"Uncletopia | Warsaw | 5 | No Payload | STV","players":null},{"server_id":54,"name":"Uncletopia | Warsaw | 6 | Community","name_short":"waw-6","host":"waw-1.pl.uncletopia.com","port":27065,"enabled":true,"region":"eu","cc":"pl","latitude":52.2297,"longitude":21.017532,"reserved":0,"last_update":"0001-01-01T00:00:00Z","name_a2s":"Uncletopia | Warsaw | 6 | Community","protocol":17,"map":"workshop/rd_asteroid_redux_rc9.ugc2154902912","folder":"tf","game":"Team Fortress","app_id":440,"player_count":0,"max_players":24,"Bots":0,"server_type":"Dedicated","server_os":"Linux","password":true,"vac":true,"version":"7695204","steam_id":85568392925397856,"keywords":["beta","nocrits","nodmgspread","rd","uncletopia"],"game_id":440,"stv_port":27066,"stv_name":"Uncletopia | Warsaw | 6 | Community | STV","players":null}]}