{"status":true,"message":"","result":[{"server_id":9,"name":"Uncletopia | Atlanta | 1 | All Maps","name_short":"atl-1","host":"atl-1.us.uncletopia.com","port":27015,"enabled":true,"region":"us-east","cc":"us","latitude":33.753746,"longitude":-84.38633,"reserved":0,"last_update":"0001-01-01T00:00:00Z","name_a2s":"Uncletopia | Atlanta | 1 | All Maps","protocol":17,"map":"koth_viaduct","folder":"tf","game":"Team Fortress","app_id":440,"player_count":0,"max_players":24,"Bots":0,"server_type":"Dedicated","server_os":"Linux","password":true,"vac":true,"version":"7882260","steam_id":85568392924469982,"keywords":["cp","nocrits","nodmgspread","uncletopia"],"game_id":440,"stv_port":27016,"stv_name":"Uncletopia | Atlanta | 1 | All Maps | STV","players":null},{"server_id":104,"name":"Uncletopia | Atlanta | 2 | All Maps","name_short":"atl-2","host":"atl-1.us.uncletopia.com","port":27025,"enabled":true,"region":"us-east","cc":"us","latitude":33.753746,"longitude":-84.38633,"reserved":0,"last_update":"0001-01-01T00:00:00Z","name_a2s":"Uncletopia | Atlanta | 2 | All Maps","protocol":17,"map":"cp_process_final","folder":"tf","game":"Team Fortress","app_id":440,"player_count":0,"max_players":24,"Bots":0,"server_type":"Dedicated","server_os":"Linux","password":true,"vac":true,"version":"7882260","steam_id":85568392924469983,"keywords":["cp","nocrits","nodmgspread","uncletopia"],"game_id":440,"stv_port":27026,"stv_name":"Uncletopia | Atlanta | 2 | All Maps | STV","players":null},{"server_id":400,"name":"Uncletopia | Atlanta | 3 | Community","name_short":"atl-3","host":"atl-1.us.uncletopia.com","port":27035,"enabled":true,"region":"us-east","cc":"us","latitude":33.753746,"longitude":-84.38633,"reserved":0,"last_update":"0001-01-01T00:00:00Z","name_a2s":"Uncletopia | Atlanta | 3 | Community","protocol":17,"map":"workshop/pl_emerge_rc2.ugc888027758","folder":"tf","game":"Team Fortress","app_id":440,"player_count":0,"max_players":24,"Bots":0,"server_type":"Dedicated","server_os":"Linux","password":true,"vac":true,"version":"7882260","steam_id":85568392924515187,"keywords":["nocrits","nodmgspread","payload","uncletopia"],"game_id":440,"stv_port":27036,"stv_name":"Uncletopia | Atlanta | 3 | Community | STV","players":null},{"server_id":401,"name":"Uncletopia | Atlanta | 4 | No Payload","name_short":"atl-4","host":"atl-1.us.uncletopia.com","port":27045,"enabled":true,"region":"us-east","cc":"us","latitude":33.753746,"longitude":-84.38633,"reserved":0,"last_update":"0001-01-01T00:00:00Z","name_a2s":"","protocol":0,"map":"","folder":"","game":"","app_id":0,"player_count":0,"max_players":0,"Bots":0,"server_type":"","server_os":"","password":false,"vac":false,"version":"","steam_id":0,"keywords":null,"game_id":0,"stv_port":0,"stv_name":"","players":null},{"server_id":2,"name":"Uncletopia | Chicago | 1 | All Maps","name_short":"chi-1","host":"chi-1.us.uncletopia.com","port":27015,"enabled":true,"region":"us-central","cc":"us","latitude":41.881832,"longitude":-87.62318,"reserved":0,"last_update":"0001-01-01T00:00:00Z","name_a2s":"Uncletopia | Chicago | 1 | All Maps","protocol":17,"map":"pl_upward","folder":"tf","game":"Team Fortress","app_id":440,"player_count":5,"max_players":24,"Bots":0,"server_type":"Dedicated","server_os":"Linux","password":true,"vac":true,"version":"7882260","steam_id":85568392924469984,"keywords":["nocrits","nodmgspread","payload","uncletopia"],"game_id":440,"stv_port":27016,"stv_name":"Uncletopia | Chicago | 1 | All Maps | STV","players":[{"user_id":5,"name":"WatchWill","steam_id":76561198157237945,"connected_time":426000000000,"state":"active","ping":57},{"user_id":6,"name":"King Baldski","steam_id":76561198359568400,"connected_time":387000000000,"state":"active","ping":139},{"user_id":8,"name":"SecondCarpet","steam_id":76561199008323078,"connected_time":150000000000,"state":"active","ping":76},{"user_id":9,"name":"Putba009","steam_id":76561199203599489,"connected_time":111000000000,"state":"active","ping":199},{"user_id":10,"name":"AwesomeMissB","steam_id":76561199066244584,"connected_time":29000000000,"state":"active","ping":61}]},{"server_id":106,"name":"Uncletopia | Chicago | 2 | All Maps","name_short":"chi-2","host":"chi-1.us.uncletopia.com","port":27025,"enabled":true,"region":"us-central","cc":"us","latitude":41.881832,"longitude":-87.62318,"reserved":0,"last_update":"0001-01-01T00:00:00Z","name_a2s":"Uncletopia | Chicago | 2 | All Maps","protocol":17,"map":"pl_frontier_final","folder":"tf","game":"Team Fortress","app_id":440,"player_count":0,"max_players":24,"Bots":0,"server_type":"Dedicated","server_os":"Linux","password":true,"vac":true,"version":"7882260","steam_id":85568392924469985,"keywords":["nocrits","nodmgspread","payload","uncletopia"],"game_id":440,"stv_port":27026,"stv_name":"Uncletopia | Chicago | 2 | All Maps | STV","players":null},{"server_id":402,"name":"Uncletopia | Chicago | 3 | All Maps","name_short":"chi-3","host":"chi-1.us.uncletopia.com","port":27035,"enabled":true,"region":"us-central","cc":"us","latitude":41.881832,"longitude":-87.62318,"reserved":0,"last_update":"0001-01-01T00:00:00Z","name_a2s":"Uncletopia | Chicago | 3 | All Maps","protocol":17,"map":"pl_snowycoast","folder":"tf","game":"Team Fortress","app_id":440,"player_count":0,"max_players":24,"Bots":0,"server_type":"Dedicated","server_os":"Linux","password":true,"vac":true,"version":"7882260","steam_id":85568392924515191,"keywords":["nocrits","nodmgspread","payload","uncletopia"],"game_id":440,"stv_port":27036,"stv_name":"Uncletopia | Chicago | 3 | All Maps | STV","players":null},{"server_id":403,"name":"Uncletopia | Chicago | 4 | All Maps","name_short":"chi-4","host":"chi-1.us.uncletopia.com","port":27045,"enabled":true,"region":"us-central","cc":"us","latitude":41.881832,"longitude":-87.62318,"reserved":0,"last_update":"0001-01-01T00:00:00Z","name_a2s":"Uncletopia | Chicago | 4 | All Maps","protocol":17,"map":"koth_cascade","folder":"tf","game":"Team Fortress","app_id":440,"player_count":0,"max_players":24,"Bots":0,"server_type":"Dedicated","server_os":"Linux","password":true,"vac":true,"version":"7882260","steam_id":85568392924515193,"keywords":["cp","nocrits","nodmgspread","uncletopia"],"game_id":440,"stv_port":27046,"stv_name":"Uncletopia | Chicago | 4 | All Maps | STV","players":null},{"server_id":36,"name":"Uncletopia | Chicago | 5 | All Maps","name_short":"chi-5","host":"chi-2.us.uncletopia.com","port":27015,"enabled":true,"region":"us-central","cc":"us","latitude":41.881832,"longitude":-87.62318,"reserved":0,"last_update":"0001-01-01T00:00:00Z","name_a2s":"Uncletopia | Chicago | 5 | All Maps","protocol":17,"map":"pl_badwater","folder":"tf","game":"Team Fortress","app_id":440,"player_count":0,"max_players":24,"Bots":0,"server_type":"Dedicated","server_os":"Linux","password":true,"vac":true,"version":"7882260","steam_id":85568392924866362,"keywords":["nocrits","nodmgspread","payload","uncletopia"],"game_id":440,"stv_port":27016,"stv_name":"Uncletopia | Chicago | 5 | All Maps | STV","players":null},{"server_id":37,"name":"Uncletopia | Chicago | 6 | All Maps","name_short":"chi-6","host":"chi-2.us.uncletopia.com","port":27025,"enabled":true,"region":"us-central","cc":"us","latitude":41.881832,"longitude":-87.62318,"reserved":0,"last_update":"0001-01-01T00:00:00Z","name_a2s":"Uncletopia | Chicago | 6 | All Maps","protocol":17,"map":"pl_swiftwater_final1","folder":"tf","game":"Team Fortress","app_id":440,"player_count":24,"max_players":24,"Bots":0,"server_type":"Dedicated","server_os":"Linux","password":true,"vac":true,"version":"7882260","steam_id":85568392924866363,"keywords":["nocrits","nodmgspread","payload","uncletopia"],"game_id":440,"stv_port":27026,"stv_name":"Uncletopia | Chicago | 6 | All Maps | STV","players":[{"user_id":140,"name":"Soda Drink Shartblast","steam_id":76561198134187113,"connected_time":817000000000,"state":"active","ping":83},{"user_id":122,"name":"Demoman With One Joke","steam_id":76561197993467034,"connected_time":1873000000000,"state":"active","ping":47},{"user_id":136,"name":"Lynx181","steam_id":76561198090949585,"connected_time":1097000000000,"state":"active","ping":47},{"user_id":132,"name":"Huey","steam_id":76561198972816386,"connected_time":1344000000000,"state":"active","ping":76},{"user_id":83,"name":"floom","steam_id":76561198387571809,"connected_time":5268000000000,"state":"active","ping":70},{"user_id":131,"name":"Epifiny","steam_id":76561198027958086,"connected_time":1601000000000,"state":"active","ping":63},{"user_id":137,"name":"PerpetuaForever","steam_id":76561198347444353,"connected_time":1087000000000,"state":"active","ping":71},{"user_id":145,"name":"sassy loli","steam_id":76561198402316065,"connected_time":166000000000,"state":"active","ping":90},{"user_id":115,"name":"Dr. Chad Feelgood","steam_id":76561198454077219,"connected_time":2607000000000,"state":"active","ping":61},{"user_id":135,"name":"Sartupial","steam_id":76561198443169940,"connected_time":1109000000000,"state":"active","ping":67},{"user_id":114,"name":"Mashi","steam_id":76561198027871223,"connected_time":2703000000000,"state":"active","ping":73},{"user_id":134,"name":"Amaxeme","steam_id":76561199069780237,"connected_time":1114000000000,"state":"active","ping":79},{"user_id":133,"name":"Saschuh","steam_id":76561198202188972,"connected_time":1191000000000,"state":"active","ping":74},{"user_id":144,"name":"Krono","steam_id":76561198263071902,"connected_time":194000000000,"state":"active","ping":124},{"user_id":111,"name":"Tyler\u0026Fingers","steam_id":76561198085154485,"connected_time":2908000000000,"state":"active","ping":87},{"user_id":101,"name":";^)","steam_id":76561198269497358,"connected_time":3145000000000,"state":"active","ping":88},{"user_id":142,"name":"kingjeffry2012@hotmail.com","steam_id":76561198314104415,"connected_time":632000000000,"state":"active","ping":71},{"user_id":104,"name":"dopadream","steam_id":76561198068383694,"connected_time":3139000000000,"state":"active","ping":79},{"user_id":138,"name":"Toxic Medic Main (he/they)","steam_id":76561198009314845,"connected_time":1072000000000,"state":"active","ping":111},{"user_id":120,"name":"PadrePockets","steam_id":76561197993251606,"connected_time":1889000000000,"state":"active","ping":75},{"user_id":84,"name":"Luca!","steam_id":76561198137880777,"connected_time":5238000000000,"state":"active","ping":76},{"user_id":143,"name":"LVL 4 Dispenser Gaming","steam_id":76561198044244547,"connected_time":327000000000,"state":"active","ping":82},{"user_id":141,"name":"Golden","steam_id":76561199128320581,"connected_time":794000000000,"state":"active","ping":94},{"user_id":94,"name":"Darling","steam_id":76561198127525888,"connected_time":4037000000000,"state":"active","ping":75}]},{"server_id":38,"name":"Uncletopia | Chicago | 7 | Stopwatch Beta","name_short":"chi-7","host":"chi-2.us.uncletopia.com","port":27035,"enabled":true,"region":"us-central","cc":"us","latitude":41.881832,"longitude":-87.62318,"reserved":0,"last_update":"0001-01-01T00:00:00Z","name_a2s":"Uncletopia | Chicago | 7 | Stopwatch Beta","protocol":17,"map":"pl_borneo","folder":"tf","game":"Team Fortress","app_id":440,"player_count":0,"max_players":24,"Bots":0,"server_type":"Dedicated","server_os":"Linux","password":true,"vac":true,"version":"7882260","steam_id":85568392924866364,"keywords":["nocrits","nodmgspread","payload","uncletopia"],"game_id":440,"stv_port":27036,"stv_name":"Uncletopia | Chicago | 7 | Stopwatch Beta | STV","players":null},{"server_id":39,"name":"Uncletopia | Chicago | 8 | Community","name_short":"chi-8","host":"chi-2.us.uncletopia.com","port":27045,"enabled":true,"region":"us-central","cc":"us","latitude":41.881832,"longitude":-87.62318,"reserved":0,"last_update":"0001-01-01T00:00:00Z","name_a2s":"Uncletopia | Chicago | 8 | Community","protocol":17,"map":"workshop/koth_ashville_final.ugc2130459942","folder":"tf","game":"Team Fortress","app_id":440,"player_count":0,"max_players":24,"Bots":0,"server_type":"Dedicated","server_os":"Linux","password":true,"vac":true,"version":"7882260","steam_id":85568392924866365,"keywords":["cp","nocrits","nodmgspread","uncletopia"],"game_id":440,"stv_port":27046,"stv_name":"Uncletopia | Chicago | 8 | Community | STV","players":null},{"server_id":8,"name":"Uncletopia | Dallas | 1 | All Maps","name_short":"dal-1","host":"dal-1.us.uncletopia.com","port":27015,"enabled":true,"region":"us-central","cc":"us","latitude":32.779167,"longitude":-96.80889,"reserved":0,"last_update":"0001-01-01T00:00:00Z","name_a2s":"Uncletopia | Dallas | 1 | All Maps","protocol":17,"map":"cp_altitude","folder":"tf","game":"Team Fortress","app_id":440,"player_count":0,"max_players":24,"Bots":0,"server_type":"Dedicated","server_os":"Linux","password":true,"vac":true,"version":"7882260","steam_id":85568392924469986,"keywords":["cp","nocrits","nodmgspread","uncletopia"],"game_id":440,"stv_port":27016,"stv_name":"Uncletopia | Dallas | 1 | All Maps | STV","players":null},{"server_id":108,"name":"Uncletopia | Dallas | 2 | All Maps","name_short":"dal-2","host":"dal-1.us.uncletopia.com","port":27025,"enabled":true,"region":"us-central","cc":"us","latitude":32.779167,"longitude":-96.80889,"reserved":0,"last_update":"0001-01-01T00:00:00Z","name_a2s":"Uncletopia | Dallas | 2 | All Maps","protocol":17,"map":"cp_mountainlab","folder":"tf","game":"Team Fortress","app_id":440,"player_count":0,"max_players":24,"Bots":0,"server_type":"Dedicated","server_os":"Linux","password":true,"vac":true,"version":"7882260","steam_id":85568392924469988,"keywords":["cp","nocrits","nodmgspread","uncletopia"],"game_id":440,"stv_port":27026,"stv_name":"Uncletopia | Dallas | 2 | All Maps | STV","players":null},{"server_id":5,"name":"Uncletopia | Frankfurt | 1 | All Maps","name_short":"frk-1","host":"frk-1.de.uncletopia.com","port":27015,"enabled":true,"region":"eu","cc":"de","latitude":50.110924,"longitude":8.682127,"reserved":0,"last_update":"0001-01-01T00:00:00Z","name_a2s":"Uncletopia | Frankfurt | 1 | All Maps","protocol":17,"map":"cp_process_final","folder":"tf","game":"Team Fortress","app_id":440,"player_count":24,"max_players":24,"Bots":0,"server_type":"Dedicated","server_os":"Linux","password":true,"vac":true,"version":"7882260","steam_id":85568392924469989,"keywords":["cp","nocrits","nodmgspread","uncletopia"],"game_id":440,"stv_port":27016,"stv_name":"Uncletopia | Frankfurt | 1 | All Maps | STV","players":[{"user_id":156,"name":"Uncle Ryo","steam_id":76561198008733234,"connected_time":1253000000000,"state":"active","ping":74},{"user_id":167,"name":"Derotzka","steam_id":76561198009322611,"connected_time":457000000000,"state":"active","ping":59},{"user_id":174,"name":"Der_Milchmann","steam_id":76561198001417748,"connected_time":71000000000,"state":"active","ping":56},{"user_id":150,"name":"す LightFlight し","steam_id":76561198079007530,"connected_time":1405000000000,"state":"active","ping":61},{"user_id":169,"name":"Chukie Dan 4589","steam_id":76561198941741988,"connected_time":325000000000,"state":"active","ping":74},{"user_id":162,"name":"Xydran","steam_id":76561198042397402,"connected_time":979000000000,"state":"active","ping":63},{"user_id":160,"name":"dit","steam_id":76561198858497015,"connected_time":1009000000000,"state":"active","ping":58},{"user_id":161,"name":"cya","steam_id":76561198038472045,"connected_time":1000000000000,"state":"active","ping":67},{"user_id":122,"name":"eva.","steam_id":76561198054474684,"connected_time":3481000000000,"state":"active","ping":73},{"user_id":157,"name":"pip","steam_id":76561198193784201,"connected_time":1170000000000,"state":"active","ping":135},{"user_id":119,"name":"murderwow","steam_id":76561198024566944,"connected_time":3867000000000,"state":"active","ping":91},{"user_id":163,"name":"Envy","steam_id":76561198132723219,"connected_time":979000000000,"state":"active","ping":100},{"user_id":164,"name":"Veirū Viseris","steam_id":76561197989857176,"connected_time":902000000000,"state":"active","ping":76},{"user_id":152,"name":"Fish 'n' Chips","steam_id":76561198033476886,"connected_time":1354000000000,"state":"active","ping":46},{"user_id":141,"name":"Mclovin","steam_id":76561199082620246,"connected_time":2271000000000,"state":"active","ping":61},{"user_id":130,"name":"Lazer","steam_id":76561198150041285,"connected_time":3160000000000,"state":"active","ping":62},{"user_id":128,"name":"wieto","steam_id":76561198050626427,"connected_time":3292000000000,"state":"active","ping":59},{"user_id":110,"name":"Dzan50","steam_id":76561198059758591,"connected_time":4419000000000,"state":"active","ping":90},{"user_id":131,"name":"Oxer","steam_id":76561198055942412,"connected_time":3055000000000,"state":"active","ping":80},{"user_id":158,"name":"That Phlog mfer","steam_id":76561198050416948,"connected_time":1056000000000,"state":"active","ping":68},{"user_id":153,"name":"SantiTzePug","steam_id":76561199049615996,"connected_time":1341000000000,"state":"active","ping":102},{"user_id":159,"name":"Syd","steam_id":76561198020515027,"connected_time":1052000000000,"state":"active","ping":81},{"user_id":173,"name":"Saul Goodman","steam_id":76561198346169853,"connected_time":91000000000,"state":"spawning","ping":74},{"user_id":78,"name":"XPullaHiiri","steam_id":76561198031652375,"connected_time":5991000000000,"state":"active","ping":91}]},{"server_id":110,"name":"Uncletopia | Frankfurt | 2 | All Maps","name_short":"frk-2","host":"frk-1.de.uncletopia.com","port":27025,"enabled":true,"region":"eu","cc":"de","latitude":50.110924,"longitude":8.682127,"reserved":0,"last_update":"0001-01-01T00:00:00Z","name_a2s":"Uncletopia | Frankfurt | 2 | All Maps","protocol":17,"map":"koth_lakeside_final","folder":"tf","game":"Team Fortress","app_id":440,"player_count":1,"max_players":24,"Bots":0,"server_type":"Dedicated","server_os":"Linux","password":true,"vac":true,"version":"7882260","steam_id":85568392924469990,"keywords":["cp","nocrits","nodmgspread","uncletopia"],"game_id":440,"stv_port":27026,"stv_name":"Uncletopia | Frankfurt | 2 | All Maps | STV","players":[{"user_id":7,"name":"Mλt","steam_id":76561198070826903,"connected_time":25000000000,"state":"active","ping":86}]},{"server_id":308,"name":"Uncletopia | Frankfurt | 3 | All Maps","name_short":"frk-3","host":"frk-1.de.uncletopia.com","port":27035,"enabled":true,"region":"eu","cc":"de","latitude":50.110924,"longitude":8.682127,"reserved":0,"last_update":"0001-01-01T00:00:00Z","name_a2s":"Uncletopia | Frankfurt | 3 | All Maps","protocol":17,"map":"pl_badwater","folder":"tf","game":"Team Fortress","app_id":440,"player_count":8,"max_players":24,"Bots":0,"server_type":"Dedicated","server_os":"Linux","password":true,"vac":true,"version":"7882260","steam_id":85568392924504274,"keywords":["nocrits","nodmgspread","payload","uncletopia"],"game_id":440,"stv_port":27036,"stv_name":"Uncletopia | Frankfurt | 3 | All Maps | STV","players":[{"user_id":16,"name":"Xnopyt","steam_id":76561199117079794,"connected_time":360000000000,"state":"active","ping":69},{"user_id":15,"name":"R8N - Obismal","steam_id":76561198007482714,"connected_time":420000000000,"state":"active","ping":66},{"user_id":17,"name":"Egor Pomidor","steam_id":76561199175688390,"connected_time":182000000000,"state":"active","ping":72},{"user_id":18,"name":"f3ejb","steam_id":76561198970454091,"connected_time":176000000000,"state":"active","ping":50},{"user_id":19,"name":"the straightest medic main ever","steam_id":76561199259727736,"connected_time":150000000000,"state":"active","ping":62},{"user_id":20,"name":"Azurh","steam_id":76561199330143102,"connected_time":131000000000,"state":"active","ping":70},{"user_id":21,"name":"Lukero","steam_id":76561198301594341,"connected_time":117000000000,"state":"active","ping":76},{"user_id":22,"name":"Smaug [Ger]","steam_id":76561198853461583,"connected_time":53000000000,"state":"active","ping":72}]},{"server_id":309,"name":"Uncletopia | Frankfurt | 4 | All Maps","name_short":"frk-4","host":"frk-1.de.uncletopia.com","port":27045,"enabled":true,"region":"eu","cc":"de","latitude":50.110924,"longitude":8.682127,"reserved":0,"last_update":"0001-01-01T00:00:00Z","name_a2s":"Uncletopia | Frankfurt | 4 | All Maps","protocol":17,"map":"koth_king","folder":"tf","game":"Team Fortress","app_id":440,"player_count":24,"max_players":24,"Bots":0,"server_type":"Dedicated","server_os":"Linux","password":true,"vac":true,"version":"7882260","steam_id":85568392924504275,"keywords":["cp","nocrits","nodmgspread","uncletopia"],"game_id":440,"stv_port":27046,"stv_name":"Uncletopia | Frankfurt | 4 | All Maps | STV","players":[{"user_id":209,"name":"Kumquat","steam_id":76561198200490386,"connected_time":270000000000,"state":"active","ping":75},{"user_id":202,"name":"danko_skills1345","steam_id":76561199146399559,"connected_time":1253000000000,"state":"active","ping":62},{"user_id":173,"name":"Dreyfus","steam_id":76561198366687805,"connected_time":3133000000000,"state":"active","ping":63},{"user_id":210,"name":"NReallyS","steam_id":76561198979795815,"connected_time":269000000000,"state":"active","ping":63},{"user_id":124,"name":"weedminion","steam_id":76561198061248329,"connected_time":7166000000000,"state":"active","ping":73},{"user_id":193,"name":"63756d","steam_id":76561198808699024,"connected_time":1389000000000,"state":"active","ping":67},{"user_id":206,"name":"how do i bomb school (legally)","steam_id":76561198388750592,"connected_time":846000000000,"state":"active","ping":64},{"user_id":191,"name":"yeldad","steam_id":76561198447264153,"connected_time":1604000000000,"state":"active","ping":120},{"user_id":211,"name":"qendrovictor1","steam_id":76561199304974654,"connected_time":252000000000,"state":"active","ping":79},{"user_id":194,"name":"Hussain_144","steam_id":76561198346029208,"connected_time":1385000000000,"state":"active","ping":169},{"user_id":187,"name":"Lord","steam_id":76561198241305816,"connected_time":2243000000000,"state":"active","ping":113},{"user_id":208,"name":"Marchioly","steam_id":76561198335079215,"connected_time":284000000000,"state":"active","ping":106},{"user_id":212,"name":"Rotuca","steam_id":76561198798938204,"connected_time":240000000000,"state":"active","ping":92},{"user_id":217,"name":"Ratatatatatatouille","steam_id":76561198182267098,"connected_time":118000000000,"state":"active","ping":86},{"user_id":203,"name":"DoDonPachi","steam_id":76561199085984801,"connected_time":1144000000000,"state":"active","ping":65},{"user_id":186,"name":"イムロボ","steam_id":76561198859060841,"connected_time":2284000000000,"state":"active","ping":76},{"user_id":218,"name":"the goon","steam_id":76561199024865713,"connected_time":95000000000,"state":"active","ping":54},{"user_id":196,"name":"trumpthefortnitegamer","steam_id":76561199233547250,"connected_time":1375000000000,"state":"active","ping":63},{"user_id":198,"name":"papaja","steam_id":76561199216208960,"connected_time":1337000000000,"state":"active","ping":86},{"user_id":188,"name":"Españaa","steam_id":76561198879587832,"connected_time":2083000000000,"state":"active","ping":86},{"user_id":215,"name":"wasto-/-™","steam_id":76561198102888038,"connected_time":210000000000,"state":"active","ping":45},{"user_id":204,"name":"D0kai","steam_id":76561198389271720,"connected_time":1139000000000,"state":"active","ping":61},{"user_id":216,"name":"LEBren","steam_id":76561199229295431,"connected_time":199000000000,"state":"active","ping":69},{"user_id":207,"name":"fisch","steam_id":76561198382833003,"connected_time":846000000000,"state":"active","ping":73}]},{"server_id":310,"name":"Uncletopia | Frankfurt | 5 | All Maps","name_short":"frk-5","host":"frk-1.de.uncletopia.com","port":27055,"enabled":true,"region":"eu","cc":"de","latitude":50.110924,"longitude":8.682127,"reserved":0,"last_update":"0001-01-01T00:00:00Z","name_a2s":"Uncletopia | Frankfurt | 5 | All Maps","protocol":17,"map":"cp_mountainlab","folder":"tf","game":"Team Fortress","app_id":440,"player_count":0,"max_players":24,"Bots":0,"server_type":"Dedicated","server_os":"Linux","password":true,"vac":true,"version":"7882260","steam_id":85568392924504277,"keywords":["cp","nocrits","nodmgspread","uncletopia"],"game_id":440,"stv_port":27056,"stv_name":"Uncletopia | Frankfurt | 5 | All Maps | STV","players":null},{"server_id":311,"name":"Uncletopia | Frankfurt | 6 | All Maps","name_short":"frk-6","host":"frk-1.de.uncletopia.com","port":27065,"enabled":true,"region":"eu","cc":"de","latitude":50.110924,"longitude":8.682127,"reserved":0,"last_update":"0001-01-01T00:00:00Z","name_a2s":"Uncletopia | Frankfurt | 6 | All Maps","protocol":17,"map":"koth_lakeside_final","folder":"tf","game":"Team Fortress","app_id":440,"player_count":0,"max_players":24,"Bots":0,"server_type":"Dedicated","server_os":"Linux","password":true,"vac":true,"version":"7882260","steam_id":85568392924504278,"keywords":["cp","nocrits","nodmgspread","uncletopia"],"game_id":440,"stv_port":27066,"stv_name":"Uncletopia | Frankfurt | 6 | All Maps | STV","players":null},{"server_id":23,"name":"Uncletopia | Frankfurt | 7 | Stopwatch Beta","name_short":"frk-7","host":"frk-1.de.uncletopia.com","port":27075,"enabled":true,"region":"eu","cc":"de","latitude":50.110924,"longitude":8.682127,"reserved":0,"last_update":"0001-01-01T00:00:00Z","name_a2s":"Uncletopia | Frankfurt | 7 | Stopwatch Beta","protocol":17,"map":"workshop/koth_ashville_final.ugc2130459942","folder":"tf","game":"Team Fortress","app_id":440,"player_count":0,"max_players":24,"Bots":0,"server_type":"Dedicated","server_os":"Linux","password":true,"vac":true,"version":"7882260","steam_id":85568392924742827,"keywords":["cp","nocrits","nodmgspread","uncletopia"],"game_id":440,"stv_port":27076,"stv_name":"Uncletopia | Frankfurt | 7 | Stopwatch Beta | STV","players":null},{"server_id":24,"name":"Uncletopia | Frankfurt | 8 | Community","name_short":"frk-8","host":"frk-1.de.uncletopia.com","port":27085,"enabled":true,"region":"eu","cc":"de","latitude":50.110924,"longitude":8.682127,"reserved":0,"last_update":"0001-01-01T00:00:00Z","name_a2s":"Uncletopia | Frankfurt | 8 | Community","protocol":17,"map":"koth_cascade","folder":"tf","game":"Team Fortress","app_id":440,"player_count":0,"max_players":24,"Bots":0,"server_type":"Dedicated","server_os":"Linux","password":true,"vac":true,"version":"7882260","steam_id":85568392924742828,"keywords":["cp","nocrits","nodmgspread","uncletopia"],"game_id":440,"stv_port":27086,"stv_name":"Uncletopia | Frankfurt | 8 | Community | STV","players":null},{"server_id":202,"name":"Uncletopia | Hong Kong | 1 | All Maps","name_short":"hgk-1","host":"hgk-1.hk.uncletopia.com","port":27015,"enabled":true,"region":"asia","cc":"hk","latitude":22.302711,"longitude":114.177216,"reserved":0,"last_update":"0001-01-01T00:00:00Z","name_a2s":"Uncletopia | Hong Kong | 1 | All Maps","protocol":17,"map":"pl_badwater","folder":"tf","game":"Team Fortress","app_id":440,"player_count":12,"max_players":24,"Bots":0,"server_type":"Dedicated","server_os":"Linux","password":true,"vac":true,"version":"7882260","steam_id":85568392924494504,"keywords":["nocrits","nodmgspread","payload","uncletopia"],"game_id":440,"stv_port":27016,"stv_name":"Uncletopia | Hong Kong | 1 | All Maps | STV","players":[{"user_id":567,"name":"screaming sniper","steam_id":76561199085568674,"connected_time":156000000000,"state":"active","ping":70},{"user_id":538,"name":"عبدل Banana khan (F2P)","steam_id":76561198992414056,"connected_time":2706000000000,"state":"active","ping":175},{"user_id":565,"name":"ㄹㄷ","steam_id":76561199365665188,"connected_time":842000000000,"state":"active","ping":77},{"user_id":560,"name":"walid","steam_id":76561198395530753,"connected_time":1460000000000,"state":"active","ping":139},{"user_id":540,"name":"bocchi the oppai!","steam_id":76561198008307645,"connected_time":2585000000000,"state":"active","ping":73},{"user_id":537,"name":"母の肉団子@hao123.com","steam_id":76561198069561896,"connected_time":3172000000000,"state":"active","ping":42},{"user_id":546,"name":"쿠키","steam_id":76561197997220367,"connected_time":2444000000000,"state":"active","ping":53},{"user_id":543,"name":"Stupid B","steam_id":76561198131423270,"connected_time":2485000000000,"state":"active","ping":125},{"user_id":544,"name":"Hằng Ra đơ","steam_id":76561199373637717,"connected_time":2476000000000,"state":"active","ping":89},{"user_id":547,"name":"soda of melon","steam_id":76561198870774355,"connected_time":2403000000000,"state":"active","ping":80},{"user_id":562,"name":"yw","steam_id":76561199382726488,"connected_time":1304000000000,"state":"active","ping":45}]},{"server_id":1,"name":"Uncletopia | Los Angeles | 1 | All Maps","name_short":"lax-1","host":"lax-1.us.uncletopia.com","port":27015,"enabled":true,"region":"us-west","cc":"us","latitude":33.94279,"longitude":-118.41004,"reserved":0,"last_update":"0001-01-01T00:00:00Z","name_a2s":"Uncletopia | Los Angeles | 1 | All Maps","protocol":17,"map":"pl_pier","folder":"tf","game":"Team Fortress","app_id":440,"player_count":0,"max_players":24,"Bots":0,"server_type":"Dedicated","server_os":"Linux","password":true,"vac":true,"version":"7882260","steam_id":85568392924469991,"keywords":["nocrits","nodmgspread","payload","uncletopia"],"game_id":440,"stv_port":27016,"stv_name":"Uncletopia | Los Angeles | 1 | All Maps | STV","players":null},{"server_id":112,"name":"Uncletopia | Los Angeles | 2 | All Maps","name_short":"lax-2","host":"lax-1.us.uncletopia.com","port":27025,"enabled":true,"region":"us-west","cc":"us","latitude":33.94279,"longitude":-118.41004,"reserved":0,"last_update":"0001-01-01T00:00:00Z","name_a2s":"Uncletopia | Los Angeles | 2 | All Maps","protocol":17,"map":"cp_snakewater_final1","folder":"tf","game":"Team Fortress","app_id":440,"player_count":0,"max_players":24,"Bots":0,"server_type":"Dedicated","server_os":"Linux","password":true,"vac":true,"version":"7882260","steam_id":85568392924469992,"keywords":["cp","nocrits","nodmgspread","uncletopia"],"game_id":440,"stv_port":27026,"stv_name":"Uncletopia | Los Angeles | 2 | All Maps | STV","players":null},{"server_id":324,"name":"Uncletopia | Los Angeles | 3 | All Maps","name_short":"lax-3","host":"lax-1.us.uncletopia.com","port":27035,"enabled":true,"region":"us-west","cc":"us","latitude":33.94279,"longitude":-118.41004,"reserved":0,"last_update":"0001-01-01T00:00:00Z","name_a2s":"Uncletopia | Los Angeles | 3 | All Maps","protocol":17,"map":"cp_sunshine","folder":"tf","game":"Team Fortress","app_id":440,"player_count":0,"max_players":24,"Bots":0,"server_type":"Dedicated","server_os":"Linux","password":true,"vac":true,"version":"7882260","steam_id":85568392924510198,"keywords":["cp","nocrits","nodmgspread","uncletopia"],"game_id":440,"stv_port":27036,"stv_name":"Uncletopia | Los Angeles | 3 | All Maps | STV","players":null},{"server_id":25,"name":"Uncletopia | Los Angeles | 4 | Stopwatch Beta","name_short":"lax-4","host":"lax-1.us.uncletopia.com","port":27045,"enabled":true,"region":"us-west","cc":"us","latitude":33.94279,"longitude":-118.41004,"reserved":0,"last_update":"0001-01-01T00:00:00Z","name_a2s":"Uncletopia | Los Angeles | 4 | Stopwatch Beta","protocol":17,"map":"cp_snakewater_final1","folder":"tf","game":"Team Fortress","app_id":440,"player_count":0,"max_players":24,"Bots":0,"server_type":"Dedicated","server_os":"Linux","password":true,"vac":true,"version":"7882260","steam_id":85568392924510199,"keywords":["cp","nocrits","nodmgspread","uncletopia"],"game_id":440,"stv_port":27046,"stv_name":"Uncletopia | Los Angeles | 4 | Stopwatch Beta | STV","players":null},{"server_id":11,"name":"Uncletopia | London | 1 | All Maps","name_short":"lon-1","host":"lon-1.uk.uncletopia.com","port":27015,"enabled":true,"region":"eu","cc":"gb","latitude":51.509865,"longitude":-0.118092,"reserved":0,"last_update":"0001-01-01T00:00:00Z","name_a2s":"Uncletopia | London | 1 | All Maps","protocol":17,"map":"pl_upward","folder":"tf","game":"Team Fortress","app_id":440,"player_count":24,"max_players":24,"Bots":0,"server_type":"Dedicated","server_os":"Linux","password":true,"vac":true,"version":"7882260","steam_id":85568392924367362,"keywords":["nocrits","nodmgspread","payload","uncletopia"],"game_id":440,"stv_port":27016,"stv_name":"Uncletopia | London | 1 | All Maps | STV","players":[{"user_id":437,"name":"Ghost Modern Warfare 2 (2022)","steam_id":76561198116295334,"connected_time":109000000000,"state":"active","ping":112},{"user_id":432,"name":"tanapo","steam_id":76561199081305365,"connected_time":714000000000,"state":"active","ping":75},{"user_id":359,"name":"hisham","steam_id":76561198414437290,"connected_time":7112000000000,"state":"active","ping":115},{"user_id":415,"name":"RiX","steam_id":76561197969053733,"connected_time":2333000000000,"state":"active","ping":63},{"user_id":369,"name":"Flare","steam_id":76561198039098320,"connected_time":6421000000000,"state":"active","ping":51},{"user_id":435,"name":"Quiet Kid","steam_id":76561199134800446,"connected_time":291000000000,"state":"active","ping":104},{"user_id":429,"name":"Blitzo","steam_id":76561198002935399,"connected_time":929000000000,"state":"active","ping":44},{"user_id":423,"name":"N0tzz","steam_id":76561198391025653,"connected_time":1361000000000,"state":"active","ping":69},{"user_id":263,"name":"sokige","steam_id":76561198167112371,"connected_time":13936000000000,"state":"active","ping":107},{"user_id":436,"name":"JeanCorben","steam_id":76561197965133561,"connected_time":142000000000,"state":"active","ping":39},{"user_id":424,"name":"teehee","steam_id":76561198184881255,"connected_time":1358000000000,"state":"active","ping":74},{"user_id":433,"name":"Jara.","steam_id":76561197992207165,"connected_time":362000000000,"state":"active","ping":102},{"user_id":411,"name":"peruna","steam_id":76561198000721196,"connected_time":2700000000000,"state":"active","ping":75},{"user_id":379,"name":"Dr. Mike","steam_id":76561197991205793,"connected_time":5683000000000,"state":"active","ping":61},{"user_id":412,"name":"panakid","steam_id":76561198364121077,"connected_time":2699000000000,"state":"active","ping":89},{"user_id":409,"name":"EZKSupernova","steam_id":76561198386373871,"connected_time":3317000000000,"state":"active","ping":56},{"user_id":414,"name":"Umbro","steam_id":76561198087930438,"connected_time":2469000000000,"state":"active","ping":82},{"user_id":413,"name":"✪ qua ✪","steam_id":76561198066408333,"connected_time":2699000000000,"state":"active","ping":78},{"user_id":397,"name":"Rare bulldog owner","steam_id":76561199407941086,"connected_time":4068000000000,"state":"active","ping":71},{"user_id":427,"name":"Vezage","steam_id":76561198064916164,"connected_time":1136000000000,"state":"active","ping":70},{"user_id":410,"name":".::[SerafeTTiN]::.","steam_id":76561198009471724,"connected_time":2706000000000,"state":"active","ping":94},{"user_id":438,"name":"limbicsystem","steam_id":76561198025612680,"connected_time":47000000000,"state":"active","ping":55},{"user_id":430,"name":"anti vaxxer","steam_id":76561198129806658,"connected_time":824000000000,"state":"active","ping":59},{"user_id":417,"name":"Umberto Bossi","steam_id":76561198136150267,"connected_time":1674000000000,"state":"active","ping":72}]},{"server_id":114,"name":"Uncletopia | London | 2 | All Maps","name_short":"lon-2","host":"lon-1.uk.uncletopia.com","port":27025,"enabled":true,"region":"eu","cc":"gb","latitude":51.509865,"longitude":-0.118092,"reserved":0,"last_update":"0001-01-01T00:00:00Z","name_a2s":"Uncletopia | London | 2 | All Maps","protocol":17,"map":"cp_sunshine","folder":"tf","game":"Team Fortress","app_id":440,"player_count":0,"max_players":24,"Bots":0,"server_type":"Dedicated","server_os":"Linux","password":true,"vac":true,"version":"7882260","steam_id":85568392924470941,"keywords":["cp","nocrits","nodmgspread","uncletopia"],"game_id":440,"stv_port":27026,"stv_name":"Uncletopia | London | 2 | All Maps | STV","players":null},{"server_id":320,"name":"Uncletopia | London | 3 | All Maps","name_short":"lon-3","host":"lon-1.uk.uncletopia.com","port":27035,"enabled":true,"region":"eu","cc":"gb","latitude":51.509865,"longitude":-0.118092,"reserved":0,"last_update":"0001-01-01T00:00:00Z","name_a2s":"Uncletopia | London | 3 | All Maps","protocol":17,"map":"koth_highpass","folder":"tf","game":"Team Fortress","app_id":440,"player_count":0,"max_players":24,"Bots":0,"server_type":"Dedicated","server_os":"Linux","password":true,"vac":true,"version":"7882260","steam_id":85568392924510192,"keywords":["cp","nocrits","nodmgspread","uncletopia"],"game_id":440,"stv_port":27036,"stv_name":"Uncletopia | London | 3 | All Maps | STV","players":null},{"server_id":321,"name":"Uncletopia | London | 4 | All Maps","name_short":"lon-4","host":"lon-1.uk.uncletopia.com","port":27045,"enabled":true,"region":"eu","cc":"gb","latitude":51.509865,"longitude":-0.118092,"reserved":0,"last_update":"0001-01-01T00:00:00Z","name_a2s":"Uncletopia | London | 4 | All Maps","protocol":17,"map":"koth_highpass","folder":"tf","game":"Team Fortress","app_id":440,"player_count":0,"max_players":24,"Bots":0,"server_type":"Dedicated","server_os":"Linux","password":true,"vac":true,"version":"7882260","steam_id":85568392924510193,"keywords":["cp","nocrits","nodmgspread","uncletopia"],"game_id":440,"stv_port":27046,"stv_name":"Uncletopia | London | 4 | All Maps | STV","players":null},{"server_id":21,"name":"Uncletopia | London | 5 | All Maps","name_short":"lon-5","host":"lon-1.uk.uncletopia.com","port":27055,"enabled":true,"region":"eu","cc":"gb","latitude":51.509865,"longitude":-0.118092,"reserved":0,"last_update":"0001-01-01T00:00:00Z","name_a2s":"Uncletopia | London | 5 | All Maps","protocol":17,"map":"koth_viaduct","folder":"tf","game":"Team Fortress","app_id":440,"player_count":0,"max_players":24,"Bots":0,"server_type":"Dedicated","server_os":"Linux","password":true,"vac":true,"version":"7882260","steam_id":85568392924742829,"keywords":["cp","nocrits","nodmgspread","uncletopia"],"game_id":440,"stv_port":27056,"stv_name":"Uncletopia | London | 5 | All Maps | STV","players":null},{"server_id":22,"name":"Uncletopia | London | 6 | All Maps","name_short":"lon-6","host":"lon-1.uk.uncletopia.com","port":27065,"enabled":true,"region":"eu","cc":"gb","latitude":51.509865,"longitude":-0.118092,"reserved":0,"last_update":"0001-01-01T00:00:00Z","name_a2s":"Uncletopia | London | 6 | All Maps","protocol":17,"map":"pl_upward","folder":"tf","game":"Team Fortress","app_id":440,"player_count":0,"max_players":24,"Bots":0,"server_type":"Dedicated","server_os":"Linux","password":true,"vac":true,"version":"7882260","steam_id":85568392924742830,"keywords":["nocrits","nodmgspread","payload","uncletopia"],"game_id":440,"stv_port":27066,"stv_name":"Uncletopia | London | 6 | All Maps | STV","players":null},{"server_id":40,"name":"Uncletopia | London | 7 | No Payload","name_short":"lon-7","host":"lon-1.uk.uncletopia.com","port":27075,"enabled":true,"region":"eu","cc":"gb","latitude":51.509865,"longitude":-0.118092,"reserved":0,"last_update":"0001-01-01T00:00:00Z","name_a2s":"Uncletopia | London | 7 | No Payload","protocol":17,"map":"pl_pier","folder":"tf","game":"Team Fortress","app_id":440,"player_count":0,"max_players":24,"Bots":0,"server_type":"Dedicated","server_os":"Linux","password":true,"vac":true,"version":"7882260","steam_id":85568392924964314,"keywords":["nocrits","nodmgspread","payload","uncletopia"],"game_id":440,"stv_port":27076,"stv_name":"Uncletopia | London | 7 | No Payload | STV","players":null},{"server_id":41,"name":"Uncletopia | London | 8 | Community","name_short":"lon-8","host":"lon-1.uk.uncletopia.com","port":27085,"enabled":true,"region":"eu","cc":"gb","latitude":51.509865,"longitude":-0.118092,"reserved":0,"last_update":"0001-01-01T00:00:00Z","name_a2s":"Uncletopia | London | 8 | Community","protocol":17,"map":"workshop/koth_ramjam_rc1.ugc459778887","folder":"tf","game":"Team Fortress","app_id":440,"player_count":22,"max_players":24,"Bots":0,"server_type":"Dedicated","server_os":"Linux","password":true,"vac":true,"version":"7882260","steam_id":85568392924964315,"keywords":["cp","nocrits","nodmgspread","uncletopia"],"game_id":440,"stv_port":27086,"stv_name":"Uncletopia | London | 8 | Community | STV","players":[{"user_id":273,"name":"Goofball","steam_id":76561198074189084,"connected_time":1364000000000,"state":"active","ping":105},{"user_id":275,"name":"Walter","steam_id":76561198845398870,"connected_time":1339000000000,"state":"active","ping":32},{"user_id":284,"name":"Spinyapickle","steam_id":76561198086653667,"connected_time":945000000000,"state":"active","ping":53},{"user_id":285,"name":"ImBread","steam_id":76561198347426531,"connected_time":919000000000,"state":"active","ping":55},{"user_id":278,"name":"I Bleed Butter","steam_id":76561198130814770,"connected_time":1267000000000,"state":"active","ping":60},{"user_id":265,"name":"Tegnerud","steam_id":76561198214185612,"connected_time":2057000000000,"state":"active","ping":72},{"user_id":262,"name":"truebosnianking","steam_id":76561199440060597,"connected_time":2201000000000,"state":"active","ping":84},{"user_id":286,"name":"dochris.2","steam_id":76561198026478625,"connected_time":872000000000,"state":"active","ping":53},{"user_id":288,"name":"pardner","steam_id":76561198451471161,"connected_time":22000000000,"state":"spawning","ping":145},{"user_id":289,"name":"Fish","steam_id":76561198152128484,"connected_time":19000000000,"state":"spawning","ping":119},{"user_id":264,"name":"Arcware","steam_id":76561199111430920,"connected_time":2151000000000,"state":"active","ping":57},{"user_id":180,"name":"Ran33","steam_id":76561197991474499,"connected_time":8109000000000,"state":"active","ping":75},{"user_id":271,"name":"Lassie","steam_id":76561198131924713,"connected_time":1614000000000,"state":"active","ping":49},{"user_id":257,"name":"Moonman327","steam_id":76561197992616059,"connected_time":2691000000000,"state":"active","ping":149},{"user_id":266,"name":"Makłowicz","steam_id":76561198281831506,"connected_time":2034000000000,"state":"active","ping":88},{"user_id":270,"name":"the indomitable human spirit","steam_id":76561198718760200,"connected_time":1696000000000,"state":"active","ping":45},{"user_id":280,"name":"WiseFree","steam_id":76561197990887750,"connected_time":1148000000000,"state":"active","ping":78},{"user_id":283,"name":"Ratimedes","steam_id":76561199083035892,"connected_time":1040000000000,"state":"active","ping":169},{"user_id":267,"name":"SunZi","steam_id":76561198139243535,"connected_time":2023000000000,"state":"active","ping":70},{"user_id":277,"name":"Banzar1","steam_id":76561198170325423,"connected_time":1329000000000,"state":"active","ping":120},{"user_id":287,"name":"sareena","steam_id":76561198810194062,"connected_time":823000000000,"state":"active","ping":67},{"user_id":251,"name":"ROX","steam_id":76561198272289320,"connected_time":3348000000000,"state":"active","ping":62}]},{"server_id":300,"name":"Uncletopia | Montréal | 1 | All Maps","name_short":"mtl-1","host":"mtl-1.ca.uncletopia.com","port":27015,"enabled":true,"region":"us-east","cc":"ca","latitude":45.50889,"longitude":-73.56167,"reserved":0,"last_update":"0001-01-01T00:00:00Z","name_a2s":"Uncletopia | Montréal | 1 | All Maps","protocol":17,"map":"pl_snowycoast","folder":"tf","game":"Team Fortress","app_id":440,"player_count":0,"max_players":24,"Bots":0,"server_type":"Dedicated","server_os":"Linux","password":true,"vac":true,"version":"7882260","steam_id":85568392924500087,"keywords":["nocrits","nodmgspread","payload","uncletopia"],"game_id":440,"stv_port":27016,"stv_name":"Uncletopia | Montréal | 1 | All Maps | STV","players":null},{"server_id":301,"name":"Uncletopia | Montréal | 2 | All Maps","name_short":"mtl-2","host":"mtl-1.ca.uncletopia.com","port":27025,"enabled":true,"region":"us-east","cc":"ca","latitude":45.50889,"longitude":-73.56167,"reserved":0,"last_update":"0001-01-01T00:00:00Z","name_a2s":"Uncletopia | Montréal | 2 | All Maps","protocol":17,"map":"cp_sunshine","folder":"tf","game":"Team Fortress","app_id":440,"player_count":0,"max_players":24,"Bots":0,"server_type":"Dedicated","server_os":"Linux","password":true,"vac":true,"version":"7882260","steam_id":85568392924500088,"keywords":["cp","nocrits","nodmgspread","uncletopia"],"game_id":440,"stv_port":27026,"stv_name":"Uncletopia | Montréal | 2 | All Maps | STV","players":null},{"server_id":302,"name":"Uncletopia | Montréal | 3 | All Maps","name_short":"mtl-3","host":"mtl-1.ca.uncletopia.com","port":27035,"enabled":true,"region":"us-east","cc":"ca","latitude":45.50889,"longitude":-73.56167,"reserved":0,"last_update":"0001-01-01T00:00:00Z","name_a2s":"Uncletopia | Montréal | 3 | All Maps","protocol":17,"map":"pl_borneo","folder":"tf","game":"Team Fortress","app_id":440,"player_count":0,"max_players":24,"Bots":0,"server_type":"Dedicated","server_os":"Linux","password":true,"vac":true,"version":"7882260","steam_id":85568392924500089,"keywords":["nocrits","nodmgspread","payload","uncletopia"],"game_id":440,"stv_port":27036,"stv_name":"Uncletopia | Montréal | 3 | All Maps | STV","players":null},{"server_id":303,"name":"Uncletopia | Montréal | 4 | No Payload","name_short":"mtl-4","host":"mtl-1.ca.uncletopia.com","port":27045,"enabled":true,"region":"us-east","cc":"ca","latitude":45.50889,"longitude":-73.56167,"reserved":0,"last_update":"0001-01-01T00:00:00Z","name_a2s":"Uncletopia | Montréal | 4 | No Payload","protocol":17,"map":"cp_altitude","folder":"tf","game":"Team Fortress","app_id":440,"player_count":0,"max_players":24,"Bots":0,"server_type":"Dedicated","server_os":"Linux","password":true,"vac":true,"version":"7882260","steam_id":85568392924500090,"keywords":["cp","nocrits","nodmgspread","uncletopia"],"game_id":440,"stv_port":27046,"stv_name":"Uncletopia | Montréal | 4 | No Payload | STV","players":null},{"server_id":13,"name":"Uncletopia | New York City | 1 | All Maps","name_short":"nyc-1","host":"nyc-1.us.uncletopia.com","port":27015,"enabled":true,"region":"us-east","cc":"us","latitude":40.73061,"longitude":-73.93524,"reserved":0,"last_update":"0001-01-01T00:00:00Z","name_a2s":"Uncletopia | New York City | 1 | All Maps","protocol":17,"map":"pl_borneo","folder":"tf","game":"Team Fortress","app_id":440,"player_count":0,"max_players":24,"Bots":0,"server_type":"Dedicated","server_os":"Linux","password":true,"vac":true,"version":"7882260","steam_id":85568392924469993,"keywords":["nocrits","nodmgspread","payload","uncletopia"],"game_id":440,"stv_port":27016,"stv_name":"Uncletopia | New York City | 1 | All Maps | STV","players":null},{"server_id":14,"name":"Uncletopia | New York City | 2 | All Maps","name_short":"nyc-2","host":"nyc-1.us.uncletopia.com","port":27025,"enabled":true,"region":"us-east","cc":"us","latitude":40.73061,"longitude":-73.93524,"reserved":0,"last_update":"0001-01-01T00:00:00Z","name_a2s":"Uncletopia | New York City | 2 | All Maps","protocol":17,"map":"cp_snakewater_final1","folder":"tf","game":"Team Fortress","app_id":440,"player_count":0,"max_players":24,"Bots":0,"server_type":"Dedicated","server_os":"Linux","password":true,"vac":true,"version":"7882260","steam_id":85568392924469994,"keywords":["cp","nocrits","nodmgspread","uncletopia"],"game_id":440,"stv_port":27026,"stv_name":"Uncletopia | New York City | 2 | All Maps | STV","players":null},{"server_id":15,"name":"Uncletopia | New York City | 3 | Stopwatch Beta","name_short":"nyc-3","host":"nyc-1.us.uncletopia.com","port":27035,"enabled":true,"region":"us-east","cc":"us","latitude":40.73061,"longitude":-73.93524,"reserved":0,"last_update":"0001-01-01T00:00:00Z","name_a2s":"Uncletopia | New York City | 3 | Stopwatch Beta","protocol":17,"map":"koth_lakeside_final","folder":"tf","game":"Team Fortress","app_id":440,"player_count":0,"max_players":24,"Bots":0,"server_type":"Dedicated","server_os":"Linux","password":true,"vac":true,"version":"7882260","steam_id":85568392924742820,"keywords":["cp","nocrits","nodmgspread","uncletopia"],"game_id":440,"stv_port":27036,"stv_name":"Uncletopia | New York City | 3 | Stopwatch Beta | STV","players":null},{"server_id":16,"name":"Uncletopia | New York City | 4 | Community","name_short":"nyc-4","host":"nyc-1.us.uncletopia.com","port":27045,"enabled":true,"region":"us-east","cc":"us","latitude":40.73061,"longitude":-73.93524,"reserved":0,"last_update":"0001-01-01T00:00:00Z","name_a2s":"Uncletopia | New York City | 4 | Community","protocol":17,"map":"pl_badwater","folder":"tf","game":"Team Fortress","app_id":440,"player_count":0,"max_players":24,"Bots":0,"server_type":"Dedicated","server_os":"Linux","password":true,"vac":true,"version":"7882260","steam_id":85568392924742821,"keywords":["nocrits","nodmgspread","payload","uncletopia"],"game_id":440,"stv_port":27046,"stv_name":"Uncletopia | New York City | 4 | Community | STV","players":null},{"server_id":142,"name":"Uncletopia | São Paulo | 1 | All Maps","name_short":"sao-1","host":"sao-1.br.uncletopia.com","port":27015,"enabled":true,"region":"sa","cc":"br","latitude":-23.533773,"longitude":-46.62529,"reserved":0,"last_update":"0001-01-01T00:00:00Z","name_a2s":"Uncletopia | São Paulo | 1 | All Maps","protocol":17,"map":"cp_process_final","folder":"tf","game":"Team Fortress","app_id":440,"player_count":1,"max_players":24,"Bots":0,"server_type":"Dedicated","server_os":"Linux","password":true,"vac":true,"version":"7882260","steam_id":85568392924469996,"keywords":["cp","nocrits","nodmgspread","uncletopia"],"game_id":440,"stv_port":27016,"stv_name":"Uncletopia | São Paulo | 1 | All Maps | STV","players":[{"user_id":3,"name":"Suck","steam_id":76561198864045923,"connected_time":89000000000,"state":"active","ping":48}]},{"server_id":143,"name":"Uncletopia | São Paulo | 2 | All Maps","name_short":"sao-2","host":"sao-2.br.uncletopia.com","port":27015,"enabled":true,"region":"sa","cc":"br","latitude":-23.533773,"longitude":-46.62529,"reserved":0,"last_update":"0001-01-01T00:00:00Z","name_a2s":"Uncletopia | São Paulo | 2 | All Maps","protocol":17,"map":"pl_pier","folder":"tf","game":"Team Fortress","app_id":440,"player_count":0,"max_players":24,"Bots":0,"server_type":"Dedicated","server_os":"Linux","password":true,"vac":true,"version":"7882260","steam_id":85568392924485349,"keywords":["nocrits","nodmgspread","payload","uncletopia"],"game_id":440,"stv_port":27016,"stv_name":"Uncletopia | São Paulo | 2 | All Maps | STV","players":null},{"server_id":7,"name":"Uncletopia | Seattle | 1 | All Maps","name_short":"sea-1","host":"sea-1.us.uncletopia.com","port":27015,"enabled":true,"region":"us-west","cc":"us","latitude":47.608013,"longitude":-122.33517,"reserved":0,"last_update":"0001-01-01T00:00:00Z","name_a2s":"Uncletopia | Seattle | 1 | All Maps","protocol":17,"map":"cp_coldfront","folder":"tf","game":"Team Fortress","app_id":440,"player_count":17,"max_players":24,"Bots":0,"server_type":"Dedicated","server_os":"Linux","password":true,"vac":true,"version":"7882260","steam_id":85568392924469997,"keywords":["cp","nocrits","nodmgspread","uncletopia"],"game_id":440,"stv_port":27016,"stv_name":"Uncletopia | Seattle | 1 | All Maps | STV","players":[{"user_id":52,"name":"chikin.sauce","steam_id":76561198042464635,"connected_time":84000000000,"state":"active","ping":113},{"user_id":53,"name":"Keloklan","steam_id":76561198171674370,"connected_time":80000000000,"state":"active","ping":218},{"user_id":54,"name":"WaywardFinn","steam_id":76561198040391296,"connected_time":50000000000,"state":"active","ping":131},{"user_id":55,"name":"Eosson","steam_id":76561198108642113,"connected_time":46000000000,"state":"active","ping":59},{"user_id":26,"name":"ThePatriot(WarVeteran)","steam_id":76561198452607376,"connected_time":1402000000000,"state":"active","ping":146},{"user_id":49,"name":"Mecha","steam_id":76561198014927379,"connected_time":402000000000,"state":"active","ping":113},{"user_id":44,"name":"Rustyorion","steam_id":76561198439186347,"connected_time":569000000000,"state":"active","ping":46},{"user_id":20,"name":"Mr. Sir Sam Esquire","steam_id":76561199046746665,"connected_time":2350000000000,"state":"active","ping":129},{"user_id":45,"name":"cool safe name","steam_id":76561198237827742,"connected_time":526000000000,"state":"active","ping":98},{"user_id":56,"name":"Mutzy™","steam_id":76561198085858203,"connected_time":0,"state":"connecting","ping":0},{"user_id":30,"name":"sheep in da slipgate","steam_id":76561198076781979,"connected_time":1051000000000,"state":"active","ping":84},{"user_id":32,"name":"HellaCopter","steam_id":76561198062313698,"connected_time":1007000000000,"state":"active","ping":45},{"user_id":35,"name":"skinnedalive","steam_id":76561198355068405,"connected_time":906000000000,"state":"active","ping":123},{"user_id":37,"name":"SAD MOSCOVIA","steam_id":76561198101081520,"connected_time":872000000000,"state":"active","ping":70},{"user_id":38,"name":"Fuulip","steam_id":76561199109275013,"connected_time":869000000000,"state":"active","ping":77},{"user_id":39,"name":"Kedata","steam_id":76561198047750050,"connected_time":802000000000,"state":"active","ping":98},{"user_id":40,"name":"Skeletonman0","steam_id":76561198079291152,"connected_time":749000000000,"state":"active","ping":129}]},{"server_id":119,"name":"Uncletopia | Seattle | 2 | All Maps","name_short":"sea-2","host":"sea-1.us.uncletopia.com","port":27025,"enabled":true,"region":"us-west","cc":"us","latitude":47.608013,"longitude":-122.33517,"reserved":0,"last_update":"0001-01-01T00:00:00Z","name_a2s":"Uncletopia | Seattle | 2 | All Maps","protocol":17,"map":"koth_highpass","folder":"tf","game":"Team Fortress","app_id":440,"player_count":0,"max_players":24,"Bots":0,"server_type":"Dedicated","server_os":"Linux","password":true,"vac":true,"version":"7882260","steam_id":85568392924469998,"keywords":["cp","nocrits","nodmgspread","uncletopia"],"game_id":440,"stv_port":27026,"stv_name":"Uncletopia | Seattle | 2 | All Maps | STV","players":null},{"server_id":406,"name":"Uncletopia | Seattle | 3 | Stopwatch Beta","name_short":"sea-3","host":"sea-1.us.uncletopia.com","port":27035,"enabled":true,"region":"us-west","cc":"us","latitude":47.608013,"longitude":-122.33517,"reserved":0,"last_update":"0001-01-01T00:00:00Z","name_a2s":"Uncletopia | Seattle | 3 | Stopwatch Beta","protocol":17,"map":"cp_mountainlab","folder":"tf","game":"Team Fortress","app_id":440,"player_count":0,"max_players":24,"Bots":0,"server_type":"Dedicated","server_os":"Linux","password":true,"vac":true,"version":"7882260","steam_id":85568392924515217,"keywords":["cp","nocrits","nodmgspread","uncletopia"],"game_id":440,"stv_port":27036,"stv_name":"Uncletopia | Seattle | 3 | Stopwatch Beta | STV","players":null},{"server_id":17,"name":"Uncletopia | San Francisco | 1 | All Maps","name_short":"sfo-1","host":"sfo-1.us.uncletopia.com","port":27015,"enabled":true,"region":"us-west","cc":"us","latitude":37.77397,"longitude":-122.4313,"reserved":0,"last_update":"0001-01-01T00:00:00Z","name_a2s":"Uncletopia | San Francisco | 1 | All Maps","protocol":17,"map":"cp_process_final","folder":"tf","game":"Team Fortress","app_id":440,"player_count":0,"max_players":24,"Bots":0,"server_type":"Dedicated","server_os":"Linux","password":true,"vac":true,"version":"7757534","steam_id":85568392924469999,"keywords":["cp","nocrits","nodmgspread","uncletopia"],"game_id":440,"stv_port":27016,"stv_name":"Uncletopia | San Francisco | 1 | All Maps | STV","players":null},{"server_id":18,"name":"Uncletopia | San Francisco | 2 | All Maps","name_short":"sfo-2","host":"sfo-1.us.uncletopia.com","port":27025,"enabled":true,"region":"us-west","cc":"us","latitude":37.77397,"longitude":-122.4313,"reserved":0,"last_update":"0001-01-01T00:00:00Z","name_a2s":"Uncletopia | San Francisco | 2 | All Maps","protocol":17,"map":"koth_highpass","folder":"tf","game":"Team Fortress","app_id":440,"player_count":0,"max_players":24,"Bots":0,"server_type":"Dedicated","server_os":"Linux","password":true,"vac":true,"version":"7757534","steam_id":85568392924470000,"keywords":["cp","nocrits","nodmgspread","uncletopia"],"game_id":440,"stv_port":27026,"stv_name":"Uncletopia | San Francisco | 2 | All Maps | STV","players":null},{"server_id":19,"name":"Uncletopia | San Francisco | 3 | Stopwatch Beta","name_short":"sfo-3","host":"sfo-1.us.uncletopia.com","port":27035,"enabled":true,"region":"us-west","cc":"us","latitude":37.77397,"longitude":-122.4313,"reserved":0,"last_update":"0001-01-01T00:00:00Z","name_a2s":"Uncletopia | San Francisco | 3 | Stopwatch Beta","protocol":17,"map":"koth_lakeside_final","folder":"tf","game":"Team Fortress","app_id":440,"player_count":0,"max_players":24,"Bots":0,"server_type":"Dedicated","server_os":"Linux","password":true,"vac":true,"version":"7757534","steam_id":85568392924742824,"keywords":["cp","nocrits","nodmgspread","uncletopia"],"game_id":440,"stv_port":27036,"stv_name":"Uncletopia | San Francisco | 3 | Stopwatch Beta | STV","players":null},{"server_id":20,"name":"Uncletopia | San Francisco | 4 | Community","name_short":"sfo-4","host":"sfo-1.us.uncletopia.com","port":27045,"enabled":true,"region":"us-west","cc":"us","latitude":37.77397,"longitude":-122.4313,"reserved":0,"last_update":"0001-01-01T00:00:00Z","name_a2s":"Uncletopia | San Francisco | 4 | Community","protocol":17,"map":"cp_altitude","folder":"tf","game":"Team Fortress","app_id":440,"player_count":0,"max_players":24,"Bots":0,"server_type":"Dedicated","server_os":"Linux","password":true,"vac":true,"version":"7757534","steam_id":85568392924742826,"keywords":["cp","nocrits","nodmgspread","uncletopia"],"game_id":440,"stv_port":27046,"stv_name":"Uncletopia | San Francisco | 4 | Community | STV","players":null},{"server_id":141,"name":"Uncletopia | Sydney | 1 | All Maps","name_short":"syd-1","host":"syd-1.au.uncletopia.com","port":27015,"enabled":true,"region":"au","cc":"au","latitude":-33.865143,"longitude":151.2099,"reserved":0,"last_update":"0001-01-01T00:00:00Z","name_a2s":"Uncletopia | Sydney | 1 | All Maps","protocol":17,"map":"pl_barnblitz","folder":"tf","game":"Team Fortress","app_id":440,"player_count":0,"max_players":24,"Bots":0,"server_type":"Dedicated","server_os":"Linux","password":true,"vac":true,"version":"7882260","steam_id":85568392924470001,"keywords":["nocrits","nodmgspread","payload","uncletopia"],"game_id":440,"stv_port":27016,"stv_name":"Uncletopia | Sydney | 1 | All Maps | STV","players":null},{"server_id":123,"name":"Uncletopia | Sydney | 2 | All Maps","name_short":"syd-2","host":"syd-1.au.uncletopia.com","port":27025,"enabled":true,"region":"au","cc":"au","latitude":-33.865143,"longitude":151.2099,"reserved":0,"last_update":"0001-01-01T00:00:00Z","name_a2s":"Uncletopia | Sydney | 2 | All Maps","protocol":17,"map":"pl_barnblitz","folder":"tf","game":"Team Fortress","app_id":440,"player_count":14,"max_players":24,"Bots":0,"server_type":"Dedicated","server_os":"Linux","password":true,"vac":true,"version":"7882260","steam_id":85568392924470002,"keywords":["nocrits","nodmgspread","payload","uncletopia"],"game_id":440,"stv_port":27026,"stv_name":"Uncletopia | Sydney | 2 | All Maps | STV","players":[{"user_id":333,"name":"Chromo Patrol","steam_id":76561197987001534,"connected_time":3635000000000,"state":"active","ping":98},{"user_id":354,"name":"grimDelegator","steam_id":76561199076217376,"connected_time":1220000000000,"state":"active","ping":89},{"user_id":363,"name":"Plushie","steam_id":76561198043226890,"connected_time":8000000000,"state":"active","ping":102},{"user_id":356,"name":"barney the cacodemon","steam_id":76561199180387229,"connected_time":689000000000,"state":"active","ping":333},{"user_id":357,"name":"FriendlyFortressFighter :)","steam_id":76561199417737666,"connected_time":487000000000,"state":"active","ping":144},{"user_id":360,"name":"Robo","steam_id":76561199067205204,"connected_time":142000000000,"state":"active","ping":329},{"user_id":351,"name":"Creamy Gusset","steam_id":76561198001544539,"connected_time":1826000000000,"state":"active","ping":55},{"user_id":362,"name":"stevenw","steam_id":76561198133041525,"connected_time":123000000000,"state":"active","ping":86},{"user_id":344,"name":"Lumalee ❤","steam_id":76561198157613299,"connected_time":2797000000000,"state":"active","ping":56},{"user_id":330,"name":"\u003e\u003e=a-0\u003c\u003c","steam_id":76561198393127547,"connected_time":4247000000000,"state":"active","ping":54},{"user_id":352,"name":"Bukkake TF2EASY.COM","steam_id":76561198844438037,"connected_time":1728000000000,"state":"active","ping":53},{"user_id":353,"name":"RustyMeat","steam_id":76561198119162442,"connected_time":1669000000000,"state":"active","ping":58},{"user_id":337,"name":"RetroNotFound","steam_id":76561199104523830,"connected_time":3390000000000,"state":"active","ping":152},{"user_id":342,"name":"miyamoto is daddy","steam_id":76561199483818230,"connected_time":2925000000000,"state":"active","ping":78}]},{"server_id":395,"name":"Uncletopia | Sydney | 3 | All Maps","name_short":"syd-3","host":"syd-1.au.uncletopia.com","port":27035,"enabled":true,"region":"au","cc":"au","latitude":-33.865143,"longitude":151.2099,"reserved":0,"last_update":"0001-01-01T00:00:00Z","name_a2s":"Uncletopia | Sydney | 3 | All Maps","protocol":17,"map":"koth_highpass","folder":"tf","game":"Team Fortress","app_id":440,"player_count":0,"max_players":24,"Bots":0,"server_type":"Dedicated","server_os":"Linux","password":true,"vac":true,"version":"7882260","steam_id":85568392925194467,"keywords":["cp","nocrits","nodmgspread","uncletopia"],"game_id":440,"stv_port":27036,"stv_name":"Uncletopia | Sydney | 3 | All Maps | STV","players":null},{"server_id":396,"name":"Uncletopia | Sydney | 4 | All Maps","name_short":"syd-4","host":"syd-1.au.uncletopia.com","port":27045,"enabled":true,"region":"au","cc":"au","latitude":-33.865143,"longitude":151.2099,"reserved":0,"last_update":"0001-01-01T00:00:00Z","name_a2s":"Uncletopia | Sydney | 4 | All Maps","protocol":17,"map":"koth_cascade","folder":"tf","game":"Team Fortress","app_id":440,"player_count":0,"max_players":24,"Bots":0,"server_type":"Dedicated","server_os":"Linux","password":true,"vac":true,"version":"7882260","steam_id":85568392925397958,"keywords":["cp","nocrits","nodmgspread","uncletopia"],"game_id":440,"stv_port":27046,"stv_name":"Uncletopia | Sydney | 4 | All Maps | STV","players":null},{"server_id":58,"name":"Uncletopia | Sydney | 5 | Stopwatch Beta","name_short":"syd-5","host":"syd-1.au.uncletopia.com","port":27055,"enabled":true,"region":"au","cc":"au","latitude":-33.865143,"longitude":151.2099,"reserved":0,"last_update":"0001-01-01T00:00:00Z","name_a2s":"Uncletopia | Sydney | 5 | Stopwatch Beta","protocol":17,"map":"koth_lakeside_final","folder":"tf","game":"Team Fortress","app_id":440,"player_count":0,"max_players":24,"Bots":0,"server_type":"Dedicated","server_os":"Linux","password":true,"vac":true,"version":"7882260","steam_id":85568392925397959,"keywords":["cp","nocrits","nodmgspread","uncletopia"],"game_id":440,"stv_port":27056,"stv_name":"Uncletopia | Sydney | 5 | Stopwatch Beta | STV","players":null},{"server_id":59,"name":"Uncletopia | Sydney | 6 | Community","name_short":"syd-6","host":"syd-1.au.uncletopia.com","port":27065,"enabled":true,"region":"au","cc":"au","latitude":-33.865143,"longitude":151.2099,"reserved":0,"last_update":"0001-01-01T00:00:00Z","name_a2s":"Uncletopia | Sydney | 6 | Community","protocol":17,"map":"workshop/rd_asteroid_redux_b1.ugc2154902912","folder":"tf","game":"Team Fortress","app_id":440,"player_count":0,"max_players":24,"Bots":0,"server_type":"Dedicated","server_os":"Linux","password":true,"vac":true,"version":"7882260","steam_id":85568392925397960,"keywords":["beta","nocrits","nodmgspread","rd","uncletopia"],"game_id":440,"stv_port":27066,"stv_name":"Uncletopia | Sydney | 6 | Community | STV","players":null},{"server_id":49,"name":"Uncletopia | Warsaw | 1 | All Maps","name_short":"waw-1","host":"waw-1.pl.uncletopia.com","port":27015,"enabled":true,"region":"eu","cc":"pl","latitude":52.2297,"longitude":21.017532,"reserved":0,"last_update":"0001-01-01T00:00:00Z","name_a2s":"","protocol":0,"map":"","folder":"","game":"","app_id":0,"player_count":0,"max_players":0,"Bots":0,"server_type":"","server_os":"","password":false,"vac":false,"version":"","steam_id":0,"keywords":null,"game_id":0,"stv_port":0,"stv_name":"","players":null},{"server_id":50,"name":"Uncletopia | Warsaw | 2 | All Maps","name_short":"waw-2","host":"waw-1.pl.uncletopia.com","port":27025,"enabled":true,"region":"eu","cc":"pl","latitude":52.2297,"longitude":21.017532,"reserved":0,"last_update":"0001-01-01T00:00:00Z","name_a2s":"Uncletopia | Warsaw | 2 | All Maps","protocol":17,"map":"koth_cascade","folder":"tf","game":"Team Fortress","app_id":440,"player_count":0,"max_players":24,"Bots":0,"server_type":"Dedicated","server_os":"Linux","password":true,"vac":true,"version":"7882260","steam_id":85568392925397851,"keywords":["cp","nocrits","nodmgspread","uncletopia"],"game_id":440,"stv_port":27026,"stv_name":"Uncletopia | Warsaw | 2 | All Maps | STV","players":null},{"server_id":51,"name":"Uncletopia | Warsaw | 3 | All Maps","name_short":"waw-3","host":"waw-1.pl.uncletopia.com","port":27035,"enabled":true,"region":"eu","cc":"pl","latitude":52.2297,"longitude":21.017532,"reserved":0,"last_update":"0001-01-01T00:00:00Z","name_a2s":"Uncletopia | Warsaw | 3 | All Maps","protocol":17,"map":"pl_pier","folder":"tf","game":"Team Fortress","app_id":440,"player_count":15,"max_players":24,"Bots":0,"server_type":"Dedicated","server_os":"Linux","password":true,"vac":true,"version":"7882260","steam_id":85568392925397852,"keywords":["nocrits","nodmgspread","payload","uncletopia"],"game_id":440,"stv_port":27036,"stv_name":"Uncletopia | Warsaw | 3 | All Maps | STV","players":[{"user_id":35,"name":"SMhjatt","steam_id":76561198856879110,"connected_time":720000000000,"state":"active","ping":111},{"user_id":36,"name":"Lordware","steam_id":76561198022011299,"connected_time":697000000000,"state":"active","ping":97},{"user_id":48,"name":"Germanium_Ge","steam_id":76561198130561775,"connected_time":35000000000,"state":"active","ping":58},{"user_id":42,"name":"Blinimies","steam_id":76561198372430190,"connected_time":417000000000,"state":"active","ping":96},{"user_id":10,"name":"Akilotel","steam_id":76561199130975290,"connected_time":3216000000000,"state":"active","ping":71},{"user_id":11,"name":"UwUlric","steam_id":76561198136794751,"connected_time":3141000000000,"state":"active","ping":98},{"user_id":39,"name":"mały #tf2pickup.pl","steam_id":76561198074409147,"connected_time":486000000000,"state":"active","ping":44},{"user_id":40,"name":"Smith","steam_id":76561198132589784,"connected_time":481000000000,"state":"active","ping":85},{"user_id":41,"name":"Eliseo3820","steam_id":76561199204442259,"connected_time":480000000000,"state":"active","ping":275},{"user_id":43,"name":"Akker","steam_id":76561199000630792,"connected_time":414000000000,"state":"active","ping":60},{"user_id":31,"name":"Alice can't hit pipes","steam_id":76561198052410860,"connected_time":1245000000000,"state":"active","ping":114},{"user_id":44,"name":"Insert Text","steam_id":76561199012348370,"connected_time":413000000000,"state":"active","ping":106},{"user_id":45,"name":"Mr Bink","steam_id":76561198073290648,"connected_time":294000000000,"state":"active","ping":121},{"user_id":25,"name":"Grudan Ball","steam_id":76561198071167557,"connected_time":1910000000000,"state":"active","ping":77},{"user_id":47,"name":"R2D2trashcan","steam_id":76561198150448487,"connected_time":163000000000,"state":"active","ping":64}]},{"server_id":52,"name":"Uncletopia | Warsaw | 4 | All Maps","name_short":"waw-4","host":"waw-1.pl.uncletopia.com","port":27045,"enabled":true,"region":"eu","cc":"pl","latitude":52.2297,"longitude":21.017532,"reserved":0,"last_update":"0001-01-01T00:00:00Z","name_a2s":"Uncletopia | Warsaw | 4 | All Maps","protocol":17,"map":"koth_highpass","folder":"tf","game":"Team Fortress","app_id":440,"player_count":0,"max_players":24,"Bots":0,"server_type":"Dedicated","server_os":"Linux","password":true,"vac":true,"version":"7882260","steam_id":85568392925397853,"keywords":["cp","nocrits","nodmgspread","uncletopia"],"game_id":440,"stv_port":27046,"stv_name":"Uncletopia | Warsaw | 4 | All Maps | STV","players":null},{"server_id":53,"name":"Uncletopia | Warsaw | 5 | Stopwatch Beta","name_short":"waw-5","host":"waw-1.pl.uncletopia.com","port":27055,"enabled":true,"region":"eu","cc":"pl","latitude":52.2297,"longitude":21.017532,"reserved":0,"last_update":"0001-01-01T00:00:00Z","name_a2s":"Uncletopia | Warsaw | 5 | Stopwatch Beta","protocol":17,"map":"cp_mountainlab","folder":"tf","game":"Team Fortress","app_id":440,"player_count":0,"max_players":24,"Bots":0,"server_type":"Dedicated","server_os":"Linux","password":true,"vac":true,"version":"7882260","steam_id":85568392925397854,"keywords":["cp","nocrits","nodmgspread","uncletopia"],"game_id":440,"stv_port":27056,"stv_name":"Uncletopia | Warsaw | 5 | Stopwatch Beta | STV","players":null},{"server_id":54,"name":"Uncletopia | Warsaw | 6 | Community","name_short":"waw-6","host":"waw-1.pl.uncletopia.com","port":27065,"enabled":true,"region":"eu","cc":"pl","latitude":52.2297,"longitude":21.017532,"reserved":0,"last_update":"0001-01-01T00:00:00Z","name_a2s":"Uncletopia | Warsaw | 6 | Community","protocol":17,"map":"koth_viaduct","folder":"tf","game":"Team Fortress","app_id":440,"player_count":2,"max_players":24,"Bots":0,"server_type":"Dedicated","server_os":"Linux","password":true,"vac":true,"version":"7882260","steam_id":85568392925397856,"keywords":["cp","nocrits","nodmgspread","uncletopia"],"game_id":440,"stv_port":27066,"stv_name":"Uncletopia | Warsaw | 6 | Community | STV","players":[{"user_id":10,"name":"biszkoptthedog","steam_id":76561199232957709,"connected_time":1855000000000,"state":"active","ping":51},{"user_id":11,"name":"Jahman123","steam_id":76561199011235450,"connected_time":1849000000000,"state":"active","ping":54}]}]}