{"status":true,"message":"","result":[{"server_id":9,"name":"Uncletopia | Atlanta | 1 | All Maps","name_short":"atl-1","host":"atl-1.us.uncletopia.com","port":27015,"enabled":true,"region":"us-east","cc":"us","latitude":33.753746,"longitude":-84.38633,"reserved":0,"last_update":"0001-01-01T00:00:00Z","name_a2s":"Uncletopia | Atlanta | 1 | All Maps","protocol":17,"map":"pl_swiftwater_final1","folder":"tf","game":"Team Fortress","app_id":440,"player_count":24,"max_players":24,"Bots":0,"server_type":"Dedicated","server_os":"Linux","password":true,"vac":true,"version":"7882260","steam_id":85568392924469982,"keywords":["nocrits","nodmgspread","payload","uncletopia"],"game_id":440,"stv_port":27016,"stv_name":"Uncletopia | Atlanta | 1 | All Maps | STV","players":[{"user_id":223,"name":"doubleshare","steam_id":76561198024472046,"connected_time":2930000000000,"state":"active","ping":84},{"user_id":250,"name":"isaacbigcheese","steam_id":76561198123087556,"connected_time":1101000000000,"state":"active","ping":44},{"user_id":160,"name":"Bag","steam_id":76561198012395490,"connected_time":7057000000000,"state":"active","ping":53},{"user_id":237,"name":"jimmyfnaf172198yay","steam_id":76561198311446636,"connected_time":1427000000000,"state":"active","ping":80},{"user_id":212,"name":"NO AUDIO! BLASTING NOFX!","steam_id":76561198096221632,"connected_time":3510000000000,"state":"active","ping":45},{"user_id":238,"name":"joe","steam_id":76561198045781320,"connected_time":1424000000000,"state":"active","ping":65},{"user_id":239,"name":"Pios Chicken","steam_id":76561198167304707,"connected_time":1413000000000,"state":"active","ping":131},{"user_id":253,"name":"Boinker!","steam_id":76561198272961376,"connected_time":939000000000,"state":"active","ping":88},{"user_id":231,"name":"Rockhead","steam_id":76561197995196535,"connected_time":2379000000000,"state":"active","ping":68},{"user_id":256,"name":"Girl [Big Gock Edition]","steam_id":76561198276385778,"connected_time":273000000000,"state":"active","ping":104},{"user_id":246,"name":"Deltaco","steam_id":76561198094572694,"connected_time":1153000000000,"state":"active","ping":102},{"user_id":221,"name":"Yoru","steam_id":76561198119698950,"connected_time":3016000000000,"state":"active","ping":120},{"user_id":254,"name":"Grandpa´s Last Drop of Cum","steam_id":76561198079516696,"connected_time":867000000000,"state":"active","ping":108},{"user_id":241,"name":"beans","steam_id":76561199082781884,"connected_time":1408000000000,"state":"active","ping":87},{"user_id":260,"name":"(Parentheses)","steam_id":76561198069735882,"connected_time":210000000000,"state":"active","ping":53},{"user_id":257,"name":"vv","steam_id":76561198134813102,"connected_time":273000000000,"state":"active","ping":75},{"user_id":236,"name":"Uganda Knuckles lll","steam_id":76561199121276474,"connected_time":1449000000000,"state":"active","ping":85},{"user_id":264,"name":"Idk","steam_id":76561198971629959,"connected_time":97000000000,"state":"active","ping":127},{"user_id":217,"name":"David De Bergerac","steam_id":76561198010306294,"connected_time":3331000000000,"state":"active","ping":85},{"user_id":263,"name":"Musica Universalis","steam_id":76561198184794174,"connected_time":130000000000,"state":"active","ping":72},{"user_id":255,"name":"easiest airshotter","steam_id":76561198812385770,"connected_time":495000000000,"state":"active","ping":62},{"user_id":219,"name":"dementia gaming","steam_id":76561198432668439,"connected_time":3213000000000,"state":"active","ping":79},{"user_id":225,"name":"paetho YT","steam_id":76561198152690003,"connected_time":2835000000000,"state":"active","ping":45},{"user_id":259,"name":"Skinny pete","steam_id":76561198801608576,"connected_time":254000000000,"state":"active","ping":73}]},{"server_id":104,"name":"Uncletopia | Atlanta | 2 | All Maps","name_short":"atl-2","host":"atl-1.us.uncletopia.com","port":27025,"enabled":true,"region":"us-east","cc":"us","latitude":33.753746,"longitude":-84.38633,"reserved":0,"last_update":"0001-01-01T00:00:00Z","name_a2s":"Uncletopia | Atlanta | 2 | All Maps","protocol":17,"map":"pl_borneo","folder":"tf","game":"Team Fortress","app_id":440,"player_count":24,"max_players":24,"Bots":0,"server_type":"Dedicated","server_os":"Linux","password":true,"vac":true,"version":"7882260","steam_id":85568392924469983,"keywords":["nocrits","nodmgspread","payload","uncletopia"],"game_id":440,"stv_port":27026,"stv_name":"Uncletopia | Atlanta | 2 | All Maps | STV","players":[{"user_id":110,"name":"Ekuseebia","steam_id":76561198037504112,"connected_time":3125000000000,"state":"active","ping":83},{"user_id":152,"name":"J_Swizzleo","steam_id":76561198147307256,"connected_time":602000000000,"state":"active","ping":70},{"user_id":133,"name":"gromit","steam_id":76561198037746805,"connected_time":1616000000000,"state":"active","ping":76},{"user_id":131,"name":"Orc_estrion","steam_id":76561198210943347,"connected_time":1720000000000,"state":"active","ping":59},{"user_id":156,"name":"sunny","steam_id":76561198069380992,"connected_time":412000000000,"state":"active","ping":68},{"user_id":149,"name":"TwoBit","steam_id":76561198062437559,"connected_time":786000000000,"state":"active","ping":97},{"user_id":153,"name":"Wigl","steam_id":76561198019324464,"connected_time":564000000000,"state":"active","ping":62},{"user_id":88,"name":"troll","steam_id":76561198040890252,"connected_time":4240000000000,"state":"active","ping":53},{"user_id":134,"name":"asm_ghost","steam_id":76561199205363547,"connected_time":1591000000000,"state":"active","ping":129},{"user_id":114,"name":"cake-mix","steam_id":76561199475394535,"connected_time":2655000000000,"state":"active","ping":118},{"user_id":103,"name":"aintnowaiyboi","steam_id":76561198301372369,"connected_time":3759000000000,"state":"active","ping":49},{"user_id":124,"name":"Daddy","steam_id":76561198119535829,"connected_time":2182000000000,"state":"active","ping":65},{"user_id":150,"name":"SaltedPie","steam_id":76561199260720978,"connected_time":781000000000,"state":"active","ping":42},{"user_id":151,"name":"Big Tonka","steam_id":76561198891584971,"connected_time":684000000000,"state":"active","ping":72},{"user_id":154,"name":"Shark","steam_id":76561198219031981,"connected_time":459000000000,"state":"active","ping":90},{"user_id":79,"name":"you keep smelling the syrup","steam_id":76561198142756572,"connected_time":4917000000000,"state":"active","ping":45},{"user_id":136,"name":"Wahooka","steam_id":76561197962240925,"connected_time":1550000000000,"state":"active","ping":60},{"user_id":139,"name":"RyInc","steam_id":76561198874261643,"connected_time":1509000000000,"state":"active","ping":64},{"user_id":144,"name":"Sector ^^","steam_id":76561199216049671,"connected_time":1112000000000,"state":"active","ping":113},{"user_id":123,"name":"Ozald","steam_id":76561199092019322,"connected_time":2347000000000,"state":"active","ping":48},{"user_id":120,"name":"Afterlaff","steam_id":76561198045681469,"connected_time":2493000000000,"state":"active","ping":67},{"user_id":127,"name":"Racoon.zip","steam_id":76561199023759321,"connected_time":1838000000000,"state":"active","ping":119},{"user_id":146,"name":"Serenue","steam_id":76561199040361250,"connected_time":1103000000000,"state":"active","ping":91},{"user_id":109,"name":"the silly","steam_id":76561198850632709,"connected_time":3223000000000,"state":"active","ping":73}]},{"server_id":400,"name":"Uncletopia | Atlanta | 3 | Community","name_short":"atl-3","host":"atl-1.us.uncletopia.com","port":27035,"enabled":true,"region":"us-east","cc":"us","latitude":33.753746,"longitude":-84.38633,"reserved":0,"last_update":"0001-01-01T00:00:00Z","name_a2s":"Uncletopia | Atlanta | 3 | Community","protocol":17,"map":"workshop/pl_vigil_rc9.ugc1266210012","folder":"tf","game":"Team Fortress","app_id":440,"player_count":0,"max_players":24,"Bots":0,"server_type":"Dedicated","server_os":"Linux","password":true,"vac":true,"version":"7882260","steam_id":85568392924515187,"keywords":["nocrits","nodmgspread","payload","uncletopia"],"game_id":440,"stv_port":27036,"stv_name":"Uncletopia | Atlanta | 3 | Community | STV","players":null},{"server_id":401,"name":"Uncletopia | Atlanta | 4 | No Payload","name_short":"atl-4","host":"atl-1.us.uncletopia.com","port":27045,"enabled":true,"region":"us-east","cc":"us","latitude":33.753746,"longitude":-84.38633,"reserved":0,"last_update":"0001-01-01T00:00:00Z","name_a2s":"","protocol":0,"map":"","folder":"","game":"","app_id":0,"player_count":0,"max_players":0,"Bots":0,"server_type":"","server_os":"","password":false,"vac":false,"version":"","steam_id":0,"keywords":null,"game_id":0,"stv_port":0,"stv_name":"","players":null},{"server_id":2,"name":"Uncletopia | Chicago | 1 | All Maps","name_short":"chi-1","host":"chi-1.us.uncletopia.com","port":27015,"enabled":true,"region":"us-central","cc":"us","latitude":41.881832,"longitude":-87.62318,"reserved":0,"last_update":"0001-01-01T00:00:00Z","name_a2s":"Uncletopia | Chicago | 1 | All Maps","protocol":17,"map":"pl_badwater","folder":"tf","game":"Team Fortress","app_id":440,"player_count":24,"max_players":24,"Bots":0,"server_type":"Dedicated","server_os":"Linux","password":true,"vac":true,"version":"7882260","steam_id":85568392924469984,"keywords":["nocrits","nodmgspread","payload","uncletopia"],"game_id":440,"stv_port":27016,"stv_name":"Uncletopia | Chicago | 1 | All Maps | STV","players":[{"user_id":423,"name":"Astoriae!","steam_id":76561199090168858,"connected_time":517000000000,"state":"active","ping":81},{"user_id":421,"name":"Praise_to_the_Flashlight!","steam_id":76561199001728789,"connected_time":543000000000,"state":"active","ping":55},{"user_id":378,"name":"Mastermind","steam_id":76561198127783432,"connected_time":2128000000000,"state":"active","ping":69},{"user_id":424,"name":"AkimboAoki","steam_id":76561198158323058,"connected_time":507000000000,"state":"active","ping":94},{"user_id":232,"name":"Maverick","steam_id":76561198322829814,"connected_time":13490000000000,"state":"active","ping":80},{"user_id":372,"name":"Mank","steam_id":76561198189421005,"connected_time":2768000000000,"state":"active","ping":53},{"user_id":373,"name":"ThatOneKnight","steam_id":76561198388583650,"connected_time":2196000000000,"state":"active","ping":55},{"user_id":394,"name":"Vi","steam_id":76561198110033420,"connected_time":1152000000000,"state":"active","ping":66},{"user_id":384,"name":"see you soon","steam_id":76561198140584050,"connected_time":1933000000000,"state":"active","ping":72},{"user_id":374,"name":"coodge","steam_id":76561198139080439,"connected_time":2196000000000,"state":"active","ping":81},{"user_id":399,"name":"Undertime Slopper","steam_id":76561198396789061,"connected_time":1105000000000,"state":"active","ping":79},{"user_id":403,"name":"The Cool Man","steam_id":76561198096420556,"connected_time":939000000000,"state":"active","ping":100},{"user_id":294,"name":"MellowBoy-2354","steam_id":76561199080630632,"connected_time":8898000000000,"state":"active","ping":96},{"user_id":441,"name":"van","steam_id":76561199017754044,"connected_time":186000000000,"state":"active","ping":70},{"user_id":198,"name":"Dr.BiohunterPHD","steam_id":76561198047023365,"connected_time":15939000000000,"state":"active","ping":93},{"user_id":404,"name":"IMM0RTAL","steam_id":76561198013747901,"connected_time":914000000000,"state":"active","ping":74},{"user_id":405,"name":"0","steam_id":76561198046055673,"connected_time":906000000000,"state":"active","ping":74},{"user_id":355,"name":"Sableye","steam_id":76561198061247147,"connected_time":4344000000000,"state":"active","ping":66},{"user_id":406,"name":"Hurricane Bady (Meth Head)","steam_id":76561198253539262,"connected_time":886000000000,"state":"active","ping":66},{"user_id":353,"name":"Ras","steam_id":76561198123546775,"connected_time":4432000000000,"state":"active","ping":73},{"user_id":390,"name":"Gorf","steam_id":76561199060557282,"connected_time":1468000000000,"state":"active","ping":68},{"user_id":358,"name":"Dusken","steam_id":76561198020696265,"connected_time":4129000000000,"state":"active","ping":71},{"user_id":400,"name":"ganchy","steam_id":76561198088384838,"connected_time":1036000000000,"state":"active","ping":74},{"user_id":409,"name":"Gnarly Shark Bite","steam_id":76561198004058342,"connected_time":753000000000,"state":"active","ping":78}]},{"server_id":106,"name":"Uncletopia | Chicago | 2 | All Maps","name_short":"chi-2","host":"chi-1.us.uncletopia.com","port":27025,"enabled":true,"region":"us-central","cc":"us","latitude":41.881832,"longitude":-87.62318,"reserved":0,"last_update":"0001-01-01T00:00:00Z","name_a2s":"Uncletopia | Chicago | 2 | All Maps","protocol":17,"map":"pl_thundermountain","folder":"tf","game":"Team Fortress","app_id":440,"player_count":24,"max_players":24,"Bots":0,"server_type":"Dedicated","server_os":"Linux","password":true,"vac":true,"version":"7882260","steam_id":85568392924469985,"keywords":["nocrits","nodmgspread","payload","uncletopia"],"game_id":440,"stv_port":27026,"stv_name":"Uncletopia | Chicago | 2 | All Maps | STV","players":[{"user_id":314,"name":"twizted","steam_id":76561197960407274,"connected_time":669000000000,"state":"active","ping":68},{"user_id":315,"name":"The Incredible Fem Boy","steam_id":76561198355754259,"connected_time":664000000000,"state":"active","ping":72},{"user_id":282,"name":"CyberZayne","steam_id":76561198002351356,"connected_time":3159000000000,"state":"active","ping":99},{"user_id":327,"name":"hatchetax","steam_id":76561199013337543,"connected_time":318000000000,"state":"active","ping":73},{"user_id":285,"name":"bicth","steam_id":76561198086314381,"connected_time":3099000000000,"state":"active","ping":75},{"user_id":313,"name":"Yume","steam_id":76561198018060136,"connected_time":699000000000,"state":"active","ping":73},{"user_id":333,"name":"astron","steam_id":76561198058546328,"connected_time":13000000000,"state":"active","ping":342},{"user_id":329,"name":"Famelegion","steam_id":76561198958341424,"connected_time":253000000000,"state":"active","ping":101},{"user_id":310,"name":"Yosh","steam_id":76561198027078899,"connected_time":1466000000000,"state":"active","ping":79},{"user_id":302,"name":"A Puppy","steam_id":76561198828184456,"connected_time":2124000000000,"state":"active","ping":61},{"user_id":309,"name":"Castroy","steam_id":76561198108160099,"connected_time":1651000000000,"state":"active","ping":68},{"user_id":297,"name":"Knight Minson","steam_id":76561198091567396,"connected_time":2683000000000,"state":"active","ping":59},{"user_id":317,"name":"Zenela","steam_id":76561199230129805,"connected_time":625000000000,"state":"active","ping":66},{"user_id":325,"name":"sheep","steam_id":76561198172943006,"connected_time":375000000000,"state":"active","ping":46},{"user_id":289,"name":"bones?!?!","steam_id":76561198084646266,"connected_time":3013000000000,"state":"active","ping":75},{"user_id":256,"name":"rabscootle","steam_id":76561198045619076,"connected_time":4800000000000,"state":"active","ping":47},{"user_id":331,"name":"ScumLord","steam_id":76561198079621608,"connected_time":98000000000,"state":"active","ping":90},{"user_id":303,"name":"Grandma","steam_id":76561198192419939,"connected_time":2104000000000,"state":"active","ping":143},{"user_id":301,"name":"spooky","steam_id":76561198122964663,"connected_time":2449000000000,"state":"active","ping":68},{"user_id":326,"name":"neet","steam_id":76561197968115168,"connected_time":329000000000,"state":"active","ping":60},{"user_id":323,"name":"[PFF] Giacomo","steam_id":76561198058560798,"connected_time":503000000000,"state":"active","ping":56},{"user_id":328,"name":"Indigolake","steam_id":76561198202215807,"connected_time":310000000000,"state":"active","ping":88},{"user_id":332,"name":"violent monkey porn","steam_id":76561199285074344,"connected_time":97000000000,"state":"active","ping":68},{"user_id":334,"name":"money getting 1 percenter","steam_id":76561198012796388,"connected_time":6000000000,"state":"active","ping":260}]},{"server_id":402,"name":"Uncletopia | Chicago | 3 | All Maps","name_short":"chi-3","host":"chi-1.us.uncletopia.com","port":27035,"enabled":true,"region":"us-central","cc":"us","latitude":41.881832,"longitude":-87.62318,"reserved":0,"last_update":"0001-01-01T00:00:00Z","name_a2s":"Uncletopia | Chicago | 3 | All Maps","protocol":17,"map":"pl_swiftwater_final1","folder":"tf","game":"Team Fortress","app_id":440,"player_count":25,"max_players":24,"Bots":0,"server_type":"Dedicated","server_os":"Linux","password":true,"vac":true,"version":"7882260","steam_id":85568392924515191,"keywords":["nocrits","nodmgspread","payload","uncletopia"],"game_id":440,"stv_port":27036,"stv_name":"Uncletopia | Chicago | 3 | All Maps | STV","players":[{"user_id":439,"name":"Kamin","steam_id":76561198255299559,"connected_time":954000000000,"state":"active","ping":84},{"user_id":429,"name":"(ง'̀-'́)ง Stonefist Jacks","steam_id":76561197975737997,"connected_time":1959000000000,"state":"active","ping":66},{"user_id":440,"name":"Mr. Soupman","steam_id":76561198021649598,"connected_time":937000000000,"state":"active","ping":60},{"user_id":450,"name":"Enlightened Zebra","steam_id":76561199252211343,"connected_time":59000000000,"state":"active","ping":152},{"user_id":420,"name":"ryder","steam_id":76561199230391346,"connected_time":2249000000000,"state":"active","ping":60},{"user_id":433,"name":"old_gus","steam_id":76561197964214993,"connected_time":1223000000000,"state":"active","ping":96},{"user_id":444,"name":"Yam Jazzy Jim","steam_id":76561198000788950,"connected_time":115000000000,"state":"active","ping":60},{"user_id":438,"name":"Menacing Pile of Frogs","steam_id":76561198360134800,"connected_time":1013000000000,"state":"active","ping":65},{"user_id":447,"name":"smallest_monkey","steam_id":76561198141499362,"connected_time":94000000000,"state":"connecting","ping":0},{"user_id":452,"name":"Onyiun","steam_id":76561199124107338,"connected_time":36000000000,"state":"active","ping":86},{"user_id":402,"name":"Eins","steam_id":76561199030343810,"connected_time":3017000000000,"state":"active","ping":65},{"user_id":401,"name":"Mr_Frosty","steam_id":76561199380389079,"connected_time":3198000000000,"state":"active","ping":101},{"user_id":443,"name":"Demoman With One Joke","steam_id":76561197993467034,"connected_time":404000000000,"state":"active","ping":55},{"user_id":368,"name":"freebigslappy","steam_id":76561198068538473,"connected_time":5002000000000,"state":"active","ping":75},{"user_id":445,"name":"Triples_","steam_id":76561198094249561,"connected_time":110000000000,"state":"active","ping":59},{"user_id":436,"name":"Ohio Survivor","steam_id":76561198031675881,"connected_time":1118000000000,"state":"active","ping":42},{"user_id":435,"name":"wahooka","steam_id":76561197981211922,"connected_time":1137000000000,"state":"active","ping":73},{"user_id":446,"name":"Still-Icarus","steam_id":76561198391481385,"connected_time":106000000000,"state":"active","ping":81},{"user_id":432,"name":"gaming elliptical","steam_id":76561198013456569,"connected_time":1412000000000,"state":"active","ping":52},{"user_id":341,"name":"Yukon Cornelius","steam_id":76561198261512781,"connected_time":6390000000000,"state":"active","ping":82},{"user_id":412,"name":"J.G. Klaus","steam_id":76561198001111196,"connected_time":2696000000000,"state":"active","ping":60},{"user_id":448,"name":"good soup guy","steam_id":76561199210237835,"connected_time":86000000000,"state":"active","ping":72},{"user_id":449,"name":"NoHands46","steam_id":76561199086357052,"connected_time":86000000000,"state":"active","ping":53},{"user_id":424,"name":"Jbomb","steam_id":76561199197866625,"connected_time":2208000000000,"state":"active","ping":67},{"user_id":453,"name":"Sone","steam_id":76561199404843697,"connected_time":9000000000,"state":"active","ping":95}]},{"server_id":403,"name":"Uncletopia | Chicago | 4 | All Maps","name_short":"chi-4","host":"chi-1.us.uncletopia.com","port":27045,"enabled":true,"region":"us-central","cc":"us","latitude":41.881832,"longitude":-87.62318,"reserved":0,"last_update":"0001-01-01T00:00:00Z","name_a2s":"Uncletopia | Chicago | 4 | All Maps","protocol":17,"map":"koth_viaduct","folder":"tf","game":"Team Fortress","app_id":440,"player_count":1,"max_players":24,"Bots":0,"server_type":"Dedicated","server_os":"Linux","password":true,"vac":true,"version":"7882260","steam_id":85568392924515193,"keywords":["cp","nocrits","nodmgspread","uncletopia"],"game_id":440,"stv_port":27046,"stv_name":"Uncletopia | Chicago | 4 | All Maps | STV","players":[{"user_id":10,"name":"Chode Mode","steam_id":76561198353840477,"connected_time":121000000000,"state":"active","ping":79}]},{"server_id":36,"name":"Uncletopia | Chicago | 5 | All Maps","name_short":"chi-5","host":"chi-2.us.uncletopia.com","port":27015,"enabled":true,"region":"us-central","cc":"us","latitude":41.881832,"longitude":-87.62318,"reserved":0,"last_update":"0001-01-01T00:00:00Z","name_a2s":"Uncletopia | Chicago | 5 | All Maps","protocol":17,"map":"cp_mountainlab","folder":"tf","game":"Team Fortress","app_id":440,"player_count":0,"max_players":24,"Bots":0,"server_type":"Dedicated","server_os":"Linux","password":true,"vac":true,"version":"7882260","steam_id":85568392924866362,"keywords":["cp","nocrits","nodmgspread","uncletopia"],"game_id":440,"stv_port":27016,"stv_name":"Uncletopia | Chicago | 5 | All Maps | STV","players":null},{"server_id":37,"name":"Uncletopia | Chicago | 6 | All Maps","name_short":"chi-6","host":"chi-2.us.uncletopia.com","port":27025,"enabled":true,"region":"us-central","cc":"us","latitude":41.881832,"longitude":-87.62318,"reserved":0,"last_update":"0001-01-01T00:00:00Z","name_a2s":"Uncletopia | Chicago | 6 | All Maps","protocol":17,"map":"pl_frontier_final","folder":"tf","game":"Team Fortress","app_id":440,"player_count":24,"max_players":24,"Bots":0,"server_type":"Dedicated","server_os":"Linux","password":true,"vac":true,"version":"7882260","steam_id":85568392924866363,"keywords":["nocrits","nodmgspread","payload","uncletopia"],"game_id":440,"stv_port":27026,"stv_name":"Uncletopia | Chicago | 6 | All Maps | STV","players":[{"user_id":463,"name":"Petrivus","steam_id":76561198202152453,"connected_time":1298000000000,"state":"active","ping":104},{"user_id":473,"name":"944turb0","steam_id":76561197961561709,"connected_time":73000000000,"state":"active","ping":145},{"user_id":469,"name":"SCraig64","steam_id":76561198171251965,"connected_time":139000000000,"state":"active","ping":75},{"user_id":425,"name":"I Can't Read","steam_id":76561198023424263,"connected_time":4706000000000,"state":"active","ping":100},{"user_id":474,"name":"Nelson","steam_id":76561198850327678,"connected_time":69000000000,"state":"active","ping":92},{"user_id":470,"name":"\u003c better than me","steam_id":76561197961277967,"connected_time":137000000000,"state":"active","ping":76},{"user_id":446,"name":"HellaCopter","steam_id":76561198062313698,"connected_time":2512000000000,"state":"active","ping":102},{"user_id":467,"name":"Mr.Bady","steam_id":76561199094651706,"connected_time":644000000000,"state":"active","ping":70},{"user_id":464,"name":"Nrub","steam_id":76561199486344810,"connected_time":685000000000,"state":"active","ping":70},{"user_id":475,"name":"Herr Müller","steam_id":76561198064876829,"connected_time":63000000000,"state":"active","ping":91},{"user_id":438,"name":"BooceMaster","steam_id":76561198148520318,"connected_time":3378000000000,"state":"active","ping":70},{"user_id":471,"name":"dr peppah chug!","steam_id":76561198068835693,"connected_time":137000000000,"state":"active","ping":87},{"user_id":451,"name":"stink","steam_id":76561198099318923,"connected_time":2395000000000,"state":"active","ping":59},{"user_id":462,"name":"Dr. Robotniks Mean Bean Machine","steam_id":76561198047980627,"connected_time":1483000000000,"state":"active","ping":48},{"user_id":461,"name":"The Notorious J.A.V","steam_id":76561198329087915,"connected_time":1491000000000,"state":"active","ping":105},{"user_id":476,"name":"Vladimir Puddin","steam_id":76561198139674520,"connected_time":53000000000,"state":"connecting","ping":0},{"user_id":419,"name":"jooby","steam_id":76561198131065492,"connected_time":5355000000000,"state":"active","ping":70},{"user_id":452,"name":"Potato Knishes","steam_id":76561198063539547,"connected_time":2361000000000,"state":"active","ping":115},{"user_id":456,"name":"elmo","steam_id":76561198179171574,"connected_time":2240000000000,"state":"active","ping":79},{"user_id":418,"name":"Uwu Micster","steam_id":76561198843890616,"connected_time":5394000000000,"state":"active","ping":75},{"user_id":477,"name":"sad tool","steam_id":76561198052431073,"connected_time":40000000000,"state":"active","ping":74},{"user_id":458,"name":"Kzjytsugn","steam_id":76561198130241974,"connected_time":1772000000000,"state":"active","ping":88},{"user_id":443,"name":"ZofoJackson","steam_id":76561197998366861,"connected_time":2772000000000,"state":"active","ping":57},{"user_id":441,"name":"ryghehn","steam_id":76561198195359229,"connected_time":3222000000000,"state":"active","ping":90}]},{"server_id":38,"name":"Uncletopia | Chicago | 7 | Stopwatch Beta","name_short":"chi-7","host":"chi-2.us.uncletopia.com","port":27035,"enabled":true,"region":"us-central","cc":"us","latitude":41.881832,"longitude":-87.62318,"reserved":0,"last_update":"0001-01-01T00:00:00Z","name_a2s":"Uncletopia | Chicago | 7 | Stopwatch Beta","protocol":17,"map":"cp_metalworks","folder":"tf","game":"Team Fortress","app_id":440,"player_count":22,"max_players":24,"Bots":0,"server_type":"Dedicated","server_os":"Linux","password":true,"vac":true,"version":"7882260","steam_id":85568392924866364,"keywords":["cp","nocrits","nodmgspread","uncletopia"],"game_id":440,"stv_port":27036,"stv_name":"Uncletopia | Chicago | 7 | Stopwatch Beta | STV","players":[{"user_id":221,"name":"LtK","steam_id":76561197993180943,"connected_time":2062000000000,"state":"active","ping":59},{"user_id":237,"name":"Area51RaidVeteran","steam_id":76561198257450563,"connected_time":169000000000,"state":"active","ping":62},{"user_id":231,"name":"Jeugh","steam_id":76561198073498865,"connected_time":616000000000,"state":"active","ping":88},{"user_id":240,"name":"Solstrom","steam_id":76561198313364985,"connected_time":80000000000,"state":"active","ping":74},{"user_id":187,"name":"pumpernickelpeter47","steam_id":76561198202016334,"connected_time":3620000000000,"state":"active","ping":64},{"user_id":239,"name":"heritage","steam_id":76561198108685037,"connected_time":151000000000,"state":"active","ping":64},{"user_id":241,"name":"Vladimir Puddin","steam_id":76561198139674520,"connected_time":51000000000,"state":"active","ping":56},{"user_id":226,"name":"Iman","steam_id":76561198063677510,"connected_time":1014000000000,"state":"active","ping":78},{"user_id":235,"name":"Animal Slices","steam_id":76561198137545511,"connected_time":211000000000,"state":"active","ping":56},{"user_id":161,"name":"The_Man","steam_id":76561199194890696,"connected_time":4960000000000,"state":"active","ping":110},{"user_id":172,"name":"A Trigger Happy Chipmunk","steam_id":76561198013608736,"connected_time":4179000000000,"state":"active","ping":59},{"user_id":225,"name":"legend","steam_id":76561198117694535,"connected_time":1745000000000,"state":"active","ping":45},{"user_id":242,"name":"exotic fishes","steam_id":76561199046490785,"connected_time":38000000000,"state":"active","ping":61},{"user_id":227,"name":"Naffty","steam_id":76561198119734981,"connected_time":1013000000000,"state":"active","ping":98},{"user_id":228,"name":"[_Dr.Scythe_]","steam_id":76561198845245858,"connected_time":966000000000,"state":"active","ping":83},{"user_id":194,"name":"Speedsterboom","steam_id":76561198159807287,"connected_time":3135000000000,"state":"active","ping":78},{"user_id":114,"name":"IGNORE ME","steam_id":76561198054390505,"connected_time":7903000000000,"state":"active","ping":51},{"user_id":233,"name":"sassy loli","steam_id":76561198402316065,"connected_time":257000000000,"state":"active","ping":95},{"user_id":219,"name":"superbad","steam_id":76561198065913973,"connected_time":2400000000000,"state":"active","ping":102},{"user_id":154,"name":"OOOOOOOOOOOOOOOOOOOOOOOOOOOOOOO","steam_id":76561198083276946,"connected_time":6118000000000,"state":"active","ping":68},{"user_id":215,"name":"GamingJuice42","steam_id":76561198110469437,"connected_time":2510000000000,"state":"active","ping":57},{"user_id":216,"name":"SecurityCamera","steam_id":76561198117266792,"connected_time":2466000000000,"state":"active","ping":147}]},{"server_id":39,"name":"Uncletopia | Chicago | 8 | Community","name_short":"chi-8","host":"chi-2.us.uncletopia.com","port":27045,"enabled":true,"region":"us-central","cc":"us","latitude":41.881832,"longitude":-87.62318,"reserved":0,"last_update":"0001-01-01T00:00:00Z","name_a2s":"Uncletopia | Chicago | 8 | Community","protocol":17,"map":"workshop/pl_fifthcurve_rc1.ugc648227046","folder":"tf","game":"Team Fortress","app_id":440,"player_count":0,"max_players":24,"Bots":0,"server_type":"Dedicated","server_os":"Linux","password":true,"vac":true,"version":"7882260","steam_id":85568392924866365,"keywords":["nocrits","nodmgspread","payload","uncletopia"],"game_id":440,"stv_port":27046,"stv_name":"Uncletopia | Chicago | 8 | Community | STV","players":null},{"server_id":8,"name":"Uncletopia | Dallas | 1 | All Maps","name_short":"dal-1","host":"dal-1.us.uncletopia.com","port":27015,"enabled":true,"region":"us-central","cc":"us","latitude":32.779167,"longitude":-96.80889,"reserved":0,"last_update":"0001-01-01T00:00:00Z","name_a2s":"Uncletopia | Dallas | 1 | All Maps","protocol":17,"map":"cp_sunshine","folder":"tf","game":"Team Fortress","app_id":440,"player_count":24,"max_players":24,"Bots":0,"server_type":"Dedicated","server_os":"Linux","password":true,"vac":true,"version":"7882260","steam_id":85568392924469986,"keywords":["cp","nocrits","nodmgspread","uncletopia"],"game_id":440,"stv_port":27016,"stv_name":"Uncletopia | Dallas | 1 | All Maps | STV","players":[{"user_id":257,"name":"$5 biggie bag","steam_id":76561198298310744,"connected_time":1831000000000,"state":"active","ping":89},{"user_id":260,"name":"mae","steam_id":76561199263128928,"connected_time":1608000000000,"state":"active","ping":105},{"user_id":277,"name":"Humon Player","steam_id":76561198013593178,"connected_time":308000000000,"state":"active","ping":59},{"user_id":262,"name":"FruitsBasket2004","steam_id":76561199483951635,"connected_time":1596000000000,"state":"active","ping":101},{"user_id":261,"name":"OwlNoir","steam_id":76561198331895751,"connected_time":1601000000000,"state":"active","ping":85},{"user_id":209,"name":"oph","steam_id":76561198130182991,"connected_time":6463000000000,"state":"active","ping":95},{"user_id":269,"name":"CherriKat (she/her)","steam_id":76561198821297512,"connected_time":1184000000000,"state":"active","ping":82},{"user_id":272,"name":"RaixaR","steam_id":76561198025289430,"connected_time":1100000000000,"state":"active","ping":52},{"user_id":267,"name":"posting.","steam_id":76561198066619792,"connected_time":1260000000000,"state":"active","ping":61},{"user_id":270,"name":"trobin120","steam_id":76561199122420273,"connected_time":1180000000000,"state":"active","ping":84},{"user_id":251,"name":"Not A Rapper","steam_id":76561198077523537,"connected_time":2605000000000,"state":"active","ping":96},{"user_id":271,"name":"Failafel","steam_id":76561199111552786,"connected_time":1159000000000,"state":"active","ping":156},{"user_id":279,"name":"DeadMeme","steam_id":76561198269707793,"connected_time":50000000000,"state":"active","ping":106},{"user_id":259,"name":"metaverse embezzlement hole","steam_id":76561198410078962,"connected_time":1746000000000,"state":"active","ping":69},{"user_id":236,"name":"DMM","steam_id":76561198065426171,"connected_time":3893000000000,"state":"active","ping":47},{"user_id":204,"name":"waowaowao","steam_id":76561198068804538,"connected_time":6846000000000,"state":"active","ping":87},{"user_id":205,"name":"pabloramirez1998@gmail.com","steam_id":76561198969675306,"connected_time":6801000000000,"state":"active","ping":75},{"user_id":276,"name":"Munt Machine","steam_id":76561199153433318,"connected_time":386000000000,"state":"active","ping":54},{"user_id":265,"name":"brain maggot","steam_id":76561198069979962,"connected_time":1525000000000,"state":"active","ping":85},{"user_id":278,"name":"Penguinodle","steam_id":76561199082347306,"connected_time":257000000000,"state":"active","ping":45},{"user_id":213,"name":"TheMrMan","steam_id":76561198072304288,"connected_time":5681000000000,"state":"active","ping":98},{"user_id":254,"name":"LooperDooper","steam_id":76561198162464484,"connected_time":1988000000000,"state":"active","ping":84},{"user_id":180,"name":"motherfucker 2.0","steam_id":76561198141189209,"connected_time":9195000000000,"state":"active","ping":45},{"user_id":256,"name":"Mellou","steam_id":76561198212048740,"connected_time":1868000000000,"state":"active","ping":41}]},{"server_id":108,"name":"Uncletopia | Dallas | 2 | All Maps","name_short":"dal-2","host":"dal-1.us.uncletopia.com","port":27025,"enabled":true,"region":"us-central","cc":"us","latitude":32.779167,"longitude":-96.80889,"reserved":0,"last_update":"0001-01-01T00:00:00Z","name_a2s":"Uncletopia | Dallas | 2 | All Maps","protocol":17,"map":"cp_snakewater_final1","folder":"tf","game":"Team Fortress","app_id":440,"player_count":24,"max_players":24,"Bots":0,"server_type":"Dedicated","server_os":"Linux","password":true,"vac":true,"version":"7882260","steam_id":85568392924469988,"keywords":["cp","nocrits","nodmgspread","uncletopia"],"game_id":440,"stv_port":27026,"stv_name":"Uncletopia | Dallas | 2 | All Maps | STV","players":[{"user_id":325,"name":"t.tv/lillieceon","steam_id":76561198062297621,"connected_time":2710000000000,"state":"active","ping":74},{"user_id":334,"name":"FaelisongTalim","steam_id":76561198061921771,"connected_time":2000000000000,"state":"active","ping":92},{"user_id":354,"name":"rept","steam_id":76561198022100969,"connected_time":153000000000,"state":"active","ping":65},{"user_id":343,"name":"His buddy Eric","steam_id":76561198275362375,"connected_time":1678000000000,"state":"active","ping":84},{"user_id":316,"name":"Ferguson","steam_id":76561198121349387,"connected_time":3663000000000,"state":"active","ping":55},{"user_id":355,"name":"NOAA","steam_id":76561199134198342,"connected_time":150000000000,"state":"active","ping":71},{"user_id":335,"name":"Cave Dweller","steam_id":76561198374825685,"connected_time":1994000000000,"state":"active","ping":95},{"user_id":356,"name":"Burrbank","steam_id":76561198042888060,"connected_time":146000000000,"state":"active","ping":104},{"user_id":302,"name":"troutsupply.net | shitass","steam_id":76561198210572481,"connected_time":4056000000000,"state":"active","ping":60},{"user_id":310,"name":"Starkiller","steam_id":76561198101643120,"connected_time":3720000000000,"state":"active","ping":45},{"user_id":331,"name":"totally not a pile of beans","steam_id":76561198119851931,"connected_time":2195000000000,"state":"active","ping":97},{"user_id":347,"name":"Addy \u003c3","steam_id":76561198045819723,"connected_time":1335000000000,"state":"active","ping":108},{"user_id":351,"name":"macroplastics","steam_id":76561198077272494,"connected_time":517000000000,"state":"active","ping":75},{"user_id":327,"name":"the scrungly","steam_id":76561198275728291,"connected_time":2408000000000,"state":"active","ping":62},{"user_id":358,"name":"HomerSims","steam_id":76561198329238301,"connected_time":139000000000,"state":"active","ping":102},{"user_id":350,"name":"E. Gordbort","steam_id":76561198094231961,"connected_time":560000000000,"state":"active","ping":60},{"user_id":353,"name":"Nibareaux","steam_id":76561198322044169,"connected_time":177000000000,"state":"active","ping":61},{"user_id":359,"name":"Sariff","steam_id":76561198136446352,"connected_time":129000000000,"state":"active","ping":75},{"user_id":352,"name":"Sup m8","steam_id":76561198081659121,"connected_time":453000000000,"state":"active","ping":41},{"user_id":333,"name":"webaline","steam_id":76561199052450127,"connected_time":2052000000000,"state":"active","ping":79},{"user_id":360,"name":"Quietsharp","steam_id":76561198277968438,"connected_time":125000000000,"state":"active","ping":80},{"user_id":361,"name":"Squiliam","steam_id":76561198025278006,"connected_time":124000000000,"state":"active","ping":50},{"user_id":362,"name":"Alice in Rubberland","steam_id":76561198087328346,"connected_time":116000000000,"state":"active","ping":71},{"user_id":319,"name":"Glaceon","steam_id":76561198177715869,"connected_time":3255000000000,"state":"active","ping":64}]},{"server_id":5,"name":"Uncletopia | Frankfurt | 1 | All Maps","name_short":"frk-1","host":"frk-1.de.uncletopia.com","port":27015,"enabled":true,"region":"eu","cc":"de","latitude":50.110924,"longitude":8.682127,"reserved":0,"last_update":"0001-01-01T00:00:00Z","name_a2s":"Uncletopia | Frankfurt | 1 | All Maps","protocol":17,"map":"cp_snakewater_final1","folder":"tf","game":"Team Fortress","app_id":440,"player_count":24,"max_players":24,"Bots":0,"server_type":"Dedicated","server_os":"Linux","password":true,"vac":true,"version":"7882260","steam_id":85568392924469989,"keywords":["cp","nocrits","nodmgspread","uncletopia"],"game_id":440,"stv_port":27016,"stv_name":"Uncletopia | Frankfurt | 1 | All Maps | STV","players":[{"user_id":637,"name":"elio","steam_id":76561198142662131,"connected_time":1676000000000,"state":"active","ping":69},{"user_id":641,"name":"quickfast","steam_id":76561199438900919,"connected_time":1327000000000,"state":"active","ping":59},{"user_id":653,"name":"mrK_","steam_id":76561198120166752,"connected_time":492000000000,"state":"active","ping":68},{"user_id":636,"name":"Ječmen","steam_id":76561198051617968,"connected_time":1811000000000,"state":"active","ping":68},{"user_id":643,"name":"Tyranitar","steam_id":76561198094473194,"connected_time":1299000000000,"state":"active","ping":57},{"user_id":601,"name":"Grease Huffer","steam_id":76561198982674420,"connected_time":3633000000000,"state":"active","ping":59},{"user_id":626,"name":"tobs","steam_id":76561197987616937,"connected_time":2691000000000,"state":"active","ping":60},{"user_id":605,"name":"Начальник","steam_id":76561198422028453,"connected_time":3389000000000,"state":"active","ping":76},{"user_id":609,"name":"reformed i swear","steam_id":76561198152392309,"connected_time":3276000000000,"state":"active","ping":48},{"user_id":630,"name":"BELADIT","steam_id":76561198011911501,"connected_time":2423000000000,"state":"active","ping":73},{"user_id":652,"name":"Enraged hbivnm","steam_id":76561197996468677,"connected_time":777000000000,"state":"active","ping":55},{"user_id":608,"name":"Fat Pigeon","steam_id":76561198817940142,"connected_time":3317000000000,"state":"active","ping":50},{"user_id":631,"name":"Jackie Chan","steam_id":76561199378865926,"connected_time":2385000000000,"state":"active","ping":81},{"user_id":625,"name":"hadeS","steam_id":76561199435854673,"connected_time":2769000000000,"state":"active","ping":104},{"user_id":610,"name":"Yanniki","steam_id":76561197986058110,"connected_time":3268000000000,"state":"active","ping":68},{"user_id":648,"name":"Qdarks","steam_id":76561198013391340,"connected_time":1137000000000,"state":"active","ping":159},{"user_id":650,"name":"Underground - Hard Rock R1700G","steam_id":76561198215986979,"connected_time":1075000000000,"state":"active","ping":60},{"user_id":612,"name":"SpyCrab  Erik Twice","steam_id":76561198009710309,"connected_time":3261000000000,"state":"active","ping":64},{"user_id":627,"name":"Kriba","steam_id":76561198392985993,"connected_time":2681000000000,"state":"active","ping":77},{"user_id":635,"name":"peso enjoyer","steam_id":76561198798177799,"connected_time":2176000000000,"state":"active","ping":70},{"user_id":615,"name":"Team Forchips 2","steam_id":76561198341608183,"connected_time":3168000000000,"state":"active","ping":82},{"user_id":651,"name":"pourin up","steam_id":76561198273358760,"connected_time":1048000000000,"state":"active","ping":62},{"user_id":647,"name":"Hildreth","steam_id":76561197995254867,"connected_time":1224000000000,"state":"active","ping":65},{"user_id":639,"name":"Cataleptic","steam_id":76561197997966949,"connected_time":1615000000000,"state":"active","ping":101}]},{"server_id":110,"name":"Uncletopia | Frankfurt | 2 | All Maps","name_short":"frk-2","host":"frk-1.de.uncletopia.com","port":27025,"enabled":true,"region":"eu","cc":"de","latitude":50.110924,"longitude":8.682127,"reserved":0,"last_update":"0001-01-01T00:00:00Z","name_a2s":"Uncletopia | Frankfurt | 2 | All Maps","protocol":17,"map":"cp_dustbowl","folder":"tf","game":"Team Fortress","app_id":440,"player_count":24,"max_players":24,"Bots":0,"server_type":"Dedicated","server_os":"Linux","password":true,"vac":true,"version":"7882260","steam_id":85568392924469990,"keywords":["cp","nocrits","nodmgspread","uncletopia"],"game_id":440,"stv_port":27026,"stv_name":"Uncletopia | Frankfurt | 2 | All Maps | STV","players":[{"user_id":392,"name":"screenshot2020-25-09","steam_id":76561198255275650,"connected_time":339000000000,"state":"active","ping":49},{"user_id":393,"name":"GuSkand","steam_id":76561198043775605,"connected_time":309000000000,"state":"active","ping":84},{"user_id":394,"name":"silak","steam_id":76561198150001174,"connected_time":288000000000,"state":"active","ping":62},{"user_id":395,"name":"ooz","steam_id":76561198062257357,"connected_time":286000000000,"state":"active","ping":56},{"user_id":381,"name":"Possupoika7","steam_id":76561198817630199,"connected_time":1136000000000,"state":"active","ping":101},{"user_id":391,"name":"bossievossie","steam_id":76561198836337543,"connected_time":438000000000,"state":"active","ping":72},{"user_id":345,"name":"rummy","steam_id":76561197997573379,"connected_time":3223000000000,"state":"active","ping":52},{"user_id":347,"name":"VampiuS","steam_id":76561197998827007,"connected_time":2957000000000,"state":"active","ping":53},{"user_id":390,"name":"ðjlëññgøðx","steam_id":76561198028713119,"connected_time":648000000000,"state":"active","ping":60},{"user_id":342,"name":"Tonne","steam_id":76561197970856766,"connected_time":3296000000000,"state":"active","ping":73},{"user_id":396,"name":"midlpsyzl47","steam_id":76561199475972637,"connected_time":285000000000,"state":"active","ping":69},{"user_id":363,"name":"ducksattack","steam_id":76561198074706076,"connected_time":2244000000000,"state":"active","ping":67},{"user_id":365,"name":"The_Axe_Theory","steam_id":76561198424919706,"connected_time":2192000000000,"state":"active","ping":71},{"user_id":366,"name":"Impressive Knight of Stirling","steam_id":76561197992844841,"connected_time":2165000000000,"state":"active","ping":46},{"user_id":397,"name":"deaconng","steam_id":76561198801871663,"connected_time":284000000000,"state":"active","ping":64},{"user_id":353,"name":"Pain in a Box","steam_id":76561197990777173,"connected_time":2523000000000,"state":"active","ping":98},{"user_id":367,"name":"eggy","steam_id":76561198255623584,"connected_time":2149000000000,"state":"active","ping":69},{"user_id":369,"name":"Hivel","steam_id":76561198151390773,"connected_time":2075000000000,"state":"active","ping":92},{"user_id":387,"name":"Striker25","steam_id":76561197975265634,"connected_time":820000000000,"state":"active","ping":68},{"user_id":370,"name":"dansci","steam_id":76561198269530717,"connected_time":2066000000000,"state":"active","ping":153},{"user_id":399,"name":"Brick Of Beans","steam_id":76561198828750755,"connected_time":211000000000,"state":"active","ping":60},{"user_id":400,"name":"rock","steam_id":76561198093488870,"connected_time":198000000000,"state":"active","ping":73},{"user_id":331,"name":"madijo","steam_id":76561198012617400,"connected_time":3955000000000,"state":"active","ping":62},{"user_id":344,"name":"h2p_NiewygodneKrzeslo","steam_id":76561198104843009,"connected_time":3288000000000,"state":"active","ping":98}]},{"server_id":308,"name":"Uncletopia | Frankfurt | 3 | All Maps","name_short":"frk-3","host":"frk-1.de.uncletopia.com","port":27035,"enabled":true,"region":"eu","cc":"de","latitude":50.110924,"longitude":8.682127,"reserved":0,"last_update":"0001-01-01T00:00:00Z","name_a2s":"Uncletopia | Frankfurt | 3 | All Maps","protocol":17,"map":"koth_viaduct","folder":"tf","game":"Team Fortress","app_id":440,"player_count":0,"max_players":24,"Bots":0,"server_type":"Dedicated","server_os":"Linux","password":true,"vac":true,"version":"7882260","steam_id":85568392924504274,"keywords":["cp","nocrits","nodmgspread","uncletopia"],"game_id":440,"stv_port":27036,"stv_name":"Uncletopia | Frankfurt | 3 | All Maps | STV","players":null},{"server_id":309,"name":"Uncletopia | Frankfurt | 4 | All Maps","name_short":"frk-4","host":"frk-1.de.uncletopia.com","port":27045,"enabled":true,"region":"eu","cc":"de","latitude":50.110924,"longitude":8.682127,"reserved":0,"last_update":"0001-01-01T00:00:00Z","name_a2s":"Uncletopia | Frankfurt | 4 | All Maps","protocol":17,"map":"cp_mountainlab","folder":"tf","game":"Team Fortress","app_id":440,"player_count":24,"max_players":24,"Bots":0,"server_type":"Dedicated","server_os":"Linux","password":true,"vac":true,"version":"7882260","steam_id":85568392924504275,"keywords":["cp","nocrits","nodmgspread","uncletopia"],"game_id":440,"stv_port":27046,"stv_name":"Uncletopia | Frankfurt | 4 | All Maps | STV","players":[{"user_id":104,"name":"liquid dog","steam_id":76561198158793828,"connected_time":92000000000,"state":"active","ping":70},{"user_id":59,"name":"Rai","steam_id":76561199408923294,"connected_time":2761000000000,"state":"active","ping":75},{"user_id":51,"name":"DETERR","steam_id":76561198223088296,"connected_time":3624000000000,"state":"active","ping":53},{"user_id":73,"name":"cl","steam_id":76561199436640904,"connected_time":1480000000000,"state":"active","ping":78},{"user_id":69,"name":"Dr Sex","steam_id":76561198029044617,"connected_time":1823000000000,"state":"active","ping":63},{"user_id":88,"name":"Kakuszita","steam_id":76561199243924475,"connected_time":795000000000,"state":"active","ping":90},{"user_id":64,"name":"Spinal fluid leaking I hear cre","steam_id":76561198055809651,"connected_time":1964000000000,"state":"active","ping":69},{"user_id":105,"name":"spy","steam_id":76561198364943570,"connected_time":85000000000,"state":"active","ping":137},{"user_id":81,"name":"Kesska","steam_id":76561198106116035,"connected_time":987000000000,"state":"active","ping":129},{"user_id":62,"name":"cursedbygod♡","steam_id":76561198318291047,"connected_time":2023000000000,"state":"active","ping":109},{"user_id":65,"name":"ItsMeZam","steam_id":76561199033728420,"connected_time":1956000000000,"state":"active","ping":55},{"user_id":87,"name":"PrimeTarget","steam_id":76561198046409289,"connected_time":812000000000,"state":"active","ping":72},{"user_id":96,"name":"Shovelhalfrusty","steam_id":76561198346447513,"connected_time":597000000000,"state":"active","ping":74},{"user_id":82,"name":"Arcweld","steam_id":76561198816060720,"connected_time":936000000000,"state":"active","ping":76},{"user_id":71,"name":"I am the one who donks","steam_id":76561198419583460,"connected_time":1781000000000,"state":"active","ping":58},{"user_id":57,"name":"limbicsystem","steam_id":76561198025612680,"connected_time":3041000000000,"state":"active","ping":74},{"user_id":106,"name":"mp1mp2mp3","steam_id":76561198088967665,"connected_time":56000000000,"state":"active","ping":99},{"user_id":99,"name":"Zerfesh","steam_id":76561198117534358,"connected_time":544000000000,"state":"active","ping":78},{"user_id":27,"name":"bruh","steam_id":76561197993922244,"connected_time":5559000000000,"state":"active","ping":45},{"user_id":103,"name":"Vitamin Weee","steam_id":76561199183937747,"connected_time":344000000000,"state":"active","ping":84},{"user_id":76,"name":"why rum gone","steam_id":76561198158484784,"connected_time":1408000000000,"state":"active","ping":64},{"user_id":92,"name":"Dr Ludwig","steam_id":76561198426522902,"connected_time":670000000000,"state":"active","ping":66},{"user_id":97,"name":"Konfy","steam_id":76561197985074663,"connected_time":593000000000,"state":"active","ping":50},{"user_id":102,"name":"bananen pizza","steam_id":76561199212990079,"connected_time":406000000000,"state":"active","ping":57}]},{"server_id":310,"name":"Uncletopia | Frankfurt | 5 | All Maps","name_short":"frk-5","host":"frk-1.de.uncletopia.com","port":27055,"enabled":true,"region":"eu","cc":"de","latitude":50.110924,"longitude":8.682127,"reserved":0,"last_update":"0001-01-01T00:00:00Z","name_a2s":"Uncletopia | Frankfurt | 5 | All Maps","protocol":17,"map":"pl_frontier_final","folder":"tf","game":"Team Fortress","app_id":440,"player_count":9,"max_players":24,"Bots":0,"server_type":"Dedicated","server_os":"Linux","password":true,"vac":true,"version":"7882260","steam_id":85568392924504277,"keywords":["nocrits","nodmgspread","payload","uncletopia"],"game_id":440,"stv_port":27056,"stv_name":"Uncletopia | Frankfurt | 5 | All Maps | STV","players":[{"user_id":444,"name":"beerloved","steam_id":76561198206866621,"connected_time":2079000000000,"state":"active","ping":116},{"user_id":459,"name":"Ghostie","steam_id":76561199040253415,"connected_time":70000000000,"state":"spawning","ping":58},{"user_id":455,"name":"Raulca25","steam_id":76561199068256964,"connected_time":303000000000,"state":"active","ping":88},{"user_id":460,"name":"Kan0_","steam_id":76561198129596771,"connected_time":12000000000,"state":"spawning","ping":59},{"user_id":439,"name":"typicalcrimson","steam_id":76561198295439747,"connected_time":2549000000000,"state":"active","ping":71},{"user_id":453,"name":"Cosmetic brain","steam_id":76561198055936410,"connected_time":439000000000,"state":"active","ping":87},{"user_id":457,"name":"tone","steam_id":76561197975301462,"connected_time":265000000000,"state":"active","ping":66},{"user_id":450,"name":"Micro","steam_id":76561198289540452,"connected_time":1705000000000,"state":"active","ping":44},{"user_id":425,"name":"IDon'tNeedACoolName","steam_id":76561198013547503,"connected_time":3855000000000,"state":"active","ping":62}]},{"server_id":311,"name":"Uncletopia | Frankfurt | 6 | All Maps","name_short":"frk-6","host":"frk-1.de.uncletopia.com","port":27065,"enabled":true,"region":"eu","cc":"de","latitude":50.110924,"longitude":8.682127,"reserved":0,"last_update":"0001-01-01T00:00:00Z","name_a2s":"Uncletopia | Frankfurt | 6 | All Maps","protocol":17,"map":"cp_process_final","folder":"tf","game":"Team Fortress","app_id":440,"player_count":24,"max_players":24,"Bots":0,"server_type":"Dedicated","server_os":"Linux","password":true,"vac":true,"version":"7882260","steam_id":85568392924504278,"keywords":["cp","nocrits","nodmgspread","uncletopia"],"game_id":440,"stv_port":27066,"stv_name":"Uncletopia | Frankfurt | 6 | All Maps | STV","players":[{"user_id":515,"name":"dakkafex","steam_id":76561198020254869,"connected_time":96000000000,"state":"active","ping":49},{"user_id":509,"name":"Piteras","steam_id":76561198858532207,"connected_time":237000000000,"state":"active","ping":76},{"user_id":504,"name":"BenchOhBoi","steam_id":76561198089687243,"connected_time":617000000000,"state":"active","ping":78},{"user_id":471,"name":"Doctor Marijuana","steam_id":76561198288289879,"connected_time":4805000000000,"state":"active","ping":61},{"user_id":489,"name":"Okkster","steam_id":76561197971835090,"connected_time":2636000000000,"state":"active","ping":54},{"user_id":451,"name":"dotdotdot","steam_id":76561198057628751,"connected_time":6561000000000,"state":"active","ping":62},{"user_id":484,"name":"Deckard","steam_id":76561198004704647,"connected_time":2905000000000,"state":"active","ping":78},{"user_id":494,"name":"Droy","steam_id":76561198065854668,"connected_time":1408000000000,"state":"active","ping":54},{"user_id":510,"name":"Eggman (Kaio-ken x20)","steam_id":76561199042470246,"connected_time":231000000000,"state":"active","ping":47},{"user_id":508,"name":"gagalak","steam_id":76561198089979108,"connected_time":263000000000,"state":"active","ping":90},{"user_id":506,"name":"KLAMA  ❤","steam_id":76561198351549661,"connected_time":315000000000,"state":"active","ping":74},{"user_id":465,"name":"finbar","steam_id":76561198056812396,"connected_time":5180000000000,"state":"active","ping":75},{"user_id":480,"name":"ne0n","steam_id":76561198032101031,"connected_time":3548000000000,"state":"active","ping":99},{"user_id":477,"name":"yoursbzt","steam_id":76561198201866574,"connected_time":4657000000000,"state":"active","ping":81},{"user_id":495,"name":"✪ m_br3","steam_id":76561198044981990,"connected_time":1375000000000,"state":"active","ping":63},{"user_id":511,"name":"limitates","steam_id":76561198362229620,"connected_time":221000000000,"state":"active","ping":49},{"user_id":512,"name":"tunamayo","steam_id":76561198127099299,"connected_time":201000000000,"state":"active","ping":53},{"user_id":486,"name":"The.Real.Genesis","steam_id":76561198999652040,"connected_time":2870000000000,"state":"active","ping":45},{"user_id":496,"name":"Grumtsior","steam_id":76561198043563111,"connected_time":1362000000000,"state":"active","ping":60},{"user_id":497,"name":"Sky Tree","steam_id":76561198027103242,"connected_time":1359000000000,"state":"active","ping":135},{"user_id":513,"name":"greg's mom","steam_id":76561198050525471,"connected_time":145000000000,"state":"active","ping":71},{"user_id":500,"name":"hopefullythisnameisnttaken","steam_id":76561198979277765,"connected_time":1079000000000,"state":"active","ping":52},{"user_id":502,"name":"poy","steam_id":76561198114063534,"connected_time":854000000000,"state":"active","ping":46},{"user_id":514,"name":"Kekeke","steam_id":76561198063672270,"connected_time":130000000000,"state":"active","ping":105}]},{"server_id":23,"name":"Uncletopia | Frankfurt | 7 | Stopwatch Beta","name_short":"frk-7","host":"frk-1.de.uncletopia.com","port":27075,"enabled":true,"region":"eu","cc":"de","latitude":50.110924,"longitude":8.682127,"reserved":0,"last_update":"0001-01-01T00:00:00Z","name_a2s":"Uncletopia | Frankfurt | 7 | Stopwatch Beta","protocol":17,"map":"workshop/koth_bagel_rc6.ugc2514036946","folder":"tf","game":"Team Fortress","app_id":440,"player_count":0,"max_players":24,"Bots":0,"server_type":"Dedicated","server_os":"Linux","password":true,"vac":true,"version":"7882260","steam_id":85568392924742827,"keywords":["cp","nocrits","nodmgspread","uncletopia"],"game_id":440,"stv_port":27076,"stv_name":"Uncletopia | Frankfurt | 7 | Stopwatch Beta | STV","players":null},{"server_id":24,"name":"Uncletopia | Frankfurt | 8 | Community","name_short":"frk-8","host":"frk-1.de.uncletopia.com","port":27085,"enabled":true,"region":"eu","cc":"de","latitude":50.110924,"longitude":8.682127,"reserved":0,"last_update":"0001-01-01T00:00:00Z","name_a2s":"Uncletopia | Frankfurt | 8 | Community","protocol":17,"map":"workshop/pl_corrode_rc2.ugc546577989","folder":"tf","game":"Team Fortress","app_id":440,"player_count":0,"max_players":24,"Bots":0,"server_type":"Dedicated","server_os":"Linux","password":true,"vac":true,"version":"7882260","steam_id":85568392924742828,"keywords":["nocrits","nodmgspread","payload","uncletopia"],"game_id":440,"stv_port":27086,"stv_name":"Uncletopia | Frankfurt | 8 | Community | STV","players":null},{"server_id":202,"name":"Uncletopia | Hong Kong | 1 | All Maps","name_short":"hgk-1","host":"hgk-1.hk.uncletopia.com","port":27015,"enabled":true,"region":"asia","cc":"hk","latitude":22.302711,"longitude":114.177216,"reserved":0,"last_update":"0001-01-01T00:00:00Z","name_a2s":"Uncletopia | Hong Kong | 1 | All Maps","protocol":17,"map":"pl_borneo","folder":"tf","game":"Team Fortress","app_id":440,"player_count":0,"max_players":24,"Bots":0,"server_type":"Dedicated","server_os":"Linux","password":true,"vac":true,"version":"7882260","steam_id":85568392924494504,"keywords":["nocrits","nodmgspread","payload","uncletopia"],"game_id":440,"stv_port":27016,"stv_name":"Uncletopia | Hong Kong | 1 | All Maps | STV","players":null},{"server_id":1,"name":"Uncletopia | Los Angeles | 1 | All Maps","name_short":"lax-1","host":"lax-1.us.uncletopia.com","port":27015,"enabled":true,"region":"us-west","cc":"us","latitude":33.94279,"longitude":-118.41004,"reserved":0,"last_update":"0001-01-01T00:00:00Z","name_a2s":"Uncletopia | Los Angeles | 1 | All Maps","protocol":17,"map":"cp_dustbowl","folder":"tf","game":"Team Fortress","app_id":440,"player_count":18,"max_players":24,"Bots":0,"server_type":"Dedicated","server_os":"Linux","password":true,"vac":true,"version":"7882260","steam_id":85568392924469991,"keywords":["cp","nocrits","nodmgspread","uncletopia"],"game_id":440,"stv_port":27016,"stv_name":"Uncletopia | Los Angeles | 1 | All Maps | STV","players":[{"user_id":159,"name":"BurdBrain","steam_id":76561197962097737,"connected_time":956000000000,"state":"active","ping":57},{"user_id":158,"name":"Tuba","steam_id":76561198209166329,"connected_time":967000000000,"state":"active","ping":63},{"user_id":176,"name":"Tideflat","steam_id":76561198179850851,"connected_time":18000000000,"state":"active","ping":77},{"user_id":177,"name":"||BassMan||","steam_id":76561198279865229,"connected_time":9000000000,"state":"spawning","ping":66},{"user_id":175,"name":"frog with knife","steam_id":76561198171203882,"connected_time":67000000000,"state":"active","ping":111},{"user_id":155,"name":"JICK¶","steam_id":76561198134218403,"connected_time":1302000000000,"state":"active","ping":60},{"user_id":173,"name":"Mainlanders","steam_id":76561198329361992,"connected_time":217000000000,"state":"active","ping":66},{"user_id":152,"name":"Voids","steam_id":76561198128386726,"connected_time":1684000000000,"state":"active","ping":105},{"user_id":130,"name":"Sol","steam_id":76561198121500201,"connected_time":3433000000000,"state":"active","ping":42},{"user_id":154,"name":"Spies in disguise","steam_id":76561198432759867,"connected_time":1475000000000,"state":"active","ping":117},{"user_id":167,"name":"Mrs Moth\u003c3 (She/Her)","steam_id":76561198356567287,"connected_time":766000000000,"state":"active","ping":105},{"user_id":141,"name":"CadenLCheese","steam_id":76561199105517435,"connected_time":2974000000000,"state":"active","ping":78},{"user_id":172,"name":"El Portel","steam_id":76561198076108055,"connected_time":393000000000,"state":"active","ping":78},{"user_id":125,"name":"Shalom","steam_id":76561198410005222,"connected_time":3818000000000,"state":"active","ping":74},{"user_id":169,"name":"shakoiwa","steam_id":76561199059441773,"connected_time":560000000000,"state":"active","ping":55},{"user_id":168,"name":"Fish","steam_id":76561199439676949,"connected_time":734000000000,"state":"active","ping":82},{"user_id":129,"name":"Noahthecrazy1","steam_id":76561199152995909,"connected_time":3502000000000,"state":"active","ping":117},{"user_id":153,"name":"drevott74","steam_id":76561199262592779,"connected_time":1669000000000,"state":"active","ping":87}]},{"server_id":112,"name":"Uncletopia | Los Angeles | 2 | All Maps","name_short":"lax-2","host":"lax-1.us.uncletopia.com","port":27025,"enabled":true,"region":"us-west","cc":"us","latitude":33.94279,"longitude":-118.41004,"reserved":0,"last_update":"0001-01-01T00:00:00Z","name_a2s":"Uncletopia | Los Angeles | 2 | All Maps","protocol":17,"map":"koth_lakeside_final","folder":"tf","game":"Team Fortress","app_id":440,"player_count":0,"max_players":24,"Bots":0,"server_type":"Dedicated","server_os":"Linux","password":true,"vac":true,"version":"7882260","steam_id":85568392924469992,"keywords":["cp","nocrits","nodmgspread","uncletopia"],"game_id":440,"stv_port":27026,"stv_name":"Uncletopia | Los Angeles | 2 | All Maps | STV","players":null},{"server_id":324,"name":"Uncletopia | Los Angeles | 3 | All Maps","name_short":"lax-3","host":"lax-1.us.uncletopia.com","port":27035,"enabled":true,"region":"us-west","cc":"us","latitude":33.94279,"longitude":-118.41004,"reserved":0,"last_update":"0001-01-01T00:00:00Z","name_a2s":"Uncletopia | Los Angeles | 3 | All Maps","protocol":17,"map":"pl_barnblitz","folder":"tf","game":"Team Fortress","app_id":440,"player_count":1,"max_players":24,"Bots":0,"server_type":"Dedicated","server_os":"Linux","password":true,"vac":true,"version":"7882260","steam_id":85568392924510198,"keywords":["nocrits","nodmgspread","payload","uncletopia"],"game_id":440,"stv_port":27036,"stv_name":"Uncletopia | Los Angeles | 3 | All Maps | STV","players":[{"user_id":16,"name":"A Glazed Donut","steam_id":76561198297536267,"connected_time":47000000000,"state":"active","ping":47}]},{"server_id":25,"name":"Uncletopia | Los Angeles | 4 | Stopwatch Beta","name_short":"lax-4","host":"lax-1.us.uncletopia.com","port":27045,"enabled":true,"region":"us-west","cc":"us","latitude":33.94279,"longitude":-118.41004,"reserved":0,"last_update":"0001-01-01T00:00:00Z","name_a2s":"Uncletopia | Los Angeles | 4 | Stopwatch Beta","protocol":17,"map":"koth_viaduct","folder":"tf","game":"Team Fortress","app_id":440,"player_count":0,"max_players":24,"Bots":0,"server_type":"Dedicated","server_os":"Linux","password":true,"vac":true,"version":"7882260","steam_id":85568392924510199,"keywords":["cp","nocrits","nodmgspread","uncletopia"],"game_id":440,"stv_port":27046,"stv_name":"Uncletopia | Los Angeles | 4 | Stopwatch Beta | STV","players":null},{"server_id":11,"name":"Uncletopia | London | 1 | All Maps","name_short":"lon-1","host":"lon-1.uk.uncletopia.com","port":27015,"enabled":true,"region":"eu","cc":"gb","latitude":51.509865,"longitude":-0.118092,"reserved":0,"last_update":"0001-01-01T00:00:00Z","name_a2s":"Uncletopia | London | 1 | All Maps","protocol":17,"map":"pl_thundermountain","folder":"tf","game":"Team Fortress","app_id":440,"player_count":24,"max_players":24,"Bots":0,"server_type":"Dedicated","server_os":"Linux","password":true,"vac":true,"version":"7882260","steam_id":85568392924367362,"keywords":["nocrits","nodmgspread","payload","uncletopia"],"game_id":440,"stv_port":27016,"stv_name":"Uncletopia | London | 1 | All Maps | STV","players":[{"user_id":835,"name":"mrnickel59","steam_id":76561198108722399,"connected_time":2498000000000,"state":"active","ping":58},{"user_id":838,"name":"I am on the TF2 Scoreboard...","steam_id":76561198043850884,"connected_time":1927000000000,"state":"active","ping":56},{"user_id":836,"name":"dochris.2","steam_id":76561198026478625,"connected_time":2388000000000,"state":"active","ping":46},{"user_id":852,"name":"darkwater","steam_id":76561197986978738,"connected_time":1589000000000,"state":"active","ping":52},{"user_id":860,"name":"Meddler","steam_id":76561198033001402,"connected_time":447000000000,"state":"active","ping":33},{"user_id":856,"name":"Kobrakiddmeow","steam_id":76561198080696266,"connected_time":1129000000000,"state":"active","ping":159},{"user_id":868,"name":"W","steam_id":76561198273623211,"connected_time":40000000000,"state":"active","ping":87},{"user_id":869,"name":"ONI","steam_id":76561199038860035,"connected_time":21000000000,"state":"spawning","ping":49},{"user_id":843,"name":"ZingyBot_","steam_id":76561198284732624,"connected_time":1903000000000,"state":"active","ping":60},{"user_id":808,"name":"SKFBoge","steam_id":76561198269038278,"connected_time":5492000000000,"state":"active","ping":77},{"user_id":865,"name":"8 Ball","steam_id":76561197960988736,"connected_time":116000000000,"state":"active","ping":45},{"user_id":818,"name":"(no monitor) ayylien","steam_id":76561198042127970,"connected_time":4023000000000,"state":"active","ping":129},{"user_id":819,"name":"NeverTalkToStrangers","steam_id":76561198265039021,"connected_time":3985000000000,"state":"active","ping":45},{"user_id":814,"name":"dec","steam_id":76561198009660168,"connected_time":4257000000000,"state":"active","ping":45},{"user_id":867,"name":"Explosive Poptart","steam_id":76561198023918830,"connected_time":54000000000,"state":"spawning","ping":38},{"user_id":855,"name":"Charles Darwin","steam_id":76561197973496139,"connected_time":1460000000000,"state":"active","ping":70},{"user_id":864,"name":"Bonkie","steam_id":76561198205701441,"connected_time":154000000000,"state":"active","ping":45},{"user_id":783,"name":"Minimi","steam_id":76561198873850443,"connected_time":7198000000000,"state":"active","ping":41},{"user_id":849,"name":"danguer","steam_id":76561198000171390,"connected_time":1718000000000,"state":"active","ping":64},{"user_id":820,"name":"SPOOKY_","steam_id":76561198073395404,"connected_time":3969000000000,"state":"active","ping":76},{"user_id":866,"name":"poop","steam_id":76561199074961896,"connected_time":101000000000,"state":"active","ping":51},{"user_id":822,"name":"Kleiner Engel","steam_id":76561198009922500,"connected_time":3960000000000,"state":"active","ping":60},{"user_id":837,"name":"sareena","steam_id":76561198810194062,"connected_time":2066000000000,"state":"active","ping":70},{"user_id":834,"name":"Hoff","steam_id":76561198026537318,"connected_time":2553000000000,"state":"active","ping":39}]},{"server_id":114,"name":"Uncletopia | London | 2 | All Maps","name_short":"lon-2","host":"lon-1.uk.uncletopia.com","port":27025,"enabled":true,"region":"eu","cc":"gb","latitude":51.509865,"longitude":-0.118092,"reserved":0,"last_update":"0001-01-01T00:00:00Z","name_a2s":"Uncletopia | London | 2 | All Maps","protocol":17,"map":"pl_upward","folder":"tf","game":"Team Fortress","app_id":440,"player_count":24,"max_players":24,"Bots":0,"server_type":"Dedicated","server_os":"Linux","password":true,"vac":true,"version":"7882260","steam_id":85568392924470941,"keywords":["nocrits","nodmgspread","payload","uncletopia"],"game_id":440,"stv_port":27026,"stv_name":"Uncletopia | London | 2 | All Maps | STV","players":[{"user_id":375,"name":"Fizz","steam_id":76561197994814990,"connected_time":777000000000,"state":"active","ping":69},{"user_id":358,"name":"$nØw","steam_id":76561198238781028,"connected_time":1884000000000,"state":"active","ping":101},{"user_id":381,"name":"sks ˄˅","steam_id":76561197996485230,"connected_time":410000000000,"state":"active","ping":75},{"user_id":386,"name":"xavier","steam_id":76561198076494034,"connected_time":356000000000,"state":"active","ping":51},{"user_id":382,"name":"generic alias","steam_id":76561198271607226,"connected_time":393000000000,"state":"active","ping":91},{"user_id":341,"name":"Twiggu","steam_id":76561198070853128,"connected_time":2510000000000,"state":"active","ping":85},{"user_id":354,"name":"Uncletopia's Scariest Pootis","steam_id":76561197970114051,"connected_time":2015000000000,"state":"active","ping":44},{"user_id":376,"name":"flange","steam_id":76561198040182692,"connected_time":733000000000,"state":"active","ping":34},{"user_id":348,"name":"Aspen draws","steam_id":76561198174524831,"connected_time":2314000000000,"state":"active","ping":133},{"user_id":210,"name":"silly little goober","steam_id":76561198066287297,"connected_time":11710000000000,"state":"active","ping":55},{"user_id":367,"name":"hide on bush","steam_id":76561198149967445,"connected_time":904000000000,"state":"active","ping":30},{"user_id":317,"name":"It's time","steam_id":76561198061197114,"connected_time":4109000000000,"state":"active","ping":78},{"user_id":388,"name":"FATHERLESS WORM","steam_id":76561197988085026,"connected_time":93000000000,"state":"active","ping":74},{"user_id":370,"name":"vadr","steam_id":76561198334528186,"connected_time":860000000000,"state":"active","ping":47},{"user_id":351,"name":"IndigoJones","steam_id":76561198050284262,"connected_time":2147000000000,"state":"active","ping":46},{"user_id":377,"name":"Claw","steam_id":76561198060985181,"connected_time":717000000000,"state":"active","ping":58},{"user_id":384,"name":"Neiro👽ᗩYY ᒪᗰᗩO","steam_id":76561198046743985,"connected_time":366000000000,"state":"active","ping":75},{"user_id":355,"name":"The F-Word (Femboy)","steam_id":76561198072320671,"connected_time":2013000000000,"state":"active","ping":35},{"user_id":379,"name":"ghost","steam_id":76561199010199287,"connected_time":542000000000,"state":"active","ping":56},{"user_id":380,"name":"svantezch","steam_id":76561198373831657,"connected_time":435000000000,"state":"active","ping":68},{"user_id":373,"name":"ugly","steam_id":76561199050412617,"connected_time":829000000000,"state":"active","ping":112},{"user_id":359,"name":"fungus.sc4per.1939","steam_id":76561198875472890,"connected_time":1845000000000,"state":"active","ping":75},{"user_id":387,"name":"Vershal Smershal","steam_id":76561198116223995,"connected_time":306000000000,"state":"active","ping":58},{"user_id":338,"name":"Harpenden, Harpenden, Harpenden","steam_id":76561198118138546,"connected_time":2918000000000,"state":"active","ping":42}]},{"server_id":320,"name":"Uncletopia | London | 3 | All Maps","name_short":"lon-3","host":"lon-1.uk.uncletopia.com","port":27035,"enabled":true,"region":"eu","cc":"gb","latitude":51.509865,"longitude":-0.118092,"reserved":0,"last_update":"0001-01-01T00:00:00Z","name_a2s":"Uncletopia | London | 3 | All Maps","protocol":17,"map":"koth_lakeside_final","folder":"tf","game":"Team Fortress","app_id":440,"player_count":0,"max_players":24,"Bots":0,"server_type":"Dedicated","server_os":"Linux","password":true,"vac":true,"version":"7882260","steam_id":85568392924510192,"keywords":["cp","nocrits","nodmgspread","uncletopia"],"game_id":440,"stv_port":27036,"stv_name":"Uncletopia | London | 3 | All Maps | STV","players":null},{"server_id":321,"name":"Uncletopia | London | 4 | All Maps","name_short":"lon-4","host":"lon-1.uk.uncletopia.com","port":27045,"enabled":true,"region":"eu","cc":"gb","latitude":51.509865,"longitude":-0.118092,"reserved":0,"last_update":"0001-01-01T00:00:00Z","name_a2s":"Uncletopia | London | 4 | All Maps","protocol":17,"map":"pl_upward","folder":"tf","game":"Team Fortress","app_id":440,"player_count":24,"max_players":24,"Bots":0,"server_type":"Dedicated","server_os":"Linux","password":true,"vac":true,"version":"7882260","steam_id":85568392924510193,"keywords":["nocrits","nodmgspread","payload","uncletopia"],"game_id":440,"stv_port":27046,"stv_name":"Uncletopia | London | 4 | All Maps | STV","players":[{"user_id":258,"name":"t0ksi","steam_id":76561198107240798,"connected_time":4330000000000,"state":"active","ping":75},{"user_id":271,"name":"DEFAULT","steam_id":76561198044219183,"connected_time":3094000000000,"state":"active","ping":86},{"user_id":250,"name":"sAmasam","steam_id":76561198114953928,"connected_time":4465000000000,"state":"active","ping":74},{"user_id":298,"name":"Reymi Stereo","steam_id":76561198091214227,"connected_time":362000000000,"state":"active","ping":48},{"user_id":270,"name":"LionKing","steam_id":76561198023399545,"connected_time":3155000000000,"state":"active","ping":63},{"user_id":277,"name":"Lucker","steam_id":76561198079469430,"connected_time":2745000000000,"state":"active","ping":62},{"user_id":295,"name":"Top 6 Goblin sightings (real)","steam_id":76561198082502910,"connected_time":407000000000,"state":"active","ping":79},{"user_id":301,"name":"Beamz","steam_id":76561198014230017,"connected_time":6000000000,"state":"spawning","ping":134},{"user_id":275,"name":"dogz","steam_id":76561198091175903,"connected_time":2776000000000,"state":"active","ping":70},{"user_id":259,"name":"Erin in Soup","steam_id":76561198416493306,"connected_time":4287000000000,"state":"active","ping":61},{"user_id":296,"name":"Nicholas Angel","steam_id":76561198434652604,"connected_time":397000000000,"state":"active","ping":86},{"user_id":291,"name":"gibb (official)","steam_id":76561198074097655,"connected_time":1033000000000,"state":"active","ping":41},{"user_id":237,"name":"❤G a n K","steam_id":76561199125995565,"connected_time":5787000000000,"state":"active","ping":64},{"user_id":299,"name":"gerg","steam_id":76561198041663219,"connected_time":361000000000,"state":"active","ping":61},{"user_id":266,"name":"etc","steam_id":76561197998394797,"connected_time":3359000000000,"state":"active","ping":59},{"user_id":292,"name":"Sammy","steam_id":76561197977379410,"connected_time":952000000000,"state":"active","ping":96},{"user_id":264,"name":"Trash","steam_id":76561198079081990,"connected_time":3521000000000,"state":"active","ping":63},{"user_id":197,"name":"JustNo.","steam_id":76561199025402885,"connected_time":7790000000000,"state":"active","ping":46},{"user_id":256,"name":"jovi_","steam_id":76561198449280552,"connected_time":4353000000000,"state":"active","ping":57},{"user_id":289,"name":"I Don't Know","steam_id":76561198841011430,"connected_time":1129000000000,"state":"active","ping":78},{"user_id":288,"name":"Max Power","steam_id":76561198019269089,"connected_time":1232000000000,"state":"active","ping":56},{"user_id":248,"name":"snipers ruin tf","steam_id":76561197980736364,"connected_time":4534000000000,"state":"active","ping":83},{"user_id":300,"name":"ThatTFguy","steam_id":76561198056794321,"connected_time":356000000000,"state":"active","ping":67},{"user_id":294,"name":"Buddy","steam_id":76561198050185582,"connected_time":665000000000,"state":"active","ping":57}]},{"server_id":21,"name":"Uncletopia | London | 5 | All Maps","name_short":"lon-5","host":"lon-1.uk.uncletopia.com","port":27055,"enabled":true,"region":"eu","cc":"gb","latitude":51.509865,"longitude":-0.118092,"reserved":0,"last_update":"0001-01-01T00:00:00Z","name_a2s":"Uncletopia | London | 5 | All Maps","protocol":17,"map":"cp_dustbowl","folder":"tf","game":"Team Fortress","app_id":440,"player_count":1,"max_players":24,"Bots":0,"server_type":"Dedicated","server_os":"Linux","password":true,"vac":true,"version":"7882260","steam_id":85568392924742829,"keywords":["cp","nocrits","nodmgspread","uncletopia"],"game_id":440,"stv_port":27056,"stv_name":"Uncletopia | London | 5 | All Maps | STV","players":[{"user_id":596,"name":"TheFluffyCrano","steam_id":76561198058832960,"connected_time":60000000000,"state":"active","ping":54}]},{"server_id":22,"name":"Uncletopia | London | 6 | All Maps","name_short":"lon-6","host":"lon-1.uk.uncletopia.com","port":27065,"enabled":true,"region":"eu","cc":"gb","latitude":51.509865,"longitude":-0.118092,"reserved":0,"last_update":"0001-01-01T00:00:00Z","name_a2s":"Uncletopia | London | 6 | All Maps","protocol":17,"map":"pl_borneo","folder":"tf","game":"Team Fortress","app_id":440,"player_count":24,"max_players":24,"Bots":0,"server_type":"Dedicated","server_os":"Linux","password":true,"vac":true,"version":"7882260","steam_id":85568392924742830,"keywords":["nocrits","nodmgspread","payload","uncletopia"],"game_id":440,"stv_port":27066,"stv_name":"Uncletopia | London | 6 | All Maps | STV","players":[{"user_id":444,"name":"Kaputo :3","steam_id":76561198062559523,"connected_time":2560000000000,"state":"active","ping":84},{"user_id":455,"name":"irritable vowel syndrome","steam_id":76561198117033273,"connected_time":1276000000000,"state":"active","ping":54},{"user_id":459,"name":"FoOzTV","steam_id":76561197998636728,"connected_time":839000000000,"state":"active","ping":69},{"user_id":371,"name":"DelaNo","steam_id":76561199125086655,"connected_time":5147000000000,"state":"active","ping":44},{"user_id":468,"name":"Cosmic Gamer","steam_id":76561198027357981,"connected_time":168000000000,"state":"active","ping":99},{"user_id":364,"name":"player S12A22","steam_id":76561198931416464,"connected_time":5549000000000,"state":"active","ping":96},{"user_id":457,"name":"_k_i","steam_id":76561198184881255,"connected_time":1204000000000,"state":"active","ping":63},{"user_id":454,"name":"Chikapu_Xek","steam_id":76561198428023493,"connected_time":1421000000000,"state":"active","ping":69},{"user_id":461,"name":"BOB","steam_id":76561198797287684,"connected_time":776000000000,"state":"active","ping":56},{"user_id":446,"name":"0lloe","steam_id":76561198070861443,"connected_time":2536000000000,"state":"active","ping":55},{"user_id":296,"name":"Paladin","steam_id":76561198042593027,"connected_time":8524000000000,"state":"active","ping":95},{"user_id":447,"name":"Snokie Boi","steam_id":76561198081126247,"connected_time":2527000000000,"state":"active","ping":73},{"user_id":469,"name":"Mr_Pulse_","steam_id":76561198095001602,"connected_time":143000000000,"state":"active","ping":101},{"user_id":462,"name":"MMR1K","steam_id":76561198328249053,"connected_time":772000000000,"state":"active","ping":63},{"user_id":448,"name":"Chazrat","steam_id":76561198353921397,"connected_time":2495000000000,"state":"active","ping":55},{"user_id":463,"name":"pippis!","steam_id":76561198264553801,"connected_time":597000000000,"state":"active","ping":102},{"user_id":470,"name":"benjaminmarkMLP","steam_id":76561198920361202,"connected_time":125000000000,"state":"active","ping":132},{"user_id":464,"name":"I pocket u for 10 ref/hour","steam_id":76561198126179060,"connected_time":587000000000,"state":"active","ping":78},{"user_id":356,"name":"Wade Wilson's Spoilt C4","steam_id":76561198013884709,"connected_time":5911000000000,"state":"active","ping":83},{"user_id":451,"name":"1 toke 4 mars bars","steam_id":76561198056460000,"connected_time":2119000000000,"state":"active","ping":48},{"user_id":465,"name":"I wish to be a Human Tank","steam_id":76561198079556005,"connected_time":574000000000,"state":"active","ping":65},{"user_id":466,"name":"Saimaan_larppa","steam_id":76561198242221560,"connected_time":561000000000,"state":"active","ping":108},{"user_id":471,"name":"Zina Tv","steam_id":76561198116530769,"connected_time":83000000000,"state":"active","ping":94},{"user_id":467,"name":"Sillier-NA","steam_id":76561198112171949,"connected_time":459000000000,"state":"active","ping":171}]},{"server_id":40,"name":"Uncletopia | London | 7 | No Payload","name_short":"lon-7","host":"lon-1.uk.uncletopia.com","port":27075,"enabled":true,"region":"eu","cc":"gb","latitude":51.509865,"longitude":-0.118092,"reserved":0,"last_update":"0001-01-01T00:00:00Z","name_a2s":"Uncletopia | London | 7 | No Payload","protocol":17,"map":"koth_viaduct","folder":"tf","game":"Team Fortress","app_id":440,"player_count":0,"max_players":24,"Bots":0,"server_type":"Dedicated","server_os":"Linux","password":true,"vac":true,"version":"7882260","steam_id":85568392924964314,"keywords":["cp","nocrits","nodmgspread","uncletopia"],"game_id":440,"stv_port":27076,"stv_name":"Uncletopia | London | 7 | No Payload | STV","players":null},{"server_id":41,"name":"Uncletopia | London | 8 | Community","name_short":"lon-8","host":"lon-1.uk.uncletopia.com","port":27085,"enabled":true,"region":"eu","cc":"gb","latitude":51.509865,"longitude":-0.118092,"reserved":0,"last_update":"0001-01-01T00:00:00Z","name_a2s":"Uncletopia | London | 8 | Community","protocol":17,"map":"workshop/koth_bagel_rc6.ugc2514036946","folder":"tf","game":"Team Fortress","app_id":440,"player_count":0,"max_players":24,"Bots":0,"server_type":"Dedicated","server_os":"Linux","password":true,"vac":true,"version":"7882260","steam_id":85568392924964315,"keywords":["cp","nocrits","nodmgspread","uncletopia"],"game_id":440,"stv_port":27086,"stv_name":"Uncletopia | London | 8 | Community | STV","players":null},{"server_id":300,"name":"Uncletopia | Montréal | 1 | All Maps","name_short":"mtl-1","host":"mtl-1.ca.uncletopia.com","port":27015,"enabled":true,"region":"us-east","cc":"ca","latitude":45.50889,"longitude":-73.56167,"reserved":0,"last_update":"0001-01-01T00:00:00Z","name_a2s":"Uncletopia | Montréal | 1 | All Maps","protocol":17,"map":"koth_viaduct","folder":"tf","game":"Team Fortress","app_id":440,"player_count":5,"max_players":24,"Bots":0,"server_type":"Dedicated","server_os":"Linux","password":true,"vac":true,"version":"7882260","steam_id":85568392924500087,"keywords":["cp","nocrits","nodmgspread","uncletopia"],"game_id":440,"stv_port":27016,"stv_name":"Uncletopia | Montréal | 1 | All Maps | STV","players":[{"user_id":9,"name":"The worst scout","steam_id":76561199080082586,"connected_time":2637000000000,"state":"active","ping":54},{"user_id":10,"name":"raised right hand","steam_id":76561198216758440,"connected_time":2595000000000,"state":"active","ping":37},{"user_id":12,"name":"Goose of Wisdom","steam_id":76561198233465044,"connected_time":1829000000000,"state":"active","ping":66},{"user_id":20,"name":"Goldoche","steam_id":76561197995065045,"connected_time":395000000000,"state":"active","ping":70},{"user_id":15,"name":"Mecha","steam_id":76561198014927379,"connected_time":1192000000000,"state":"active","ping":77}]},{"server_id":301,"name":"Uncletopia | Montréal | 2 | All Maps","name_short":"mtl-2","host":"mtl-1.ca.uncletopia.com","port":27025,"enabled":true,"region":"us-east","cc":"ca","latitude":45.50889,"longitude":-73.56167,"reserved":0,"last_update":"0001-01-01T00:00:00Z","name_a2s":"Uncletopia | Montréal | 2 | All Maps","protocol":17,"map":"pl_snowycoast","folder":"tf","game":"Team Fortress","app_id":440,"player_count":0,"max_players":24,"Bots":0,"server_type":"Dedicated","server_os":"Linux","password":true,"vac":true,"version":"7882260","steam_id":85568392924500088,"keywords":["nocrits","nodmgspread","payload","uncletopia"],"game_id":440,"stv_port":27026,"stv_name":"Uncletopia | Montréal | 2 | All Maps | STV","players":null},{"server_id":302,"name":"Uncletopia | Montréal | 3 | All Maps","name_short":"mtl-3","host":"mtl-1.ca.uncletopia.com","port":27035,"enabled":true,"region":"us-east","cc":"ca","latitude":45.50889,"longitude":-73.56167,"reserved":0,"last_update":"0001-01-01T00:00:00Z","name_a2s":"Uncletopia | Montréal | 3 | All Maps","protocol":17,"map":"ctf_sawmill","folder":"tf","game":"Team Fortress","app_id":440,"player_count":0,"max_players":24,"Bots":0,"server_type":"Dedicated","server_os":"Linux","password":true,"vac":true,"version":"7882260","steam_id":85568392924500089,"keywords":["ctf","nocrits","nodmgspread","uncletopia"],"game_id":440,"stv_port":27036,"stv_name":"Uncletopia | Montréal | 3 | All Maps | STV","players":null},{"server_id":303,"name":"Uncletopia | Montréal | 4 | No Payload","name_short":"mtl-4","host":"mtl-1.ca.uncletopia.com","port":27045,"enabled":true,"region":"us-east","cc":"ca","latitude":45.50889,"longitude":-73.56167,"reserved":0,"last_update":"0001-01-01T00:00:00Z","name_a2s":"Uncletopia | Montréal | 4 | No Payload","protocol":17,"map":"koth_highpass","folder":"tf","game":"Team Fortress","app_id":440,"player_count":0,"max_players":24,"Bots":0,"server_type":"Dedicated","server_os":"Linux","password":true,"vac":true,"version":"7882260","steam_id":85568392924500090,"keywords":["cp","nocrits","nodmgspread","uncletopia"],"game_id":440,"stv_port":27046,"stv_name":"Uncletopia | Montréal | 4 | No Payload | STV","players":null},{"server_id":13,"name":"Uncletopia | New York City | 1 | All Maps","name_short":"nyc-1","host":"nyc-1.us.uncletopia.com","port":27015,"enabled":true,"region":"us-east","cc":"us","latitude":40.73061,"longitude":-73.93524,"reserved":0,"last_update":"0001-01-01T00:00:00Z","name_a2s":"Uncletopia | New York City | 1 | All Maps","protocol":17,"map":"cp_altitude","folder":"tf","game":"Team Fortress","app_id":440,"player_count":24,"max_players":24,"Bots":0,"server_type":"Dedicated","server_os":"Linux","password":true,"vac":true,"version":"7882260","steam_id":85568392924469993,"keywords":["cp","nocrits","nodmgspread","uncletopia"],"game_id":440,"stv_port":27016,"stv_name":"Uncletopia | New York City | 1 | All Maps | STV","players":[{"user_id":11,"name":"Mochi","steam_id":76561199151314140,"connected_time":9761000000000,"state":"active","ping":37},{"user_id":115,"name":"Balls Insurance","steam_id":76561198005860388,"connected_time":1062000000000,"state":"active","ping":125},{"user_id":132,"name":"SoftballSteven44","steam_id":76561198065842276,"connected_time":308000000000,"state":"active","ping":48},{"user_id":110,"name":"bean goblin","steam_id":76561199185148234,"connected_time":1093000000000,"state":"active","ping":92},{"user_id":116,"name":"Toast","steam_id":76561198401995265,"connected_time":1046000000000,"state":"active","ping":71},{"user_id":120,"name":"in the nuts","steam_id":76561199072907445,"connected_time":998000000000,"state":"active","ping":111},{"user_id":111,"name":"spiderguy","steam_id":76561198412074955,"connected_time":1093000000000,"state":"active","ping":100},{"user_id":125,"name":"Jeremopolis","steam_id":76561198079467492,"connected_time":795000000000,"state":"active","ping":84},{"user_id":128,"name":"Cube","steam_id":76561199021614213,"connected_time":384000000000,"state":"active","ping":161},{"user_id":107,"name":"scarecrow (malicious)","steam_id":76561198082979347,"connected_time":1460000000000,"state":"active","ping":60},{"user_id":124,"name":"Shoop!","steam_id":76561198960010297,"connected_time":843000000000,"state":"active","ping":63},{"user_id":138,"name":"♡Alyx♡","steam_id":76561198024303978,"connected_time":97000000000,"state":"active","ping":46},{"user_id":135,"name":"BlitzStrike","steam_id":76561199143825445,"connected_time":187000000000,"state":"active","ping":62},{"user_id":99,"name":"Cookie","steam_id":76561198283317413,"connected_time":2318000000000,"state":"active","ping":67},{"user_id":59,"name":"Bigsumoslammer","steam_id":76561198044505076,"connected_time":6108000000000,"state":"active","ping":45},{"user_id":119,"name":"nhbiker","steam_id":76561198081277675,"connected_time":1033000000000,"state":"active","ping":45},{"user_id":109,"name":"homer","steam_id":76561198171491110,"connected_time":1398000000000,"state":"active","ping":48},{"user_id":133,"name":"Combatspok","steam_id":76561197971598115,"connected_time":225000000000,"state":"active","ping":45},{"user_id":137,"name":"Sonia 💛 ","steam_id":76561198009198502,"connected_time":114000000000,"state":"active","ping":67},{"user_id":130,"name":"caberknight tf2  (f2p-ish)","steam_id":76561199273882768,"connected_time":334000000000,"state":"active","ping":58},{"user_id":136,"name":"Super Ghoul","steam_id":76561198088810276,"connected_time":152000000000,"state":"active","ping":56},{"user_id":122,"name":"minecraft","steam_id":76561198104345201,"connected_time":944000000000,"state":"active","ping":78},{"user_id":106,"name":"BoxTrox Requiem","steam_id":76561199084781818,"connected_time":1999000000000,"state":"active","ping":76},{"user_id":127,"name":"B.","steam_id":76561198040445907,"connected_time":723000000000,"state":"active","ping":79}]},{"server_id":14,"name":"Uncletopia | New York City | 2 | All Maps","name_short":"nyc-2","host":"nyc-1.us.uncletopia.com","port":27025,"enabled":true,"region":"us-east","cc":"us","latitude":40.73061,"longitude":-73.93524,"reserved":0,"last_update":"0001-01-01T00:00:00Z","name_a2s":"Uncletopia | New York City | 2 | All Maps","protocol":17,"map":"pl_pier","folder":"tf","game":"Team Fortress","app_id":440,"player_count":24,"max_players":24,"Bots":0,"server_type":"Dedicated","server_os":"Linux","password":true,"vac":true,"version":"7882260","steam_id":85568392924469994,"keywords":["nocrits","nodmgspread","payload","uncletopia"],"game_id":440,"stv_port":27026,"stv_name":"Uncletopia | New York City | 2 | All Maps | STV","players":[{"user_id":75,"name":"Purplesphere","steam_id":76561198202786833,"connected_time":2007000000000,"state":"active","ping":179},{"user_id":97,"name":"Fizzin_Pop","steam_id":76561198197503446,"connected_time":844000000000,"state":"active","ping":61},{"user_id":108,"name":"moe","steam_id":76561198929586245,"connected_time":175000000000,"state":"active","ping":112},{"user_id":86,"name":"Auto_Correct","steam_id":76561198254988078,"connected_time":1086000000000,"state":"active","ping":68},{"user_id":90,"name":"Oni","steam_id":76561198112066584,"connected_time":1055000000000,"state":"active","ping":74},{"user_id":36,"name":"bimbo blow up doll! \u003c3","steam_id":76561198959541006,"connected_time":3692000000000,"state":"active","ping":73},{"user_id":78,"name":"hooters","steam_id":76561198068022595,"connected_time":1674000000000,"state":"active","ping":47},{"user_id":37,"name":"DoesZeMason","steam_id":76561198186303547,"connected_time":3691000000000,"state":"active","ping":84},{"user_id":110,"name":"ivan.","steam_id":76561198086587715,"connected_time":32000000000,"state":"active","ping":75},{"user_id":105,"name":"Bocchi the Cock","steam_id":76561198152455316,"connected_time":391000000000,"state":"active","ping":159},{"user_id":81,"name":"JoCaleb02","steam_id":76561198272389829,"connected_time":1602000000000,"state":"active","ping":74},{"user_id":79,"name":"Thespikedballofdoom","steam_id":76561198128793141,"connected_time":1668000000000,"state":"active","ping":47},{"user_id":47,"name":"10KO!","steam_id":76561199134895220,"connected_time":3357000000000,"state":"active","ping":60},{"user_id":106,"name":"CloudVic","steam_id":76561198118868716,"connected_time":389000000000,"state":"active","ping":100},{"user_id":80,"name":"a Salty Individual","steam_id":76561197979951077,"connected_time":1666000000000,"state":"active","ping":135},{"user_id":52,"name":"bobbymcbobington","steam_id":76561199089411172,"connected_time":3249000000000,"state":"active","ping":121},{"user_id":103,"name":"yellowcat","steam_id":76561198346054736,"connected_time":450000000000,"state":"active","ping":72},{"user_id":74,"name":"Dankest Cat","steam_id":76561198152685045,"connected_time":2019000000000,"state":"active","ping":97},{"user_id":65,"name":"Womp","steam_id":76561198245103000,"connected_time":2485000000000,"state":"active","ping":59},{"user_id":99,"name":"The Zoidberg Medic","steam_id":76561197994285087,"connected_time":712000000000,"state":"active","ping":48},{"user_id":100,"name":"Kuai","steam_id":76561198321216513,"connected_time":712000000000,"state":"active","ping":60},{"user_id":101,"name":"PizziaizziP !! !!!!!!1","steam_id":76561198060886742,"connected_time":695000000000,"state":"active","ping":53},{"user_id":107,"name":"DJ Giant [They/Them]","steam_id":76561198288059782,"connected_time":361000000000,"state":"active","ping":131}]},{"server_id":15,"name":"Uncletopia | New York City | 3 | Stopwatch Beta","name_short":"nyc-3","host":"nyc-1.us.uncletopia.com","port":27035,"enabled":true,"region":"us-east","cc":"us","latitude":40.73061,"longitude":-73.93524,"reserved":0,"last_update":"0001-01-01T00:00:00Z","name_a2s":"Uncletopia | New York City | 3 | Stopwatch Beta","protocol":17,"map":"pl_borneo","folder":"tf","game":"Team Fortress","app_id":440,"player_count":0,"max_players":24,"Bots":0,"server_type":"Dedicated","server_os":"Linux","password":true,"vac":true,"version":"7882260","steam_id":85568392924742820,"keywords":["nocrits","nodmgspread","payload","uncletopia"],"game_id":440,"stv_port":27036,"stv_name":"Uncletopia | New York City | 3 | Stopwatch Beta | STV","players":null},{"server_id":16,"name":"Uncletopia | New York City | 4 | Community","name_short":"nyc-4","host":"nyc-1.us.uncletopia.com","port":27045,"enabled":true,"region":"us-east","cc":"us","latitude":40.73061,"longitude":-73.93524,"reserved":0,"last_update":"0001-01-01T00:00:00Z","name_a2s":"Uncletopia | New York City | 4 | Community","protocol":17,"map":"workshop/cp_villa_b19.ugc2113052569","folder":"tf","game":"Team Fortress","app_id":440,"player_count":0,"max_players":24,"Bots":0,"server_type":"Dedicated","server_os":"Linux","password":true,"vac":true,"version":"7882260","steam_id":85568392924742821,"keywords":["cp","nocrits","nodmgspread","uncletopia"],"game_id":440,"stv_port":27046,"stv_name":"Uncletopia | New York City | 4 | Community | STV","players":null},{"server_id":142,"name":"Uncletopia | São Paulo | 1 | All Maps","name_short":"sao-1","host":"sao-1.br.uncletopia.com","port":27015,"enabled":true,"region":"sa","cc":"br","latitude":-23.533773,"longitude":-46.62529,"reserved":0,"last_update":"0001-01-01T00:00:00Z","name_a2s":"Uncletopia | São Paulo | 1 | All Maps","protocol":17,"map":"cp_altitude","folder":"tf","game":"Team Fortress","app_id":440,"player_count":0,"max_players":24,"Bots":0,"server_type":"Dedicated","server_os":"Linux","password":true,"vac":true,"version":"7882260","steam_id":85568392924469996,"keywords":["cp","nocrits","nodmgspread","uncletopia"],"game_id":440,"stv_port":27016,"stv_name":"Uncletopia | São Paulo | 1 | All Maps | STV","players":null},{"server_id":143,"name":"Uncletopia | São Paulo | 2 | All Maps","name_short":"sao-2","host":"sao-2.br.uncletopia.com","port":27015,"enabled":true,"region":"sa","cc":"br","latitude":-23.533773,"longitude":-46.62529,"reserved":0,"last_update":"0001-01-01T00:00:00Z","name_a2s":"Uncletopia | São Paulo | 2 | All Maps","protocol":17,"map":"koth_cascade","folder":"tf","game":"Team Fortress","app_id":440,"player_count":0,"max_players":24,"Bots":0,"server_type":"Dedicated","server_os":"Linux","password":true,"vac":true,"version":"7882260","steam_id":85568392924485349,"keywords":["cp","nocrits","nodmgspread","uncletopia"],"game_id":440,"stv_port":27016,"stv_name":"Uncletopia | São Paulo | 2 | All Maps | STV","players":null},{"server_id":7,"name":"Uncletopia | Seattle | 1 | All Maps","name_short":"sea-1","host":"sea-1.us.uncletopia.com","port":27015,"enabled":true,"region":"us-west","cc":"us","latitude":47.608013,"longitude":-122.33517,"reserved":0,"last_update":"0001-01-01T00:00:00Z","name_a2s":"Uncletopia | Seattle | 1 | All Maps","protocol":17,"map":"pl_badwater","folder":"tf","game":"Team Fortress","app_id":440,"player_count":24,"max_players":24,"Bots":0,"server_type":"Dedicated","server_os":"Linux","password":true,"vac":true,"version":"7882260","steam_id":85568392924469997,"keywords":["nocrits","nodmgspread","payload","uncletopia"],"game_id":440,"stv_port":27016,"stv_name":"Uncletopia | Seattle | 1 | All Maps | STV","players":[{"user_id":272,"name":"Bagoool","steam_id":76561198065368286,"connected_time":321000000000,"state":"active","ping":68},{"user_id":254,"name":"Nibotshooter","steam_id":76561199284825579,"connected_time":1979000000000,"state":"active","ping":94},{"user_id":249,"name":"HaphazardHazel","steam_id":76561198316812693,"connected_time":2165000000000,"state":"active","ping":170},{"user_id":227,"name":"NEBULA","steam_id":76561198086878595,"connected_time":4937000000000,"state":"active","ping":73},{"user_id":219,"name":"Themasterman75","steam_id":76561199385573293,"connected_time":5556000000000,"state":"active","ping":72},{"user_id":266,"name":"SibilantSerpent","steam_id":76561198154488754,"connected_time":1210000000000,"state":"active","ping":58},{"user_id":228,"name":"BolognaWithOlives","steam_id":76561198101262668,"connected_time":4662000000000,"state":"active","ping":85},{"user_id":250,"name":"Reed","steam_id":76561198048226025,"connected_time":2136000000000,"state":"active","ping":105},{"user_id":248,"name":"lynks disease no sound","steam_id":76561198043465434,"connected_time":2559000000000,"state":"active","ping":71},{"user_id":264,"name":"greens beans","steam_id":76561198153611491,"connected_time":1576000000000,"state":"active","ping":39},{"user_id":271,"name":"noel","steam_id":76561198128280883,"connected_time":824000000000,"state":"active","ping":131},{"user_id":256,"name":"RapidXenophage","steam_id":76561198175149973,"connected_time":1928000000000,"state":"active","ping":61},{"user_id":267,"name":"don't play chess past bedtime","steam_id":76561198986534519,"connected_time":1183000000000,"state":"active","ping":59},{"user_id":257,"name":"whathashit69","steam_id":76561199013105760,"connected_time":1913000000000,"state":"active","ping":74},{"user_id":259,"name":"Orb of Macaroni","steam_id":76561198080851298,"connected_time":1875000000000,"state":"active","ping":60},{"user_id":198,"name":"Big Juicy","steam_id":76561198018062350,"connected_time":6958000000000,"state":"active","ping":69},{"user_id":178,"name":"SnoDot","steam_id":76561198062209970,"connected_time":8434000000000,"state":"active","ping":38},{"user_id":177,"name":"toxicpeck @@yahoocum","steam_id":76561198213385439,"connected_time":8438000000000,"state":"active","ping":75},{"user_id":236,"name":"toes","steam_id":76561198221151676,"connected_time":4172000000000,"state":"active","ping":60},{"user_id":274,"name":"TüCold","steam_id":76561198111278197,"connected_time":12000000000,"state":"active","ping":53},{"user_id":270,"name":"Grontesculon","steam_id":76561198091936042,"connected_time":942000000000,"state":"active","ping":108},{"user_id":225,"name":"biggie cheese","steam_id":76561198004916219,"connected_time":5202000000000,"state":"active","ping":89},{"user_id":235,"name":"Cute Baby Bird","steam_id":76561198271939793,"connected_time":4187000000000,"state":"active","ping":45},{"user_id":231,"name":"rat gets the cheese","steam_id":76561198031234032,"connected_time":4423000000000,"state":"active","ping":99}]},{"server_id":119,"name":"Uncletopia | Seattle | 2 | All Maps","name_short":"sea-2","host":"sea-1.us.uncletopia.com","port":27025,"enabled":true,"region":"us-west","cc":"us","latitude":47.608013,"longitude":-122.33517,"reserved":0,"last_update":"0001-01-01T00:00:00Z","name_a2s":"Uncletopia | Seattle | 2 | All Maps","protocol":17,"map":"pl_borneo","folder":"tf","game":"Team Fortress","app_id":440,"player_count":24,"max_players":24,"Bots":0,"server_type":"Dedicated","server_os":"Linux","password":true,"vac":true,"version":"7882260","steam_id":85568392924469998,"keywords":["nocrits","nodmgspread","payload","uncletopia"],"game_id":440,"stv_port":27026,"stv_name":"Uncletopia | Seattle | 2 | All Maps | STV","players":[{"user_id":87,"name":"Just Ethan","steam_id":76561198076808450,"connected_time":267000000000,"state":"active","ping":87},{"user_id":36,"name":"Spruce","steam_id":76561198081684676,"connected_time":2134000000000,"state":"active","ping":59},{"user_id":86,"name":"D.E.O","steam_id":76561198096992957,"connected_time":297000000000,"state":"active","ping":172},{"user_id":21,"name":"Goose","steam_id":76561198036774894,"connected_time":2387000000000,"state":"active","ping":43},{"user_id":45,"name":"Lard","steam_id":76561198179154411,"connected_time":1843000000000,"state":"active","ping":128},{"user_id":91,"name":"poop gaming","steam_id":76561197997341630,"connected_time":107000000000,"state":"active","ping":49},{"user_id":92,"name":"Apollo","steam_id":76561198162364702,"connected_time":7000000000,"state":"active","ping":98},{"user_id":47,"name":"Yoshimelon","steam_id":76561198253054325,"connected_time":1814000000000,"state":"active","ping":93},{"user_id":66,"name":"BigBattleToaster","steam_id":76561199087551431,"connected_time":1299000000000,"state":"active","ping":127},{"user_id":25,"name":"Phantom__Cobra","steam_id":76561198850713083,"connected_time":2273000000000,"state":"active","ping":115},{"user_id":76,"name":"Monty","steam_id":76561197993567253,"connected_time":663000000000,"state":"active","ping":54},{"user_id":27,"name":"Grassman (Cc)","steam_id":76561198026488532,"connected_time":2243000000000,"state":"active","ping":69},{"user_id":28,"name":"blurrby","steam_id":76561198182033859,"connected_time":2226000000000,"state":"active","ping":104},{"user_id":74,"name":"lolgamer247","steam_id":76561198974645534,"connected_time":906000000000,"state":"active","ping":64},{"user_id":79,"name":"HummusAndGuac","steam_id":76561199129769262,"connected_time":576000000000,"state":"active","ping":76},{"user_id":77,"name":"Flame","steam_id":76561198880041297,"connected_time":659000000000,"state":"active","ping":128},{"user_id":78,"name":"Provocator","steam_id":76561197961830410,"connected_time":643000000000,"state":"active","ping":141},{"user_id":88,"name":"nori_420","steam_id":76561199117134203,"connected_time":255000000000,"state":"active","ping":85},{"user_id":60,"name":"delight","steam_id":76561197980280272,"connected_time":1684000000000,"state":"active","ping":50},{"user_id":80,"name":"Rocatex (HalloweenEnjoyer)","steam_id":76561199095053897,"connected_time":572000000000,"state":"active","ping":104},{"user_id":70,"name":"robertJMP","steam_id":76561199066260919,"connected_time":1016000000000,"state":"active","ping":76},{"user_id":69,"name":"Stupid Monkey =3","steam_id":76561198024580166,"connected_time":1100000000000,"state":"active","ping":52},{"user_id":71,"name":"Moss","steam_id":76561198338718491,"connected_time":1008000000000,"state":"active","ping":111},{"user_id":90,"name":"Finkly","steam_id":76561198049828110,"connected_time":223000000000,"state":"active","ping":46}]},{"server_id":406,"name":"Uncletopia | Seattle | 3 | Stopwatch Beta","name_short":"sea-3","host":"sea-1.us.uncletopia.com","port":27035,"enabled":true,"region":"us-west","cc":"us","latitude":47.608013,"longitude":-122.33517,"reserved":0,"last_update":"0001-01-01T00:00:00Z","name_a2s":"Uncletopia | Seattle | 3 | Stopwatch Beta","protocol":17,"map":"koth_viaduct","folder":"tf","game":"Team Fortress","app_id":440,"player_count":0,"max_players":24,"Bots":0,"server_type":"Dedicated","server_os":"Linux","password":true,"vac":true,"version":"7882260","steam_id":85568392924515217,"keywords":["cp","nocrits","nodmgspread","uncletopia"],"game_id":440,"stv_port":27036,"stv_name":"Uncletopia | Seattle | 3 | Stopwatch Beta | STV","players":null},{"server_id":17,"name":"Uncletopia | San Francisco | 1 | All Maps","name_short":"sfo-1","host":"sfo-1.us.uncletopia.com","port":27015,"enabled":true,"region":"us-west","cc":"us","latitude":37.77397,"longitude":-122.4313,"reserved":0,"last_update":"0001-01-01T00:00:00Z","name_a2s":"Uncletopia | San Francisco | 1 | All Maps","protocol":17,"map":"pl_snowycoast","folder":"tf","game":"Team Fortress","app_id":440,"player_count":0,"max_players":24,"Bots":0,"server_type":"Dedicated","server_os":"Linux","password":true,"vac":true,"version":"7882260","steam_id":85568392924469999,"keywords":["nocrits","nodmgspread","payload","uncletopia"],"game_id":440,"stv_port":27016,"stv_name":"Uncletopia | San Francisco | 1 | All Maps | STV","players":null},{"server_id":18,"name":"Uncletopia | San Francisco | 2 | All Maps","name_short":"sfo-2","host":"sfo-1.us.uncletopia.com","port":27025,"enabled":true,"region":"us-west","cc":"us","latitude":37.77397,"longitude":-122.4313,"reserved":0,"last_update":"0001-01-01T00:00:00Z","name_a2s":"Uncletopia | San Francisco | 2 | All Maps","protocol":17,"map":"pl_swiftwater_final1","folder":"tf","game":"Team Fortress","app_id":440,"player_count":0,"max_players":24,"Bots":0,"server_type":"Dedicated","server_os":"Linux","password":true,"vac":true,"version":"7882260","steam_id":85568392924470000,"keywords":["nocrits","nodmgspread","payload","uncletopia"],"game_id":440,"stv_port":27026,"stv_name":"Uncletopia | San Francisco | 2 | All Maps | STV","players":null},{"server_id":19,"name":"Uncletopia | San Francisco | 3 | Stopwatch Beta","name_short":"sfo-3","host":"sfo-1.us.uncletopia.com","port":27035,"enabled":true,"region":"us-west","cc":"us","latitude":37.77397,"longitude":-122.4313,"reserved":0,"last_update":"0001-01-01T00:00:00Z","name_a2s":"Uncletopia | San Francisco | 3 | Stopwatch Beta","protocol":17,"map":"workshop/pl_barnblitz_pro7.ugc582280235","folder":"tf","game":"Team Fortress","app_id":440,"player_count":5,"max_players":24,"Bots":0,"server_type":"Dedicated","server_os":"Linux","password":true,"vac":true,"version":"7882260","steam_id":85568392924742824,"keywords":["nocrits","nodmgspread","payload","uncletopia"],"game_id":440,"stv_port":27036,"stv_name":"Uncletopia | San Francisco | 3 | Stopwatch Beta | STV","players":[{"user_id":9,"name":"MoreRaptor360","steam_id":76561198318219638,"connected_time":462000000000,"state":"spawning","ping":60},{"user_id":11,"name":"Catlion41","steam_id":76561199232841451,"connected_time":264000000000,"state":"spawning","ping":59},{"user_id":6,"name":"bobletoob","steam_id":76561199184464900,"connected_time":580000000000,"state":"spawning","ping":46},{"user_id":7,"name":"soapboxracer360","steam_id":76561198316394688,"connected_time":538000000000,"state":"spawning","ping":60},{"user_id":8,"name":"FamishedNinja","steam_id":76561198310786497,"connected_time":529000000000,"state":"spawning","ping":75}]},{"server_id":20,"name":"Uncletopia | San Francisco | 4 | Community","name_short":"sfo-4","host":"sfo-1.us.uncletopia.com","port":27045,"enabled":true,"region":"us-west","cc":"us","latitude":37.77397,"longitude":-122.4313,"reserved":0,"last_update":"0001-01-01T00:00:00Z","name_a2s":"Uncletopia | San Francisco | 4 | Community","protocol":17,"map":"pl_swiftwater_final1","folder":"tf","game":"Team Fortress","app_id":440,"player_count":0,"max_players":24,"Bots":0,"server_type":"Dedicated","server_os":"Linux","password":true,"vac":true,"version":"7882260","steam_id":85568392924742826,"keywords":["nocrits","nodmgspread","payload","uncletopia"],"game_id":440,"stv_port":27046,"stv_name":"Uncletopia | San Francisco | 4 | Community | STV","players":null},{"server_id":141,"name":"Uncletopia | Sydney | 1 | All Maps","name_short":"syd-1","host":"syd-1.au.uncletopia.com","port":27015,"enabled":true,"region":"au","cc":"au","latitude":-33.865143,"longitude":151.2099,"reserved":0,"last_update":"0001-01-01T00:00:00Z","name_a2s":"Uncletopia | Sydney | 1 | All Maps","protocol":17,"map":"cp_altitude","folder":"tf","game":"Team Fortress","app_id":440,"player_count":0,"max_players":24,"Bots":0,"server_type":"Dedicated","server_os":"Linux","password":true,"vac":true,"version":"7882260","steam_id":85568392924470001,"keywords":["cp","nocrits","nodmgspread","uncletopia"],"game_id":440,"stv_port":27016,"stv_name":"Uncletopia | Sydney | 1 | All Maps | STV","players":null},{"server_id":123,"name":"Uncletopia | Sydney | 2 | All Maps","name_short":"syd-2","host":"syd-1.au.uncletopia.com","port":27025,"enabled":true,"region":"au","cc":"au","latitude":-33.865143,"longitude":151.2099,"reserved":0,"last_update":"0001-01-01T00:00:00Z","name_a2s":"Uncletopia | Sydney | 2 | All Maps","protocol":17,"map":"cp_snakewater_final1","folder":"tf","game":"Team Fortress","app_id":440,"player_count":0,"max_players":24,"Bots":0,"server_type":"Dedicated","server_os":"Linux","password":true,"vac":true,"version":"7882260","steam_id":85568392924470002,"keywords":["cp","nocrits","nodmgspread","uncletopia"],"game_id":440,"stv_port":27026,"stv_name":"Uncletopia | Sydney | 2 | All Maps | STV","players":null},{"server_id":395,"name":"Uncletopia | Sydney | 3 | All Maps","name_short":"syd-3","host":"syd-1.au.uncletopia.com","port":27035,"enabled":true,"region":"au","cc":"au","latitude":-33.865143,"longitude":151.2099,"reserved":0,"last_update":"0001-01-01T00:00:00Z","name_a2s":"Uncletopia | Sydney | 3 | All Maps","protocol":17,"map":"pl_badwater","folder":"tf","game":"Team Fortress","app_id":440,"player_count":0,"max_players":24,"Bots":0,"server_type":"Dedicated","server_os":"Linux","password":true,"vac":true,"version":"7882260","steam_id":85568392925194467,"keywords":["nocrits","nodmgspread","payload","uncletopia"],"game_id":440,"stv_port":27036,"stv_name":"Uncletopia | Sydney | 3 | All Maps | STV","players":null},{"server_id":396,"name":"Uncletopia | Sydney | 4 | All Maps","name_short":"syd-4","host":"syd-1.au.uncletopia.com","port":27045,"enabled":true,"region":"au","cc":"au","latitude":-33.865143,"longitude":151.2099,"reserved":0,"last_update":"0001-01-01T00:00:00Z","name_a2s":"Uncletopia | Sydney | 4 | All Maps","protocol":17,"map":"cp_altitude","folder":"tf","game":"Team Fortress","app_id":440,"player_count":0,"max_players":24,"Bots":0,"server_type":"Dedicated","server_os":"Linux","password":true,"vac":true,"version":"7882260","steam_id":85568392925397958,"keywords":["cp","nocrits","nodmgspread","uncletopia"],"game_id":440,"stv_port":27046,"stv_name":"Uncletopia | Sydney | 4 | All Maps | STV","players":null},{"server_id":58,"name":"Uncletopia | Sydney | 5 | Stopwatch Beta","name_short":"syd-5","host":"syd-1.au.uncletopia.com","port":27055,"enabled":true,"region":"au","cc":"au","latitude":-33.865143,"longitude":151.2099,"reserved":0,"last_update":"0001-01-01T00:00:00Z","name_a2s":"Uncletopia | Sydney | 5 | Stopwatch Beta","protocol":17,"map":"koth_viaduct","folder":"tf","game":"Team Fortress","app_id":440,"player_count":0,"max_players":24,"Bots":0,"server_type":"Dedicated","server_os":"Linux","password":true,"vac":true,"version":"7882260","steam_id":85568392925397959,"keywords":["cp","nocrits","nodmgspread","uncletopia"],"game_id":440,"stv_port":27056,"stv_name":"Uncletopia | Sydney | 5 | Stopwatch Beta | STV","players":null},{"server_id":59,"name":"Uncletopia | Sydney | 6 | Community","name_short":"syd-6","host":"syd-1.au.uncletopia.com","port":27065,"enabled":true,"region":"au","cc":"au","latitude":-33.865143,"longitude":151.2099,"reserved":0,"last_update":"0001-01-01T00:00:00Z","name_a2s":"Uncletopia | Sydney | 6 | Community","protocol":17,"map":"pl_upward","folder":"tf","game":"Team Fortress","app_id":440,"player_count":0,"max_players":24,"Bots":0,"server_type":"Dedicated","server_os":"Linux","password":true,"vac":true,"version":"7882260","steam_id":85568392925397960,"keywords":["nocrits","nodmgspread","payload","uncletopia"],"game_id":440,"stv_port":27066,"stv_name":"Uncletopia | Sydney | 6 | Community | STV","players":null},{"server_id":49,"name":"Uncletopia | Warsaw | 1 | All Maps","name_short":"waw-1","host":"waw-1.pl.uncletopia.com","port":27015,"enabled":true,"region":"eu","cc":"pl","latitude":52.2297,"longitude":21.017532,"reserved":0,"last_update":"0001-01-01T00:00:00Z","name_a2s":"","protocol":0,"map":"","folder":"","game":"","app_id":0,"player_count":0,"max_players":0,"Bots":0,"server_type":"","server_os":"","password":false,"vac":false,"version":"","steam_id":0,"keywords":null,"game_id":0,"stv_port":0,"stv_name":"","players":null},{"server_id":50,"name":"Uncletopia | Warsaw | 2 | All Maps","name_short":"waw-2","host":"waw-1.pl.uncletopia.com","port":27025,"enabled":true,"region":"eu","cc":"pl","latitude":52.2297,"longitude":21.017532,"reserved":0,"last_update":"0001-01-01T00:00:00Z","name_a2s":"Uncletopia | Warsaw | 2 | All Maps","protocol":17,"map":"koth_lakeside_final","folder":"tf","game":"Team Fortress","app_id":440,"player_count":0,"max_players":24,"Bots":0,"server_type":"Dedicated","server_os":"Linux","password":true,"vac":true,"version":"7882260","steam_id":85568392925397851,"keywords":["cp","nocrits","nodmgspread","uncletopia"],"game_id":440,"stv_port":27026,"stv_name":"Uncletopia | Warsaw | 2 | All Maps | STV","players":null},{"server_id":51,"name":"Uncletopia | Warsaw | 3 | All Maps","name_short":"waw-3","host":"waw-1.pl.uncletopia.com","port":27035,"enabled":true,"region":"eu","cc":"pl","latitude":52.2297,"longitude":21.017532,"reserved":0,"last_update":"0001-01-01T00:00:00Z","name_a2s":"Uncletopia | Warsaw | 3 | All Maps","protocol":17,"map":"koth_lakeside_final","folder":"tf","game":"Team Fortress","app_id":440,"player_count":0,"max_players":24,"Bots":0,"server_type":"Dedicated","server_os":"Linux","password":true,"vac":true,"version":"7882260","steam_id":85568392925397852,"keywords":["cp","nocrits","nodmgspread","uncletopia"],"game_id":440,"stv_port":27036,"stv_name":"Uncletopia | Warsaw | 3 | All Maps | STV","players":null},{"server_id":52,"name":"Uncletopia | Warsaw | 4 | All Maps","name_short":"waw-4","host":"waw-1.pl.uncletopia.com","port":27045,"enabled":true,"region":"eu","cc":"pl","latitude":52.2297,"longitude":21.017532,"reserved":0,"last_update":"0001-01-01T00:00:00Z","name_a2s":"Uncletopia | Warsaw | 4 | All Maps","protocol":17,"map":"koth_cascade","folder":"tf","game":"Team Fortress","app_id":440,"player_count":0,"max_players":24,"Bots":0,"server_type":"Dedicated","server_os":"Linux","password":true,"vac":true,"version":"7882260","steam_id":85568392925397853,"keywords":["cp","nocrits","nodmgspread","uncletopia"],"game_id":440,"stv_port":27046,"stv_name":"Uncletopia | Warsaw | 4 | All Maps | STV","players":null},{"server_id":53,"name":"Uncletopia | Warsaw | 5 | Stopwatch Beta","name_short":"waw-5","host":"waw-1.pl.uncletopia.com","port":27055,"enabled":true,"region":"eu","cc":"pl","latitude":52.2297,"longitude":21.017532,"reserved":0,"last_update":"0001-01-01T00:00:00Z","name_a2s":"Uncletopia | Warsaw | 5 | Stopwatch Beta","protocol":17,"map":"koth_lakeside_final","folder":"tf","game":"Team Fortress","app_id":440,"player_count":0,"max_players":24,"Bots":0,"server_type":"Dedicated","server_os":"Linux","password":true,"vac":true,"version":"7882260","steam_id":85568392925397854,"keywords":["cp","nocrits","nodmgspread","uncletopia"],"game_id":440,"stv_port":27056,"stv_name":"Uncletopia | Warsaw | 5 | Stopwatch Beta | STV","players":null},{"server_id":54,"name":"Uncletopia | Warsaw | 6 | Community","name_short":"waw-6","host":"waw-1.pl.uncletopia.com","port":27065,"enabled":true,"region":"eu","cc":"pl","latitude":52.2297,"longitude":21.017532,"reserved":0,"last_update":"0001-01-01T00:00:00Z","name_a2s":"Uncletopia | Warsaw | 6 | Community","protocol":17,"map":"workshop/koth_ashville_final.ugc2130459942","folder":"tf","game":"Team Fortress","app_id":440,"player_count":0,"max_players":24,"Bots":0,"server_type":"Dedicated","server_os":"Linux","password":true,"vac":true,"version":"7882260","steam_id":85568392925397856,"keywords":["cp","nocrits","nodmgspread","uncletopia"],"game_id":440,"stv_port":27066,"stv_name":"Uncletopia | Warsaw | 6 | Community | STV","players":null}]}