{"status":true,"message":"","result":[{"server_id":9,"name":"Uncletopia | Atlanta | 1 | All Maps","name_short":"atl-1","host":"atl-1.us.uncletopia.com","port":27015,"enabled":true,"region":"us-east","cc":"us","latitude":33.753746,"longitude":-84.38633,"reserved":0,"last_update":"0001-01-01T00:00:00Z","name_a2s":"Uncletopia | Atlanta | 1 | All Maps","protocol":17,"map":"pl_upward","folder":"tf","game":"Team Fortress","app_id":440,"player_count":24,"max_players":24,"Bots":0,"server_type":"Dedicated","server_os":"Linux","password":true,"vac":true,"version":"7757534","steam_id":85568392924469982,"keywords":["nocrits","nodmgspread","payload","uncletopia"],"game_id":440,"stv_port":27016,"stv_name":"Uncletopia | Atlanta | 1 | All Maps | STV","players":[{"user_id":20,"name":"box","steam_id":76561198985635309,"connected_time":5468000000000,"state":"active","ping":86},{"user_id":112,"name":"byte_sized","steam_id":76561198155560837,"connected_time":490000000000,"state":"active","ping":74},{"user_id":92,"name":"MinusSoup918","steam_id":76561198060902773,"connected_time":1857000000000,"state":"active","ping":124},{"user_id":86,"name":"Brass beast heavy","steam_id":76561198274197623,"connected_time":2193000000000,"state":"active","ping":149},{"user_id":118,"name":"Sweet Baby Zain","steam_id":76561198046392267,"connected_time":17000000000,"state":"active","ping":89},{"user_id":21,"name":"\u003c blank \u003e","steam_id":76561198012566503,"connected_time":5460000000000,"state":"active","ping":94},{"user_id":85,"name":"Goobins McMichael","steam_id":76561198142772896,"connected_time":2341000000000,"state":"active","ping":151},{"user_id":62,"name":"Huge","steam_id":76561199030987614,"connected_time":3448000000000,"state":"active","ping":104},{"user_id":88,"name":"MEATBALL","steam_id":76561198028499312,"connected_time":1902000000000,"state":"active","ping":59},{"user_id":104,"name":"wiiblob","steam_id":76561198109106242,"connected_time":1357000000000,"state":"active","ping":120},{"user_id":117,"name":"BLU1 | Pango","steam_id":76561198069811545,"connected_time":210000000000,"state":"active","ping":45},{"user_id":114,"name":"chiswola","steam_id":76561198046920142,"connected_time":434000000000,"state":"active","ping":86},{"user_id":98,"name":"D UCK","steam_id":76561198075844142,"connected_time":1731000000000,"state":"active","ping":34},{"user_id":99,"name":"zaku","steam_id":76561199227854899,"connected_time":1718000000000,"state":"active","ping":148},{"user_id":110,"name":"cars extended warranty","steam_id":76561199084950961,"connected_time":790000000000,"state":"active","ping":158},{"user_id":106,"name":"James","steam_id":76561198055687973,"connected_time":1270000000000,"state":"active","ping":48},{"user_id":100,"name":"Karma","steam_id":76561198030565234,"connected_time":1657000000000,"state":"active","ping":74},{"user_id":71,"name":"wire-guided","steam_id":76561198055407168,"connected_time":3226000000000,"state":"active","ping":59},{"user_id":57,"name":"Cruisin'","steam_id":76561199245457119,"connected_time":3689000000000,"state":"active","ping":88},{"user_id":97,"name":"Freezer Fox YT","steam_id":76561198060542607,"connected_time":1762000000000,"state":"active","ping":99},{"user_id":96,"name":"The creator(made twitter)","steam_id":76561198870900265,"connected_time":1798000000000,"state":"active","ping":92},{"user_id":111,"name":"DevSlashUser","steam_id":76561198805884205,"connected_time":624000000000,"state":"active","ping":67},{"user_id":115,"name":"Sorry, I only know swear words.","steam_id":76561197993151595,"connected_time":431000000000,"state":"active","ping":115},{"user_id":59,"name":"[DEEP] Fitts1099","steam_id":76561198044986906,"connected_time":3518000000000,"state":"active","ping":68}]},{"server_id":400,"name":"Uncletopia | Atlanta | 3 | Community","name_short":"atl-3","host":"atl-1.us.uncletopia.com","port":27035,"enabled":true,"region":"us-east","cc":"us","latitude":33.753746,"longitude":-84.38633,"reserved":0,"last_update":"0001-01-01T00:00:00Z","name_a2s":"Uncletopia | Atlanta | 3 | Community","protocol":17,"map":"workshop/pl_eruption_b9a.ugc2807898013","folder":"tf","game":"Team Fortress","app_id":440,"player_count":24,"max_players":32,"Bots":0,"server_type":"Dedicated","server_os":"Linux","password":true,"vac":true,"version":"7757534","steam_id":85568392924515187,"keywords":["increased_maxplayers","nocrits","nodmgspread","payload","uncletopia"],"game_id":440,"stv_port":27036,"stv_name":"Uncletopia | Atlanta | 3 | Community | STV","players":[{"user_id":150,"name":"CABOOSE","steam_id":76561199230115616,"connected_time":3390000000000,"state":"active","ping":73},{"user_id":127,"name":"Needs McTherapy","steam_id":76561198168876878,"connected_time":4725000000000,"state":"active","ping":72},{"user_id":204,"name":"Bee","steam_id":76561198102292900,"connected_time":1206000000000,"state":"active","ping":71},{"user_id":205,"name":"Buswolley","steam_id":76561197995205571,"connected_time":1030000000000,"state":"active","ping":132},{"user_id":224,"name":"LordGonk","steam_id":76561199087836761,"connected_time":348000000000,"state":"active","ping":88},{"user_id":209,"name":"anipe10","steam_id":76561199084698417,"connected_time":823000000000,"state":"active","ping":145},{"user_id":223,"name":"spearit5464","steam_id":76561199241807676,"connected_time":368000000000,"state":"active","ping":117},{"user_id":225,"name":"The Christmas Guy","steam_id":76561198238639174,"connected_time":328000000000,"state":"active","ping":90},{"user_id":163,"name":"kametro4","steam_id":76561198835430429,"connected_time":2851000000000,"state":"active","ping":105},{"user_id":170,"name":"old birb man","steam_id":76561199410269097,"connected_time":2557000000000,"state":"active","ping":149},{"user_id":218,"name":"Meezlii","steam_id":76561198951433180,"connected_time":519000000000,"state":"active","ping":123},{"user_id":231,"name":"Slashes","steam_id":76561197968573499,"connected_time":205000000000,"state":"active","ping":60},{"user_id":168,"name":"The guy","steam_id":76561199275071037,"connected_time":2705000000000,"state":"active","ping":78},{"user_id":172,"name":"Salmon","steam_id":76561198285883040,"connected_time":2520000000000,"state":"active","ping":117},{"user_id":216,"name":"Godfinger","steam_id":76561198426346549,"connected_time":591000000000,"state":"active","ping":47},{"user_id":232,"name":"BroBama","steam_id":76561198203732587,"connected_time":177000000000,"state":"active","ping":109},{"user_id":220,"name":"Tiny Fisto","steam_id":76561198446888505,"connected_time":491000000000,"state":"active","ping":123},{"user_id":221,"name":"Picked Wiss","steam_id":76561198057745131,"connected_time":442000000000,"state":"active","ping":55},{"user_id":227,"name":"Cookie","steam_id":76561198047736899,"connected_time":318000000000,"state":"active","ping":59},{"user_id":242,"name":"Arctic Flesh","steam_id":76561198099678868,"connected_time":8000000000,"state":"active","ping":88},{"user_id":128,"name":"mu","steam_id":76561197997530228,"connected_time":4721000000000,"state":"active","ping":118},{"user_id":229,"name":"Neuroticals","steam_id":76561199429723284,"connected_time":289000000000,"state":"active","ping":113},{"user_id":46,"name":"Titus Tyrwitt","steam_id":76561197990779673,"connected_time":7031000000000,"state":"active","ping":59},{"user_id":230,"name":"pool shark","steam_id":76561198130191179,"connected_time":284000000000,"state":"active","ping":83}]},{"server_id":401,"name":"Uncletopia | Atlanta | 4 | No Payload","name_short":"atl-4","host":"atl-1.us.uncletopia.com","port":27045,"enabled":true,"region":"us-east","cc":"us","latitude":33.753746,"longitude":-84.38633,"reserved":0,"last_update":"0001-01-01T00:00:00Z","name_a2s":"","protocol":0,"map":"","folder":"","game":"","app_id":0,"player_count":0,"max_players":0,"Bots":0,"server_type":"","server_os":"","password":false,"vac":false,"version":"","steam_id":0,"keywords":null,"game_id":0,"stv_port":0,"stv_name":"","players":null},{"server_id":2,"name":"Uncletopia | Chicago | 1 | All Maps","name_short":"chi-1","host":"chi-1.us.uncletopia.com","port":27015,"enabled":true,"region":"us-central","cc":"us","latitude":41.881832,"longitude":-87.62318,"reserved":0,"last_update":"0001-01-01T00:00:00Z","name_a2s":"Uncletopia | Chicago | 1 | All Maps","protocol":17,"map":"koth_highpass","folder":"tf","game":"Team Fortress","app_id":440,"player_count":0,"max_players":24,"Bots":0,"server_type":"Dedicated","server_os":"Linux","password":true,"vac":true,"version":"7757534","steam_id":85568392924469984,"keywords":["cp","nocrits","nodmgspread","uncletopia"],"game_id":440,"stv_port":27016,"stv_name":"Uncletopia | Chicago | 1 | All Maps | STV","players":null},{"server_id":106,"name":"Uncletopia | Chicago | 2 | All Maps","name_short":"chi-2","host":"chi-1.us.uncletopia.com","port":27025,"enabled":true,"region":"us-central","cc":"us","latitude":41.881832,"longitude":-87.62318,"reserved":0,"last_update":"0001-01-01T00:00:00Z","name_a2s":"Uncletopia | Chicago | 2 | All Maps","protocol":17,"map":"koth_viaduct","folder":"tf","game":"Team Fortress","app_id":440,"player_count":0,"max_players":24,"Bots":0,"server_type":"Dedicated","server_os":"Linux","password":true,"vac":true,"version":"7757534","steam_id":85568392924469985,"keywords":["cp","nocrits","nodmgspread","uncletopia"],"game_id":440,"stv_port":27026,"stv_name":"Uncletopia | Chicago | 2 | All Maps | STV","players":null},{"server_id":402,"name":"Uncletopia | Chicago | 3 | All Maps","name_short":"chi-3","host":"chi-1.us.uncletopia.com","port":27035,"enabled":true,"region":"us-central","cc":"us","latitude":41.881832,"longitude":-87.62318,"reserved":0,"last_update":"0001-01-01T00:00:00Z","name_a2s":"Uncletopia | Chicago | 3 | All Maps","protocol":17,"map":"pl_pier","folder":"tf","game":"Team Fortress","app_id":440,"player_count":24,"max_players":24,"Bots":0,"server_type":"Dedicated","server_os":"Linux","password":true,"vac":true,"version":"7757534","steam_id":85568392924515191,"keywords":["nocrits","nodmgspread","payload","uncletopia"],"game_id":440,"stv_port":27036,"stv_name":"Uncletopia | Chicago | 3 | All Maps | STV","players":[{"user_id":177,"name":"TÖZI","steam_id":76561198045268695,"connected_time":2208000000000,"state":"active","ping":61},{"user_id":184,"name":"Nyle","steam_id":76561198045652639,"connected_time":1615000000000,"state":"active","ping":131},{"user_id":192,"name":"Female Gamer","steam_id":76561199366482682,"connected_time":144000000000,"state":"active","ping":103},{"user_id":179,"name":"Protoshake","steam_id":76561198840276176,"connected_time":2182000000000,"state":"active","ping":59},{"user_id":190,"name":"FunGi","steam_id":76561198881418662,"connected_time":404000000000,"state":"active","ping":75},{"user_id":157,"name":"defs","steam_id":76561198134813102,"connected_time":3975000000000,"state":"active","ping":54},{"user_id":171,"name":"Try Gardening","steam_id":76561198120311340,"connected_time":2855000000000,"state":"active","ping":45},{"user_id":182,"name":"Willem DripFoe","steam_id":76561198385114441,"connected_time":1763000000000,"state":"active","ping":106},{"user_id":188,"name":"Violet42","steam_id":76561198072927887,"connected_time":548000000000,"state":"active","ping":61},{"user_id":140,"name":"shokie","steam_id":76561197997961542,"connected_time":5524000000000,"state":"active","ping":58},{"user_id":196,"name":"Glue790","steam_id":76561199215798445,"connected_time":22000000000,"state":"active","ping":52},{"user_id":195,"name":"Hydra","steam_id":76561198053290948,"connected_time":44000000000,"state":"active","ping":87},{"user_id":191,"name":"Scott","steam_id":76561198161597056,"connected_time":346000000000,"state":"active","ping":67},{"user_id":127,"name":"TheGreatDong","steam_id":76561198000634178,"connected_time":6821000000000,"state":"active","ping":99},{"user_id":156,"name":"CJDGuy","steam_id":76561198213009545,"connected_time":3998000000000,"state":"active","ping":72},{"user_id":189,"name":"Crab Rangoon","steam_id":76561198059310510,"connected_time":449000000000,"state":"active","ping":75},{"user_id":160,"name":"legalizenuclearbombs","steam_id":76561199246416357,"connected_time":3879000000000,"state":"spawning","ping":88},{"user_id":187,"name":"Gato","steam_id":76561198063521721,"connected_time":980000000000,"state":"active","ping":74},{"user_id":175,"name":"Rein","steam_id":76561198300340427,"connected_time":2241000000000,"state":"active","ping":60},{"user_id":194,"name":"poop fart 900","steam_id":76561198165299077,"connected_time":74000000000,"state":"active","ping":62},{"user_id":170,"name":"Poison Ivy","steam_id":76561198072384574,"connected_time":3208000000000,"state":"active","ping":51},{"user_id":186,"name":"Glory","steam_id":76561198013975080,"connected_time":1243000000000,"state":"active","ping":71},{"user_id":172,"name":"the spy from team fortress 2","steam_id":76561198047797306,"connected_time":2519000000000,"state":"active","ping":56},{"user_id":174,"name":"ULTRACOCK","steam_id":76561198022967929,"connected_time":2498000000000,"state":"active","ping":87}]},{"server_id":403,"name":"Uncletopia | Chicago | 4 | All Maps","name_short":"chi-4","host":"chi-1.us.uncletopia.com","port":27045,"enabled":true,"region":"us-central","cc":"us","latitude":41.881832,"longitude":-87.62318,"reserved":0,"last_update":"0001-01-01T00:00:00Z","name_a2s":"Uncletopia | Chicago | 4 | All Maps","protocol":17,"map":"pl_enclosure_final","folder":"tf","game":"Team Fortress","app_id":440,"player_count":24,"max_players":24,"Bots":0,"server_type":"Dedicated","server_os":"Linux","password":true,"vac":true,"version":"7757534","steam_id":85568392924515193,"keywords":["nocrits","nodmgspread","payload","uncletopia"],"game_id":440,"stv_port":27046,"stv_name":"Uncletopia | Chicago | 4 | All Maps | STV","players":[{"user_id":243,"name":"Mervous Thrifty","steam_id":76561198063250819,"connected_time":104000000000,"state":"active","ping":47},{"user_id":209,"name":"JennaShinx","steam_id":76561198074773762,"connected_time":3715000000000,"state":"active","ping":58},{"user_id":219,"name":"Brown_Dream","steam_id":76561198975766145,"connected_time":3245000000000,"state":"active","ping":84},{"user_id":232,"name":"PositronicJune (they/she)","steam_id":76561198042556857,"connected_time":1120000000000,"state":"active","ping":48},{"user_id":201,"name":"I'm Only 4 Inches","steam_id":76561198055542546,"connected_time":3999000000000,"state":"active","ping":56},{"user_id":229,"name":"--_Cook_--","steam_id":76561198080855748,"connected_time":1335000000000,"state":"active","ping":48},{"user_id":227,"name":"Dezorbo","steam_id":76561197971883897,"connected_time":2330000000000,"state":"active","ping":75},{"user_id":233,"name":"KennytheHedgehog","steam_id":76561198094607721,"connected_time":1113000000000,"state":"active","ping":74},{"user_id":226,"name":"JustCoffee","steam_id":76561199389473180,"connected_time":2456000000000,"state":"active","ping":72},{"user_id":234,"name":"The Blue Album","steam_id":76561198952193921,"connected_time":1014000000000,"state":"active","ping":102},{"user_id":228,"name":"beanz","steam_id":76561198023357154,"connected_time":1874000000000,"state":"active","ping":97},{"user_id":236,"name":"bikerkid207","steam_id":76561198390782783,"connected_time":985000000000,"state":"active","ping":68},{"user_id":171,"name":"Monsterjessy","steam_id":76561198035630985,"connected_time":5940000000000,"state":"active","ping":66},{"user_id":242,"name":"♥ Femboy♥Ventily ♥","steam_id":76561198157260335,"connected_time":613000000000,"state":"active","ping":45},{"user_id":179,"name":"lite","steam_id":76561198300633951,"connected_time":4817000000000,"state":"active","ping":108},{"user_id":241,"name":"PhobixTheThing","steam_id":76561199059009386,"connected_time":896000000000,"state":"active","ping":90},{"user_id":244,"name":"bear","steam_id":76561198909415646,"connected_time":103000000000,"state":"active","ping":76},{"user_id":200,"name":"Lifial","steam_id":76561198271885819,"connected_time":4059000000000,"state":"active","ping":81},{"user_id":211,"name":"PKBEAST_7","steam_id":76561198177136537,"connected_time":3693000000000,"state":"active","ping":91},{"user_id":218,"name":"Stock Medic","steam_id":76561198065479730,"connected_time":3296000000000,"state":"active","ping":45},{"user_id":239,"name":"Gotta get my ammo fix","steam_id":76561198039763676,"connected_time":938000000000,"state":"active","ping":64},{"user_id":214,"name":"Zero","steam_id":76561199383267408,"connected_time":3627000000000,"state":"active","ping":70},{"user_id":215,"name":"SlitherDoodle","steam_id":76561198000275473,"connected_time":3613000000000,"state":"active","ping":63},{"user_id":240,"name":"is undertale real?","steam_id":76561198090289497,"connected_time":916000000000,"state":"active","ping":77}]},{"server_id":36,"name":"Uncletopia | Chicago | 5 | All Maps","name_short":"chi-5","host":"chi-2.us.uncletopia.com","port":27015,"enabled":true,"region":"us-central","cc":"us","latitude":41.881832,"longitude":-87.62318,"reserved":0,"last_update":"0001-01-01T00:00:00Z","name_a2s":"Uncletopia | Chicago | 5 | All Maps","protocol":17,"map":"koth_cascade","folder":"tf","game":"Team Fortress","app_id":440,"player_count":2,"max_players":24,"Bots":0,"server_type":"Dedicated","server_os":"Linux","password":true,"vac":true,"version":"7757534","steam_id":85568392924866362,"keywords":["cp","nocrits","nodmgspread","uncletopia"],"game_id":440,"stv_port":27016,"stv_name":"Uncletopia | Chicago | 5 | All Maps | STV","players":[{"user_id":7,"name":"spackard","steam_id":76561199238320937,"connected_time":280000000000,"state":"active","ping":134},{"user_id":8,"name":"WildPanda","steam_id":76561199451893770,"connected_time":111000000000,"state":"active","ping":156}]},{"server_id":37,"name":"Uncletopia | Chicago | 6 | All Maps","name_short":"chi-6","host":"chi-2.us.uncletopia.com","port":27025,"enabled":true,"region":"us-central","cc":"us","latitude":41.881832,"longitude":-87.62318,"reserved":0,"last_update":"0001-01-01T00:00:00Z","name_a2s":"Uncletopia | Chicago | 6 | All Maps","protocol":17,"map":"koth_cascade","folder":"tf","game":"Team Fortress","app_id":440,"player_count":0,"max_players":24,"Bots":0,"server_type":"Dedicated","server_os":"Linux","password":true,"vac":true,"version":"7757534","steam_id":85568392924866363,"keywords":["cp","nocrits","nodmgspread","uncletopia"],"game_id":440,"stv_port":27026,"stv_name":"Uncletopia | Chicago | 6 | All Maps | STV","players":null},{"server_id":38,"name":"Uncletopia | Chicago | 7 | Stopwatch Beta","name_short":"chi-7","host":"chi-2.us.uncletopia.com","port":27035,"enabled":true,"region":"us-central","cc":"us","latitude":41.881832,"longitude":-87.62318,"reserved":0,"last_update":"0001-01-01T00:00:00Z","name_a2s":"Uncletopia | Chicago | 7 | Stopwatch Beta","protocol":17,"map":"pl_upward","folder":"tf","game":"Team Fortress","app_id":440,"player_count":0,"max_players":24,"Bots":0,"server_type":"Dedicated","server_os":"Linux","password":true,"vac":true,"version":"7757534","steam_id":85568392924866364,"keywords":["nocrits","nodmgspread","payload","uncletopia"],"game_id":440,"stv_port":27036,"stv_name":"Uncletopia | Chicago | 7 | Stopwatch Beta | STV","players":null},{"server_id":39,"name":"Uncletopia | Chicago | 8 | Community","name_short":"chi-8","host":"chi-2.us.uncletopia.com","port":27045,"enabled":true,"region":"us-central","cc":"us","latitude":41.881832,"longitude":-87.62318,"reserved":0,"last_update":"0001-01-01T00:00:00Z","name_a2s":"Uncletopia | Chicago | 8 | Community","protocol":17,"map":"pl_barnblitz","folder":"tf","game":"Team Fortress","app_id":440,"player_count":0,"max_players":24,"Bots":0,"server_type":"Dedicated","server_os":"Linux","password":true,"vac":true,"version":"7757534","steam_id":85568392924866365,"keywords":["nocrits","nodmgspread","payload","uncletopia"],"game_id":440,"stv_port":27046,"stv_name":"Uncletopia | Chicago | 8 | Community | STV","players":null},{"server_id":8,"name":"Uncletopia | Dallas | 1 | All Maps","name_short":"dal-1","host":"dal-1.us.uncletopia.com","port":27015,"enabled":true,"region":"us-central","cc":"us","latitude":32.779167,"longitude":-96.80889,"reserved":0,"last_update":"0001-01-01T00:00:00Z","name_a2s":"Uncletopia | Dallas | 1 | All Maps","protocol":17,"map":"koth_harvest_final","folder":"tf","game":"Team Fortress","app_id":440,"player_count":23,"max_players":24,"Bots":0,"server_type":"Dedicated","server_os":"Linux","password":true,"vac":true,"version":"7757534","steam_id":85568392924469986,"keywords":["cp","nocrits","nodmgspread","uncletopia"],"game_id":440,"stv_port":27016,"stv_name":"Uncletopia | Dallas | 1 | All Maps | STV","players":[{"user_id":316,"name":"Avril Lavigne Enthusiast","steam_id":76561198090413533,"connected_time":1458000000000,"state":"active","ping":71},{"user_id":331,"name":"EchoFox","steam_id":76561198126838956,"connected_time":1039000000000,"state":"active","ping":126},{"user_id":344,"name":"juan_gonzalez_2010","steam_id":76561198386274766,"connected_time":165000000000,"state":"active","ping":66},{"user_id":347,"name":"barker bill","steam_id":76561198018451994,"connected_time":58000000000,"state":"active","ping":60},{"user_id":324,"name":"Mem","steam_id":76561198170391715,"connected_time":1227000000000,"state":"active","ping":81},{"user_id":320,"name":"voidpuppy","steam_id":76561198799922000,"connected_time":1399000000000,"state":"active","ping":76},{"user_id":346,"name":"captain red","steam_id":76561198191587983,"connected_time":110000000000,"state":"active","ping":65},{"user_id":335,"name":"Invisorum","steam_id":76561198051902115,"connected_time":827000000000,"state":"active","ping":140},{"user_id":333,"name":"Eadguy","steam_id":76561198029852831,"connected_time":916000000000,"state":"active","ping":107},{"user_id":345,"name":"natesaber99","steam_id":76561198170401819,"connected_time":128000000000,"state":"active","ping":72},{"user_id":326,"name":"silly jester","steam_id":76561198079609974,"connected_time":1188000000000,"state":"active","ping":86},{"user_id":342,"name":"Speedy","steam_id":76561198080761661,"connected_time":289000000000,"state":"active","ping":97},{"user_id":336,"name":"GrimGamer","steam_id":76561198037622043,"connected_time":752000000000,"state":"active","ping":59},{"user_id":327,"name":"11 INCH TGIRL SCHLONG","steam_id":76561198122059018,"connected_time":1176000000000,"state":"active","ping":88},{"user_id":295,"name":"Variell","steam_id":76561198164566278,"connected_time":3095000000000,"state":"active","ping":111},{"user_id":348,"name":"Bob is Zack","steam_id":76561198315655301,"connected_time":42000000000,"state":"active","ping":76},{"user_id":274,"name":"Fox","steam_id":76561198063507627,"connected_time":4533000000000,"state":"active","ping":45},{"user_id":339,"name":"DocLucky","steam_id":76561199093899249,"connected_time":446000000000,"state":"active","ping":164},{"user_id":329,"name":"miss marcine","steam_id":76561198029845528,"connected_time":1153000000000,"state":"active","ping":67},{"user_id":334,"name":"Borgir","steam_id":76561198325390265,"connected_time":901000000000,"state":"active","ping":67},{"user_id":313,"name":"Brendan_Lalo","steam_id":76561198804979242,"connected_time":1747000000000,"state":"active","ping":81},{"user_id":286,"name":"trans rights","steam_id":76561198044183038,"connected_time":3810000000000,"state":"active","ping":66},{"user_id":230,"name":"177013","steam_id":76561198072303290,"connected_time":8739000000000,"state":"active","ping":87}]},{"server_id":108,"name":"Uncletopia | Dallas | 2 | All Maps","name_short":"dal-2","host":"dal-1.us.uncletopia.com","port":27025,"enabled":true,"region":"us-central","cc":"us","latitude":32.779167,"longitude":-96.80889,"reserved":0,"last_update":"0001-01-01T00:00:00Z","name_a2s":"Uncletopia | Dallas | 2 | All Maps","protocol":17,"map":"cp_dustbowl","folder":"tf","game":"Team Fortress","app_id":440,"player_count":0,"max_players":24,"Bots":0,"server_type":"Dedicated","server_os":"Linux","password":true,"vac":true,"version":"7757534","steam_id":85568392924469988,"keywords":["cp","nocrits","nodmgspread","uncletopia"],"game_id":440,"stv_port":27026,"stv_name":"Uncletopia | Dallas | 2 | All Maps | STV","players":null},{"server_id":5,"name":"Uncletopia | Frankfurt | 1 | All Maps","name_short":"frk-1","host":"frk-1.de.uncletopia.com","port":27015,"enabled":true,"region":"eu","cc":"de","latitude":50.110924,"longitude":8.682127,"reserved":0,"last_update":"0001-01-01T00:00:00Z","name_a2s":"Uncletopia | Frankfurt | 1 | All Maps","protocol":17,"map":"koth_sawmill","folder":"tf","game":"Team Fortress","app_id":440,"player_count":24,"max_players":24,"Bots":0,"server_type":"Dedicated","server_os":"Linux","password":true,"vac":true,"version":"7757534","steam_id":85568392924469989,"keywords":["cp","nocrits","nodmgspread","uncletopia"],"game_id":440,"stv_port":27016,"stv_name":"Uncletopia | Frankfurt | 1 | All Maps | STV","players":[{"user_id":173,"name":"¬°Nice","steam_id":76561198387871867,"connected_time":1296000000000,"state":"active","ping":75},{"user_id":134,"name":"Ghost11","steam_id":76561198068892992,"connected_time":3541000000000,"state":"active","ping":105},{"user_id":165,"name":"i hate the lil bro meme","steam_id":76561198047359132,"connected_time":1849000000000,"state":"active","ping":75},{"user_id":135,"name":"Gumit","steam_id":76561198208126512,"connected_time":3430000000000,"state":"active","ping":146},{"user_id":187,"name":"TJ1212","steam_id":76561199013575313,"connected_time":17000000000,"state":"active","ping":76},{"user_id":171,"name":"TheEventGuy","steam_id":76561197972797744,"connected_time":1303000000000,"state":"active","ping":63},{"user_id":184,"name":"MorVill","steam_id":76561198809859945,"connected_time":180000000000,"state":"active","ping":71},{"user_id":104,"name":"poliakov.noam","steam_id":76561199259322961,"connected_time":5426000000000,"state":"active","ping":106},{"user_id":168,"name":"Plubu","steam_id":76561198082511092,"connected_time":1581000000000,"state":"active","ping":126},{"user_id":185,"name":"Dooble donk man look at me donk","steam_id":76561198225523596,"connected_time":40000000000,"state":"spawning","ping":104},{"user_id":182,"name":"king taco","steam_id":76561198891698133,"connected_time":532000000000,"state":"active","ping":74},{"user_id":163,"name":"filo","steam_id":76561198103633797,"connected_time":2160000000000,"state":"active","ping":79},{"user_id":172,"name":"Ducc","steam_id":76561198030677425,"connected_time":1301000000000,"state":"active","ping":53},{"user_id":174,"name":":)","steam_id":76561198103988618,"connected_time":1287000000000,"state":"active","ping":71},{"user_id":129,"name":"JOK'R","steam_id":76561198140741944,"connected_time":3747000000000,"state":"active","ping":138},{"user_id":179,"name":"Harmony","steam_id":76561198436817109,"connected_time":843000000000,"state":"active","ping":61},{"user_id":132,"name":"Dithmarschen","steam_id":76561198068917140,"connected_time":3614000000000,"state":"active","ping":97},{"user_id":130,"name":"Economic crisis","steam_id":76561198063562843,"connected_time":3744000000000,"state":"active","ping":52},{"user_id":183,"name":"big hoops","steam_id":76561198004703799,"connected_time":186000000000,"state":"active","ping":47},{"user_id":170,"name":"cat","steam_id":76561199045736884,"connected_time":1308000000000,"state":"active","ping":63},{"user_id":175,"name":"VEH-DEH-VEH","steam_id":76561198010978989,"connected_time":1286000000000,"state":"active","ping":78},{"user_id":133,"name":"Carl","steam_id":76561198045638738,"connected_time":3591000000000,"state":"active","ping":74},{"user_id":181,"name":"Lokinn","steam_id":76561198127117580,"connected_time":729000000000,"state":"active","ping":69},{"user_id":177,"name":"Soerlssoelssöen","steam_id":76561197993060585,"connected_time":976000000000,"state":"active","ping":73}]},{"server_id":110,"name":"Uncletopia | Frankfurt | 2 | All Maps","name_short":"frk-2","host":"frk-1.de.uncletopia.com","port":27025,"enabled":true,"region":"eu","cc":"de","latitude":50.110924,"longitude":8.682127,"reserved":0,"last_update":"0001-01-01T00:00:00Z","name_a2s":"Uncletopia | Frankfurt | 2 | All Maps","protocol":17,"map":"pl_thundermountain","folder":"tf","game":"Team Fortress","app_id":440,"player_count":24,"max_players":24,"Bots":0,"server_type":"Dedicated","server_os":"Linux","password":true,"vac":true,"version":"7757534","steam_id":85568392924469990,"keywords":["nocrits","nodmgspread","payload","uncletopia"],"game_id":440,"stv_port":27026,"stv_name":"Uncletopia | Frankfurt | 2 | All Maps | STV","players":[{"user_id":139,"name":"Swedish Vegan","steam_id":76561198042775020,"connected_time":910000000000,"state":"active","ping":76},{"user_id":141,"name":"Laki","steam_id":76561198126078953,"connected_time":609000000000,"state":"active","ping":107},{"user_id":142,"name":"mountaindrill","steam_id":76561198864327475,"connected_time":603000000000,"state":"active","ping":56},{"user_id":143,"name":"Tata Cobraz0r","steam_id":76561198017693962,"connected_time":579000000000,"state":"active","ping":86},{"user_id":145,"name":"akakez","steam_id":76561198095432821,"connected_time":564000000000,"state":"active","ping":128},{"user_id":156,"name":"going through hell","steam_id":76561199042470246,"connected_time":22000000000,"state":"active","ping":47},{"user_id":133,"name":"gagalak","steam_id":76561198089979108,"connected_time":2114000000000,"state":"active","ping":90},{"user_id":101,"name":"Prim","steam_id":76561198043191342,"connected_time":3704000000000,"state":"active","ping":67},{"user_id":48,"name":"Rose-Marie","steam_id":76561198055611092,"connected_time":6698000000000,"state":"active","ping":51},{"user_id":134,"name":"Milaano","steam_id":76561198060415523,"connected_time":1826000000000,"state":"active","ping":69},{"user_id":138,"name":"Nobaddy","steam_id":76561198037871007,"connected_time":1111000000000,"state":"active","ping":97},{"user_id":147,"name":"disposablesuperbread","steam_id":76561199074703607,"connected_time":518000000000,"state":"active","ping":71},{"user_id":110,"name":"astigmatic","steam_id":76561199103959197,"connected_time":3235000000000,"state":"active","ping":104},{"user_id":118,"name":"MatesThePlayer","steam_id":76561198066156449,"connected_time":2739000000000,"state":"active","ping":59},{"user_id":148,"name":"R3kted","steam_id":76561198810134695,"connected_time":488000000000,"state":"active","ping":62},{"user_id":125,"name":"Wujek Cacek","steam_id":76561198010267943,"connected_time":2469000000000,"state":"active","ping":61},{"user_id":150,"name":"Acidpets","steam_id":76561198875421227,"connected_time":446000000000,"state":"active","ping":62},{"user_id":151,"name":"Steve Blowjobs","steam_id":76561198113321478,"connected_time":431000000000,"state":"active","ping":95},{"user_id":82,"name":"Autumnsky","steam_id":76561198055161203,"connected_time":4540000000000,"state":"active","ping":46},{"user_id":155,"name":"Just-Some-Menace","steam_id":76561198152324397,"connected_time":206000000000,"state":"active","ping":158},{"user_id":153,"name":"arcticcu","steam_id":76561198002435882,"connected_time":382000000000,"state":"active","ping":103},{"user_id":154,"name":"rolaray","steam_id":76561198218012025,"connected_time":381000000000,"state":"active","ping":79},{"user_id":77,"name":"disc0rd","steam_id":76561197985965776,"connected_time":5104000000000,"state":"active","ping":65},{"user_id":136,"name":"Blastrock64","steam_id":76561199008932704,"connected_time":1655000000000,"state":"active","ping":76}]},{"server_id":308,"name":"Uncletopia | Frankfurt | 3 | All Maps","name_short":"frk-3","host":"frk-1.de.uncletopia.com","port":27035,"enabled":true,"region":"eu","cc":"de","latitude":50.110924,"longitude":8.682127,"reserved":0,"last_update":"0001-01-01T00:00:00Z","name_a2s":"Uncletopia | Frankfurt | 3 | All Maps","protocol":17,"map":"cp_dustbowl","folder":"tf","game":"Team Fortress","app_id":440,"player_count":23,"max_players":24,"Bots":0,"server_type":"Dedicated","server_os":"Linux","password":true,"vac":true,"version":"7757534","steam_id":85568392924504274,"keywords":["cp","nocrits","nodmgspread","uncletopia"],"game_id":440,"stv_port":27036,"stv_name":"Uncletopia | Frankfurt | 3 | All Maps | STV","players":[{"user_id":204,"name":"Topia","steam_id":76561198163571788,"connected_time":79000000000,"state":"active","ping":99},{"user_id":169,"name":"_zipfile","steam_id":76561198066133808,"connected_time":2323000000000,"state":"active","ping":62},{"user_id":206,"name":"Preacher Carl","steam_id":76561197994713485,"connected_time":69000000000,"state":"active","ping":55},{"user_id":203,"name":"ChickyCoop","steam_id":76561199072983488,"connected_time":91000000000,"state":"active","ping":71},{"user_id":179,"name":"AA55 HOL","steam_id":76561198088197239,"connected_time":1550000000000,"state":"active","ping":63},{"user_id":205,"name":"SuperBob103","steam_id":76561199175360012,"connected_time":78000000000,"state":"active","ping":61},{"user_id":207,"name":"beurgeur","steam_id":76561198872426314,"connected_time":61000000000,"state":"active","ping":45},{"user_id":144,"name":"After8","steam_id":76561198090750865,"connected_time":3237000000000,"state":"active","ping":60},{"user_id":161,"name":"kamekame","steam_id":76561198047108054,"connected_time":2930000000000,"state":"active","ping":90},{"user_id":181,"name":"tamz","steam_id":76561198146873972,"connected_time":1518000000000,"state":"active","ping":45},{"user_id":208,"name":"AviK","steam_id":76561198310822598,"connected_time":48000000000,"state":"spawning","ping":1022},{"user_id":183,"name":"jkr","steam_id":76561198091135475,"connected_time":1510000000000,"state":"active","ping":59},{"user_id":175,"name":"zazuza","steam_id":76561198049820905,"connected_time":1846000000000,"state":"active","ping":60},{"user_id":210,"name":"`˘´antifriz","steam_id":76561198088806574,"connected_time":14000000000,"state":"spawning","ping":74},{"user_id":191,"name":"Pluto's Floofball(Raph)","steam_id":76561198154800858,"connected_time":1395000000000,"state":"active","ping":67},{"user_id":155,"name":"ikeaworst","steam_id":76561198936990378,"connected_time":2983000000000,"state":"active","ping":68},{"user_id":197,"name":"ChaosMaster","steam_id":76561198360983155,"connected_time":770000000000,"state":"active","ping":76},{"user_id":192,"name":"LadyMissfit","steam_id":76561198042236349,"connected_time":1361000000000,"state":"active","ping":84},{"user_id":202,"name":"Miles","steam_id":76561198084891833,"connected_time":423000000000,"state":"active","ping":59},{"user_id":198,"name":"Sandvich Gaming","steam_id":76561199079493666,"connected_time":635000000000,"state":"active","ping":94},{"user_id":189,"name":"pfear","steam_id":76561197999207328,"connected_time":1468000000000,"state":"active","ping":69},{"user_id":190,"name":"PLUTO","steam_id":76561198312436128,"connected_time":1468000000000,"state":"active","ping":119},{"user_id":160,"name":"CaparezzaMunnezza","steam_id":76561198262231733,"connected_time":2950000000000,"state":"active","ping":68}]},{"server_id":309,"name":"Uncletopia | Frankfurt | 4 | All Maps","name_short":"frk-4","host":"frk-1.de.uncletopia.com","port":27045,"enabled":true,"region":"eu","cc":"de","latitude":50.110924,"longitude":8.682127,"reserved":0,"last_update":"0001-01-01T00:00:00Z","name_a2s":"Uncletopia | Frankfurt | 4 | All Maps","protocol":17,"map":"pl_snowycoast","folder":"tf","game":"Team Fortress","app_id":440,"player_count":24,"max_players":24,"Bots":0,"server_type":"Dedicated","server_os":"Linux","password":true,"vac":true,"version":"7757534","steam_id":85568392924504275,"keywords":["nocrits","nodmgspread","payload","uncletopia"],"game_id":440,"stv_port":27046,"stv_name":"Uncletopia | Frankfurt | 4 | All Maps | STV","players":[{"user_id":485,"name":"Testicular torsion","steam_id":76561198119547399,"connected_time":403000000000,"state":"active","ping":56},{"user_id":480,"name":"♫★Xriasp★♫","steam_id":76561198104721321,"connected_time":887000000000,"state":"active","ping":74},{"user_id":460,"name":"ProMate","steam_id":76561198277138236,"connected_time":2519000000000,"state":"active","ping":70},{"user_id":487,"name":"yourtruemedic","steam_id":76561198826881879,"connected_time":392000000000,"state":"active","ping":71},{"user_id":476,"name":"Mishaswy","steam_id":76561198156848144,"connected_time":1251000000000,"state":"active","ping":100},{"user_id":452,"name":"coreymccraw2410","steam_id":76561198142901091,"connected_time":2932000000000,"state":"active","ping":75},{"user_id":396,"name":"joe","steam_id":76561198026484403,"connected_time":5605000000000,"state":"active","ping":64},{"user_id":428,"name":"decomposing like a dead rose","steam_id":76561198147277460,"connected_time":3837000000000,"state":"active","ping":53},{"user_id":384,"name":"Pingutaro","steam_id":76561198112803718,"connected_time":6771000000000,"state":"active","ping":66},{"user_id":479,"name":"Explosive_kink","steam_id":76561198998702838,"connected_time":1011000000000,"state":"active","ping":65},{"user_id":451,"name":"Wardruna96","steam_id":76561199057083828,"connected_time":2961000000000,"state":"active","ping":77},{"user_id":429,"name":"mercedes nuts","steam_id":76561198023211417,"connected_time":3825000000000,"state":"active","ping":62},{"user_id":481,"name":"Combat Wombat","steam_id":76561197994720068,"connected_time":886000000000,"state":"active","ping":75},{"user_id":444,"name":"Mor'du","steam_id":76561198274105878,"connected_time":3236000000000,"state":"active","ping":86},{"user_id":473,"name":"Zelmor","steam_id":76561197997708311,"connected_time":1322000000000,"state":"active","ping":45},{"user_id":443,"name":"ловлю хаха","steam_id":76561198163244605,"connected_time":3260000000000,"state":"active","ping":78},{"user_id":486,"name":"✯NE0N✯","steam_id":76561198084916656,"connected_time":398000000000,"state":"active","ping":65},{"user_id":488,"name":"D_L87","steam_id":76561198418538887,"connected_time":328000000000,"state":"active","ping":94},{"user_id":449,"name":"DrExplosive","steam_id":76561198063678579,"connected_time":3076000000000,"state":"active","ping":66},{"user_id":482,"name":"donk","steam_id":76561198162676648,"connected_time":749000000000,"state":"active","ping":82},{"user_id":438,"name":"Seb, Comrade","steam_id":76561198040279587,"connected_time":3568000000000,"state":"active","ping":100},{"user_id":474,"name":"Solu","steam_id":76561198054652468,"connected_time":1316000000000,"state":"active","ping":51},{"user_id":454,"name":"Chen","steam_id":76561198440363619,"connected_time":2892000000000,"state":"active","ping":54},{"user_id":483,"name":"Mugelzz","steam_id":76561198048528709,"connected_time":555000000000,"state":"active","ping":107}]},{"server_id":310,"name":"Uncletopia | Frankfurt | 5 | All Maps","name_short":"frk-5","host":"frk-1.de.uncletopia.com","port":27055,"enabled":true,"region":"eu","cc":"de","latitude":50.110924,"longitude":8.682127,"reserved":0,"last_update":"0001-01-01T00:00:00Z","name_a2s":"Uncletopia | Frankfurt | 5 | All Maps","protocol":17,"map":"pl_frontier_final","folder":"tf","game":"Team Fortress","app_id":440,"player_count":0,"max_players":24,"Bots":0,"server_type":"Dedicated","server_os":"Linux","password":true,"vac":true,"version":"7757534","steam_id":85568392924504277,"keywords":["nocrits","nodmgspread","payload","uncletopia"],"game_id":440,"stv_port":27056,"stv_name":"Uncletopia | Frankfurt | 5 | All Maps | STV","players":null},{"server_id":311,"name":"Uncletopia | Frankfurt | 6 | All Maps","name_short":"frk-6","host":"frk-1.de.uncletopia.com","port":27065,"enabled":true,"region":"eu","cc":"de","latitude":50.110924,"longitude":8.682127,"reserved":0,"last_update":"0001-01-01T00:00:00Z","name_a2s":"Uncletopia | Frankfurt | 6 | All Maps","protocol":17,"map":"pl_upward","folder":"tf","game":"Team Fortress","app_id":440,"player_count":24,"max_players":24,"Bots":0,"server_type":"Dedicated","server_os":"Linux","password":true,"vac":true,"version":"7757534","steam_id":85568392924504278,"keywords":["nocrits","nodmgspread","payload","uncletopia"],"game_id":440,"stv_port":27066,"stv_name":"Uncletopia | Frankfurt | 6 | All Maps | STV","players":[{"user_id":51,"name":"Gman","steam_id":76561199135387666,"connected_time":4132000000000,"state":"active","ping":102},{"user_id":103,"name":"duster cat","steam_id":76561198832231975,"connected_time":43000000000,"state":"active","ping":80},{"user_id":15,"name":"joe mama","steam_id":76561198162446976,"connected_time":6666000000000,"state":"active","ping":51},{"user_id":16,"name":"WAGOOGUS","steam_id":76561198195893307,"connected_time":6660000000000,"state":"active","ping":62},{"user_id":102,"name":"sdgfasdgasdgas","steam_id":76561198079277466,"connected_time":86000000000,"state":"active","ping":60},{"user_id":80,"name":"glow","steam_id":76561198086654069,"connected_time":1990000000000,"state":"active","ping":77},{"user_id":65,"name":"Bat in a thousand","steam_id":76561198320506848,"connected_time":3177000000000,"state":"active","ping":55},{"user_id":23,"name":"Balls","steam_id":76561198086400484,"connected_time":5231000000000,"state":"active","ping":84},{"user_id":43,"name":"SHIMMY GETS GRABED","steam_id":76561198106049954,"connected_time":4432000000000,"state":"active","ping":78},{"user_id":93,"name":"SFC Pump","steam_id":76561198129338259,"connected_time":791000000000,"state":"active","ping":71},{"user_id":89,"name":"Er Pomata","steam_id":76561198133085347,"connected_time":1506000000000,"state":"active","ping":61},{"user_id":100,"name":"Ghorkin","steam_id":76561198070923312,"connected_time":297000000000,"state":"active","ping":74},{"user_id":81,"name":"Mussolini","steam_id":76561198218384865,"connected_time":1987000000000,"state":"active","ping":92},{"user_id":98,"name":"rosy a 16 anni","steam_id":76561198048250715,"connected_time":583000000000,"state":"active","ping":59},{"user_id":101,"name":"Kaishakunin","steam_id":76561198028123874,"connected_time":291000000000,"state":"active","ping":84},{"user_id":64,"name":"glyph","steam_id":76561197980736364,"connected_time":3247000000000,"state":"active","ping":76},{"user_id":104,"name":"Menty","steam_id":76561198036748212,"connected_time":36000000000,"state":"active","ping":48},{"user_id":85,"name":"Cumbustible Punda #SaveTF2","steam_id":76561197974274677,"connected_time":1735000000000,"state":"active","ping":53},{"user_id":40,"name":"Lyra","steam_id":76561198043601838,"connected_time":4492000000000,"state":"active","ping":60},{"user_id":95,"name":"cowboy","steam_id":76561198080361351,"connected_time":740000000000,"state":"active","ping":81},{"user_id":96,"name":"darktheif54","steam_id":76561198043650119,"connected_time":706000000000,"state":"active","ping":54},{"user_id":92,"name":"smelter demon","steam_id":76561198038748489,"connected_time":833000000000,"state":"active","ping":60},{"user_id":78,"name":"i make you my b*tch","steam_id":76561198190583242,"connected_time":2260000000000,"state":"active","ping":76},{"user_id":87,"name":"Mandrake","steam_id":76561197970852048,"connected_time":1633000000000,"state":"active","ping":61}]},{"server_id":23,"name":"Uncletopia | Frankfurt | 7 | Stopwatch Beta","name_short":"frk-7","host":"frk-1.de.uncletopia.com","port":27075,"enabled":true,"region":"eu","cc":"de","latitude":50.110924,"longitude":8.682127,"reserved":0,"last_update":"0001-01-01T00:00:00Z","name_a2s":"Uncletopia | Frankfurt | 7 | Stopwatch Beta","protocol":17,"map":"workshop/koth_ramjam_rc1.ugc459778887","folder":"tf","game":"Team Fortress","app_id":440,"player_count":0,"max_players":24,"Bots":0,"server_type":"Dedicated","server_os":"Linux","password":true,"vac":true,"version":"7757534","steam_id":85568392924742827,"keywords":["cp","nocrits","nodmgspread","uncletopia"],"game_id":440,"stv_port":27076,"stv_name":"Uncletopia | Frankfurt | 7 | Stopwatch Beta | STV","players":null},{"server_id":24,"name":"Uncletopia | Frankfurt | 8 | Community","name_short":"frk-8","host":"frk-1.de.uncletopia.com","port":27085,"enabled":true,"region":"eu","cc":"de","latitude":50.110924,"longitude":8.682127,"reserved":0,"last_update":"0001-01-01T00:00:00Z","name_a2s":"Uncletopia | Frankfurt | 8 | Community","protocol":17,"map":"workshop/pl_badwater_pro_v12.ugc2142942074","folder":"tf","game":"Team Fortress","app_id":440,"player_count":0,"max_players":24,"Bots":0,"server_type":"Dedicated","server_os":"Linux","password":true,"vac":true,"version":"7757534","steam_id":85568392924742828,"keywords":["nocrits","nodmgspread","payload","uncletopia"],"game_id":440,"stv_port":27086,"stv_name":"Uncletopia | Frankfurt | 8 | Community | STV","players":null},{"server_id":202,"name":"Uncletopia | Hong Kong | 1 | All Maps","name_short":"hgk-1","host":"hgk-1.hk.uncletopia.com","port":27015,"enabled":true,"region":"asia","cc":"hk","latitude":22.302711,"longitude":114.177216,"reserved":0,"last_update":"0001-01-01T00:00:00Z","name_a2s":"Uncletopia | Hong Kong | 1 | All Maps","protocol":17,"map":"cp_process_final","folder":"tf","game":"Team Fortress","app_id":440,"player_count":0,"max_players":24,"Bots":0,"server_type":"Dedicated","server_os":"Linux","password":true,"vac":true,"version":"7757534","steam_id":85568392924494504,"keywords":["cp","nocrits","nodmgspread","uncletopia"],"game_id":440,"stv_port":27016,"stv_name":"Uncletopia | Hong Kong | 1 | All Maps | STV","players":null},{"server_id":1,"name":"Uncletopia | Los Angeles | 1 | All Maps","name_short":"lax-1","host":"lax-1.us.uncletopia.com","port":27015,"enabled":true,"region":"us-west","cc":"us","latitude":33.94279,"longitude":-118.41004,"reserved":0,"last_update":"0001-01-01T00:00:00Z","name_a2s":"Uncletopia | Los Angeles | 1 | All Maps","protocol":17,"map":"pl_upward","folder":"tf","game":"Team Fortress","app_id":440,"player_count":7,"max_players":24,"Bots":0,"server_type":"Dedicated","server_os":"Linux","password":true,"vac":true,"version":"7757534","steam_id":85568392924469991,"keywords":["nocrits","nodmgspread","payload","uncletopia"],"game_id":440,"stv_port":27016,"stv_name":"Uncletopia | Los Angeles | 1 | All Maps | STV","players":[{"user_id":16,"name":"༒  Red  ༒","steam_id":76561199230923075,"connected_time":1718000000000,"state":"active","ping":307},{"user_id":17,"name":"adrianmillones1","steam_id":76561199274711212,"connected_time":1696000000000,"state":"active","ping":186},{"user_id":22,"name":"Caroline","steam_id":76561199172103362,"connected_time":1000000000000,"state":"active","ping":186},{"user_id":19,"name":"Cap","steam_id":76561198072870415,"connected_time":1381000000000,"state":"active","ping":116},{"user_id":27,"name":"Panzerkampfwagen IV Ausf.H","steam_id":76561198420827196,"connected_time":315000000000,"state":"active","ping":112},{"user_id":28,"name":"Radio_Active!","steam_id":76561199217286835,"connected_time":84000000000,"state":"active","ping":254},{"user_id":29,"name":"goldhed","steam_id":76561198051751133,"connected_time":65000000000,"state":"active","ping":179}]},{"server_id":112,"name":"Uncletopia | Los Angeles | 2 | All Maps","name_short":"lax-2","host":"lax-1.us.uncletopia.com","port":27025,"enabled":true,"region":"us-west","cc":"us","latitude":33.94279,"longitude":-118.41004,"reserved":0,"last_update":"0001-01-01T00:00:00Z","name_a2s":"Uncletopia | Los Angeles | 2 | All Maps","protocol":17,"map":"koth_cascade","folder":"tf","game":"Team Fortress","app_id":440,"player_count":0,"max_players":24,"Bots":0,"server_type":"Dedicated","server_os":"Linux","password":true,"vac":true,"version":"7757534","steam_id":85568392924469992,"keywords":["cp","nocrits","nodmgspread","uncletopia"],"game_id":440,"stv_port":27026,"stv_name":"Uncletopia | Los Angeles | 2 | All Maps | STV","players":null},{"server_id":324,"name":"Uncletopia | Los Angeles | 3 | All Maps","name_short":"lax-3","host":"lax-1.us.uncletopia.com","port":27035,"enabled":true,"region":"us-west","cc":"us","latitude":33.94279,"longitude":-118.41004,"reserved":0,"last_update":"0001-01-01T00:00:00Z","name_a2s":"Uncletopia | Los Angeles | 3 | All Maps","protocol":17,"map":"pl_pier","folder":"tf","game":"Team Fortress","app_id":440,"player_count":0,"max_players":24,"Bots":0,"server_type":"Dedicated","server_os":"Linux","password":true,"vac":true,"version":"7757534","steam_id":85568392924510198,"keywords":["nocrits","nodmgspread","payload","uncletopia"],"game_id":440,"stv_port":27036,"stv_name":"Uncletopia | Los Angeles | 3 | All Maps | STV","players":null},{"server_id":25,"name":"Uncletopia | Los Angeles | 4 | Stopwatch Beta","name_short":"lax-4","host":"lax-1.us.uncletopia.com","port":27045,"enabled":true,"region":"us-west","cc":"us","latitude":33.94279,"longitude":-118.41004,"reserved":0,"last_update":"0001-01-01T00:00:00Z","name_a2s":"Uncletopia | Los Angeles | 4 | Stopwatch Beta","protocol":17,"map":"pl_frontier_final","folder":"tf","game":"Team Fortress","app_id":440,"player_count":0,"max_players":24,"Bots":0,"server_type":"Dedicated","server_os":"Linux","password":true,"vac":true,"version":"7757534","steam_id":85568392924510199,"keywords":["nocrits","nodmgspread","payload","uncletopia"],"game_id":440,"stv_port":27046,"stv_name":"Uncletopia | Los Angeles | 4 | Stopwatch Beta | STV","players":null},{"server_id":11,"name":"Uncletopia | London | 1 | All Maps","name_short":"lon-1","host":"lon-1.uk.uncletopia.com","port":27015,"enabled":true,"region":"eu","cc":"gb","latitude":51.509865,"longitude":-0.118092,"reserved":0,"last_update":"0001-01-01T00:00:00Z","name_a2s":"Uncletopia | London | 1 | All Maps","protocol":17,"map":"koth_viaduct","folder":"tf","game":"Team Fortress","app_id":440,"player_count":24,"max_players":24,"Bots":0,"server_type":"Dedicated","server_os":"Linux","password":true,"vac":true,"version":"7757534","steam_id":85568392924367362,"keywords":["cp","nocrits","nodmgspread","uncletopia"],"game_id":440,"stv_port":27016,"stv_name":"Uncletopia | London | 1 | All Maps | STV","players":[{"user_id":615,"name":"ghost","steam_id":76561198189940229,"connected_time":1055000000000,"state":"active","ping":59},{"user_id":516,"name":"Sandshee","steam_id":76561198088574666,"connected_time":8059000000000,"state":"active","ping":31},{"user_id":585,"name":"Alexandre","steam_id":76561198121784446,"connected_time":2573000000000,"state":"active","ping":36},{"user_id":590,"name":"Pabs :D","steam_id":76561198000016962,"connected_time":2443000000000,"state":"active","ping":60},{"user_id":616,"name":"Benzema","steam_id":76561197999770869,"connected_time":1021000000000,"state":"active","ping":92},{"user_id":622,"name":"DonD","steam_id":76561198061496731,"connected_time":639000000000,"state":"active","ping":82},{"user_id":629,"name":"grana padano dop","steam_id":76561198066071855,"connected_time":290000000000,"state":"active","ping":74},{"user_id":612,"name":"Chill Spirit","steam_id":76561198845001725,"connected_time":1103000000000,"state":"active","ping":59},{"user_id":481,"name":"ThatGamingKiwi","steam_id":76561199170522237,"connected_time":11085000000000,"state":"active","ping":143},{"user_id":630,"name":"silicon based life form","steam_id":76561199127121346,"connected_time":242000000000,"state":"active","ping":55},{"user_id":533,"name":"Penis Contortionist","steam_id":76561198073663784,"connected_time":6817000000000,"state":"active","ping":39},{"user_id":599,"name":"Thalgorock","steam_id":76561198195315022,"connected_time":1332000000000,"state":"active","ping":72},{"user_id":631,"name":"Ze","steam_id":76561198314901652,"connected_time":222000000000,"state":"active","ping":79},{"user_id":625,"name":":)","steam_id":76561198039964082,"connected_time":576000000000,"state":"active","ping":69},{"user_id":606,"name":"kektuse","steam_id":76561198088426580,"connected_time":1252000000000,"state":"active","ping":60},{"user_id":626,"name":"One Hop Dis Time *BWRAB*","steam_id":76561198146081601,"connected_time":575000000000,"state":"active","ping":47},{"user_id":624,"name":"foo","steam_id":76561198042000263,"connected_time":599000000000,"state":"active","ping":79},{"user_id":595,"name":"Camo Leaf","steam_id":76561197999456575,"connected_time":1533000000000,"state":"active","ping":63},{"user_id":572,"name":"VolcanicArts","steam_id":76561198063453246,"connected_time":4502000000000,"state":"active","ping":52},{"user_id":628,"name":"KFC Enjoyer","steam_id":76561198840259819,"connected_time":401000000000,"state":"active","ping":59},{"user_id":620,"name":"Vic maher","steam_id":76561198097523768,"connected_time":955000000000,"state":"active","ping":70},{"user_id":610,"name":"Captain HandicappedCock","steam_id":76561198109850402,"connected_time":1156000000000,"state":"active","ping":71},{"user_id":632,"name":"Dønkel Nada","steam_id":76561198017106894,"connected_time":218000000000,"state":"active","ping":84},{"user_id":584,"name":"Vectillion","steam_id":76561198074292454,"connected_time":2784000000000,"state":"active","ping":69}]},{"server_id":114,"name":"Uncletopia | London | 2 | All Maps","name_short":"lon-2","host":"lon-1.uk.uncletopia.com","port":27025,"enabled":true,"region":"eu","cc":"gb","latitude":51.509865,"longitude":-0.118092,"reserved":0,"last_update":"0001-01-01T00:00:00Z","name_a2s":"Uncletopia | London | 2 | All Maps","protocol":17,"map":"pl_frontier_final","folder":"tf","game":"Team Fortress","app_id":440,"player_count":22,"max_players":24,"Bots":0,"server_type":"Dedicated","server_os":"Linux","password":true,"vac":true,"version":"7757534","steam_id":85568392924470941,"keywords":["nocrits","nodmgspread","payload","uncletopia"],"game_id":440,"stv_port":27026,"stv_name":"Uncletopia | London | 2 | All Maps | STV","players":[{"user_id":111,"name":"Givi","steam_id":76561198808819694,"connected_time":1680000000000,"state":"active","ping":50},{"user_id":136,"name":"SomethingDeveloper","steam_id":76561198369567080,"connected_time":391000000000,"state":"active","ping":71},{"user_id":135,"name":"FoOzTV","steam_id":76561197998636728,"connected_time":407000000000,"state":"active","ping":69},{"user_id":137,"name":"Firearms","steam_id":76561197989867612,"connected_time":375000000000,"state":"active","ping":43},{"user_id":138,"name":"the joy of recycling","steam_id":76561198415564349,"connected_time":352000000000,"state":"active","ping":60},{"user_id":67,"name":"quickfast","steam_id":76561199438900919,"connected_time":4301000000000,"state":"active","ping":43},{"user_id":144,"name":"TheWisePenny","steam_id":76561198196492146,"connected_time":246000000000,"state":"active","ping":56},{"user_id":120,"name":"System","steam_id":76561199442503973,"connected_time":1316000000000,"state":"active","ping":60},{"user_id":106,"name":"f l я n","steam_id":76561198079595755,"connected_time":1967000000000,"state":"active","ping":59},{"user_id":130,"name":"Krysys","steam_id":76561198059740403,"connected_time":655000000000,"state":"active","ping":116},{"user_id":72,"name":"P Diddy","steam_id":76561198829344838,"connected_time":4002000000000,"state":"active","ping":56},{"user_id":139,"name":"Bill Green","steam_id":76561199472138537,"connected_time":346000000000,"state":"active","ping":56},{"user_id":140,"name":"Tomura Shigaraki","steam_id":76561198127465110,"connected_time":338000000000,"state":"active","ping":75},{"user_id":141,"name":"Eing","steam_id":76561198253125820,"connected_time":317000000000,"state":"active","ping":67},{"user_id":107,"name":"Dr. Uberschwein","steam_id":76561198111367431,"connected_time":1917000000000,"state":"active","ping":72},{"user_id":142,"name":"CaptainMac","steam_id":76561198273156139,"connected_time":270000000000,"state":"active","ping":51},{"user_id":143,"name":"NRC","steam_id":76561198136403335,"connected_time":266000000000,"state":"active","ping":57},{"user_id":112,"name":"Carrot Arc","steam_id":76561198164957006,"connected_time":1680000000000,"state":"active","ping":85},{"user_id":145,"name":"mineblast99","steam_id":76561199065648954,"connected_time":245000000000,"state":"active","ping":149},{"user_id":129,"name":"Vitamin Weee","steam_id":76561199183937747,"connected_time":704000000000,"state":"active","ping":86},{"user_id":126,"name":"rigel_","steam_id":76561198148640847,"connected_time":789000000000,"state":"active","ping":75},{"user_id":103,"name":"Paul Bäumer","steam_id":76561198308302932,"connected_time":2455000000000,"state":"active","ping":102}]},{"server_id":320,"name":"Uncletopia | London | 3 | All Maps","name_short":"lon-3","host":"lon-1.uk.uncletopia.com","port":27035,"enabled":true,"region":"eu","cc":"gb","latitude":51.509865,"longitude":-0.118092,"reserved":0,"last_update":"0001-01-01T00:00:00Z","name_a2s":"Uncletopia | London | 3 | All Maps","protocol":17,"map":"pl_swiftwater_final1","folder":"tf","game":"Team Fortress","app_id":440,"player_count":24,"max_players":24,"Bots":0,"server_type":"Dedicated","server_os":"Linux","password":true,"vac":true,"version":"7757534","steam_id":85568392924510192,"keywords":["nocrits","nodmgspread","payload","uncletopia"],"game_id":440,"stv_port":27036,"stv_name":"Uncletopia | London | 3 | All Maps | STV","players":[{"user_id":450,"name":"no. 1 lucki fan","steam_id":76561198022382969,"connected_time":4562000000000,"state":"active","ping":75},{"user_id":387,"name":"Shibus","steam_id":76561198077328359,"connected_time":8806000000000,"state":"active","ping":61},{"user_id":495,"name":"X-tis","steam_id":76561198043837480,"connected_time":1628000000000,"state":"active","ping":72},{"user_id":489,"name":"Fat Pigeon","steam_id":76561198817940142,"connected_time":1872000000000,"state":"active","ping":46},{"user_id":510,"name":"ender45","steam_id":76561198840955715,"connected_time":1167000000000,"state":"active","ping":36},{"user_id":492,"name":"daev","steam_id":76561198060060998,"connected_time":1840000000000,"state":"active","ping":85},{"user_id":511,"name":"3xample","steam_id":76561198805049375,"connected_time":1155000000000,"state":"active","ping":57},{"user_id":533,"name":"guyinatophat51","steam_id":76561198180230694,"connected_time":20000000000,"state":"active","ping":120},{"user_id":528,"name":"Silva_mlon","steam_id":76561199310242047,"connected_time":241000000000,"state":"active","ping":88},{"user_id":524,"name":"bluemoon","steam_id":76561198097713633,"connected_time":324000000000,"state":"active","ping":75},{"user_id":521,"name":"SilverBowz","steam_id":76561198126840894,"connected_time":476000000000,"state":"active","ping":84},{"user_id":525,"name":"GARbageTrash","steam_id":76561199101269633,"connected_time":287000000000,"state":"active","ping":78},{"user_id":485,"name":"Boil em mash em","steam_id":76561198026508026,"connected_time":2069000000000,"state":"active","ping":87},{"user_id":526,"name":"I jazzed myself","steam_id":76561198203016603,"connected_time":279000000000,"state":"active","ping":61},{"user_id":527,"name":"etc","steam_id":76561197998394797,"connected_time":276000000000,"state":"active","ping":51},{"user_id":515,"name":"JustMayor","steam_id":76561198050515503,"connected_time":929000000000,"state":"active","ping":70},{"user_id":531,"name":"BoraY","steam_id":76561198443464667,"connected_time":41000000000,"state":"active","ping":108},{"user_id":494,"name":"vadim_kotler","steam_id":76561199016634369,"connected_time":1837000000000,"state":"active","ping":108},{"user_id":470,"name":"r0la","steam_id":76561198128315340,"connected_time":3328000000000,"state":"active","ping":80},{"user_id":522,"name":"Magica","steam_id":76561198965200359,"connected_time":394000000000,"state":"active","ping":69},{"user_id":532,"name":"Kitten","steam_id":76561198019027657,"connected_time":32000000000,"state":"active","ping":80},{"user_id":507,"name":"Cunk","steam_id":76561198996618201,"connected_time":1339000000000,"state":"active","ping":60},{"user_id":509,"name":"wouris","steam_id":76561198876188003,"connected_time":1281000000000,"state":"active","ping":67},{"user_id":478,"name":"Svilar","steam_id":76561198828348612,"connected_time":2729000000000,"state":"active","ping":86}]},{"server_id":321,"name":"Uncletopia | London | 4 | All Maps","name_short":"lon-4","host":"lon-1.uk.uncletopia.com","port":27045,"enabled":true,"region":"eu","cc":"gb","latitude":51.509865,"longitude":-0.118092,"reserved":0,"last_update":"0001-01-01T00:00:00Z","name_a2s":"Uncletopia | London | 4 | All Maps","protocol":17,"map":"pl_pier","folder":"tf","game":"Team Fortress","app_id":440,"player_count":0,"max_players":24,"Bots":0,"server_type":"Dedicated","server_os":"Linux","password":true,"vac":true,"version":"7757534","steam_id":85568392924510193,"keywords":["nocrits","nodmgspread","payload","uncletopia"],"game_id":440,"stv_port":27046,"stv_name":"Uncletopia | London | 4 | All Maps | STV","players":null},{"server_id":21,"name":"Uncletopia | London | 5 | All Maps","name_short":"lon-5","host":"lon-1.uk.uncletopia.com","port":27055,"enabled":true,"region":"eu","cc":"gb","latitude":51.509865,"longitude":-0.118092,"reserved":0,"last_update":"0001-01-01T00:00:00Z","name_a2s":"Uncletopia | London | 5 | All Maps","protocol":17,"map":"pl_frontier_final","folder":"tf","game":"Team Fortress","app_id":440,"player_count":24,"max_players":24,"Bots":0,"server_type":"Dedicated","server_os":"Linux","password":true,"vac":true,"version":"7757534","steam_id":85568392924742829,"keywords":["nocrits","nodmgspread","payload","uncletopia"],"game_id":440,"stv_port":27056,"stv_name":"Uncletopia | London | 5 | All Maps | STV","players":[{"user_id":35,"name":"pardner","steam_id":76561198451471161,"connected_time":2087000000000,"state":"active","ping":54},{"user_id":64,"name":"Luuk","steam_id":76561198088266026,"connected_time":466000000000,"state":"active","ping":43},{"user_id":66,"name":"Zerfesh","steam_id":76561198117534358,"connected_time":379000000000,"state":"active","ping":101},{"user_id":12,"name":"ran is running","steam_id":76561199443185667,"connected_time":3512000000000,"state":"active","ping":140},{"user_id":18,"name":"justin_ (f2p) (real)","steam_id":76561198839843428,"connected_time":2502000000000,"state":"active","ping":120},{"user_id":59,"name":"mt","steam_id":76561197961319303,"connected_time":865000000000,"state":"active","ping":60},{"user_id":37,"name":"E","steam_id":76561198166340115,"connected_time":2034000000000,"state":"active","ping":64},{"user_id":21,"name":"ヌベール (Nubert)","steam_id":76561199121806567,"connected_time":2331000000000,"state":"active","ping":52},{"user_id":22,"name":"ikc159","steam_id":76561198020559026,"connected_time":2319000000000,"state":"active","ping":60},{"user_id":54,"name":"tf2 snake","steam_id":76561198193971167,"connected_time":1455000000000,"state":"active","ping":62},{"user_id":24,"name":"Hexagon","steam_id":76561198151205758,"connected_time":2309000000000,"state":"active","ping":54},{"user_id":65,"name":"Purplish","steam_id":76561198006393993,"connected_time":448000000000,"state":"active","ping":45},{"user_id":26,"name":"Harex3360 #Savetf2","steam_id":76561199122302529,"connected_time":2294000000000,"state":"active","ping":64},{"user_id":55,"name":"pizza time","steam_id":76561199015899793,"connected_time":1431000000000,"state":"active","ping":47},{"user_id":31,"name":"Mr. Mundy","steam_id":76561198132008918,"connected_time":2201000000000,"state":"active","ping":88},{"user_id":29,"name":"Tea","steam_id":76561198799243030,"connected_time":2258000000000,"state":"active","ping":53},{"user_id":58,"name":"Fancy","steam_id":76561198350658462,"connected_time":954000000000,"state":"active","ping":87},{"user_id":44,"name":"Kizerain","steam_id":76561198058400427,"connected_time":1830000000000,"state":"active","ping":47},{"user_id":60,"name":"Dolcelatte","steam_id":76561198038501770,"connected_time":671000000000,"state":"active","ping":63},{"user_id":41,"name":"Sim","steam_id":76561198086641180,"connected_time":1969000000000,"state":"active","ping":88},{"user_id":50,"name":"EastmoreRandoms.","steam_id":76561198048921203,"connected_time":1747000000000,"state":"active","ping":63},{"user_id":61,"name":"simon","steam_id":76561198880361394,"connected_time":665000000000,"state":"active","ping":61},{"user_id":48,"name":"Oak","steam_id":76561198067315672,"connected_time":1809000000000,"state":"active","ping":44},{"user_id":62,"name":"Sheerluck Holmes","steam_id":76561198051161936,"connected_time":632000000000,"state":"active","ping":52}]},{"server_id":22,"name":"Uncletopia | London | 6 | All Maps","name_short":"lon-6","host":"lon-1.uk.uncletopia.com","port":27065,"enabled":true,"region":"eu","cc":"gb","latitude":51.509865,"longitude":-0.118092,"reserved":0,"last_update":"0001-01-01T00:00:00Z","name_a2s":"Uncletopia | London | 6 | All Maps","protocol":17,"map":"koth_cascade","folder":"tf","game":"Team Fortress","app_id":440,"player_count":0,"max_players":24,"Bots":0,"server_type":"Dedicated","server_os":"Linux","password":true,"vac":true,"version":"7757534","steam_id":85568392924742830,"keywords":["cp","nocrits","nodmgspread","uncletopia"],"game_id":440,"stv_port":27066,"stv_name":"Uncletopia | London | 6 | All Maps | STV","players":null},{"server_id":40,"name":"Uncletopia | London | 7 | No Payload","name_short":"lon-7","host":"lon-1.uk.uncletopia.com","port":27075,"enabled":true,"region":"eu","cc":"gb","latitude":51.509865,"longitude":-0.118092,"reserved":0,"last_update":"0001-01-01T00:00:00Z","name_a2s":"Uncletopia | London | 7 | No Payload","protocol":17,"map":"koth_cascade","folder":"tf","game":"Team Fortress","app_id":440,"player_count":2,"max_players":24,"Bots":0,"server_type":"Dedicated","server_os":"Linux","password":true,"vac":true,"version":"7757534","steam_id":85568392924964314,"keywords":["cp","nocrits","nodmgspread","uncletopia"],"game_id":440,"stv_port":27076,"stv_name":"Uncletopia | London | 7 | No Payload | STV","players":[{"user_id":307,"name":"Old Hat","steam_id":76561197994673297,"connected_time":174000000000,"state":"active","ping":57},{"user_id":308,"name":"Allereinan","steam_id":76561198342239906,"connected_time":146000000000,"state":"active","ping":105}]},{"server_id":41,"name":"Uncletopia | London | 8 | Community","name_short":"lon-8","host":"lon-1.uk.uncletopia.com","port":27085,"enabled":true,"region":"eu","cc":"gb","latitude":51.509865,"longitude":-0.118092,"reserved":0,"last_update":"0001-01-01T00:00:00Z","name_a2s":"Uncletopia | London | 8 | Community","protocol":17,"map":"workshop/rd_asteroid_redux_b1.ugc2154902912","folder":"tf","game":"Team Fortress","app_id":440,"player_count":2,"max_players":24,"Bots":0,"server_type":"Dedicated","server_os":"Linux","password":true,"vac":true,"version":"7757534","steam_id":85568392924964315,"keywords":["beta","nocrits","nodmgspread","rd","uncletopia"],"game_id":440,"stv_port":27086,"stv_name":"Uncletopia | London | 8 | Community | STV","players":[{"user_id":12,"name":"the","steam_id":76561198317643652,"connected_time":482000000000,"state":"active","ping":63},{"user_id":13,"name":"Rattus MCfartballs","steam_id":76561198355728006,"connected_time":365000000000,"state":"active","ping":63}]},{"server_id":300,"name":"Uncletopia | Montréal | 1 | All Maps","name_short":"mtl-1","host":"mtl-1.ca.uncletopia.com","port":27015,"enabled":true,"region":"us-east","cc":"ca","latitude":45.50889,"longitude":-73.56167,"reserved":0,"last_update":"0001-01-01T00:00:00Z","name_a2s":"Uncletopia | Montréal | 1 | All Maps","protocol":17,"map":"pl_snowycoast","folder":"tf","game":"Team Fortress","app_id":440,"player_count":0,"max_players":24,"Bots":0,"server_type":"Dedicated","server_os":"Linux","password":true,"vac":true,"version":"7757534","steam_id":85568392924500087,"keywords":["nocrits","nodmgspread","payload","uncletopia"],"game_id":440,"stv_port":27016,"stv_name":"Uncletopia | Montréal | 1 | All Maps | STV","players":null},{"server_id":301,"name":"Uncletopia | Montréal | 2 | All Maps","name_short":"mtl-2","host":"mtl-1.ca.uncletopia.com","port":27025,"enabled":true,"region":"us-east","cc":"ca","latitude":45.50889,"longitude":-73.56167,"reserved":0,"last_update":"0001-01-01T00:00:00Z","name_a2s":"Uncletopia | Montréal | 2 | All Maps","protocol":17,"map":"pl_snowycoast","folder":"tf","game":"Team Fortress","app_id":440,"player_count":0,"max_players":24,"Bots":0,"server_type":"Dedicated","server_os":"Linux","password":true,"vac":true,"version":"7757534","steam_id":85568392924500088,"keywords":["nocrits","nodmgspread","payload","uncletopia"],"game_id":440,"stv_port":27026,"stv_name":"Uncletopia | Montréal | 2 | All Maps | STV","players":null},{"server_id":302,"name":"Uncletopia | Montréal | 3 | All Maps","name_short":"mtl-3","host":"mtl-1.ca.uncletopia.com","port":27035,"enabled":true,"region":"us-east","cc":"ca","latitude":45.50889,"longitude":-73.56167,"reserved":0,"last_update":"0001-01-01T00:00:00Z","name_a2s":"Uncletopia | Montréal | 3 | All Maps","protocol":17,"map":"cp_dustbowl","folder":"tf","game":"Team Fortress","app_id":440,"player_count":0,"max_players":24,"Bots":0,"server_type":"Dedicated","server_os":"Linux","password":true,"vac":true,"version":"7757534","steam_id":85568392924500089,"keywords":["cp","nocrits","nodmgspread","uncletopia"],"game_id":440,"stv_port":27036,"stv_name":"Uncletopia | Montréal | 3 | All Maps | STV","players":null},{"server_id":303,"name":"Uncletopia | Montréal | 4 | No Payload","name_short":"mtl-4","host":"mtl-1.ca.uncletopia.com","port":27045,"enabled":true,"region":"us-east","cc":"ca","latitude":45.50889,"longitude":-73.56167,"reserved":0,"last_update":"0001-01-01T00:00:00Z","name_a2s":"Uncletopia | Montréal | 4 | No Payload","protocol":17,"map":"pl_borneo","folder":"tf","game":"Team Fortress","app_id":440,"player_count":0,"max_players":24,"Bots":0,"server_type":"Dedicated","server_os":"Linux","password":true,"vac":true,"version":"7757534","steam_id":85568392924500090,"keywords":["nocrits","nodmgspread","payload","uncletopia"],"game_id":440,"stv_port":27046,"stv_name":"Uncletopia | Montréal | 4 | No Payload | STV","players":null},{"server_id":13,"name":"Uncletopia | New York City | 1 | All Maps","name_short":"nyc-1","host":"nyc-1.us.uncletopia.com","port":27015,"enabled":true,"region":"us-east","cc":"us","latitude":40.73061,"longitude":-73.93524,"reserved":0,"last_update":"0001-01-01T00:00:00Z","name_a2s":"Uncletopia | New York City | 1 | All Maps","protocol":17,"map":"cp_dustbowl","folder":"tf","game":"Team Fortress","app_id":440,"player_count":24,"max_players":24,"Bots":0,"server_type":"Dedicated","server_os":"Linux","password":true,"vac":true,"version":"7757534","steam_id":85568392924469993,"keywords":["cp","nocrits","nodmgspread","uncletopia"],"game_id":440,"stv_port":27016,"stv_name":"Uncletopia | New York City | 1 | All Maps | STV","players":[{"user_id":217,"name":"minecraft","steam_id":76561198023595873,"connected_time":163000000000,"state":"active","ping":83},{"user_id":210,"name":"Back with the milk","steam_id":76561199020105501,"connected_time":932000000000,"state":"active","ping":43},{"user_id":128,"name":"furnace_user","steam_id":76561197995620232,"connected_time":6133000000000,"state":"active","ping":36},{"user_id":215,"name":"SpinetinglingToast","steam_id":76561198099470670,"connected_time":447000000000,"state":"active","ping":51},{"user_id":170,"name":"rudy","steam_id":76561198088712799,"connected_time":3763000000000,"state":"active","ping":81},{"user_id":216,"name":"Dong-A-Tron 33.0","steam_id":76561198082202698,"connected_time":414000000000,"state":"active","ping":59},{"user_id":187,"name":"puffle fanatic","steam_id":76561198094030685,"connected_time":2650000000000,"state":"active","ping":78},{"user_id":211,"name":"Banio Kaioie","steam_id":76561198153295874,"connected_time":905000000000,"state":"active","ping":129},{"user_id":197,"name":"Dwanor","steam_id":76561198039571887,"connected_time":1696000000000,"state":"active","ping":60},{"user_id":195,"name":"Bother","steam_id":76561198336750909,"connected_time":1728000000000,"state":"active","ping":38},{"user_id":214,"name":"Bubz","steam_id":76561199013499631,"connected_time":545000000000,"state":"active","ping":82},{"user_id":208,"name":"Snugboo","steam_id":76561198147970327,"connected_time":1013000000000,"state":"active","ping":43},{"user_id":201,"name":"faxxy","steam_id":76561198079621240,"connected_time":1590000000000,"state":"active","ping":77},{"user_id":179,"name":"primordialheath","steam_id":76561199386942638,"connected_time":3350000000000,"state":"active","ping":100},{"user_id":159,"name":"basiliotornado","steam_id":76561198409009569,"connected_time":4557000000000,"state":"active","ping":72},{"user_id":130,"name":"Squid121","steam_id":76561198038832034,"connected_time":6115000000000,"state":"active","ping":120},{"user_id":160,"name":"neet","steam_id":76561197968115168,"connected_time":4546000000000,"state":"active","ping":48},{"user_id":191,"name":"PileofPolygons","steam_id":76561199321343460,"connected_time":2090000000000,"state":"active","ping":78},{"user_id":188,"name":"Goner","steam_id":76561198055879094,"connected_time":2638000000000,"state":"active","ping":78},{"user_id":165,"name":"ruimario","steam_id":76561198406752631,"connected_time":4171000000000,"state":"active","ping":62},{"user_id":193,"name":"[S]Mr. X [No Monitor]","steam_id":76561197963746035,"connected_time":1817000000000,"state":"active","ping":99},{"user_id":204,"name":"mozzie","steam_id":76561198233647680,"connected_time":1558000000000,"state":"active","ping":89},{"user_id":190,"name":"Fudgely","steam_id":76561198039425862,"connected_time":2237000000000,"state":"active","ping":60},{"user_id":218,"name":"Cerabond","steam_id":76561199230915333,"connected_time":110000000000,"state":"active","ping":64}]},{"server_id":14,"name":"Uncletopia | New York City | 2 | All Maps","name_short":"nyc-2","host":"nyc-1.us.uncletopia.com","port":27025,"enabled":true,"region":"us-east","cc":"us","latitude":40.73061,"longitude":-73.93524,"reserved":0,"last_update":"0001-01-01T00:00:00Z","name_a2s":"Uncletopia | New York City | 2 | All Maps","protocol":17,"map":"pl_borneo","folder":"tf","game":"Team Fortress","app_id":440,"player_count":0,"max_players":24,"Bots":0,"server_type":"Dedicated","server_os":"Linux","password":true,"vac":true,"version":"7757534","steam_id":85568392924469994,"keywords":["nocrits","nodmgspread","payload","uncletopia"],"game_id":440,"stv_port":27026,"stv_name":"Uncletopia | New York City | 2 | All Maps | STV","players":null},{"server_id":15,"name":"Uncletopia | New York City | 3 | Stopwatch Beta","name_short":"nyc-3","host":"nyc-1.us.uncletopia.com","port":27035,"enabled":true,"region":"us-east","cc":"us","latitude":40.73061,"longitude":-73.93524,"reserved":0,"last_update":"0001-01-01T00:00:00Z","name_a2s":"Uncletopia | New York City | 3 | Stopwatch Beta","protocol":17,"map":"cp_mountainlab","folder":"tf","game":"Team Fortress","app_id":440,"player_count":0,"max_players":24,"Bots":0,"server_type":"Dedicated","server_os":"Linux","password":true,"vac":true,"version":"7757534","steam_id":85568392924742820,"keywords":["cp","nocrits","nodmgspread","uncletopia"],"game_id":440,"stv_port":27036,"stv_name":"Uncletopia | New York City | 3 | Stopwatch Beta | STV","players":null},{"server_id":16,"name":"Uncletopia | New York City | 4 | Community","name_short":"nyc-4","host":"nyc-1.us.uncletopia.com","port":27045,"enabled":true,"region":"us-east","cc":"us","latitude":40.73061,"longitude":-73.93524,"reserved":0,"last_update":"0001-01-01T00:00:00Z","name_a2s":"Uncletopia | New York City | 4 | Community","protocol":17,"map":"pl_borneo","folder":"tf","game":"Team Fortress","app_id":440,"player_count":0,"max_players":24,"Bots":0,"server_type":"Dedicated","server_os":"Linux","password":true,"vac":true,"version":"7757534","steam_id":85568392924742821,"keywords":["nocrits","nodmgspread","payload","uncletopia"],"game_id":440,"stv_port":27046,"stv_name":"Uncletopia | New York City | 4 | Community | STV","players":null},{"server_id":142,"name":"Uncletopia | São Paulo | 1 | All Maps","name_short":"sao-1","host":"sao-1.br.uncletopia.com","port":27015,"enabled":true,"region":"sa","cc":"br","latitude":-23.533773,"longitude":-46.62529,"reserved":0,"last_update":"0001-01-01T00:00:00Z","name_a2s":"Uncletopia | São Paulo | 1 | All Maps","protocol":17,"map":"pl_frontier_final","folder":"tf","game":"Team Fortress","app_id":440,"player_count":0,"max_players":24,"Bots":0,"server_type":"Dedicated","server_os":"Linux","password":true,"vac":true,"version":"7757534","steam_id":85568392924469996,"keywords":["nocrits","nodmgspread","payload","uncletopia"],"game_id":440,"stv_port":27016,"stv_name":"Uncletopia | São Paulo | 1 | All Maps | STV","players":null},{"server_id":143,"name":"Uncletopia | São Paulo | 2 | All Maps","name_short":"sao-2","host":"sao-2.br.uncletopia.com","port":27015,"enabled":true,"region":"sa","cc":"br","latitude":-23.533773,"longitude":-46.62529,"reserved":0,"last_update":"0001-01-01T00:00:00Z","name_a2s":"Uncletopia | São Paulo | 2 | All Maps","protocol":17,"map":"koth_lakeside_final","folder":"tf","game":"Team Fortress","app_id":440,"player_count":0,"max_players":24,"Bots":0,"server_type":"Dedicated","server_os":"Linux","password":true,"vac":true,"version":"7757534","steam_id":85568392924485349,"keywords":["cp","nocrits","nodmgspread","uncletopia"],"game_id":440,"stv_port":27016,"stv_name":"Uncletopia | São Paulo | 2 | All Maps | STV","players":null},{"server_id":7,"name":"Uncletopia | Seattle | 1 | All Maps","name_short":"sea-1","host":"sea-1.us.uncletopia.com","port":27015,"enabled":true,"region":"us-west","cc":"us","latitude":47.608013,"longitude":-122.33517,"reserved":0,"last_update":"0001-01-01T00:00:00Z","name_a2s":"Uncletopia | Seattle | 1 | All Maps","protocol":17,"map":"pl_pier","folder":"tf","game":"Team Fortress","app_id":440,"player_count":0,"max_players":24,"Bots":0,"server_type":"Dedicated","server_os":"Linux","password":true,"vac":true,"version":"7757534","steam_id":85568392924469997,"keywords":["nocrits","nodmgspread","payload","uncletopia"],"game_id":440,"stv_port":27016,"stv_name":"Uncletopia | Seattle | 1 | All Maps | STV","players":null},{"server_id":119,"name":"Uncletopia | Seattle | 2 | All Maps","name_short":"sea-2","host":"sea-1.us.uncletopia.com","port":27025,"enabled":true,"region":"us-west","cc":"us","latitude":47.608013,"longitude":-122.33517,"reserved":0,"last_update":"0001-01-01T00:00:00Z","name_a2s":"Uncletopia | Seattle | 2 | All Maps","protocol":17,"map":"pl_upward","folder":"tf","game":"Team Fortress","app_id":440,"player_count":24,"max_players":24,"Bots":0,"server_type":"Dedicated","server_os":"Linux","password":true,"vac":true,"version":"7757534","steam_id":85568392924469998,"keywords":["nocrits","nodmgspread","payload","uncletopia"],"game_id":440,"stv_port":27026,"stv_name":"Uncletopia | Seattle | 2 | All Maps | STV","players":[{"user_id":103,"name":"thatoneguy","steam_id":76561199010480747,"connected_time":479000000000,"state":"active","ping":146},{"user_id":102,"name":"WalkinMan","steam_id":76561198047941142,"connected_time":517000000000,"state":"active","ping":55},{"user_id":104,"name":"ScoutBox","steam_id":76561198111539895,"connected_time":476000000000,"state":"active","ping":74},{"user_id":83,"name":"Eris","steam_id":76561199471434875,"connected_time":2177000000000,"state":"active","ping":35},{"user_id":90,"name":"Dargoos","steam_id":76561198366212046,"connected_time":1381000000000,"state":"active","ping":76},{"user_id":96,"name":"Mac is Bac","steam_id":76561198307352761,"connected_time":816000000000,"state":"active","ping":207},{"user_id":109,"name":"Made You Look","steam_id":76561198271939793,"connected_time":128000000000,"state":"active","ping":41},{"user_id":44,"name":"The Pepsi® Superbowl®!","steam_id":76561198080828981,"connected_time":5208000000000,"state":"active","ping":70},{"user_id":106,"name":"1000 Ping","steam_id":76561198098330939,"connected_time":433000000000,"state":"active","ping":96},{"user_id":92,"name":"TimTam Tom","steam_id":76561198045988062,"connected_time":1143000000000,"state":"active","ping":96},{"user_id":108,"name":"Combustionaut","steam_id":76561198164877813,"connected_time":405000000000,"state":"active","ping":46},{"user_id":34,"name":"Little Linguine","steam_id":76561198816986370,"connected_time":5561000000000,"state":"active","ping":53},{"user_id":101,"name":"dirty30","steam_id":76561198021226566,"connected_time":588000000000,"state":"active","ping":38},{"user_id":82,"name":"Shark Guy","steam_id":76561198133712800,"connected_time":2231000000000,"state":"active","ping":95},{"user_id":38,"name":"Gammaplex","steam_id":76561198981228176,"connected_time":5457000000000,"state":"active","ping":92},{"user_id":95,"name":"Mátame","steam_id":76561198060680045,"connected_time":1013000000000,"state":"active","ping":69},{"user_id":29,"name":"Batso","steam_id":76561198106589452,"connected_time":5827000000000,"state":"active","ping":91},{"user_id":58,"name":"λ","steam_id":76561198120426683,"connected_time":4566000000000,"state":"active","ping":61},{"user_id":81,"name":"AnonymouzR011","steam_id":76561198262685906,"connected_time":2273000000000,"state":"active","ping":84},{"user_id":72,"name":"〣dust〣 -she/her-","steam_id":76561198045218909,"connected_time":2998000000000,"state":"active","ping":32},{"user_id":64,"name":"Dr. Hashbrown","steam_id":76561198410780370,"connected_time":3762000000000,"state":"active","ping":65},{"user_id":73,"name":"Goldenglow Explorer","steam_id":76561198392324745,"connected_time":2989000000000,"state":"active","ping":176},{"user_id":97,"name":"ohms","steam_id":76561198868600487,"connected_time":803000000000,"state":"active","ping":138},{"user_id":99,"name":"Kaluka","steam_id":76561198036861445,"connected_time":732000000000,"state":"active","ping":112}]},{"server_id":406,"name":"Uncletopia | Seattle | 3 | Stopwatch Beta","name_short":"sea-3","host":"sea-1.us.uncletopia.com","port":27035,"enabled":true,"region":"us-west","cc":"us","latitude":47.608013,"longitude":-122.33517,"reserved":0,"last_update":"0001-01-01T00:00:00Z","name_a2s":"Uncletopia | Seattle | 3 | Stopwatch Beta","protocol":17,"map":"pl_barnblitz","folder":"tf","game":"Team Fortress","app_id":440,"player_count":0,"max_players":24,"Bots":0,"server_type":"Dedicated","server_os":"Linux","password":true,"vac":true,"version":"7757534","steam_id":85568392924515217,"keywords":["nocrits","nodmgspread","payload","uncletopia"],"game_id":440,"stv_port":27036,"stv_name":"Uncletopia | Seattle | 3 | Stopwatch Beta | STV","players":null},{"server_id":17,"name":"Uncletopia | San Francisco | 1 | All Maps","name_short":"sfo-1","host":"sfo-1.us.uncletopia.com","port":27015,"enabled":true,"region":"us-west","cc":"us","latitude":37.77397,"longitude":-122.4313,"reserved":0,"last_update":"0001-01-01T00:00:00Z","name_a2s":"Uncletopia | San Francisco | 1 | All Maps","protocol":17,"map":"cp_process_final","folder":"tf","game":"Team Fortress","app_id":440,"player_count":0,"max_players":24,"Bots":0,"server_type":"Dedicated","server_os":"Linux","password":true,"vac":true,"version":"7757534","steam_id":85568392924469999,"keywords":["cp","nocrits","nodmgspread","uncletopia"],"game_id":440,"stv_port":27016,"stv_name":"Uncletopia | San Francisco | 1 | All Maps | STV","players":null},{"server_id":18,"name":"Uncletopia | San Francisco | 2 | All Maps","name_short":"sfo-2","host":"sfo-1.us.uncletopia.com","port":27025,"enabled":true,"region":"us-west","cc":"us","latitude":37.77397,"longitude":-122.4313,"reserved":0,"last_update":"0001-01-01T00:00:00Z","name_a2s":"Uncletopia | San Francisco | 2 | All Maps","protocol":17,"map":"cp_sunshine","folder":"tf","game":"Team Fortress","app_id":440,"player_count":0,"max_players":24,"Bots":0,"server_type":"Dedicated","server_os":"Linux","password":true,"vac":true,"version":"7757534","steam_id":85568392924470000,"keywords":["cp","nocrits","nodmgspread","uncletopia"],"game_id":440,"stv_port":27026,"stv_name":"Uncletopia | San Francisco | 2 | All Maps | STV","players":null},{"server_id":19,"name":"Uncletopia | San Francisco | 3 | Stopwatch Beta","name_short":"sfo-3","host":"sfo-1.us.uncletopia.com","port":27035,"enabled":true,"region":"us-west","cc":"us","latitude":37.77397,"longitude":-122.4313,"reserved":0,"last_update":"0001-01-01T00:00:00Z","name_a2s":"Uncletopia | San Francisco | 3 | Stopwatch Beta","protocol":17,"map":"pl_borneo","folder":"tf","game":"Team Fortress","app_id":440,"player_count":0,"max_players":24,"Bots":0,"server_type":"Dedicated","server_os":"Linux","password":true,"vac":true,"version":"7757534","steam_id":85568392924742824,"keywords":["nocrits","nodmgspread","payload","uncletopia"],"game_id":440,"stv_port":27036,"stv_name":"Uncletopia | San Francisco | 3 | Stopwatch Beta | STV","players":null},{"server_id":20,"name":"Uncletopia | San Francisco | 4 | Community","name_short":"sfo-4","host":"sfo-1.us.uncletopia.com","port":27045,"enabled":true,"region":"us-west","cc":"us","latitude":37.77397,"longitude":-122.4313,"reserved":0,"last_update":"0001-01-01T00:00:00Z","name_a2s":"Uncletopia | San Francisco | 4 | Community","protocol":17,"map":"koth_highpass","folder":"tf","game":"Team Fortress","app_id":440,"player_count":0,"max_players":24,"Bots":0,"server_type":"Dedicated","server_os":"Linux","password":true,"vac":true,"version":"7757534","steam_id":85568392924742826,"keywords":["cp","nocrits","nodmgspread","uncletopia"],"game_id":440,"stv_port":27046,"stv_name":"Uncletopia | San Francisco | 4 | Community | STV","players":null},{"server_id":141,"name":"Uncletopia | Sydney | 1 | All Maps","name_short":"syd-1","host":"syd-1.au.uncletopia.com","port":27015,"enabled":true,"region":"au","cc":"au","latitude":-33.865143,"longitude":151.2099,"reserved":0,"last_update":"0001-01-01T00:00:00Z","name_a2s":"Uncletopia | Sydney | 1 | All Maps","protocol":17,"map":"cp_process_final","folder":"tf","game":"Team Fortress","app_id":440,"player_count":0,"max_players":24,"Bots":0,"server_type":"Dedicated","server_os":"Linux","password":true,"vac":true,"version":"7757534","steam_id":85568392924470001,"keywords":["cp","nocrits","nodmgspread","uncletopia"],"game_id":440,"stv_port":27016,"stv_name":"Uncletopia | Sydney | 1 | All Maps | STV","players":null},{"server_id":123,"name":"Uncletopia | Sydney | 2 | All Maps","name_short":"syd-2","host":"syd-1.au.uncletopia.com","port":27025,"enabled":true,"region":"au","cc":"au","latitude":-33.865143,"longitude":151.2099,"reserved":0,"last_update":"0001-01-01T00:00:00Z","name_a2s":"Uncletopia | Sydney | 2 | All Maps","protocol":17,"map":"koth_viaduct","folder":"tf","game":"Team Fortress","app_id":440,"player_count":0,"max_players":24,"Bots":0,"server_type":"Dedicated","server_os":"Linux","password":true,"vac":true,"version":"7757534","steam_id":85568392924470002,"keywords":["cp","nocrits","nodmgspread","uncletopia"],"game_id":440,"stv_port":27026,"stv_name":"Uncletopia | Sydney | 2 | All Maps | STV","players":null},{"server_id":395,"name":"Uncletopia | Sydney | 3 | All Maps","name_short":"syd-3","host":"syd-1.au.uncletopia.com","port":27035,"enabled":true,"region":"au","cc":"au","latitude":-33.865143,"longitude":151.2099,"reserved":0,"last_update":"0001-01-01T00:00:00Z","name_a2s":"Uncletopia | Sydney | 3 | All Maps","protocol":17,"map":"pl_upward","folder":"tf","game":"Team Fortress","app_id":440,"player_count":0,"max_players":24,"Bots":0,"server_type":"Dedicated","server_os":"Linux","password":true,"vac":true,"version":"7757534","steam_id":85568392925194467,"keywords":["nocrits","nodmgspread","payload","uncletopia"],"game_id":440,"stv_port":27036,"stv_name":"Uncletopia | Sydney | 3 | All Maps | STV","players":null},{"server_id":396,"name":"Uncletopia | Sydney | 4 | All Maps","name_short":"syd-4","host":"syd-1.au.uncletopia.com","port":27045,"enabled":true,"region":"au","cc":"au","latitude":-33.865143,"longitude":151.2099,"reserved":0,"last_update":"0001-01-01T00:00:00Z","name_a2s":"Uncletopia | Sydney | 4 | All Maps","protocol":17,"map":"koth_lakeside_final","folder":"tf","game":"Team Fortress","app_id":440,"player_count":0,"max_players":24,"Bots":0,"server_type":"Dedicated","server_os":"Linux","password":true,"vac":true,"version":"7757534","steam_id":85568392925397958,"keywords":["cp","nocrits","nodmgspread","uncletopia"],"game_id":440,"stv_port":27046,"stv_name":"Uncletopia | Sydney | 4 | All Maps | STV","players":null},{"server_id":58,"name":"Uncletopia | Sydney | 5 | Stopwatch Beta","name_short":"syd-5","host":"syd-1.au.uncletopia.com","port":27055,"enabled":true,"region":"au","cc":"au","latitude":-33.865143,"longitude":151.2099,"reserved":0,"last_update":"0001-01-01T00:00:00Z","name_a2s":"Uncletopia | Sydney | 5 | Stopwatch Beta","protocol":17,"map":"koth_highpass","folder":"tf","game":"Team Fortress","app_id":440,"player_count":0,"max_players":24,"Bots":0,"server_type":"Dedicated","server_os":"Linux","password":true,"vac":true,"version":"7757534","steam_id":85568392925397959,"keywords":["cp","nocrits","nodmgspread","uncletopia"],"game_id":440,"stv_port":27056,"stv_name":"Uncletopia | Sydney | 5 | Stopwatch Beta | STV","players":null},{"server_id":59,"name":"Uncletopia | Sydney | 6 | Community","name_short":"syd-6","host":"syd-1.au.uncletopia.com","port":27065,"enabled":true,"region":"au","cc":"au","latitude":-33.865143,"longitude":151.2099,"reserved":0,"last_update":"0001-01-01T00:00:00Z","name_a2s":"Uncletopia | Sydney | 6 | Community","protocol":17,"map":"cp_sunshine","folder":"tf","game":"Team Fortress","app_id":440,"player_count":0,"max_players":24,"Bots":0,"server_type":"Dedicated","server_os":"Linux","password":true,"vac":true,"version":"7757534","steam_id":85568392925397960,"keywords":["cp","nocrits","nodmgspread","uncletopia"],"game_id":440,"stv_port":27066,"stv_name":"Uncletopia | Sydney | 6 | Community | STV","players":null},{"server_id":49,"name":"Uncletopia | Warsaw | 1 | All Maps","name_short":"waw-1","host":"waw-1.pl.uncletopia.com","port":27015,"enabled":true,"region":"eu","cc":"pl","latitude":52.2297,"longitude":21.017532,"reserved":0,"last_update":"0001-01-01T00:00:00Z","name_a2s":"","protocol":0,"map":"","folder":"","game":"","app_id":0,"player_count":0,"max_players":0,"Bots":0,"server_type":"","server_os":"","password":false,"vac":false,"version":"","steam_id":0,"keywords":null,"game_id":0,"stv_port":0,"stv_name":"","players":null},{"server_id":50,"name":"Uncletopia | Warsaw | 2 | All Maps","name_short":"waw-2","host":"waw-1.pl.uncletopia.com","port":27025,"enabled":true,"region":"eu","cc":"pl","latitude":52.2297,"longitude":21.017532,"reserved":0,"last_update":"0001-01-01T00:00:00Z","name_a2s":"Uncletopia | Warsaw | 2 | All Maps","protocol":17,"map":"koth_highpass","folder":"tf","game":"Team Fortress","app_id":440,"player_count":0,"max_players":24,"Bots":0,"server_type":"Dedicated","server_os":"Linux","password":true,"vac":true,"version":"7757534","steam_id":85568392925397851,"keywords":["cp","nocrits","nodmgspread","uncletopia"],"game_id":440,"stv_port":27026,"stv_name":"Uncletopia | Warsaw | 2 | All Maps | STV","players":null},{"server_id":51,"name":"Uncletopia | Warsaw | 3 | All Maps","name_short":"waw-3","host":"waw-1.pl.uncletopia.com","port":27035,"enabled":true,"region":"eu","cc":"pl","latitude":52.2297,"longitude":21.017532,"reserved":0,"last_update":"0001-01-01T00:00:00Z","name_a2s":"Uncletopia | Warsaw | 3 | All Maps","protocol":17,"map":"cp_dustbowl","folder":"tf","game":"Team Fortress","app_id":440,"player_count":0,"max_players":24,"Bots":0,"server_type":"Dedicated","server_os":"Linux","password":true,"vac":true,"version":"7757534","steam_id":85568392925397852,"keywords":["cp","nocrits","nodmgspread","uncletopia"],"game_id":440,"stv_port":27036,"stv_name":"Uncletopia | Warsaw | 3 | All Maps | STV","players":null},{"server_id":52,"name":"Uncletopia | Warsaw | 4 | All Maps","name_short":"waw-4","host":"waw-1.pl.uncletopia.com","port":27045,"enabled":true,"region":"eu","cc":"pl","latitude":52.2297,"longitude":21.017532,"reserved":0,"last_update":"0001-01-01T00:00:00Z","name_a2s":"Uncletopia | Warsaw | 4 | All Maps","protocol":17,"map":"pl_snowycoast","folder":"tf","game":"Team Fortress","app_id":440,"player_count":0,"max_players":24,"Bots":0,"server_type":"Dedicated","server_os":"Linux","password":true,"vac":true,"version":"7757534","steam_id":85568392925397853,"keywords":["nocrits","nodmgspread","payload","uncletopia"],"game_id":440,"stv_port":27046,"stv_name":"Uncletopia | Warsaw | 4 | All Maps | STV","players":null},{"server_id":53,"name":"Uncletopia | Warsaw | 5 | Stopwatch Beta","name_short":"waw-5","host":"waw-1.pl.uncletopia.com","port":27055,"enabled":true,"region":"eu","cc":"pl","latitude":52.2297,"longitude":21.017532,"reserved":0,"last_update":"0001-01-01T00:00:00Z","name_a2s":"Uncletopia | Warsaw | 5 | Stopwatch Beta","protocol":17,"map":"pl_barnblitz","folder":"tf","game":"Team Fortress","app_id":440,"player_count":0,"max_players":24,"Bots":0,"server_type":"Dedicated","server_os":"Linux","password":true,"vac":true,"version":"7757534","steam_id":85568392925397854,"keywords":["nocrits","nodmgspread","payload","uncletopia"],"game_id":440,"stv_port":27056,"stv_name":"Uncletopia | Warsaw | 5 | Stopwatch Beta | STV","players":null},{"server_id":54,"name":"Uncletopia | Warsaw | 6 | Community","name_short":"waw-6","host":"waw-1.pl.uncletopia.com","port":27065,"enabled":true,"region":"eu","cc":"pl","latitude":52.2297,"longitude":21.017532,"reserved":0,"last_update":"0001-01-01T00:00:00Z","name_a2s":"Uncletopia | Warsaw | 6 | Community","protocol":17,"map":"workshop/cp_snowbase_b18.ugc2081770490","folder":"tf","game":"Team Fortress","app_id":440,"player_count":21,"max_players":24,"Bots":0,"server_type":"Dedicated","server_os":"Linux","password":true,"vac":true,"version":"7757534","steam_id":85568392925397856,"keywords":["cp","nocrits","nodmgspread","uncletopia"],"game_id":440,"stv_port":27066,"stv_name":"Uncletopia | Warsaw | 6 | Community | STV","players":[{"user_id":46,"name":"Karr4x","steam_id":76561198056152657,"connected_time":21000000000,"state":"spawning","ping":143},{"user_id":40,"name":"naqoyqatsi","steam_id":76561198114711905,"connected_time":207000000000,"state":"active","ping":35},{"user_id":41,"name":"Bob Marley Faruk","steam_id":76561198403624627,"connected_time":150000000000,"state":"active","ping":118},{"user_id":6,"name":"TSx* Osa__PL","steam_id":76561198027016799,"connected_time":1886000000000,"state":"active","ping":49},{"user_id":7,"name":"TSx* Naxer","steam_id":76561198011986779,"connected_time":1880000000000,"state":"active","ping":45},{"user_id":8,"name":"TSx* {Demon-Angel}","steam_id":76561198151486463,"connected_time":1880000000000,"state":"active","ping":55},{"user_id":42,"name":"WeskerTea","steam_id":76561198803536180,"connected_time":149000000000,"state":"active","ping":121},{"user_id":10,"name":"aeee","steam_id":76561199149307190,"connected_time":1759000000000,"state":"active","ping":89},{"user_id":38,"name":"Clitorina","steam_id":76561198077570815,"connected_time":420000000000,"state":"active","ping":72},{"user_id":43,"name":"Alaea WInters","steam_id":76561198116274337,"connected_time":132000000000,"state":"active","ping":193},{"user_id":36,"name":"mjan456","steam_id":76561198139918670,"connected_time":649000000000,"state":"active","ping":152},{"user_id":29,"name":"burger","steam_id":76561198071674964,"connected_time":1039000000000,"state":"active","ping":85},{"user_id":17,"name":"Stragnov☆","steam_id":76561198074702465,"connected_time":1510000000000,"state":"active","ping":79},{"user_id":44,"name":"Deathface","steam_id":76561198103472563,"connected_time":107000000000,"state":"active","ping":145},{"user_id":20,"name":"pedro64m","steam_id":76561199049838300,"connected_time":1347000000000,"state":"active","ping":82},{"user_id":45,"name":"Alfred Schroom","steam_id":76561198117990411,"connected_time":87000000000,"state":"active","ping":57},{"user_id":24,"name":"mały #tf2pickup.pl","steam_id":76561198074409147,"connected_time":1202000000000,"state":"active","ping":42},{"user_id":28,"name":"CRAZY VIKING","steam_id":76561198061440669,"connected_time":1070000000000,"state":"active","ping":76},{"user_id":30,"name":"spearfishNL","steam_id":76561199077022985,"connected_time":1022000000000,"state":"active","ping":69},{"user_id":35,"name":"Rafii","steam_id":76561198144011814,"connected_time":772000000000,"state":"active","ping":46}]}]}