{"status":true,"message":"","result":[{"server_id":9,"name":"Uncletopia | Atlanta | 1 | All Maps","name_short":"atl-1","host":"atl-1.us.uncletopia.com","port":27015,"enabled":true,"region":"us-east","cc":"us","latitude":33.753746,"longitude":-84.38633,"reserved":0,"last_update":"0001-01-01T00:00:00Z","name_a2s":"Uncletopia | Atlanta | 1 | All Maps","protocol":17,"map":"pl_upward","folder":"tf","game":"Team Fortress","app_id":440,"player_count":24,"max_players":24,"Bots":0,"server_type":"Dedicated","server_os":"Linux","password":true,"vac":true,"version":"7757534","steam_id":85568392924469982,"keywords":["nocrits","nodmgspread","payload","uncletopia"],"game_id":440,"stv_port":27016,"stv_name":"Uncletopia | Atlanta | 1 | All Maps | STV","players":[{"user_id":86,"name":"Brandonazz","steam_id":76561197994366351,"connected_time":1255000000000,"state":"active","ping":77},{"user_id":75,"name":"IggyYT","steam_id":76561198317980567,"connected_time":2394000000000,"state":"active","ping":67},{"user_id":47,"name":"Albino Jellyfish","steam_id":76561198208561097,"connected_time":3529000000000,"state":"active","ping":62},{"user_id":94,"name":"PrinceGrotle","steam_id":76561198206131603,"connected_time":715000000000,"state":"active","ping":75},{"user_id":84,"name":"Flint","steam_id":76561198066547582,"connected_time":1767000000000,"state":"active","ping":107},{"user_id":77,"name":"Jpxfred","steam_id":76561199414783749,"connected_time":2336000000000,"state":"active","ping":123},{"user_id":34,"name":"DATONA","steam_id":76561198325164208,"connected_time":4283000000000,"state":"active","ping":96},{"user_id":95,"name":"TruBluHue","steam_id":76561198294389079,"connected_time":707000000000,"state":"active","ping":86},{"user_id":89,"name":"HELIUM VAN!","steam_id":76561198083463877,"connected_time":1156000000000,"state":"active","ping":78},{"user_id":82,"name":"RileyNiko","steam_id":76561198162093639,"connected_time":2026000000000,"state":"active","ping":60},{"user_id":41,"name":"rustyorion","steam_id":76561198439186347,"connected_time":3854000000000,"state":"active","ping":108},{"user_id":83,"name":"You Want Me","steam_id":76561198135492119,"connected_time":1869000000000,"state":"active","ping":70},{"user_id":66,"name":"Broken Cereal√","steam_id":76561198087489795,"connected_time":2853000000000,"state":"active","ping":59},{"user_id":67,"name":"Cheems","steam_id":76561198269074039,"connected_time":2798000000000,"state":"active","ping":71},{"user_id":53,"name":"Finchy22","steam_id":76561198063355600,"connected_time":3218000000000,"state":"active","ping":76},{"user_id":46,"name":"nnobi","steam_id":76561198878729277,"connected_time":3570000000000,"state":"active","ping":60},{"user_id":48,"name":"xX_HimboSwallower_Xx","steam_id":76561198016029965,"connected_time":3522000000000,"state":"active","ping":70},{"user_id":54,"name":"Squash","steam_id":76561198376453255,"connected_time":3207000000000,"state":"active","ping":84},{"user_id":85,"name":"Wyatt the Wallaby","steam_id":76561198151881388,"connected_time":1732000000000,"state":"active","ping":86},{"user_id":92,"name":"Jambi","steam_id":76561198846091685,"connected_time":915000000000,"state":"active","ping":58},{"user_id":96,"name":"Toasterduds","steam_id":76561198163477584,"connected_time":678000000000,"state":"active","ping":100},{"user_id":93,"name":"MILF Gaming","steam_id":76561198155378170,"connected_time":795000000000,"state":"active","ping":73},{"user_id":90,"name":"Fake Uncle","steam_id":76561198880227689,"connected_time":1132000000000,"state":"active","ping":69},{"user_id":98,"name":"Some Dumb Werewolf","steam_id":76561198114146739,"connected_time":438000000000,"state":"active","ping":76}]},{"server_id":400,"name":"Uncletopia | Atlanta | 3 | Community","name_short":"atl-3","host":"atl-1.us.uncletopia.com","port":27035,"enabled":true,"region":"us-east","cc":"us","latitude":33.753746,"longitude":-84.38633,"reserved":0,"last_update":"0001-01-01T00:00:00Z","name_a2s":"Uncletopia | Atlanta | 3 | Community","protocol":17,"map":"cp_mountainlab","folder":"tf","game":"Team Fortress","app_id":440,"player_count":0,"max_players":24,"Bots":0,"server_type":"Dedicated","server_os":"Linux","password":true,"vac":true,"version":"7757534","steam_id":85568392924515187,"keywords":["cp","nocrits","nodmgspread","uncletopia"],"game_id":440,"stv_port":27036,"stv_name":"Uncletopia | Atlanta | 3 | Community | STV","players":null},{"server_id":401,"name":"Uncletopia | Atlanta | 4 | No Payload","name_short":"atl-4","host":"atl-1.us.uncletopia.com","port":27045,"enabled":true,"region":"us-east","cc":"us","latitude":33.753746,"longitude":-84.38633,"reserved":0,"last_update":"0001-01-01T00:00:00Z","name_a2s":"","protocol":0,"map":"","folder":"","game":"","app_id":0,"player_count":0,"max_players":0,"Bots":0,"server_type":"","server_os":"","password":false,"vac":false,"version":"","steam_id":0,"keywords":null,"game_id":0,"stv_port":0,"stv_name":"","players":null},{"server_id":2,"name":"Uncletopia | Chicago | 1 | All Maps","name_short":"chi-1","host":"chi-1.us.uncletopia.com","port":27015,"enabled":true,"region":"us-central","cc":"us","latitude":41.881832,"longitude":-87.62318,"reserved":0,"last_update":"0001-01-01T00:00:00Z","name_a2s":"Uncletopia | Chicago | 1 | All Maps","protocol":17,"map":"pl_barnblitz","folder":"tf","game":"Team Fortress","app_id":440,"player_count":24,"max_players":24,"Bots":0,"server_type":"Dedicated","server_os":"Linux","password":true,"vac":true,"version":"7757534","steam_id":85568392924469984,"keywords":["nocrits","nodmgspread","payload","uncletopia"],"game_id":440,"stv_port":27016,"stv_name":"Uncletopia | Chicago | 1 | All Maps | STV","players":[{"user_id":265,"name":"Medicated Thembo","steam_id":76561198035868181,"connected_time":1355000000000,"state":"active","ping":60},{"user_id":264,"name":"Ploomple","steam_id":76561199095849551,"connected_time":1378000000000,"state":"active","ping":44},{"user_id":262,"name":"trash beast","steam_id":76561198015792736,"connected_time":1725000000000,"state":"active","ping":72},{"user_id":201,"name":"bloosoom","steam_id":76561198042735130,"connected_time":5787000000000,"state":"active","ping":105},{"user_id":251,"name":"Enron Hubbard","steam_id":76561198012951411,"connected_time":2893000000000,"state":"active","ping":58},{"user_id":274,"name":"GS thedittoguy","steam_id":76561199013129784,"connected_time":317000000000,"state":"active","ping":85},{"user_id":272,"name":"Daddys Home","steam_id":76561198034702011,"connected_time":562000000000,"state":"active","ping":83},{"user_id":242,"name":"Dabicus Vile","steam_id":76561198272413758,"connected_time":3364000000000,"state":"active","ping":57},{"user_id":273,"name":"Hermes","steam_id":76561198806310416,"connected_time":435000000000,"state":"active","ping":196},{"user_id":275,"name":"GoEatATowel","steam_id":76561198065479730,"connected_time":245000000000,"state":"active","ping":45},{"user_id":260,"name":"medigun broke","steam_id":76561198025553902,"connected_time":1834000000000,"state":"active","ping":45},{"user_id":277,"name":"catrinaisahuman","steam_id":76561198281355729,"connected_time":114000000000,"state":"active","ping":62},{"user_id":278,"name":"DeltaTroopa","steam_id":76561197969922298,"connected_time":101000000000,"state":"active","ping":75},{"user_id":279,"name":"alolan duntski","steam_id":76561198038826744,"connected_time":95000000000,"state":"active","ping":60},{"user_id":233,"name":"Ghostly","steam_id":76561198080155633,"connected_time":4029000000000,"state":"active","ping":80},{"user_id":280,"name":"psy","steam_id":76561198013195018,"connected_time":91000000000,"state":"active","ping":78},{"user_id":283,"name":"pablo","steam_id":76561198395577807,"connected_time":38000000000,"state":"active","ping":57},{"user_id":253,"name":"Dad 2","steam_id":76561198138546187,"connected_time":2783000000000,"state":"active","ping":67},{"user_id":238,"name":"Garfield","steam_id":76561198037803087,"connected_time":3926000000000,"state":"active","ping":70},{"user_id":282,"name":"nalezinik","steam_id":76561198030026119,"connected_time":88000000000,"state":"active","ping":61},{"user_id":263,"name":"Amish Robot","steam_id":76561198041156065,"connected_time":1721000000000,"state":"active","ping":80},{"user_id":196,"name":"bird who is doctor sometimes","steam_id":76561199144340440,"connected_time":6296000000000,"state":"active","ping":61},{"user_id":241,"name":"Crab Rangoon","steam_id":76561198059310510,"connected_time":3428000000000,"state":"active","ping":74},{"user_id":259,"name":"Leftshadows","steam_id":76561199089515791,"connected_time":2304000000000,"state":"active","ping":117}]},{"server_id":106,"name":"Uncletopia | Chicago | 2 | All Maps","name_short":"chi-2","host":"chi-1.us.uncletopia.com","port":27025,"enabled":true,"region":"us-central","cc":"us","latitude":41.881832,"longitude":-87.62318,"reserved":0,"last_update":"0001-01-01T00:00:00Z","name_a2s":"Uncletopia | Chicago | 2 | All Maps","protocol":17,"map":"pl_swiftwater_final1","folder":"tf","game":"Team Fortress","app_id":440,"player_count":21,"max_players":24,"Bots":0,"server_type":"Dedicated","server_os":"Linux","password":true,"vac":true,"version":"7757534","steam_id":85568392924469985,"keywords":["nocrits","nodmgspread","payload","uncletopia"],"game_id":440,"stv_port":27026,"stv_name":"Uncletopia | Chicago | 2 | All Maps | STV","players":[{"user_id":314,"name":"freaxUSA","steam_id":76561198079410266,"connected_time":32000000000,"state":"active","ping":72},{"user_id":315,"name":"papa guacamole","steam_id":76561198167665608,"connected_time":16000000000,"state":"spawning","ping":73},{"user_id":262,"name":"creeeeeee","steam_id":76561198392539722,"connected_time":4314000000000,"state":"active","ping":76},{"user_id":312,"name":"Smoeker","steam_id":76561198166723053,"connected_time":68000000000,"state":"active","ping":48},{"user_id":274,"name":"augs","steam_id":76561199120607417,"connected_time":2957000000000,"state":"active","ping":60},{"user_id":289,"name":"creepycrawler","steam_id":76561198352016831,"connected_time":1364000000000,"state":"active","ping":61},{"user_id":290,"name":"Wahter","steam_id":76561198068654532,"connected_time":1336000000000,"state":"active","ping":81},{"user_id":282,"name":"Furry Saul Goodman","steam_id":76561198069580305,"connected_time":2124000000000,"state":"active","ping":45},{"user_id":306,"name":"Tiko #SaveTF2","steam_id":76561199066864469,"connected_time":970000000000,"state":"active","ping":72},{"user_id":311,"name":"Enderneer","steam_id":76561198012136653,"connected_time":609000000000,"state":"active","ping":57},{"user_id":313,"name":"teafital","steam_id":76561198406252824,"connected_time":67000000000,"state":"active","ping":98},{"user_id":232,"name":"WorldsLargestPlanet","steam_id":76561199042160997,"connected_time":7136000000000,"state":"active","ping":128},{"user_id":305,"name":"HATEWORK.","steam_id":76561198286792807,"connected_time":1037000000000,"state":"active","ping":65},{"user_id":235,"name":"finger","steam_id":76561198068558572,"connected_time":6912000000000,"state":"active","ping":80},{"user_id":272,"name":"SLUMBER","steam_id":76561198095013394,"connected_time":2984000000000,"state":"active","ping":70},{"user_id":293,"name":"Omni","steam_id":76561198035774007,"connected_time":1318000000000,"state":"active","ping":74},{"user_id":284,"name":"Chezburgures","steam_id":76561198173043730,"connected_time":1781000000000,"state":"active","ping":100},{"user_id":296,"name":"yayayuyu121","steam_id":76561199271895855,"connected_time":1247000000000,"state":"active","ping":60},{"user_id":277,"name":"Omnoman","steam_id":76561198006258213,"connected_time":2699000000000,"state":"active","ping":86},{"user_id":309,"name":"bingus","steam_id":76561198283992686,"connected_time":728000000000,"state":"active","ping":94},{"user_id":286,"name":"Alpharius","steam_id":76561198044479864,"connected_time":1773000000000,"state":"active","ping":88}]},{"server_id":402,"name":"Uncletopia | Chicago | 3 | All Maps","name_short":"chi-3","host":"chi-1.us.uncletopia.com","port":27035,"enabled":true,"region":"us-central","cc":"us","latitude":41.881832,"longitude":-87.62318,"reserved":0,"last_update":"0001-01-01T00:00:00Z","name_a2s":"Uncletopia | Chicago | 3 | All Maps","protocol":17,"map":"koth_cascade","folder":"tf","game":"Team Fortress","app_id":440,"player_count":0,"max_players":24,"Bots":0,"server_type":"Dedicated","server_os":"Linux","password":true,"vac":true,"version":"7757534","steam_id":85568392924515191,"keywords":["cp","nocrits","nodmgspread","uncletopia"],"game_id":440,"stv_port":27036,"stv_name":"Uncletopia | Chicago | 3 | All Maps | STV","players":null},{"server_id":403,"name":"Uncletopia | Chicago | 4 | All Maps","name_short":"chi-4","host":"chi-1.us.uncletopia.com","port":27045,"enabled":true,"region":"us-central","cc":"us","latitude":41.881832,"longitude":-87.62318,"reserved":0,"last_update":"0001-01-01T00:00:00Z","name_a2s":"Uncletopia | Chicago | 4 | All Maps","protocol":17,"map":"pl_barnblitz","folder":"tf","game":"Team Fortress","app_id":440,"player_count":24,"max_players":24,"Bots":0,"server_type":"Dedicated","server_os":"Linux","password":true,"vac":true,"version":"7757534","steam_id":85568392924515193,"keywords":["nocrits","nodmgspread","payload","uncletopia"],"game_id":440,"stv_port":27046,"stv_name":"Uncletopia | Chicago | 4 | All Maps | STV","players":[{"user_id":134,"name":"Dicksuck Mcgee","steam_id":76561198028577159,"connected_time":391000000000,"state":"active","ping":71},{"user_id":105,"name":"Koffy","steam_id":76561198184386039,"connected_time":2220000000000,"state":"active","ping":103},{"user_id":135,"name":"[Hoj] []V[]ega[]V[]an","steam_id":76561197961838875,"connected_time":14000000000,"state":"spawning","ping":65},{"user_id":113,"name":"Get Lobstered","steam_id":76561198115443354,"connected_time":1928000000000,"state":"active","ping":45},{"user_id":102,"name":"Scoron","steam_id":76561198062099305,"connected_time":2516000000000,"state":"active","ping":117},{"user_id":133,"name":"Eosson","steam_id":76561198108642113,"connected_time":569000000000,"state":"active","ping":57},{"user_id":93,"name":"Constable","steam_id":76561198135578153,"connected_time":3171000000000,"state":"active","ping":129},{"user_id":90,"name":"Tom","steam_id":76561198070630154,"connected_time":3339000000000,"state":"active","ping":87},{"user_id":74,"name":"int","steam_id":76561198155720118,"connected_time":4013000000000,"state":"active","ping":47},{"user_id":86,"name":"Rasputia","steam_id":76561198132051047,"connected_time":3538000000000,"state":"active","ping":105},{"user_id":116,"name":"runix","steam_id":76561198822655082,"connected_time":1587000000000,"state":"active","ping":45},{"user_id":131,"name":"RAAZ","steam_id":76561198827854453,"connected_time":691000000000,"state":"active","ping":69},{"user_id":119,"name":"medic tf2","steam_id":76561198004065704,"connected_time":1533000000000,"state":"active","ping":90},{"user_id":128,"name":"suckmycock47","steam_id":76561198063099828,"connected_time":801000000000,"state":"active","ping":52},{"user_id":109,"name":"bagelbillnacho","steam_id":76561198174342389,"connected_time":2141000000000,"state":"active","ping":73},{"user_id":127,"name":"Lane","steam_id":76561197965828506,"connected_time":1294000000000,"state":"active","ping":44},{"user_id":54,"name":"Dross","steam_id":76561198042172372,"connected_time":5845000000000,"state":"active","ping":69},{"user_id":80,"name":"MinusSoup918","steam_id":76561198060902773,"connected_time":3794000000000,"state":"active","ping":120},{"user_id":112,"name":"Jennifer Aniston's Nipples","steam_id":76561198086107548,"connected_time":2093000000000,"state":"active","ping":68},{"user_id":129,"name":"SSBM Pelican","steam_id":76561198040697907,"connected_time":800000000000,"state":"active","ping":73},{"user_id":110,"name":"GGG","steam_id":76561198308315479,"connected_time":2135000000000,"state":"active","ping":102},{"user_id":111,"name":"Focus On God","steam_id":76561198047136927,"connected_time":2111000000000,"state":"active","ping":59},{"user_id":97,"name":"Boobanator5000","steam_id":76561198393299316,"connected_time":2890000000000,"state":"active","ping":83},{"user_id":130,"name":"Spore_Captain","steam_id":76561198060839271,"connected_time":766000000000,"state":"active","ping":73}]},{"server_id":36,"name":"Uncletopia | Chicago | 5 | All Maps","name_short":"chi-5","host":"chi-2.us.uncletopia.com","port":27015,"enabled":true,"region":"us-central","cc":"us","latitude":41.881832,"longitude":-87.62318,"reserved":0,"last_update":"0001-01-01T00:00:00Z","name_a2s":"Uncletopia | Chicago | 5 | All Maps","protocol":17,"map":"koth_lakeside_final","folder":"tf","game":"Team Fortress","app_id":440,"player_count":0,"max_players":24,"Bots":0,"server_type":"Dedicated","server_os":"Linux","password":true,"vac":true,"version":"7757534","steam_id":85568392924866362,"keywords":["cp","nocrits","nodmgspread","uncletopia"],"game_id":440,"stv_port":27016,"stv_name":"Uncletopia | Chicago | 5 | All Maps | STV","players":null},{"server_id":37,"name":"Uncletopia | Chicago | 6 | All Maps","name_short":"chi-6","host":"chi-2.us.uncletopia.com","port":27025,"enabled":true,"region":"us-central","cc":"us","latitude":41.881832,"longitude":-87.62318,"reserved":0,"last_update":"0001-01-01T00:00:00Z","name_a2s":"Uncletopia | Chicago | 6 | All Maps","protocol":17,"map":"cp_dustbowl","folder":"tf","game":"Team Fortress","app_id":440,"player_count":0,"max_players":24,"Bots":0,"server_type":"Dedicated","server_os":"Linux","password":true,"vac":true,"version":"7757534","steam_id":85568392924866363,"keywords":["cp","nocrits","nodmgspread","uncletopia"],"game_id":440,"stv_port":27026,"stv_name":"Uncletopia | Chicago | 6 | All Maps | STV","players":null},{"server_id":38,"name":"Uncletopia | Chicago | 7 | Stopwatch Beta","name_short":"chi-7","host":"chi-2.us.uncletopia.com","port":27035,"enabled":true,"region":"us-central","cc":"us","latitude":41.881832,"longitude":-87.62318,"reserved":0,"last_update":"0001-01-01T00:00:00Z","name_a2s":"Uncletopia | Chicago | 7 | Stopwatch Beta","protocol":17,"map":"workshop/koth_bagel_rc6.ugc2514036946","folder":"tf","game":"Team Fortress","app_id":440,"player_count":0,"max_players":24,"Bots":0,"server_type":"Dedicated","server_os":"Linux","password":true,"vac":true,"version":"7757534","steam_id":85568392924866364,"keywords":["cp","nocrits","nodmgspread","uncletopia"],"game_id":440,"stv_port":27036,"stv_name":"Uncletopia | Chicago | 7 | Stopwatch Beta | STV","players":null},{"server_id":39,"name":"Uncletopia | Chicago | 8 | Community","name_short":"chi-8","host":"chi-2.us.uncletopia.com","port":27045,"enabled":true,"region":"us-central","cc":"us","latitude":41.881832,"longitude":-87.62318,"reserved":0,"last_update":"0001-01-01T00:00:00Z","name_a2s":"Uncletopia | Chicago | 8 | Community","protocol":17,"map":"koth_lakeside_final","folder":"tf","game":"Team Fortress","app_id":440,"player_count":0,"max_players":24,"Bots":0,"server_type":"Dedicated","server_os":"Linux","password":true,"vac":true,"version":"7757534","steam_id":85568392924866365,"keywords":["cp","nocrits","nodmgspread","uncletopia"],"game_id":440,"stv_port":27046,"stv_name":"Uncletopia | Chicago | 8 | Community | STV","players":null},{"server_id":8,"name":"Uncletopia | Dallas | 1 | All Maps","name_short":"dal-1","host":"dal-1.us.uncletopia.com","port":27015,"enabled":true,"region":"us-central","cc":"us","latitude":32.779167,"longitude":-96.80889,"reserved":0,"last_update":"0001-01-01T00:00:00Z","name_a2s":"Uncletopia | Dallas | 1 | All Maps","protocol":17,"map":"pl_badwater","folder":"tf","game":"Team Fortress","app_id":440,"player_count":24,"max_players":24,"Bots":0,"server_type":"Dedicated","server_os":"Linux","password":true,"vac":true,"version":"7757534","steam_id":85568392924469986,"keywords":["nocrits","nodmgspread","payload","uncletopia"],"game_id":440,"stv_port":27016,"stv_name":"Uncletopia | Dallas | 1 | All Maps | STV","players":[{"user_id":59,"name":"Salmon_Aunt","steam_id":76561199087580539,"connected_time":65000000000,"state":"active","ping":157},{"user_id":13,"name":"Vestuvian","steam_id":76561199007823355,"connected_time":1892000000000,"state":"active","ping":64},{"user_id":15,"name":"usasan","steam_id":76561198044654399,"connected_time":1764000000000,"state":"active","ping":71},{"user_id":57,"name":"Hippo","steam_id":76561198309681901,"connected_time":162000000000,"state":"active","ping":87},{"user_id":55,"name":"floppy muppet","steam_id":76561198003076261,"connected_time":201000000000,"state":"active","ping":80},{"user_id":40,"name":"Shark Sandwich","steam_id":76561198025007938,"connected_time":551000000000,"state":"active","ping":101},{"user_id":60,"name":"Cyril Warhawk","steam_id":76561198025169657,"connected_time":59000000000,"state":"spawning","ping":58},{"user_id":31,"name":"One HELL Of A Master","steam_id":76561198449317611,"connected_time":812000000000,"state":"active","ping":193},{"user_id":61,"name":"Duckywinner","steam_id":76561198254828139,"connected_time":54000000000,"state":"spawning","ping":94},{"user_id":33,"name":"tori.hine","steam_id":76561198170918014,"connected_time":745000000000,"state":"active","ping":185},{"user_id":58,"name":"NOTWALTER","steam_id":76561198125464744,"connected_time":139000000000,"state":"active","ping":101},{"user_id":38,"name":"land0","steam_id":76561198321264704,"connected_time":620000000000,"state":"active","ping":130},{"user_id":41,"name":"Pornelius Hubert","steam_id":76561198186128723,"connected_time":523000000000,"state":"active","ping":53},{"user_id":42,"name":"A Lost CAWs","steam_id":76561198127120212,"connected_time":514000000000,"state":"active","ping":97},{"user_id":62,"name":"Moonlightexel","steam_id":76561198262044897,"connected_time":36000000000,"state":"active","ping":205},{"user_id":44,"name":"barbara","steam_id":76561198072417792,"connected_time":501000000000,"state":"active","ping":90},{"user_id":45,"name":"Not_Douglas","steam_id":76561199024184136,"connected_time":490000000000,"state":"active","ping":83},{"user_id":46,"name":"Cunk","steam_id":76561198996618201,"connected_time":481000000000,"state":"active","ping":172},{"user_id":48,"name":"Speedy","steam_id":76561198873086850,"connected_time":374000000000,"state":"active","ping":102},{"user_id":49,"name":"Duncle Frazzle","steam_id":76561198145596626,"connected_time":366000000000,"state":"active","ping":103},{"user_id":50,"name":"Cactus™ ♥","steam_id":76561198036441270,"connected_time":364000000000,"state":"active","ping":106},{"user_id":52,"name":"Florist","steam_id":76561198009121060,"connected_time":357000000000,"state":"active","ping":91},{"user_id":53,"name":"kool_aids3","steam_id":76561198314435679,"connected_time":344000000000,"state":"active","ping":77},{"user_id":54,"name":"pelt","steam_id":76561197993593754,"connected_time":333000000000,"state":"active","ping":70}]},{"server_id":108,"name":"Uncletopia | Dallas | 2 | All Maps","name_short":"dal-2","host":"dal-1.us.uncletopia.com","port":27025,"enabled":true,"region":"us-central","cc":"us","latitude":32.779167,"longitude":-96.80889,"reserved":0,"last_update":"0001-01-01T00:00:00Z","name_a2s":"Uncletopia | Dallas | 2 | All Maps","protocol":17,"map":"pl_swiftwater_final1","folder":"tf","game":"Team Fortress","app_id":440,"player_count":0,"max_players":24,"Bots":0,"server_type":"Dedicated","server_os":"Linux","password":true,"vac":true,"version":"7757534","steam_id":85568392924469988,"keywords":["nocrits","nodmgspread","payload","uncletopia"],"game_id":440,"stv_port":27026,"stv_name":"Uncletopia | Dallas | 2 | All Maps | STV","players":null},{"server_id":5,"name":"Uncletopia | Frankfurt | 1 | All Maps","name_short":"frk-1","host":"frk-1.de.uncletopia.com","port":27015,"enabled":true,"region":"eu","cc":"de","latitude":50.110924,"longitude":8.682127,"reserved":0,"last_update":"0001-01-01T00:00:00Z","name_a2s":"Uncletopia | Frankfurt | 1 | All Maps","protocol":17,"map":"pl_pier","folder":"tf","game":"Team Fortress","app_id":440,"player_count":24,"max_players":24,"Bots":0,"server_type":"Dedicated","server_os":"Linux","password":true,"vac":true,"version":"7757534","steam_id":85568392924469989,"keywords":["nocrits","nodmgspread","payload","uncletopia"],"game_id":440,"stv_port":27016,"stv_name":"Uncletopia | Frankfurt | 1 | All Maps | STV","players":[{"user_id":462,"name":"ur weird, not me","steam_id":76561198808819694,"connected_time":854000000000,"state":"active","ping":46},{"user_id":458,"name":"Soya Suki","steam_id":76561197998106435,"connected_time":1025000000000,"state":"active","ping":45},{"user_id":482,"name":"Bottom 1 Johnnii","steam_id":76561198012841225,"connected_time":205000000000,"state":"active","ping":70},{"user_id":464,"name":"peter dangling","steam_id":76561198864327475,"connected_time":737000000000,"state":"active","ping":47},{"user_id":460,"name":"TJ1212","steam_id":76561199013575313,"connected_time":1003000000000,"state":"active","ping":76},{"user_id":481,"name":"Paulo","steam_id":76561198001386978,"connected_time":249000000000,"state":"active","ping":55},{"user_id":478,"name":"Videogamer","steam_id":76561198106012909,"connected_time":477000000000,"state":"active","ping":63},{"user_id":455,"name":"Flex","steam_id":76561197970482191,"connected_time":1338000000000,"state":"active","ping":50},{"user_id":466,"name":"C.H.E.R.E.P.","steam_id":76561198026938595,"connected_time":648000000000,"state":"active","ping":65},{"user_id":467,"name":"Thors","steam_id":76561197968739075,"connected_time":636000000000,"state":"active","ping":45},{"user_id":442,"name":"Kylul_","steam_id":76561198042981061,"connected_time":3305000000000,"state":"active","ping":45},{"user_id":468,"name":"Benzo Fury","steam_id":76561198025259336,"connected_time":620000000000,"state":"active","ping":58},{"user_id":469,"name":"Spoody #JustPassing","steam_id":76561198031523769,"connected_time":597000000000,"state":"active","ping":47},{"user_id":441,"name":"citronous","steam_id":76561198093290934,"connected_time":3343000000000,"state":"active","ping":56},{"user_id":470,"name":"gjhkgfkjfh","steam_id":76561198031181349,"connected_time":548000000000,"state":"active","ping":85},{"user_id":471,"name":"EGirl | Klarra","steam_id":76561198077745407,"connected_time":525000000000,"state":"active","ping":60},{"user_id":472,"name":"Yakko","steam_id":76561198044170177,"connected_time":514000000000,"state":"active","ping":51},{"user_id":473,"name":"Space_Fennik","steam_id":76561198199571111,"connected_time":513000000000,"state":"active","ping":70},{"user_id":474,"name":"I throw piss","steam_id":76561198346638308,"connected_time":508000000000,"state":"active","ping":61},{"user_id":475,"name":"Amandus","steam_id":76561198036281079,"connected_time":504000000000,"state":"active","ping":62},{"user_id":447,"name":"HERISSON","steam_id":76561199062194778,"connected_time":2140000000000,"state":"active","ping":64},{"user_id":480,"name":"Schnitzel","steam_id":76561198262231733,"connected_time":395000000000,"state":"active","ping":60},{"user_id":477,"name":"Mikeshowsha","steam_id":76561199114014127,"connected_time":496000000000,"state":"active","ping":66},{"user_id":479,"name":"Volterion #SaveTf2","steam_id":76561198293088484,"connected_time":472000000000,"state":"active","ping":114}]},{"server_id":110,"name":"Uncletopia | Frankfurt | 2 | All Maps","name_short":"frk-2","host":"frk-1.de.uncletopia.com","port":27025,"enabled":true,"region":"eu","cc":"de","latitude":50.110924,"longitude":8.682127,"reserved":0,"last_update":"0001-01-01T00:00:00Z","name_a2s":"Uncletopia | Frankfurt | 2 | All Maps","protocol":17,"map":"pl_frontier_final","folder":"tf","game":"Team Fortress","app_id":440,"player_count":24,"max_players":24,"Bots":0,"server_type":"Dedicated","server_os":"Linux","password":true,"vac":true,"version":"7757534","steam_id":85568392924469990,"keywords":["nocrits","nodmgspread","payload","uncletopia"],"game_id":440,"stv_port":27026,"stv_name":"Uncletopia | Frankfurt | 2 | All Maps | STV","players":[{"user_id":302,"name":"hourglass","steam_id":76561198166613799,"connected_time":1621000000000,"state":"active","ping":92},{"user_id":231,"name":"Kira","steam_id":76561198204168909,"connected_time":6421000000000,"state":"active","ping":102},{"user_id":323,"name":"d00bie","steam_id":76561198025295218,"connected_time":867000000000,"state":"active","ping":67},{"user_id":317,"name":"The Wolf Leader","steam_id":76561198038007462,"connected_time":1038000000000,"state":"active","ping":63},{"user_id":319,"name":"GogsCrunchyNuts","steam_id":76561198150599213,"connected_time":993000000000,"state":"active","ping":108},{"user_id":230,"name":"`˘´antifriz","steam_id":76561198088806574,"connected_time":6505000000000,"state":"active","ping":74},{"user_id":304,"name":"Kenaga","steam_id":76561198052927473,"connected_time":1595000000000,"state":"active","ping":105},{"user_id":184,"name":"Corpus Christi","steam_id":76561198417999443,"connected_time":8490000000000,"state":"active","ping":95},{"user_id":318,"name":"MARKO","steam_id":76561198065127504,"connected_time":1021000000000,"state":"active","ping":55},{"user_id":327,"name":"Senator Armstrong","steam_id":76561198984346408,"connected_time":304000000000,"state":"active","ping":67},{"user_id":320,"name":"Kowakum","steam_id":76561197998125950,"connected_time":988000000000,"state":"active","ping":102},{"user_id":307,"name":"where is my egg?","steam_id":76561198172542535,"connected_time":1583000000000,"state":"active","ping":75},{"user_id":310,"name":"Negromancer","steam_id":76561198065912877,"connected_time":1496000000000,"state":"active","ping":86},{"user_id":321,"name":"Dr.Cranium","steam_id":76561197992726926,"connected_time":968000000000,"state":"active","ping":95},{"user_id":262,"name":"rizook","steam_id":76561198055010039,"connected_time":4262000000000,"state":"active","ping":68},{"user_id":281,"name":"Pottery Knight","steam_id":76561198094455814,"connected_time":3763000000000,"state":"active","ping":108},{"user_id":324,"name":"Bleachy","steam_id":76561198101976229,"connected_time":837000000000,"state":"active","ping":56},{"user_id":315,"name":"Creative","steam_id":76561198835034247,"connected_time":1283000000000,"state":"active","ping":82},{"user_id":215,"name":"Seeker","steam_id":76561198873052772,"connected_time":7194000000000,"state":"active","ping":64},{"user_id":311,"name":"megafon","steam_id":76561198143921841,"connected_time":1473000000000,"state":"active","ping":77},{"user_id":326,"name":"Blind","steam_id":76561198310295139,"connected_time":444000000000,"state":"active","ping":93},{"user_id":269,"name":"Ragles","steam_id":76561198132454783,"connected_time":4010000000000,"state":"active","ping":70},{"user_id":246,"name":"Menty","steam_id":76561198036748212,"connected_time":5310000000000,"state":"active","ping":45},{"user_id":312,"name":"Dr.Disrespect","steam_id":76561198043820228,"connected_time":1455000000000,"state":"active","ping":53}]},{"server_id":308,"name":"Uncletopia | Frankfurt | 3 | All Maps","name_short":"frk-3","host":"frk-1.de.uncletopia.com","port":27035,"enabled":true,"region":"eu","cc":"de","latitude":50.110924,"longitude":8.682127,"reserved":0,"last_update":"0001-01-01T00:00:00Z","name_a2s":"Uncletopia | Frankfurt | 3 | All Maps","protocol":17,"map":"pl_badwater","folder":"tf","game":"Team Fortress","app_id":440,"player_count":24,"max_players":24,"Bots":0,"server_type":"Dedicated","server_os":"Linux","password":true,"vac":true,"version":"7757534","steam_id":85568392924504274,"keywords":["nocrits","nodmgspread","payload","uncletopia"],"game_id":440,"stv_port":27036,"stv_name":"Uncletopia | Frankfurt | 3 | All Maps | STV","players":[{"user_id":110,"name":"Signor_UpB","steam_id":76561199145637231,"connected_time":472000000000,"state":"active","ping":87},{"user_id":112,"name":"System","steam_id":76561199442503973,"connected_time":433000000000,"state":"active","ping":47},{"user_id":47,"name":"Hegyi tahó F2P","steam_id":76561199219150356,"connected_time":4410000000000,"state":"active","ping":63},{"user_id":82,"name":"lukas.vokurka1","steam_id":76561198227116020,"connected_time":2324000000000,"state":"active","ping":80},{"user_id":118,"name":"DrippinFat","steam_id":76561198018170682,"connected_time":228000000000,"state":"active","ping":90},{"user_id":119,"name":"freszu","steam_id":76561199004927199,"connected_time":207000000000,"state":"active","ping":75},{"user_id":100,"name":"fl1p","steam_id":76561198148565659,"connected_time":1453000000000,"state":"active","ping":78},{"user_id":79,"name":"lyudmilakh","steam_id":76561198362779878,"connected_time":2473000000000,"state":"active","ping":91},{"user_id":101,"name":"Leibeigener","steam_id":76561199275478305,"connected_time":1429000000000,"state":"active","ping":41},{"user_id":113,"name":"Joel!","steam_id":76561198155422742,"connected_time":374000000000,"state":"active","ping":59},{"user_id":120,"name":"Newax","steam_id":76561198020758511,"connected_time":65000000000,"state":"active","ping":70},{"user_id":53,"name":"VIN WEASEL","steam_id":76561198014387066,"connected_time":4178000000000,"state":"active","ping":51},{"user_id":80,"name":"0xDEADBEEF","steam_id":76561199075416111,"connected_time":2473000000000,"state":"active","ping":93},{"user_id":85,"name":"FighterX9","steam_id":76561198832500806,"connected_time":2183000000000,"state":"active","ping":158},{"user_id":86,"name":"Drekadóttir","steam_id":76561198119979169,"connected_time":2150000000000,"state":"active","ping":68},{"user_id":103,"name":"UndercoverFurbyHunter","steam_id":76561198265722644,"connected_time":1388000000000,"state":"active","ping":93},{"user_id":108,"name":"r06u3","steam_id":76561198254099253,"connected_time":994000000000,"state":"active","ping":165},{"user_id":115,"name":"kairos.","steam_id":76561198073893018,"connected_time":358000000000,"state":"active","ping":45},{"user_id":67,"name":"Rezkey","steam_id":76561198206079048,"connected_time":3399000000000,"state":"active","ping":59},{"user_id":105,"name":"[dopijus]","steam_id":76561198943009513,"connected_time":1225000000000,"state":"active","ping":98},{"user_id":117,"name":"The cum policeman","steam_id":76561198338129578,"connected_time":257000000000,"state":"active","ping":56},{"user_id":116,"name":"Pyrolander","steam_id":76561198050785450,"connected_time":351000000000,"state":"active","ping":60},{"user_id":92,"name":"Kodutah","steam_id":76561198203405574,"connected_time":2034000000000,"state":"active","ping":59},{"user_id":91,"name":"oturanboğa","steam_id":76561199050054470,"connected_time":2104000000000,"state":"active","ping":91}]},{"server_id":309,"name":"Uncletopia | Frankfurt | 4 | All Maps","name_short":"frk-4","host":"frk-1.de.uncletopia.com","port":27045,"enabled":true,"region":"eu","cc":"de","latitude":50.110924,"longitude":8.682127,"reserved":0,"last_update":"0001-01-01T00:00:00Z","name_a2s":"Uncletopia | Frankfurt | 4 | All Maps","protocol":17,"map":"koth_viaduct","folder":"tf","game":"Team Fortress","app_id":440,"player_count":1,"max_players":24,"Bots":0,"server_type":"Dedicated","server_os":"Linux","password":true,"vac":true,"version":"7757534","steam_id":85568392924504275,"keywords":["cp","nocrits","nodmgspread","uncletopia"],"game_id":440,"stv_port":27046,"stv_name":"Uncletopia | Frankfurt | 4 | All Maps | STV","players":[{"user_id":14,"name":"Raufaser","steam_id":76561199266632227,"connected_time":50000000000,"state":"active","ping":57}]},{"server_id":310,"name":"Uncletopia | Frankfurt | 5 | All Maps","name_short":"frk-5","host":"frk-1.de.uncletopia.com","port":27055,"enabled":true,"region":"eu","cc":"de","latitude":50.110924,"longitude":8.682127,"reserved":0,"last_update":"0001-01-01T00:00:00Z","name_a2s":"Uncletopia | Frankfurt | 5 | All Maps","protocol":17,"map":"pl_upward","folder":"tf","game":"Team Fortress","app_id":440,"player_count":24,"max_players":24,"Bots":0,"server_type":"Dedicated","server_os":"Linux","password":true,"vac":true,"version":"7757534","steam_id":85568392924504277,"keywords":["nocrits","nodmgspread","payload","uncletopia"],"game_id":440,"stv_port":27056,"stv_name":"Uncletopia | Frankfurt | 5 | All Maps | STV","players":[{"user_id":27,"name":"Kalypso","steam_id":76561198241519562,"connected_time":2886000000000,"state":"active","ping":81},{"user_id":53,"name":"SPONGE","steam_id":76561198040933472,"connected_time":2286000000000,"state":"active","ping":61},{"user_id":55,"name":"WHUSSKEY","steam_id":76561198137827441,"connected_time":1997000000000,"state":"active","ping":70},{"user_id":76,"name":"A fish and sea","steam_id":76561198194745827,"connected_time":963000000000,"state":"active","ping":47},{"user_id":81,"name":"bad at tf2 episode 2","steam_id":76561198002451113,"connected_time":679000000000,"state":"active","ping":90},{"user_id":79,"name":"axl #pizdaaim","steam_id":76561198991661832,"connected_time":767000000000,"state":"active","ping":87},{"user_id":65,"name":"Bounter","steam_id":76561198072614188,"connected_time":1703000000000,"state":"active","ping":74},{"user_id":66,"name":"Despe","steam_id":76561198271217576,"connected_time":1698000000000,"state":"active","ping":60},{"user_id":67,"name":"Pingu","steam_id":76561198207966532,"connected_time":1681000000000,"state":"active","ping":68},{"user_id":85,"name":"Dr. Uberschwein","steam_id":76561198111367431,"connected_time":261000000000,"state":"active","ping":87},{"user_id":78,"name":"AfroCookie","steam_id":76561198138362851,"connected_time":848000000000,"state":"active","ping":71},{"user_id":86,"name":"Swift","steam_id":76561197998799889,"connected_time":177000000000,"state":"active","ping":58},{"user_id":69,"name":"Private_tm","steam_id":76561198056281480,"connected_time":1648000000000,"state":"active","ping":67},{"user_id":25,"name":"Sky","steam_id":76561198087415698,"connected_time":2943000000000,"state":"active","ping":51},{"user_id":23,"name":"Eivind","steam_id":76561198159927980,"connected_time":3019000000000,"state":"active","ping":71},{"user_id":45,"name":"Kamanie","steam_id":76561198135448255,"connected_time":2575000000000,"state":"active","ping":52},{"user_id":83,"name":"Tree","steam_id":76561198060657113,"connected_time":615000000000,"state":"active","ping":52},{"user_id":74,"name":"toothpaste vaper","steam_id":76561198078458780,"connected_time":1236000000000,"state":"active","ping":66},{"user_id":31,"name":"Pintarolas","steam_id":76561198124839451,"connected_time":2829000000000,"state":"active","ping":111},{"user_id":73,"name":"rummy","steam_id":76561197997573379,"connected_time":1405000000000,"state":"active","ping":64},{"user_id":33,"name":"Kavary","steam_id":76561198024792146,"connected_time":2813000000000,"state":"active","ping":84},{"user_id":89,"name":"1 METH COOKER","steam_id":76561198059635136,"connected_time":3000000000,"state":"spawning","ping":59},{"user_id":39,"name":"Salih","steam_id":76561198287934839,"connected_time":2717000000000,"state":"active","ping":51},{"user_id":61,"name":"Borat","steam_id":76561198122226417,"connected_time":1916000000000,"state":"active","ping":57}]},{"server_id":311,"name":"Uncletopia | Frankfurt | 6 | All Maps","name_short":"frk-6","host":"frk-1.de.uncletopia.com","port":27065,"enabled":true,"region":"eu","cc":"de","latitude":50.110924,"longitude":8.682127,"reserved":0,"last_update":"0001-01-01T00:00:00Z","name_a2s":"Uncletopia | Frankfurt | 6 | All Maps","protocol":17,"map":"pl_borneo","folder":"tf","game":"Team Fortress","app_id":440,"player_count":0,"max_players":24,"Bots":0,"server_type":"Dedicated","server_os":"Linux","password":true,"vac":true,"version":"7757534","steam_id":85568392924504278,"keywords":["nocrits","nodmgspread","payload","uncletopia"],"game_id":440,"stv_port":27066,"stv_name":"Uncletopia | Frankfurt | 6 | All Maps | STV","players":null},{"server_id":23,"name":"Uncletopia | Frankfurt | 7 | Stopwatch Beta","name_short":"frk-7","host":"frk-1.de.uncletopia.com","port":27075,"enabled":true,"region":"eu","cc":"de","latitude":50.110924,"longitude":8.682127,"reserved":0,"last_update":"0001-01-01T00:00:00Z","name_a2s":"Uncletopia | Frankfurt | 7 | Stopwatch Beta","protocol":17,"map":"pl_borneo","folder":"tf","game":"Team Fortress","app_id":440,"player_count":1,"max_players":24,"Bots":0,"server_type":"Dedicated","server_os":"Linux","password":true,"vac":true,"version":"7757534","steam_id":85568392924742827,"keywords":["nocrits","nodmgspread","payload","uncletopia"],"game_id":440,"stv_port":27076,"stv_name":"Uncletopia | Frankfurt | 7 | Stopwatch Beta | STV","players":[{"user_id":7,"name":"SW_Svit #savetf2","steam_id":76561199099715145,"connected_time":101000000000,"state":"active","ping":46}]},{"server_id":24,"name":"Uncletopia | Frankfurt | 8 | Community","name_short":"frk-8","host":"frk-1.de.uncletopia.com","port":27085,"enabled":true,"region":"eu","cc":"de","latitude":50.110924,"longitude":8.682127,"reserved":0,"last_update":"0001-01-01T00:00:00Z","name_a2s":"Uncletopia | Frankfurt | 8 | Community","protocol":17,"map":"koth_viaduct","folder":"tf","game":"Team Fortress","app_id":440,"player_count":0,"max_players":24,"Bots":0,"server_type":"Dedicated","server_os":"Linux","password":true,"vac":true,"version":"7757534","steam_id":85568392924742828,"keywords":["cp","nocrits","nodmgspread","uncletopia"],"game_id":440,"stv_port":27086,"stv_name":"Uncletopia | Frankfurt | 8 | Community | STV","players":null},{"server_id":202,"name":"Uncletopia | Hong Kong | 1 | All Maps","name_short":"hgk-1","host":"hgk-1.hk.uncletopia.com","port":27015,"enabled":true,"region":"asia","cc":"hk","latitude":22.302711,"longitude":114.177216,"reserved":0,"last_update":"0001-01-01T00:00:00Z","name_a2s":"Uncletopia | Hong Kong | 1 | All Maps","protocol":17,"map":"cp_process_final","folder":"tf","game":"Team Fortress","app_id":440,"player_count":0,"max_players":24,"Bots":0,"server_type":"Dedicated","server_os":"Linux","password":true,"vac":true,"version":"7757534","steam_id":85568392924494504,"keywords":["cp","nocrits","nodmgspread","uncletopia"],"game_id":440,"stv_port":27016,"stv_name":"Uncletopia | Hong Kong | 1 | All Maps | STV","players":null},{"server_id":1,"name":"Uncletopia | Los Angeles | 1 | All Maps","name_short":"lax-1","host":"lax-1.us.uncletopia.com","port":27015,"enabled":true,"region":"us-west","cc":"us","latitude":33.94279,"longitude":-118.41004,"reserved":0,"last_update":"0001-01-01T00:00:00Z","name_a2s":"Uncletopia | Los Angeles | 1 | All Maps","protocol":17,"map":"koth_lakeside_final","folder":"tf","game":"Team Fortress","app_id":440,"player_count":0,"max_players":24,"Bots":0,"server_type":"Dedicated","server_os":"Linux","password":true,"vac":true,"version":"7757534","steam_id":85568392924469991,"keywords":["cp","nocrits","nodmgspread","uncletopia"],"game_id":440,"stv_port":27016,"stv_name":"Uncletopia | Los Angeles | 1 | All Maps | STV","players":null},{"server_id":112,"name":"Uncletopia | Los Angeles | 2 | All Maps","name_short":"lax-2","host":"lax-1.us.uncletopia.com","port":27025,"enabled":true,"region":"us-west","cc":"us","latitude":33.94279,"longitude":-118.41004,"reserved":0,"last_update":"0001-01-01T00:00:00Z","name_a2s":"Uncletopia | Los Angeles | 2 | All Maps","protocol":17,"map":"koth_viaduct","folder":"tf","game":"Team Fortress","app_id":440,"player_count":0,"max_players":24,"Bots":0,"server_type":"Dedicated","server_os":"Linux","password":true,"vac":true,"version":"7757534","steam_id":85568392924469992,"keywords":["cp","nocrits","nodmgspread","uncletopia"],"game_id":440,"stv_port":27026,"stv_name":"Uncletopia | Los Angeles | 2 | All Maps | STV","players":null},{"server_id":324,"name":"Uncletopia | Los Angeles | 3 | All Maps","name_short":"lax-3","host":"lax-1.us.uncletopia.com","port":27035,"enabled":true,"region":"us-west","cc":"us","latitude":33.94279,"longitude":-118.41004,"reserved":0,"last_update":"0001-01-01T00:00:00Z","name_a2s":"Uncletopia | Los Angeles | 3 | All Maps","protocol":17,"map":"cp_altitude","folder":"tf","game":"Team Fortress","app_id":440,"player_count":0,"max_players":24,"Bots":0,"server_type":"Dedicated","server_os":"Linux","password":true,"vac":true,"version":"7757534","steam_id":85568392924510198,"keywords":["cp","nocrits","nodmgspread","uncletopia"],"game_id":440,"stv_port":27036,"stv_name":"Uncletopia | Los Angeles | 3 | All Maps | STV","players":null},{"server_id":25,"name":"Uncletopia | Los Angeles | 4 | Stopwatch Beta","name_short":"lax-4","host":"lax-1.us.uncletopia.com","port":27045,"enabled":true,"region":"us-west","cc":"us","latitude":33.94279,"longitude":-118.41004,"reserved":0,"last_update":"0001-01-01T00:00:00Z","name_a2s":"Uncletopia | Los Angeles | 4 | Stopwatch Beta","protocol":17,"map":"cp_dustbowl","folder":"tf","game":"Team Fortress","app_id":440,"player_count":0,"max_players":24,"Bots":0,"server_type":"Dedicated","server_os":"Linux","password":true,"vac":true,"version":"7757534","steam_id":85568392924510199,"keywords":["cp","nocrits","nodmgspread","uncletopia"],"game_id":440,"stv_port":27046,"stv_name":"Uncletopia | Los Angeles | 4 | Stopwatch Beta | STV","players":null},{"server_id":11,"name":"Uncletopia | London | 1 | All Maps","name_short":"lon-1","host":"lon-1.uk.uncletopia.com","port":27015,"enabled":true,"region":"eu","cc":"gb","latitude":51.509865,"longitude":-0.118092,"reserved":0,"last_update":"0001-01-01T00:00:00Z","name_a2s":"Uncletopia | London | 1 | All Maps","protocol":17,"map":"pl_borneo","folder":"tf","game":"Team Fortress","app_id":440,"player_count":24,"max_players":24,"Bots":0,"server_type":"Dedicated","server_os":"Linux","password":true,"vac":true,"version":"7757534","steam_id":85568392924367362,"keywords":["nocrits","nodmgspread","payload","uncletopia"],"game_id":440,"stv_port":27016,"stv_name":"Uncletopia | London | 1 | All Maps | STV","players":[{"user_id":339,"name":"wxyz kapıcı izzet","steam_id":76561198241873438,"connected_time":2108000000000,"state":"active","ping":87},{"user_id":326,"name":"walking sentry","steam_id":76561199225363633,"connected_time":3246000000000,"state":"active","ping":60},{"user_id":360,"name":"Shlongulator","steam_id":76561198149779201,"connected_time":65000000000,"state":"active","ping":52},{"user_id":343,"name":"Breadcrab","steam_id":76561198015924039,"connected_time":1467000000000,"state":"active","ping":56},{"user_id":341,"name":"Bat in a thousand","steam_id":76561198320506848,"connected_time":1963000000000,"state":"active","ping":36},{"user_id":357,"name":"danny.de","steam_id":76561198056930504,"connected_time":460000000000,"state":"active","ping":49},{"user_id":301,"name":"U1F","steam_id":76561198053700703,"connected_time":4603000000000,"state":"active","ping":60},{"user_id":294,"name":"Archer","steam_id":76561198132860299,"connected_time":5153000000000,"state":"active","ping":58},{"user_id":348,"name":"Lucoa Enjoyer","steam_id":76561198842622419,"connected_time":1377000000000,"state":"active","ping":99},{"user_id":350,"name":"?","steam_id":76561198267167505,"connected_time":1223000000000,"state":"active","ping":76},{"user_id":336,"name":"REDZED","steam_id":76561198419203843,"connected_time":2566000000000,"state":"active","ping":113},{"user_id":358,"name":"fume.","steam_id":76561197960476801,"connected_time":398000000000,"state":"active","ping":53},{"user_id":362,"name":"mei","steam_id":76561198028078806,"connected_time":30000000000,"state":"active","ping":47},{"user_id":300,"name":"Carrot","steam_id":76561198119340863,"connected_time":4640000000000,"state":"active","ping":41},{"user_id":347,"name":"Great recession of 2008","steam_id":76561198881151562,"connected_time":1400000000000,"state":"active","ping":89},{"user_id":349,"name":"morlo^","steam_id":76561198249301650,"connected_time":1371000000000,"state":"active","ping":46},{"user_id":351,"name":"glyph","steam_id":76561197980736364,"connected_time":1159000000000,"state":"active","ping":87},{"user_id":244,"name":"Femboy Microソフト","steam_id":76561198289540452,"connected_time":10244000000000,"state":"active","ping":44},{"user_id":312,"name":"twitch.tv/red_naxela","steam_id":76561197998803950,"connected_time":4028000000000,"state":"active","ping":68},{"user_id":333,"name":"jimmy bob","steam_id":76561198319583692,"connected_time":2969000000000,"state":"active","ping":59},{"user_id":342,"name":"ciliorkun18","steam_id":76561198228942500,"connected_time":1825000000000,"state":"active","ping":95},{"user_id":354,"name":"Zombi3","steam_id":76561198326290621,"connected_time":659000000000,"state":"active","ping":67},{"user_id":325,"name":"Egap","steam_id":76561199070653454,"connected_time":3256000000000,"state":"active","ping":94},{"user_id":338,"name":"Mr.Fosty","steam_id":76561198045212783,"connected_time":2158000000000,"state":"active","ping":91}]},{"server_id":114,"name":"Uncletopia | London | 2 | All Maps","name_short":"lon-2","host":"lon-1.uk.uncletopia.com","port":27025,"enabled":true,"region":"eu","cc":"gb","latitude":51.509865,"longitude":-0.118092,"reserved":0,"last_update":"0001-01-01T00:00:00Z","name_a2s":"Uncletopia | London | 2 | All Maps","protocol":17,"map":"pl_snowycoast","folder":"tf","game":"Team Fortress","app_id":440,"player_count":24,"max_players":24,"Bots":0,"server_type":"Dedicated","server_os":"Linux","password":true,"vac":true,"version":"7757534","steam_id":85568392924470941,"keywords":["nocrits","nodmgspread","payload","uncletopia"],"game_id":440,"stv_port":27026,"stv_name":"Uncletopia | London | 2 | All Maps | STV","players":[{"user_id":149,"name":"CuteButDeadInside(f2p)","steam_id":76561199170424238,"connected_time":459000000000,"state":"active","ping":51},{"user_id":140,"name":"Bobo","steam_id":76561198052308399,"connected_time":1457000000000,"state":"active","ping":66},{"user_id":159,"name":"Onceknown1","steam_id":76561198120580611,"connected_time":22000000000,"state":"active","ping":63},{"user_id":124,"name":"Tryrn","steam_id":76561198075487436,"connected_time":2334000000000,"state":"active","ping":95},{"user_id":151,"name":"Weenie Hut Jr's","steam_id":76561198050515739,"connected_time":414000000000,"state":"active","ping":45},{"user_id":105,"name":"Zerfesh","steam_id":76561198117534358,"connected_time":4528000000000,"state":"active","ping":90},{"user_id":160,"name":"demolition2n3","steam_id":76561198356060442,"connected_time":20000000000,"state":"active","ping":76},{"user_id":73,"name":"Caesium_R4","steam_id":76561198432410602,"connected_time":6188000000000,"state":"active","ping":43},{"user_id":20,"name":"AleXandriX","steam_id":76561198035203950,"connected_time":9643000000000,"state":"active","ping":64},{"user_id":122,"name":"Hugz","steam_id":76561198069572147,"connected_time":2522000000000,"state":"active","ping":48},{"user_id":152,"name":"Sacrishee","steam_id":76561198169853697,"connected_time":389000000000,"state":"active","ping":66},{"user_id":145,"name":"Pingutaro","steam_id":76561198112803718,"connected_time":596000000000,"state":"active","ping":50},{"user_id":158,"name":"quickfast","steam_id":76561199438900919,"connected_time":59000000000,"state":"active","ping":43},{"user_id":98,"name":"Dad \u003c3","steam_id":76561199354969705,"connected_time":4871000000000,"state":"active","ping":47},{"user_id":102,"name":"Luuk","steam_id":76561198088266026,"connected_time":4788000000000,"state":"active","ping":42},{"user_id":153,"name":"L.A. Palm Tree","steam_id":76561199289526521,"connected_time":380000000000,"state":"active","ping":100},{"user_id":155,"name":"Ablativus","steam_id":76561198025698470,"connected_time":249000000000,"state":"active","ping":75},{"user_id":143,"name":"Meddler","steam_id":76561198033001402,"connected_time":1071000000000,"state":"active","ping":42},{"user_id":137,"name":"After8","steam_id":76561198090750865,"connected_time":1595000000000,"state":"active","ping":74},{"user_id":116,"name":"C0d3s","steam_id":76561198093907544,"connected_time":3048000000000,"state":"active","ping":103},{"user_id":104,"name":"Boki","steam_id":76561198044553351,"connected_time":4698000000000,"state":"active","ping":60},{"user_id":154,"name":"OffMilky","steam_id":76561198831440921,"connected_time":358000000000,"state":"active","ping":29},{"user_id":156,"name":"Smilez","steam_id":76561197999353870,"connected_time":209000000000,"state":"active","ping":42},{"user_id":133,"name":"Rubi","steam_id":76561198139410003,"connected_time":2159000000000,"state":"active","ping":95}]},{"server_id":320,"name":"Uncletopia | London | 3 | All Maps","name_short":"lon-3","host":"lon-1.uk.uncletopia.com","port":27035,"enabled":true,"region":"eu","cc":"gb","latitude":51.509865,"longitude":-0.118092,"reserved":0,"last_update":"0001-01-01T00:00:00Z","name_a2s":"Uncletopia | London | 3 | All Maps","protocol":17,"map":"koth_cascade","folder":"tf","game":"Team Fortress","app_id":440,"player_count":1,"max_players":24,"Bots":0,"server_type":"Dedicated","server_os":"Linux","password":true,"vac":true,"version":"7757534","steam_id":85568392924510192,"keywords":["cp","nocrits","nodmgspread","uncletopia"],"game_id":440,"stv_port":27036,"stv_name":"Uncletopia | London | 3 | All Maps | STV","players":[{"user_id":16,"name":"JOHN GAMING (based)","steam_id":76561199085822219,"connected_time":155000000000,"state":"active","ping":75}]},{"server_id":321,"name":"Uncletopia | London | 4 | All Maps","name_short":"lon-4","host":"lon-1.uk.uncletopia.com","port":27045,"enabled":true,"region":"eu","cc":"gb","latitude":51.509865,"longitude":-0.118092,"reserved":0,"last_update":"0001-01-01T00:00:00Z","name_a2s":"Uncletopia | London | 4 | All Maps","protocol":17,"map":"cp_process_final","folder":"tf","game":"Team Fortress","app_id":440,"player_count":24,"max_players":24,"Bots":0,"server_type":"Dedicated","server_os":"Linux","password":true,"vac":true,"version":"7757534","steam_id":85568392924510193,"keywords":["cp","nocrits","nodmgspread","uncletopia"],"game_id":440,"stv_port":27046,"stv_name":"Uncletopia | London | 4 | All Maps | STV","players":[{"user_id":21,"name":"bixigu","steam_id":76561198007425793,"connected_time":1279000000000,"state":"active","ping":94},{"user_id":40,"name":"simon","steam_id":76561198880361394,"connected_time":762000000000,"state":"active","ping":59},{"user_id":45,"name":"Abunchoftrash","steam_id":76561198984368148,"connected_time":376000000000,"state":"active","ping":41},{"user_id":22,"name":"fried","steam_id":76561198307522022,"connected_time":1197000000000,"state":"active","ping":53},{"user_id":46,"name":"Strange Diplomat","steam_id":76561198428191920,"connected_time":354000000000,"state":"active","ping":121},{"user_id":47,"name":"TheJudgeShot","steam_id":76561198105060723,"connected_time":350000000000,"state":"active","ping":57},{"user_id":53,"name":"Xoukz","steam_id":76561198356014540,"connected_time":214000000000,"state":"active","ping":107},{"user_id":23,"name":"harrison","steam_id":76561198990132243,"connected_time":1179000000000,"state":"active","ping":62},{"user_id":25,"name":"Amoru","steam_id":76561198798161817,"connected_time":1115000000000,"state":"active","ping":87},{"user_id":48,"name":"Maccel F","steam_id":76561198055283295,"connected_time":321000000000,"state":"active","ping":51},{"user_id":49,"name":"Mimo","steam_id":76561197974221343,"connected_time":298000000000,"state":"active","ping":89},{"user_id":50,"name":"Fat Pigeon","steam_id":76561198817940142,"connected_time":280000000000,"state":"active","ping":47},{"user_id":33,"name":"Cypher","steam_id":76561197996967254,"connected_time":922000000000,"state":"active","ping":60},{"user_id":30,"name":"Dangerousbros","steam_id":76561198088952519,"connected_time":999000000000,"state":"active","ping":36},{"user_id":31,"name":"I like fire.","steam_id":76561198045708372,"connected_time":972000000000,"state":"active","ping":65},{"user_id":51,"name":"Dave The Sloth","steam_id":76561199135831355,"connected_time":272000000000,"state":"active","ping":68},{"user_id":34,"name":"Jack","steam_id":76561198079575891,"connected_time":898000000000,"state":"active","ping":49},{"user_id":36,"name":"yung fujo","steam_id":76561198116908911,"connected_time":865000000000,"state":"active","ping":107},{"user_id":37,"name":"Haggabah,WhoPliesTheUmbralPath","steam_id":76561198846984399,"connected_time":856000000000,"state":"active","ping":90},{"user_id":52,"name":"Captain Mimo","steam_id":76561198056783619,"connected_time":261000000000,"state":"active","ping":45},{"user_id":39,"name":"spring bonnie","steam_id":76561198988350454,"connected_time":828000000000,"state":"active","ping":63},{"user_id":55,"name":"Jon Snuh","steam_id":76561198075298635,"connected_time":191000000000,"state":"active","ping":124},{"user_id":58,"name":"anastasia","steam_id":76561197994492154,"connected_time":106000000000,"state":"active","ping":75},{"user_id":43,"name":"Medvenator","steam_id":76561198014759767,"connected_time":711000000000,"state":"active","ping":70}]},{"server_id":21,"name":"Uncletopia | London | 5 | All Maps","name_short":"lon-5","host":"lon-1.uk.uncletopia.com","port":27055,"enabled":true,"region":"eu","cc":"gb","latitude":51.509865,"longitude":-0.118092,"reserved":0,"last_update":"0001-01-01T00:00:00Z","name_a2s":"Uncletopia | London | 5 | All Maps","protocol":17,"map":"pl_pier","folder":"tf","game":"Team Fortress","app_id":440,"player_count":0,"max_players":24,"Bots":0,"server_type":"Dedicated","server_os":"Linux","password":true,"vac":true,"version":"7757534","steam_id":85568392924742829,"keywords":["nocrits","nodmgspread","payload","uncletopia"],"game_id":440,"stv_port":27056,"stv_name":"Uncletopia | London | 5 | All Maps | STV","players":null},{"server_id":22,"name":"Uncletopia | London | 6 | All Maps","name_short":"lon-6","host":"lon-1.uk.uncletopia.com","port":27065,"enabled":true,"region":"eu","cc":"gb","latitude":51.509865,"longitude":-0.118092,"reserved":0,"last_update":"0001-01-01T00:00:00Z","name_a2s":"Uncletopia | London | 6 | All Maps","protocol":17,"map":"koth_highpass","folder":"tf","game":"Team Fortress","app_id":440,"player_count":0,"max_players":24,"Bots":0,"server_type":"Dedicated","server_os":"Linux","password":true,"vac":true,"version":"7757534","steam_id":85568392924742830,"keywords":["cp","nocrits","nodmgspread","uncletopia"],"game_id":440,"stv_port":27066,"stv_name":"Uncletopia | London | 6 | All Maps | STV","players":null},{"server_id":40,"name":"Uncletopia | London | 7 | No Payload","name_short":"lon-7","host":"lon-1.uk.uncletopia.com","port":27075,"enabled":true,"region":"eu","cc":"gb","latitude":51.509865,"longitude":-0.118092,"reserved":0,"last_update":"0001-01-01T00:00:00Z","name_a2s":"Uncletopia | London | 7 | No Payload","protocol":17,"map":"koth_highpass","folder":"tf","game":"Team Fortress","app_id":440,"player_count":0,"max_players":24,"Bots":0,"server_type":"Dedicated","server_os":"Linux","password":true,"vac":true,"version":"7757534","steam_id":85568392924964314,"keywords":["cp","nocrits","nodmgspread","uncletopia"],"game_id":440,"stv_port":27076,"stv_name":"Uncletopia | London | 7 | No Payload | STV","players":null},{"server_id":41,"name":"Uncletopia | London | 8 | Community","name_short":"lon-8","host":"lon-1.uk.uncletopia.com","port":27085,"enabled":true,"region":"eu","cc":"gb","latitude":51.509865,"longitude":-0.118092,"reserved":0,"last_update":"0001-01-01T00:00:00Z","name_a2s":"Uncletopia | London | 8 | Community","protocol":17,"map":"cp_altitude","folder":"tf","game":"Team Fortress","app_id":440,"player_count":0,"max_players":24,"Bots":0,"server_type":"Dedicated","server_os":"Linux","password":true,"vac":true,"version":"7757534","steam_id":85568392924964315,"keywords":["cp","nocrits","nodmgspread","uncletopia"],"game_id":440,"stv_port":27086,"stv_name":"Uncletopia | London | 8 | Community | STV","players":null},{"server_id":300,"name":"Uncletopia | Montréal | 1 | All Maps","name_short":"mtl-1","host":"mtl-1.ca.uncletopia.com","port":27015,"enabled":true,"region":"us-east","cc":"ca","latitude":45.50889,"longitude":-73.56167,"reserved":0,"last_update":"0001-01-01T00:00:00Z","name_a2s":"Uncletopia | Montréal | 1 | All Maps","protocol":17,"map":"pl_pier","folder":"tf","game":"Team Fortress","app_id":440,"player_count":0,"max_players":24,"Bots":0,"server_type":"Dedicated","server_os":"Linux","password":true,"vac":true,"version":"7757534","steam_id":85568392924500087,"keywords":["nocrits","nodmgspread","payload","uncletopia"],"game_id":440,"stv_port":27016,"stv_name":"Uncletopia | Montréal | 1 | All Maps | STV","players":null},{"server_id":301,"name":"Uncletopia | Montréal | 2 | All Maps","name_short":"mtl-2","host":"mtl-1.ca.uncletopia.com","port":27025,"enabled":true,"region":"us-east","cc":"ca","latitude":45.50889,"longitude":-73.56167,"reserved":0,"last_update":"0001-01-01T00:00:00Z","name_a2s":"Uncletopia | Montréal | 2 | All Maps","protocol":17,"map":"cp_sunshine","folder":"tf","game":"Team Fortress","app_id":440,"player_count":0,"max_players":24,"Bots":0,"server_type":"Dedicated","server_os":"Linux","password":true,"vac":true,"version":"7757534","steam_id":85568392924500088,"keywords":["cp","nocrits","nodmgspread","uncletopia"],"game_id":440,"stv_port":27026,"stv_name":"Uncletopia | Montréal | 2 | All Maps | STV","players":null},{"server_id":302,"name":"Uncletopia | Montréal | 3 | All Maps","name_short":"mtl-3","host":"mtl-1.ca.uncletopia.com","port":27035,"enabled":true,"region":"us-east","cc":"ca","latitude":45.50889,"longitude":-73.56167,"reserved":0,"last_update":"0001-01-01T00:00:00Z","name_a2s":"Uncletopia | Montréal | 3 | All Maps","protocol":17,"map":"pl_frontier_final","folder":"tf","game":"Team Fortress","app_id":440,"player_count":0,"max_players":24,"Bots":0,"server_type":"Dedicated","server_os":"Linux","password":true,"vac":true,"version":"7757534","steam_id":85568392924500089,"keywords":["nocrits","nodmgspread","payload","uncletopia"],"game_id":440,"stv_port":27036,"stv_name":"Uncletopia | Montréal | 3 | All Maps | STV","players":null},{"server_id":303,"name":"Uncletopia | Montréal | 4 | No Payload","name_short":"mtl-4","host":"mtl-1.ca.uncletopia.com","port":27045,"enabled":true,"region":"us-east","cc":"ca","latitude":45.50889,"longitude":-73.56167,"reserved":0,"last_update":"0001-01-01T00:00:00Z","name_a2s":"Uncletopia | Montréal | 4 | No Payload","protocol":17,"map":"pl_pier","folder":"tf","game":"Team Fortress","app_id":440,"player_count":0,"max_players":24,"Bots":0,"server_type":"Dedicated","server_os":"Linux","password":true,"vac":true,"version":"7757534","steam_id":85568392924500090,"keywords":["nocrits","nodmgspread","payload","uncletopia"],"game_id":440,"stv_port":27046,"stv_name":"Uncletopia | Montréal | 4 | No Payload | STV","players":null},{"server_id":13,"name":"Uncletopia | New York City | 1 | All Maps","name_short":"nyc-1","host":"nyc-1.us.uncletopia.com","port":27015,"enabled":true,"region":"us-east","cc":"us","latitude":40.73061,"longitude":-73.93524,"reserved":0,"last_update":"0001-01-01T00:00:00Z","name_a2s":"Uncletopia | New York City | 1 | All Maps","protocol":17,"map":"pl_swiftwater_final1","folder":"tf","game":"Team Fortress","app_id":440,"player_count":7,"max_players":24,"Bots":0,"server_type":"Dedicated","server_os":"Linux","password":true,"vac":true,"version":"7757534","steam_id":85568392924469993,"keywords":["nocrits","nodmgspread","payload","uncletopia"],"game_id":440,"stv_port":27016,"stv_name":"Uncletopia | New York City | 1 | All Maps | STV","players":[{"user_id":4,"name":"Cat_Soldier","steam_id":76561198799974610,"connected_time":1548000000000,"state":"active","ping":60},{"user_id":5,"name":"-⁧⁧ Rin リン","steam_id":76561198155841915,"connected_time":1544000000000,"state":"active","ping":122},{"user_id":11,"name":"Dr. Philurmom","steam_id":76561199389132651,"connected_time":235000000000,"state":"active","ping":52},{"user_id":7,"name":"A Puppy","steam_id":76561198828184456,"connected_time":778000000000,"state":"active","ping":43},{"user_id":8,"name":"Magnum_doom","steam_id":76561199119161534,"connected_time":717000000000,"state":"active","ping":65},{"user_id":10,"name":"Jesse Pinkman","steam_id":76561198853607142,"connected_time":624000000000,"state":"active","ping":45},{"user_id":13,"name":"frogburger","steam_id":76561198092004980,"connected_time":52000000000,"state":"active","ping":141}]},{"server_id":14,"name":"Uncletopia | New York City | 2 | All Maps","name_short":"nyc-2","host":"nyc-1.us.uncletopia.com","port":27025,"enabled":true,"region":"us-east","cc":"us","latitude":40.73061,"longitude":-73.93524,"reserved":0,"last_update":"0001-01-01T00:00:00Z","name_a2s":"Uncletopia | New York City | 2 | All Maps","protocol":17,"map":"koth_viaduct","folder":"tf","game":"Team Fortress","app_id":440,"player_count":0,"max_players":24,"Bots":0,"server_type":"Dedicated","server_os":"Linux","password":true,"vac":true,"version":"7757534","steam_id":85568392924469994,"keywords":["cp","nocrits","nodmgspread","uncletopia"],"game_id":440,"stv_port":27026,"stv_name":"Uncletopia | New York City | 2 | All Maps | STV","players":null},{"server_id":15,"name":"Uncletopia | New York City | 3 | Stopwatch Beta","name_short":"nyc-3","host":"nyc-1.us.uncletopia.com","port":27035,"enabled":true,"region":"us-east","cc":"us","latitude":40.73061,"longitude":-73.93524,"reserved":0,"last_update":"0001-01-01T00:00:00Z","name_a2s":"Uncletopia | New York City | 3 | Stopwatch Beta","protocol":17,"map":"koth_cascade","folder":"tf","game":"Team Fortress","app_id":440,"player_count":0,"max_players":24,"Bots":0,"server_type":"Dedicated","server_os":"Linux","password":true,"vac":true,"version":"7757534","steam_id":85568392924742820,"keywords":["cp","nocrits","nodmgspread","uncletopia"],"game_id":440,"stv_port":27036,"stv_name":"Uncletopia | New York City | 3 | Stopwatch Beta | STV","players":null},{"server_id":16,"name":"Uncletopia | New York City | 4 | Community","name_short":"nyc-4","host":"nyc-1.us.uncletopia.com","port":27045,"enabled":true,"region":"us-east","cc":"us","latitude":40.73061,"longitude":-73.93524,"reserved":0,"last_update":"0001-01-01T00:00:00Z","name_a2s":"Uncletopia | New York City | 4 | Community","protocol":17,"map":"pl_frontier_final","folder":"tf","game":"Team Fortress","app_id":440,"player_count":0,"max_players":24,"Bots":0,"server_type":"Dedicated","server_os":"Linux","password":true,"vac":true,"version":"7757534","steam_id":85568392924742821,"keywords":["nocrits","nodmgspread","payload","uncletopia"],"game_id":440,"stv_port":27046,"stv_name":"Uncletopia | New York City | 4 | Community | STV","players":null},{"server_id":142,"name":"Uncletopia | São Paulo | 1 | All Maps","name_short":"sao-1","host":"sao-1.br.uncletopia.com","port":27015,"enabled":true,"region":"sa","cc":"br","latitude":-23.533773,"longitude":-46.62529,"reserved":0,"last_update":"0001-01-01T00:00:00Z","name_a2s":"Uncletopia | São Paulo | 1 | All Maps","protocol":17,"map":"pl_badwater","folder":"tf","game":"Team Fortress","app_id":440,"player_count":0,"max_players":24,"Bots":0,"server_type":"Dedicated","server_os":"Linux","password":true,"vac":true,"version":"7757534","steam_id":85568392924469996,"keywords":["nocrits","nodmgspread","payload","uncletopia"],"game_id":440,"stv_port":27016,"stv_name":"Uncletopia | São Paulo | 1 | All Maps | STV","players":null},{"server_id":143,"name":"Uncletopia | São Paulo | 2 | All Maps","name_short":"sao-2","host":"sao-2.br.uncletopia.com","port":27015,"enabled":true,"region":"sa","cc":"br","latitude":-23.533773,"longitude":-46.62529,"reserved":0,"last_update":"0001-01-01T00:00:00Z","name_a2s":"Uncletopia | São Paulo | 2 | All Maps","protocol":17,"map":"koth_viaduct","folder":"tf","game":"Team Fortress","app_id":440,"player_count":0,"max_players":24,"Bots":0,"server_type":"Dedicated","server_os":"Linux","password":true,"vac":true,"version":"7757534","steam_id":85568392924485349,"keywords":["cp","nocrits","nodmgspread","uncletopia"],"game_id":440,"stv_port":27016,"stv_name":"Uncletopia | São Paulo | 2 | All Maps | STV","players":null},{"server_id":7,"name":"Uncletopia | Seattle | 1 | All Maps","name_short":"sea-1","host":"sea-1.us.uncletopia.com","port":27015,"enabled":true,"region":"us-west","cc":"us","latitude":47.608013,"longitude":-122.33517,"reserved":0,"last_update":"0001-01-01T00:00:00Z","name_a2s":"Uncletopia | Seattle | 1 | All Maps","protocol":17,"map":"pl_badwater","folder":"tf","game":"Team Fortress","app_id":440,"player_count":24,"max_players":24,"Bots":0,"server_type":"Dedicated","server_os":"Linux","password":true,"vac":true,"version":"7757534","steam_id":85568392924469997,"keywords":["nocrits","nodmgspread","payload","uncletopia"],"game_id":440,"stv_port":27016,"stv_name":"Uncletopia | Seattle | 1 | All Maps | STV","players":[{"user_id":194,"name":"FedSmoker","steam_id":76561198255854081,"connected_time":963000000000,"state":"active","ping":61},{"user_id":201,"name":"crumblejon","steam_id":76561198111273302,"connected_time":365000000000,"state":"active","ping":63},{"user_id":204,"name":"Turnups","steam_id":76561199078299198,"connected_time":253000000000,"state":"active","ping":131},{"user_id":118,"name":"Dip-Shit Dave","steam_id":76561198357468325,"connected_time":6229000000000,"state":"active","ping":129},{"user_id":200,"name":"FloofyDranks","steam_id":76561198286944082,"connected_time":387000000000,"state":"active","ping":105},{"user_id":196,"name":"Slippery","steam_id":76561199469441947,"connected_time":792000000000,"state":"active","ping":107},{"user_id":134,"name":"SomeRandomB3nny","steam_id":76561198203021280,"connected_time":4849000000000,"state":"active","ping":78},{"user_id":205,"name":"Buswolley","steam_id":76561197995205571,"connected_time":206000000000,"state":"active","ping":69},{"user_id":206,"name":"Pootis_Spencer (Here)","steam_id":76561199175742075,"connected_time":182000000000,"state":"active","ping":99},{"user_id":178,"name":"Risky","steam_id":76561198231029328,"connected_time":2247000000000,"state":"active","ping":59},{"user_id":188,"name":"Dottie [She/They]","steam_id":76561198282046179,"connected_time":1556000000000,"state":"active","ping":111},{"user_id":102,"name":"Little Linguine","steam_id":76561198816986370,"connected_time":7125000000000,"state":"active","ping":56},{"user_id":184,"name":"Kit Carson","steam_id":76561198115691546,"connected_time":1795000000000,"state":"active","ping":82},{"user_id":185,"name":"clem from fallout 4","steam_id":76561198155911360,"connected_time":1715000000000,"state":"active","ping":121},{"user_id":115,"name":"worker","steam_id":76561198039608940,"connected_time":6370000000000,"state":"active","ping":61},{"user_id":193,"name":"resting neutral face","steam_id":76561197999259502,"connected_time":1031000000000,"state":"active","ping":60},{"user_id":198,"name":"u know i keep","steam_id":76561198094615739,"connected_time":541000000000,"state":"active","ping":87},{"user_id":180,"name":"λ","steam_id":76561198120426683,"connected_time":2197000000000,"state":"active","ping":82},{"user_id":181,"name":"LProduct","steam_id":76561199442139670,"connected_time":2139000000000,"state":"active","ping":73},{"user_id":48,"name":"Tyler\u0026Fingers","steam_id":76561198085154485,"connected_time":10543000000000,"state":"active","ping":143},{"user_id":175,"name":"Vorg","steam_id":76561198271959087,"connected_time":2547000000000,"state":"active","ping":125},{"user_id":120,"name":"128gb sd card","steam_id":76561198043636749,"connected_time":6095000000000,"state":"active","ping":75},{"user_id":173,"name":"Patio","steam_id":76561197986082608,"connected_time":2697000000000,"state":"active","ping":49},{"user_id":183,"name":"ExplosiveGamer21","steam_id":76561198132370955,"connected_time":1982000000000,"state":"active","ping":113}]},{"server_id":119,"name":"Uncletopia | Seattle | 2 | All Maps","name_short":"sea-2","host":"sea-1.us.uncletopia.com","port":27025,"enabled":true,"region":"us-west","cc":"us","latitude":47.608013,"longitude":-122.33517,"reserved":0,"last_update":"0001-01-01T00:00:00Z","name_a2s":"Uncletopia | Seattle | 2 | All Maps","protocol":17,"map":"pl_barnblitz","folder":"tf","game":"Team Fortress","app_id":440,"player_count":3,"max_players":24,"Bots":0,"server_type":"Dedicated","server_os":"Linux","password":true,"vac":true,"version":"7757534","steam_id":85568392924469998,"keywords":["nocrits","nodmgspread","payload","uncletopia"],"game_id":440,"stv_port":27026,"stv_name":"Uncletopia | Seattle | 2 | All Maps | STV","players":[{"user_id":6,"name":"Laney","steam_id":76561199048555878,"connected_time":589000000000,"state":"active","ping":49},{"user_id":8,"name":"tfangy","steam_id":76561199470646981,"connected_time":114000000000,"state":"active","ping":106},{"user_id":9,"name":"Donkitus","steam_id":76561198101336551,"connected_time":24000000000,"state":"spawning","ping":29}]},{"server_id":406,"name":"Uncletopia | Seattle | 3 | Stopwatch Beta","name_short":"sea-3","host":"sea-1.us.uncletopia.com","port":27035,"enabled":true,"region":"us-west","cc":"us","latitude":47.608013,"longitude":-122.33517,"reserved":0,"last_update":"0001-01-01T00:00:00Z","name_a2s":"Uncletopia | Seattle | 3 | Stopwatch Beta","protocol":17,"map":"cp_process_final","folder":"tf","game":"Team Fortress","app_id":440,"player_count":0,"max_players":24,"Bots":0,"server_type":"Dedicated","server_os":"Linux","password":true,"vac":true,"version":"7757534","steam_id":85568392924515217,"keywords":["cp","nocrits","nodmgspread","uncletopia"],"game_id":440,"stv_port":27036,"stv_name":"Uncletopia | Seattle | 3 | Stopwatch Beta | STV","players":null},{"server_id":17,"name":"Uncletopia | San Francisco | 1 | All Maps","name_short":"sfo-1","host":"sfo-1.us.uncletopia.com","port":27015,"enabled":true,"region":"us-west","cc":"us","latitude":37.77397,"longitude":-122.4313,"reserved":0,"last_update":"0001-01-01T00:00:00Z","name_a2s":"Uncletopia | San Francisco | 1 | All Maps","protocol":17,"map":"pl_badwater","folder":"tf","game":"Team Fortress","app_id":440,"player_count":0,"max_players":24,"Bots":0,"server_type":"Dedicated","server_os":"Linux","password":true,"vac":true,"version":"7757534","steam_id":85568392924469999,"keywords":["nocrits","nodmgspread","payload","uncletopia"],"game_id":440,"stv_port":27016,"stv_name":"Uncletopia | San Francisco | 1 | All Maps | STV","players":null},{"server_id":18,"name":"Uncletopia | San Francisco | 2 | All Maps","name_short":"sfo-2","host":"sfo-1.us.uncletopia.com","port":27025,"enabled":true,"region":"us-west","cc":"us","latitude":37.77397,"longitude":-122.4313,"reserved":0,"last_update":"0001-01-01T00:00:00Z","name_a2s":"Uncletopia | San Francisco | 2 | All Maps","protocol":17,"map":"koth_viaduct","folder":"tf","game":"Team Fortress","app_id":440,"player_count":0,"max_players":24,"Bots":0,"server_type":"Dedicated","server_os":"Linux","password":true,"vac":true,"version":"7757534","steam_id":85568392924470000,"keywords":["cp","nocrits","nodmgspread","uncletopia"],"game_id":440,"stv_port":27026,"stv_name":"Uncletopia | San Francisco | 2 | All Maps | STV","players":null},{"server_id":19,"name":"Uncletopia | San Francisco | 3 | Stopwatch Beta","name_short":"sfo-3","host":"sfo-1.us.uncletopia.com","port":27035,"enabled":true,"region":"us-west","cc":"us","latitude":37.77397,"longitude":-122.4313,"reserved":0,"last_update":"0001-01-01T00:00:00Z","name_a2s":"Uncletopia | San Francisco | 3 | Stopwatch Beta","protocol":17,"map":"cp_snakewater_final1","folder":"tf","game":"Team Fortress","app_id":440,"player_count":0,"max_players":24,"Bots":0,"server_type":"Dedicated","server_os":"Linux","password":true,"vac":true,"version":"7757534","steam_id":85568392924742824,"keywords":["cp","nocrits","nodmgspread","uncletopia"],"game_id":440,"stv_port":27036,"stv_name":"Uncletopia | San Francisco | 3 | Stopwatch Beta | STV","players":null},{"server_id":20,"name":"Uncletopia | San Francisco | 4 | Community","name_short":"sfo-4","host":"sfo-1.us.uncletopia.com","port":27045,"enabled":true,"region":"us-west","cc":"us","latitude":37.77397,"longitude":-122.4313,"reserved":0,"last_update":"0001-01-01T00:00:00Z","name_a2s":"Uncletopia | San Francisco | 4 | Community","protocol":17,"map":"pl_frontier_final","folder":"tf","game":"Team Fortress","app_id":440,"player_count":0,"max_players":24,"Bots":0,"server_type":"Dedicated","server_os":"Linux","password":true,"vac":true,"version":"7757534","steam_id":85568392924742826,"keywords":["nocrits","nodmgspread","payload","uncletopia"],"game_id":440,"stv_port":27046,"stv_name":"Uncletopia | San Francisco | 4 | Community | STV","players":null},{"server_id":141,"name":"Uncletopia | Sydney | 1 | All Maps","name_short":"syd-1","host":"syd-1.au.uncletopia.com","port":27015,"enabled":true,"region":"au","cc":"au","latitude":-33.865143,"longitude":151.2099,"reserved":0,"last_update":"0001-01-01T00:00:00Z","name_a2s":"Uncletopia | Sydney | 1 | All Maps","protocol":17,"map":"cp_dustbowl","folder":"tf","game":"Team Fortress","app_id":440,"player_count":0,"max_players":24,"Bots":0,"server_type":"Dedicated","server_os":"Linux","password":true,"vac":true,"version":"7757534","steam_id":85568392924470001,"keywords":["cp","nocrits","nodmgspread","uncletopia"],"game_id":440,"stv_port":27016,"stv_name":"Uncletopia | Sydney | 1 | All Maps | STV","players":null},{"server_id":123,"name":"Uncletopia | Sydney | 2 | All Maps","name_short":"syd-2","host":"syd-1.au.uncletopia.com","port":27025,"enabled":true,"region":"au","cc":"au","latitude":-33.865143,"longitude":151.2099,"reserved":0,"last_update":"0001-01-01T00:00:00Z","name_a2s":"Uncletopia | Sydney | 2 | All Maps","protocol":17,"map":"koth_highpass","folder":"tf","game":"Team Fortress","app_id":440,"player_count":0,"max_players":24,"Bots":0,"server_type":"Dedicated","server_os":"Linux","password":true,"vac":true,"version":"7757534","steam_id":85568392924470002,"keywords":["cp","nocrits","nodmgspread","uncletopia"],"game_id":440,"stv_port":27026,"stv_name":"Uncletopia | Sydney | 2 | All Maps | STV","players":null},{"server_id":395,"name":"Uncletopia | Sydney | 3 | All Maps","name_short":"syd-3","host":"syd-1.au.uncletopia.com","port":27035,"enabled":true,"region":"au","cc":"au","latitude":-33.865143,"longitude":151.2099,"reserved":0,"last_update":"0001-01-01T00:00:00Z","name_a2s":"Uncletopia | Sydney | 3 | All Maps","protocol":17,"map":"cp_sunshine","folder":"tf","game":"Team Fortress","app_id":440,"player_count":0,"max_players":24,"Bots":0,"server_type":"Dedicated","server_os":"Linux","password":true,"vac":true,"version":"7757534","steam_id":85568392925194467,"keywords":["cp","nocrits","nodmgspread","uncletopia"],"game_id":440,"stv_port":27036,"stv_name":"Uncletopia | Sydney | 3 | All Maps | STV","players":null},{"server_id":396,"name":"Uncletopia | Sydney | 4 | All Maps","name_short":"syd-4","host":"syd-1.au.uncletopia.com","port":27045,"enabled":true,"region":"au","cc":"au","latitude":-33.865143,"longitude":151.2099,"reserved":0,"last_update":"0001-01-01T00:00:00Z","name_a2s":"Uncletopia | Sydney | 4 | All Maps","protocol":17,"map":"koth_viaduct","folder":"tf","game":"Team Fortress","app_id":440,"player_count":0,"max_players":24,"Bots":0,"server_type":"Dedicated","server_os":"Linux","password":true,"vac":true,"version":"7757534","steam_id":85568392925397958,"keywords":["cp","nocrits","nodmgspread","uncletopia"],"game_id":440,"stv_port":27046,"stv_name":"Uncletopia | Sydney | 4 | All Maps | STV","players":null},{"server_id":58,"name":"Uncletopia | Sydney | 5 | Stopwatch Beta","name_short":"syd-5","host":"syd-1.au.uncletopia.com","port":27055,"enabled":true,"region":"au","cc":"au","latitude":-33.865143,"longitude":151.2099,"reserved":0,"last_update":"0001-01-01T00:00:00Z","name_a2s":"Uncletopia | Sydney | 5 | Stopwatch Beta","protocol":17,"map":"koth_cascade","folder":"tf","game":"Team Fortress","app_id":440,"player_count":0,"max_players":24,"Bots":0,"server_type":"Dedicated","server_os":"Linux","password":true,"vac":true,"version":"7757534","steam_id":85568392925397959,"keywords":["cp","nocrits","nodmgspread","uncletopia"],"game_id":440,"stv_port":27056,"stv_name":"Uncletopia | Sydney | 5 | Stopwatch Beta | STV","players":null},{"server_id":59,"name":"Uncletopia | Sydney | 6 | Community","name_short":"syd-6","host":"syd-1.au.uncletopia.com","port":27065,"enabled":true,"region":"au","cc":"au","latitude":-33.865143,"longitude":151.2099,"reserved":0,"last_update":"0001-01-01T00:00:00Z","name_a2s":"Uncletopia | Sydney | 6 | Community","protocol":17,"map":"workshop/koth_product_final.ugc454272353","folder":"tf","game":"Team Fortress","app_id":440,"player_count":0,"max_players":24,"Bots":0,"server_type":"Dedicated","server_os":"Linux","password":true,"vac":true,"version":"7757534","steam_id":85568392925397960,"keywords":["cp","nocrits","nodmgspread","uncletopia"],"game_id":440,"stv_port":27066,"stv_name":"Uncletopia | Sydney | 6 | Community | STV","players":null},{"server_id":49,"name":"Uncletopia | Warsaw | 1 | All Maps","name_short":"waw-1","host":"waw-1.pl.uncletopia.com","port":27015,"enabled":true,"region":"eu","cc":"pl","latitude":52.2297,"longitude":21.017532,"reserved":0,"last_update":"0001-01-01T00:00:00Z","name_a2s":"","protocol":0,"map":"","folder":"","game":"","app_id":0,"player_count":0,"max_players":0,"Bots":0,"server_type":"","server_os":"","password":false,"vac":false,"version":"","steam_id":0,"keywords":null,"game_id":0,"stv_port":0,"stv_name":"","players":null},{"server_id":50,"name":"Uncletopia | Warsaw | 2 | All Maps","name_short":"waw-2","host":"waw-1.pl.uncletopia.com","port":27025,"enabled":true,"region":"eu","cc":"pl","latitude":52.2297,"longitude":21.017532,"reserved":0,"last_update":"0001-01-01T00:00:00Z","name_a2s":"Uncletopia | Warsaw | 2 | All Maps","protocol":17,"map":"pl_frontier_final","folder":"tf","game":"Team Fortress","app_id":440,"player_count":24,"max_players":24,"Bots":0,"server_type":"Dedicated","server_os":"Linux","password":true,"vac":true,"version":"7757534","steam_id":85568392925397851,"keywords":["nocrits","nodmgspread","payload","uncletopia"],"game_id":440,"stv_port":27026,"stv_name":"Uncletopia | Warsaw | 2 | All Maps | STV","players":[{"user_id":236,"name":"Steen","steam_id":76561198122992510,"connected_time":571000000000,"state":"active","ping":65},{"user_id":181,"name":"weakest cum afficionado","steam_id":76561198071502515,"connected_time":2899000000000,"state":"active","ping":46},{"user_id":216,"name":"Crippling OCD","steam_id":76561199212653573,"connected_time":1234000000000,"state":"active","ping":90},{"user_id":234,"name":"Hejnus","steam_id":76561197988395035,"connected_time":709000000000,"state":"active","ping":83},{"user_id":212,"name":"LuGiO","steam_id":76561198404105206,"connected_time":1400000000000,"state":"active","ping":68},{"user_id":237,"name":"☞LaZe☜","steam_id":76561198202191400,"connected_time":508000000000,"state":"active","ping":85},{"user_id":220,"name":"Why?","steam_id":76561198970833545,"connected_time":1195000000000,"state":"active","ping":71},{"user_id":242,"name":"Family guy try not to laugh","steam_id":76561198031455800,"connected_time":7000000000,"state":"spawning","ping":61},{"user_id":239,"name":"flange","steam_id":76561198040182692,"connected_time":227000000000,"state":"active","ping":69},{"user_id":233,"name":"zazuza","steam_id":76561198049820905,"connected_time":756000000000,"state":"active","ping":54},{"user_id":222,"name":"Morbidly A Beast","steam_id":76561198251578274,"connected_time":1179000000000,"state":"active","ping":122},{"user_id":211,"name":"🦐 Tust 🦐","steam_id":76561198045694677,"connected_time":1540000000000,"state":"active","ping":77},{"user_id":167,"name":"Kakograf","steam_id":76561198148375639,"connected_time":3936000000000,"state":"active","ping":61},{"user_id":180,"name":"Space","steam_id":76561198021572167,"connected_time":2913000000000,"state":"active","ping":75},{"user_id":235,"name":"Rex","steam_id":76561199474556920,"connected_time":687000000000,"state":"active","ping":134},{"user_id":217,"name":"SpeedyBoy","steam_id":76561199222795521,"connected_time":1227000000000,"state":"active","ping":115},{"user_id":224,"name":"let me cook","steam_id":76561198010380786,"connected_time":1135000000000,"state":"active","ping":82},{"user_id":225,"name":"pablo","steam_id":76561198002913482,"connected_time":1130000000000,"state":"active","ping":124},{"user_id":117,"name":"Birdseye","steam_id":76561198025852216,"connected_time":7853000000000,"state":"active","ping":89},{"user_id":219,"name":"♥ Purple Scoot ♥ | P.U.R.","steam_id":76561198965998351,"connected_time":1214000000000,"state":"active","ping":47},{"user_id":240,"name":"Axter","steam_id":76561198118747192,"connected_time":197000000000,"state":"active","ping":98},{"user_id":241,"name":"FANTANO MELON HEAD","steam_id":76561198146194820,"connected_time":161000000000,"state":"active","ping":63},{"user_id":228,"name":"♥ Blake ♥","steam_id":76561198243381952,"connected_time":1099000000000,"state":"active","ping":100},{"user_id":229,"name":"Randomer","steam_id":76561198010533981,"connected_time":1093000000000,"state":"active","ping":58}]},{"server_id":51,"name":"Uncletopia | Warsaw | 3 | All Maps","name_short":"waw-3","host":"waw-1.pl.uncletopia.com","port":27035,"enabled":true,"region":"eu","cc":"pl","latitude":52.2297,"longitude":21.017532,"reserved":0,"last_update":"0001-01-01T00:00:00Z","name_a2s":"Uncletopia | Warsaw | 3 | All Maps","protocol":17,"map":"pl_pier","folder":"tf","game":"Team Fortress","app_id":440,"player_count":0,"max_players":24,"Bots":0,"server_type":"Dedicated","server_os":"Linux","password":true,"vac":true,"version":"7757534","steam_id":85568392925397852,"keywords":["nocrits","nodmgspread","payload","uncletopia"],"game_id":440,"stv_port":27036,"stv_name":"Uncletopia | Warsaw | 3 | All Maps | STV","players":null},{"server_id":52,"name":"Uncletopia | Warsaw | 4 | All Maps","name_short":"waw-4","host":"waw-1.pl.uncletopia.com","port":27045,"enabled":true,"region":"eu","cc":"pl","latitude":52.2297,"longitude":21.017532,"reserved":0,"last_update":"0001-01-01T00:00:00Z","name_a2s":"Uncletopia | Warsaw | 4 | All Maps","protocol":17,"map":"cp_altitude","folder":"tf","game":"Team Fortress","app_id":440,"player_count":0,"max_players":24,"Bots":0,"server_type":"Dedicated","server_os":"Linux","password":true,"vac":true,"version":"7757534","steam_id":85568392925397853,"keywords":["cp","nocrits","nodmgspread","uncletopia"],"game_id":440,"stv_port":27046,"stv_name":"Uncletopia | Warsaw | 4 | All Maps | STV","players":null},{"server_id":53,"name":"Uncletopia | Warsaw | 5 | Stopwatch Beta","name_short":"waw-5","host":"waw-1.pl.uncletopia.com","port":27055,"enabled":true,"region":"eu","cc":"pl","latitude":52.2297,"longitude":21.017532,"reserved":0,"last_update":"0001-01-01T00:00:00Z","name_a2s":"Uncletopia | Warsaw | 5 | Stopwatch Beta","protocol":17,"map":"pl_pier","folder":"tf","game":"Team Fortress","app_id":440,"player_count":0,"max_players":24,"Bots":0,"server_type":"Dedicated","server_os":"Linux","password":true,"vac":true,"version":"7757534","steam_id":85568392925397854,"keywords":["nocrits","nodmgspread","payload","uncletopia"],"game_id":440,"stv_port":27056,"stv_name":"Uncletopia | Warsaw | 5 | Stopwatch Beta | STV","players":null},{"server_id":54,"name":"Uncletopia | Warsaw | 6 | Community","name_short":"waw-6","host":"waw-1.pl.uncletopia.com","port":27065,"enabled":true,"region":"eu","cc":"pl","latitude":52.2297,"longitude":21.017532,"reserved":0,"last_update":"0001-01-01T00:00:00Z","name_a2s":"Uncletopia | Warsaw | 6 | Community","protocol":17,"map":"koth_highpass","folder":"tf","game":"Team Fortress","app_id":440,"player_count":0,"max_players":24,"Bots":0,"server_type":"Dedicated","server_os":"Linux","password":true,"vac":true,"version":"7757534","steam_id":85568392925397856,"keywords":["cp","nocrits","nodmgspread","uncletopia"],"game_id":440,"stv_port":27066,"stv_name":"Uncletopia | Warsaw | 6 | Community | STV","players":null}]}